{"status":true,"message":"","result":[{"server_id":9,"name":"Uncletopia | Atlanta | 1 | All Maps","name_short":"atl-1","host":"atl-1.us.uncletopia.com","port":27015,"enabled":true,"region":"us-east","cc":"us","latitude":33.753746,"longitude":-84.38633,"reserved":0,"last_update":"0001-01-01T00:00:00Z","name_a2s":"Uncletopia | Atlanta | 1 | All Maps","protocol":17,"map":"cp_process_final","folder":"tf","game":"Team Fortress","app_id":440,"player_count":0,"max_players":24,"Bots":0,"server_type":"Dedicated","server_os":"Linux","password":true,"vac":true,"version":"7961495","steam_id":85568392924469982,"keywords":["cp","nocrits","nodmgspread","uncletopia"],"game_id":440,"stv_port":27016,"stv_name":"Uncletopia | Atlanta | 1 | All Maps | STV","players":null},{"server_id":104,"name":"Uncletopia | Atlanta | 2 | All Maps","name_short":"atl-2","host":"atl-1.us.uncletopia.com","port":27025,"enabled":true,"region":"us-east","cc":"us","latitude":33.753746,"longitude":-84.38633,"reserved":0,"last_update":"0001-01-01T00:00:00Z","name_a2s":"Uncletopia | Atlanta | 2 | All Maps","protocol":17,"map":"pl_swiftwater_final1","folder":"tf","game":"Team Fortress","app_id":440,"player_count":19,"max_players":24,"Bots":0,"server_type":"Dedicated","server_os":"Linux","password":true,"vac":true,"version":"7961495","steam_id":85568392924469983,"keywords":["nocrits","nodmgspread","payload","uncletopia"],"game_id":440,"stv_port":27026,"stv_name":"Uncletopia | Atlanta | 2 | All Maps | STV","players":null},{"server_id":400,"name":"Uncletopia | Atlanta | 3 | All Maps","name_short":"atl-3","host":"atl-1.us.uncletopia.com","port":27035,"enabled":true,"region":"us-east","cc":"us","latitude":33.753746,"longitude":-84.38633,"reserved":0,"last_update":"0001-01-01T00:00:00Z","name_a2s":"Uncletopia | Atlanta | 3 | All Maps","protocol":17,"map":"pl_snowycoast","folder":"tf","game":"Team Fortress","app_id":440,"player_count":0,"max_players":24,"Bots":0,"server_type":"Dedicated","server_os":"Linux","password":true,"vac":true,"version":"7961495","steam_id":85568392924515187,"keywords":["nocrits","nodmgspread","payload","uncletopia"],"game_id":440,"stv_port":27036,"stv_name":"Uncletopia | Atlanta | 3 | All Maps | STV","players":null},{"server_id":401,"name":"Uncletopia | Atlanta | 4 | Community","name_short":"atl-4","host":"atl-1.us.uncletopia.com","port":27045,"enabled":true,"region":"us-east","cc":"us","latitude":33.753746,"longitude":-84.38633,"reserved":0,"last_update":"0001-01-01T00:00:00Z","name_a2s":"Uncletopia | Atlanta | 4 | Community","protocol":17,"map":"pl_fifthcurve_rc1","folder":"tf","game":"Team Fortress","app_id":440,"player_count":0,"max_players":24,"Bots":0,"server_type":"Dedicated","server_os":"Linux","password":true,"vac":true,"version":"7961495","steam_id":85568392924515188,"keywords":["nocrits","nodmgspread","payload","uncletopia"],"game_id":440,"stv_port":27046,"stv_name":"Uncletopia | Atlanta | 4 | Community | STV","players":null},{"server_id":2,"name":"Uncletopia | Chicago | 1 | All Maps","name_short":"chi-1","host":"chi-1.us.uncletopia.com","port":27015,"enabled":true,"region":"us-central","cc":"us","latitude":41.881832,"longitude":-87.62318,"reserved":0,"last_update":"0001-01-01T00:00:00Z","name_a2s":"Uncletopia | Chicago | 1 | All Maps","protocol":17,"map":"pl_borneo","folder":"tf","game":"Team Fortress","app_id":440,"player_count":24,"max_players":24,"Bots":0,"server_type":"Dedicated","server_os":"Linux","password":true,"vac":true,"version":"7961495","steam_id":85568392924469984,"keywords":["nocrits","nodmgspread","payload","uncletopia"],"game_id":440,"stv_port":27016,"stv_name":"Uncletopia | Chicago | 1 | All Maps | STV","players":[{"user_id":855,"name":"Bodhi (she/they)","steam_id":76561198103230995,"connected_time":5275000000000,"state":"active","ping":80},{"user_id":908,"name":"Cubisticdany","steam_id":76561198056662025,"connected_time":337000000000,"state":"active","ping":73},{"user_id":868,"name":"Qwerty","steam_id":76561198023525894,"connected_time":4671000000000,"state":"active","ping":168},{"user_id":909,"name":"Osteo-Oligarch","steam_id":76561198164731896,"connected_time":317000000000,"state":"active","ping":70},{"user_id":846,"name":"munch","steam_id":76561198820480684,"connected_time":6155000000000,"state":"active","ping":55},{"user_id":862,"name":"V.E.R.G.I.L.I.U.S.","steam_id":76561198046055673,"connected_time":4745000000000,"state":"active","ping":75},{"user_id":873,"name":"vv","steam_id":76561198134813102,"connected_time":3624000000000,"state":"active","ping":65},{"user_id":844,"name":"Wizard Raccoon","steam_id":76561198072562591,"connected_time":6179000000000,"state":"active","ping":84},{"user_id":910,"name":" ∞ ∞‚Å±À°À°À¢","steam_id":76561198832455443,"connected_time":302000000000,"state":"active","ping":61},{"user_id":880,"name":"aphexjh","steam_id":76561197985854658,"connected_time":2851000000000,"state":"active","ping":55},{"user_id":895,"name":"The Gate keeper","steam_id":76561199124584298,"connected_time":2208000000000,"state":"active","ping":143},{"user_id":905,"name":"suzuya #LFT","steam_id":76561199207991492,"connected_time":388000000000,"state":"active","ping":60},{"user_id":911,"name":"Sulphur Cake","steam_id":76561198061427354,"connected_time":288000000000,"state":"active","ping":68},{"user_id":883,"name":"sapphrodite","steam_id":76561198279341789,"connected_time":2826000000000,"state":"active","ping":72},{"user_id":896,"name":"sleepy","steam_id":76561198060317354,"connected_time":2190000000000,"state":"active","ping":61},{"user_id":903,"name":"Chicken Burger","steam_id":76561198358529311,"connected_time":1466000000000,"state":"active","ping":76},{"user_id":902,"name":"for the king","steam_id":76561197973488858,"connected_time":1539000000000,"state":"active","ping":61},{"user_id":906,"name":"orgasmo","steam_id":76561198047355245,"connected_time":384000000000,"state":"active","ping":68},{"user_id":856,"name":"Your Local Sad Queer Librarian","steam_id":76561198013077080,"connected_time":5117000000000,"state":"active","ping":54},{"user_id":890,"name":"pancake ‚óè","steam_id":76561198999217575,"connected_time":2494000000000,"state":"active","ping":71},{"user_id":858,"name":"‚òÖRIVI‚òÖ","steam_id":76561198086635699,"connected_time":5085000000000,"state":"active","ping":80},{"user_id":913,"name":"Bheem","steam_id":76561198170453459,"connected_time":255000000000,"state":"active","ping":88},{"user_id":897,"name":"davidbaiter247","steam_id":76561198057006616,"connected_time":2185000000000,"state":"active","ping":59},{"user_id":907,"name":"Mr.Silver","steam_id":76561198156382508,"connected_time":384000000000,"state":"active","ping":64}]},{"server_id":106,"name":"Uncletopia | Chicago | 2 | All Maps","name_short":"chi-2","host":"chi-1.us.uncletopia.com","port":27025,"enabled":true,"region":"us-central","cc":"us","latitude":41.881832,"longitude":-87.62318,"reserved":0,"last_update":"0001-01-01T00:00:00Z","name_a2s":"Uncletopia | Chicago | 2 | All Maps","protocol":17,"map":"pl_borneo","folder":"tf","game":"Team Fortress","app_id":440,"player_count":24,"max_players":24,"Bots":0,"server_type":"Dedicated","server_os":"Linux","password":true,"vac":true,"version":"7961495","steam_id":85568392924469985,"keywords":["nocrits","nodmgspread","payload","uncletopia"],"game_id":440,"stv_port":27026,"stv_name":"Uncletopia | Chicago | 2 | All Maps | STV","players":[{"user_id":352,"name":"2ndWhiterunGuard","steam_id":76561198105382714,"connected_time":1196000000000,"state":"active","ping":78},{"user_id":330,"name":"we're so back","steam_id":76561198058485742,"connected_time":2483000000000,"state":"active","ping":64},{"user_id":355,"name":"BrainlezBrainiac","steam_id":76561199193942805,"connected_time":691000000000,"state":"active","ping":87},{"user_id":324,"name":"Ask Nicely For Heals","steam_id":76561198138478907,"connected_time":2649000000000,"state":"active","ping":81},{"user_id":347,"name":"Acorn","steam_id":76561198353480153,"connected_time":1730000000000,"state":"active","ping":68},{"user_id":321,"name":"Shystie","steam_id":76561198025371440,"connected_time":2698000000000,"state":"active","ping":83},{"user_id":351,"name":"Rukks","steam_id":76561197993918954,"connected_time":1238000000000,"state":"active","ping":88},{"user_id":299,"name":"Plate","steam_id":76561198013720285,"connected_time":4478000000000,"state":"active","ping":70},{"user_id":323,"name":"caRat","steam_id":76561198859267372,"connected_time":2661000000000,"state":"active","ping":90},{"user_id":353,"name":"El Gato Paranoico","steam_id":76561198116567116,"connected_time":718000000000,"state":"active","ping":96},{"user_id":360,"name":"Faefanger","steam_id":76561198201871002,"connected_time":566000000000,"state":"active","ping":108},{"user_id":348,"name":"OHGODBEES!","steam_id":76561198000653374,"connected_time":1728000000000,"state":"active","ping":146},{"user_id":333,"name":"BB Lorexav","steam_id":76561198207565988,"connected_time":2380000000000,"state":"active","ping":72},{"user_id":300,"name":"i suffer from ligma","steam_id":76561199158496518,"connected_time":4416000000000,"state":"active","ping":122},{"user_id":336,"name":"DRAGON_WARRIOR","steam_id":76561198155720118,"connected_time":2302000000000,"state":"active","ping":54},{"user_id":356,"name":"Deborp","steam_id":76561198118868430,"connected_time":686000000000,"state":"active","ping":83},{"user_id":359,"name":"Lili Rouxxx","steam_id":76561198000522179,"connected_time":609000000000,"state":"active","ping":61},{"user_id":297,"name":"Bowl","steam_id":76561198133931159,"connected_time":4965000000000,"state":"active","ping":62},{"user_id":334,"name":"Sychke","steam_id":76561198067144055,"connected_time":2379000000000,"state":"active","ping":44},{"user_id":357,"name":"‰Ω†Â•Ω","steam_id":76561198873043242,"connected_time":632000000000,"state":"active","ping":135},{"user_id":361,"name":"Cy4nideCutie","steam_id":76561198126686695,"connected_time":431000000000,"state":"active","ping":67},{"user_id":363,"name":"ìÜèCayenne Pepper ìÜè","steam_id":76561198124881810,"connected_time":159000000000,"state":"active","ping":104},{"user_id":362,"name":"dunk","steam_id":76561198132476501,"connected_time":383000000000,"state":"active","ping":47},{"user_id":358,"name":"lem0n","steam_id":76561198114936623,"connected_time":618000000000,"state":"active","ping":57}]},{"server_id":402,"name":"Uncletopia | Chicago | 3 | All Maps","name_short":"chi-3","host":"chi-1.us.uncletopia.com","port":27035,"enabled":true,"region":"us-central","cc":"us","latitude":41.881832,"longitude":-87.62318,"reserved":0,"last_update":"0001-01-01T00:00:00Z","name_a2s":"Uncletopia | Chicago | 3 | All Maps","protocol":17,"map":"pl_frontier_final","folder":"tf","game":"Team Fortress","app_id":440,"player_count":19,"max_players":24,"Bots":0,"server_type":"Dedicated","server_os":"Linux","password":true,"vac":true,"version":"7961495","steam_id":85568392924515191,"keywords":["nocrits","nodmgspread","payload","uncletopia"],"game_id":440,"stv_port":27036,"stv_name":"Uncletopia | Chicago | 3 | All Maps | STV","players":[{"user_id":724,"name":"Jeff","steam_id":76561199003107869,"connected_time":1619000000000,"state":"active","ping":93},{"user_id":745,"name":"TyroneTheBee","steam_id":76561199007116804,"connected_time":16000000000,"state":"spawning","ping":67},{"user_id":732,"name":"wow120000000000000098","steam_id":76561198016826181,"connected_time":1478000000000,"state":"active","ping":73},{"user_id":726,"name":"Blade Racer","steam_id":76561198155896703,"connected_time":1568000000000,"state":"active","ping":66},{"user_id":677,"name":"pilot914","steam_id":76561199146198862,"connected_time":5271000000000,"state":"active","ping":91},{"user_id":744,"name":"mika ultra","steam_id":76561198139802458,"connected_time":648000000000,"state":"active","ping":66},{"user_id":709,"name":"Luca!","steam_id":76561198137880777,"connected_time":3568000000000,"state":"active","ping":73},{"user_id":719,"name":"November","steam_id":76561198131631865,"connected_time":2369000000000,"state":"active","ping":72},{"user_id":714,"name":"Glennithy","steam_id":76561198339332079,"connected_time":2801000000000,"state":"active","ping":84},{"user_id":723,"name":"I am NOT a Spy","steam_id":76561199153596010,"connected_time":1634000000000,"state":"active","ping":182},{"user_id":674,"name":"Satan","steam_id":76561198049821475,"connected_time":5500000000000,"state":"active","ping":85},{"user_id":743,"name":"pele","steam_id":76561198021224745,"connected_time":808000000000,"state":"active","ping":50},{"user_id":738,"name":"obamascout","steam_id":76561199073972797,"connected_time":1300000000000,"state":"active","ping":103},{"user_id":731,"name":"gadisboss","steam_id":76561198301704975,"connected_time":1502000000000,"state":"active","ping":106},{"user_id":733,"name":"Infinitytacos","steam_id":76561198884260211,"connected_time":1472000000000,"state":"active","ping":45},{"user_id":742,"name":"chloe","steam_id":76561198369849908,"connected_time":879000000000,"state":"active","ping":72},{"user_id":528,"name":"NvAka","steam_id":76561199044781490,"connected_time":17187000000000,"state":"active","ping":55},{"user_id":708,"name":"gale","steam_id":76561198250068972,"connected_time":3803000000000,"state":"active","ping":89},{"user_id":735,"name":"WoodsRunner","steam_id":76561198121812870,"connected_time":1428000000000,"state":"active","ping":58}]},{"server_id":403,"name":"Uncletopia | Chicago | 4 | All Maps","name_short":"chi-4","host":"chi-1.us.uncletopia.com","port":27045,"enabled":true,"region":"us-central","cc":"us","latitude":41.881832,"longitude":-87.62318,"reserved":0,"last_update":"0001-01-01T00:00:00Z","name_a2s":"Uncletopia | Chicago | 4 | All Maps","protocol":17,"map":"koth_lakeside_final","folder":"tf","game":"Team Fortress","app_id":440,"player_count":18,"max_players":24,"Bots":0,"server_type":"Dedicated","server_os":"Linux","password":true,"vac":true,"version":"7961495","steam_id":85568392924515193,"keywords":["cp","nocrits","nodmgspread","uncletopia"],"game_id":440,"stv_port":27046,"stv_name":"Uncletopia | Chicago | 4 | All Maps | STV","players":[{"user_id":667,"name":"Tri_Hunter","steam_id":76561198108176706,"connected_time":57000000000,"state":"active","ping":60},{"user_id":666,"name":"King of Ping","steam_id":76561198278737470,"connected_time":166000000000,"state":"active","ping":61},{"user_id":651,"name":"Engideer","steam_id":76561198145733164,"connected_time":2031000000000,"state":"active","ping":66},{"user_id":660,"name":"winds","steam_id":76561198081791957,"connected_time":1118000000000,"state":"active","ping":59},{"user_id":664,"name":"Autistic Chili Dog","steam_id":76561198356749121,"connected_time":683000000000,"state":"active","ping":58},{"user_id":649,"name":"PTR","steam_id":76561198237253772,"connected_time":2125000000000,"state":"active","ping":57},{"user_id":661,"name":"Frank","steam_id":76561198428759980,"connected_time":1101000000000,"state":"active","ping":90},{"user_id":652,"name":"Thequirka","steam_id":76561198968058652,"connected_time":2011000000000,"state":"active","ping":101},{"user_id":662,"name":"swift","steam_id":76561198082496000,"connected_time":859000000000,"state":"active","ping":70},{"user_id":595,"name":"Phos","steam_id":76561198122339506,"connected_time":5635000000000,"state":"active","ping":66},{"user_id":658,"name":"Toblerone","steam_id":76561198057374871,"connected_time":1773000000000,"state":"active","ping":57},{"user_id":665,"name":"KrylonHeretic","steam_id":76561198139811459,"connected_time":658000000000,"state":"active","ping":114},{"user_id":653,"name":"super-oofio64","steam_id":76561198954052123,"connected_time":2004000000000,"state":"active","ping":107},{"user_id":654,"name":"McSpazatron","steam_id":76561198955942148,"connected_time":1947000000000,"state":"active","ping":87},{"user_id":544,"name":"[MRY] Sk-iLite","steam_id":76561198041797350,"connected_time":9550000000000,"state":"active","ping":89},{"user_id":655,"name":"Firebreak (whee/whim/wish)","steam_id":76561198009518178,"connected_time":1919000000000,"state":"active","ping":61},{"user_id":656,"name":"Spinch","steam_id":76561198296224166,"connected_time":1905000000000,"state":"active","ping":93},{"user_id":657,"name":"Publo","steam_id":76561198161777140,"connected_time":1893000000000,"state":"active","ping":75}]},{"server_id":36,"name":"Uncletopia | Chicago | 5 | All Maps","name_short":"chi-5","host":"chi-2.us.uncletopia.com","port":27015,"enabled":true,"region":"us-central","cc":"us","latitude":41.881832,"longitude":-87.62318,"reserved":0,"last_update":"0001-01-01T00:00:00Z","name_a2s":"Uncletopia | Chicago | 5 | All Maps","protocol":17,"map":"pl_upward","folder":"tf","game":"Team Fortress","app_id":440,"player_count":24,"max_players":24,"Bots":0,"server_type":"Dedicated","server_os":"Linux","password":true,"vac":true,"version":"7961495","steam_id":85568392924866362,"keywords":["nocrits","nodmgspread","payload","uncletopia"],"game_id":440,"stv_port":27016,"stv_name":"Uncletopia | Chicago | 5 | All Maps | STV","players":[{"user_id":536,"name":"mina","steam_id":76561198881665250,"connected_time":477000000000,"state":"active","ping":97},{"user_id":516,"name":"Hythreon","steam_id":76561198083031622,"connected_time":1479000000000,"state":"active","ping":104},{"user_id":505,"name":"Doofenshmirtz Evil Inc.","steam_id":76561198439793697,"connected_time":3119000000000,"state":"active","ping":78},{"user_id":529,"name":"ultralisk52","steam_id":76561198051666604,"connected_time":768000000000,"state":"active","ping":59},{"user_id":520,"name":"Super Sand Lesbian","steam_id":76561198028157625,"connected_time":1268000000000,"state":"active","ping":92},{"user_id":492,"name":"TYRANNOFUNGUSREX","steam_id":76561198171744846,"connected_time":4313000000000,"state":"active","ping":91},{"user_id":533,"name":"Pitviper","steam_id":76561198002378904,"connected_time":543000000000,"state":"active","ping":60},{"user_id":525,"name":"bkiller","steam_id":76561198029265697,"connected_time":942000000000,"state":"active","ping":75},{"user_id":526,"name":"Whyamidoingthisaaaa","steam_id":76561199168837342,"connected_time":918000000000,"state":"active","ping":75},{"user_id":493,"name":"Kyo Hiroyuki","steam_id":76561198144947762,"connected_time":4313000000000,"state":"active","ping":75},{"user_id":514,"name":"18 pounds","steam_id":76561198025804838,"connected_time":1754000000000,"state":"active","ping":74},{"user_id":495,"name":"Venutian Pyromancer","steam_id":76561198064980216,"connected_time":4293000000000,"state":"active","ping":127},{"user_id":532,"name":"xulera","steam_id":76561198080736030,"connected_time":601000000000,"state":"active","ping":161},{"user_id":521,"name":"Lord Cutler Beckett","steam_id":76561198091356047,"connected_time":1206000000000,"state":"active","ping":59},{"user_id":538,"name":"Hero","steam_id":76561198044117696,"connected_time":369000000000,"state":"active","ping":75},{"user_id":524,"name":"Cereal","steam_id":76561198128418112,"connected_time":1179000000000,"state":"active","ping":86},{"user_id":539,"name":"bologna movement","steam_id":76561199143725014,"connected_time":150000000000,"state":"active","ping":84},{"user_id":522,"name":"f","steam_id":76561198215559840,"connected_time":1196000000000,"state":"active","ping":73},{"user_id":540,"name":"reero","steam_id":76561198071785065,"connected_time":46000000000,"state":"active","ping":60},{"user_id":523,"name":"‚ú™ goofbears -iwnl-","steam_id":76561199100831175,"connected_time":1183000000000,"state":"active","ping":60},{"user_id":479,"name":"monkeycake","steam_id":76561198272061915,"connected_time":5333000000000,"state":"active","ping":63},{"user_id":531,"name":"crayonnipple","steam_id":76561198070253331,"connected_time":656000000000,"state":"active","ping":76},{"user_id":535,"name":"onion","steam_id":76561198242311084,"connected_time":493000000000,"state":"active","ping":69},{"user_id":510,"name":"boywife","steam_id":76561198810691607,"connected_time":2962000000000,"state":"active","ping":86}]},{"server_id":37,"name":"Uncletopia | Chicago | 6 | All Maps","name_short":"chi-6","host":"chi-2.us.uncletopia.com","port":27025,"enabled":true,"region":"us-central","cc":"us","latitude":41.881832,"longitude":-87.62318,"reserved":0,"last_update":"0001-01-01T00:00:00Z","name_a2s":"Uncletopia | Chicago | 6 | All Maps","protocol":17,"map":"pl_upward","folder":"tf","game":"Team Fortress","app_id":440,"player_count":24,"max_players":24,"Bots":0,"server_type":"Dedicated","server_os":"Linux","password":true,"vac":true,"version":"7961495","steam_id":85568392924866363,"keywords":["nocrits","nodmgspread","payload","uncletopia"],"game_id":440,"stv_port":27026,"stv_name":"Uncletopia | Chicago | 6 | All Maps | STV","players":[{"user_id":527,"name":"Skelly Bones","steam_id":76561198060728416,"connected_time":3726000000000,"state":"active","ping":75},{"user_id":579,"name":"The Despian Tax Office","steam_id":76561198029853893,"connected_time":83000000000,"state":"active","ping":57},{"user_id":545,"name":"YORCHspartan117","steam_id":76561198272955205,"connected_time":3220000000000,"state":"active","ping":87},{"user_id":558,"name":"Fargo","steam_id":76561198044703931,"connected_time":1396000000000,"state":"active","ping":68},{"user_id":562,"name":"detective","steam_id":76561198413125750,"connected_time":1313000000000,"state":"active","ping":65},{"user_id":559,"name":"0ff","steam_id":76561199115773908,"connected_time":1385000000000,"state":"active","ping":72},{"user_id":561,"name":"skullcrushar","steam_id":76561198094512992,"connected_time":1350000000000,"state":"active","ping":48},{"user_id":563,"name":"Mereana Mordegard Glesgorv","steam_id":76561198930116758,"connected_time":1102000000000,"state":"active","ping":33},{"user_id":564,"name":"SpockASD","steam_id":76561198307516731,"connected_time":1097000000000,"state":"active","ping":83},{"user_id":576,"name":"Santamen","steam_id":76561198119478199,"connected_time":142000000000,"state":"active","ping":58},{"user_id":575,"name":"LagSwitch Tryhard","steam_id":76561198051557567,"connected_time":668000000000,"state":"active","ping":62},{"user_id":566,"name":"sooty","steam_id":76561198830243167,"connected_time":1091000000000,"state":"active","ping":66},{"user_id":567,"name":"Veketzin","steam_id":76561198880024812,"connected_time":1086000000000,"state":"active","ping":98},{"user_id":568,"name":"Nexus","steam_id":76561198305472434,"connected_time":1064000000000,"state":"active","ping":102},{"user_id":569,"name":"Wiggle Wiggle","steam_id":76561199053447896,"connected_time":1042000000000,"state":"active","ping":85},{"user_id":553,"name":"‡∂û","steam_id":76561199365672047,"connected_time":2338000000000,"state":"active","ping":83},{"user_id":570,"name":"vulcan nightclub pon farr night","steam_id":76561197974283797,"connected_time":1016000000000,"state":"active","ping":45},{"user_id":580,"name":"frank","steam_id":76561198137777483,"connected_time":57000000000,"state":"active","ping":71},{"user_id":572,"name":"the real big sips","steam_id":76561197999945358,"connected_time":984000000000,"state":"active","ping":70},{"user_id":494,"name":"NeonBean","steam_id":76561198088335827,"connected_time":6343000000000,"state":"active","ping":94},{"user_id":573,"name":"girlboss warcriminal","steam_id":76561198049258493,"connected_time":963000000000,"state":"active","ping":120},{"user_id":577,"name":"comingupooo","steam_id":76561198295958692,"connected_time":122000000000,"state":"active","ping":109},{"user_id":453,"name":"DB1","steam_id":76561199172642819,"connected_time":9292000000000,"state":"active","ping":71},{"user_id":578,"name":"seldom","steam_id":76561198166193756,"connected_time":101000000000,"state":"active","ping":58}]},{"server_id":38,"name":"Uncletopia | Chicago | 7 | Stopwatch Beta","name_short":"chi-7","host":"chi-2.us.uncletopia.com","port":27035,"enabled":true,"region":"us-central","cc":"us","latitude":41.881832,"longitude":-87.62318,"reserved":0,"last_update":"0001-01-01T00:00:00Z","name_a2s":"Uncletopia | Chicago | 7 | Stopwatch Beta","protocol":17,"map":"workshop/koth_product_final.ugc454272353","folder":"tf","game":"Team Fortress","app_id":440,"player_count":0,"max_players":24,"Bots":0,"server_type":"Dedicated","server_os":"Linux","password":true,"vac":true,"version":"7961495","steam_id":85568392924866364,"keywords":["cp","nocrits","nodmgspread","uncletopia"],"game_id":440,"stv_port":27036,"stv_name":"Uncletopia | Chicago | 7 | Stopwatch Beta | STV","players":null},{"server_id":39,"name":"Uncletopia | Chicago | 8 | Community","name_short":"chi-8","host":"chi-2.us.uncletopia.com","port":27045,"enabled":true,"region":"us-central","cc":"us","latitude":41.881832,"longitude":-87.62318,"reserved":0,"last_update":"0001-01-01T00:00:00Z","name_a2s":"Uncletopia | Chicago | 8 | Community","protocol":17,"map":"workshop/pl_cactuscanyon_redux_final2.ugc2579644293","folder":"tf","game":"Team Fortress","app_id":440,"player_count":0,"max_players":24,"Bots":0,"server_type":"Dedicated","server_os":"Linux","password":true,"vac":true,"version":"7961495","steam_id":85568392924866365,"keywords":["nocrits","nodmgspread","payload","uncletopia"],"game_id":440,"stv_port":27046,"stv_name":"Uncletopia | Chicago | 8 | Community | STV","players":null},{"server_id":8,"name":"Uncletopia | Dallas | 1 | All Maps","name_short":"dal-1","host":"dal-1.us.uncletopia.com","port":27015,"enabled":true,"region":"us-central","cc":"us","latitude":32.779167,"longitude":-96.80889,"reserved":0,"last_update":"0001-01-01T00:00:00Z","name_a2s":"Uncletopia | Dallas | 1 | All Maps","protocol":17,"map":"pl_badwater","folder":"tf","game":"Team Fortress","app_id":440,"player_count":24,"max_players":24,"Bots":0,"server_type":"Dedicated","server_os":"Linux","password":true,"vac":true,"version":"7961495","steam_id":85568392924469986,"keywords":["nocrits","nodmgspread","payload","uncletopia"],"game_id":440,"stv_port":27016,"stv_name":"Uncletopia | Dallas | 1 | All Maps | STV","players":[{"user_id":684,"name":"Cyberwulph","steam_id":76561198297412789,"connected_time":3063000000000,"state":"active","ping":95},{"user_id":697,"name":"purpleflame","steam_id":76561198277979851,"connected_time":1160000000000,"state":"active","ping":82},{"user_id":708,"name":"FG7","steam_id":76561198381197197,"connected_time":199000000000,"state":"active","ping":145},{"user_id":668,"name":"Clubs","steam_id":76561198271133942,"connected_time":3661000000000,"state":"active","ping":55},{"user_id":677,"name":"tum","steam_id":76561198084712019,"connected_time":3361000000000,"state":"active","ping":76},{"user_id":700,"name":"Zanegerous","steam_id":76561198256514642,"connected_time":1141000000000,"state":"active","ping":71},{"user_id":693,"name":"Xeno808","steam_id":76561198103758081,"connected_time":1560000000000,"state":"active","ping":39},{"user_id":561,"name":"Greg Boberton 2012","steam_id":76561198983566026,"connected_time":11390000000000,"state":"active","ping":79},{"user_id":707,"name":"StarPhantasy","steam_id":76561199083081251,"connected_time":221000000000,"state":"active","ping":94},{"user_id":696,"name":"firulais","steam_id":76561198860460013,"connected_time":1392000000000,"state":"active","ping":103},{"user_id":690,"name":"Project_Counter","steam_id":76561198152786076,"connected_time":2441000000000,"state":"active","ping":55},{"user_id":671,"name":"RapidWizzard","steam_id":76561199248097034,"connected_time":3467000000000,"state":"active","ping":61},{"user_id":701,"name":"inzang","steam_id":76561198088318074,"connected_time":1136000000000,"state":"active","ping":54},{"user_id":503,"name":"Lee?","steam_id":76561199060892634,"connected_time":17244000000000,"state":"active","ping":66},{"user_id":679,"name":"Pile of Spinach","steam_id":76561198043068841,"connected_time":3351000000000,"state":"active","ping":60},{"user_id":658,"name":"Mythical Lag","steam_id":76561198347031281,"connected_time":4382000000000,"state":"active","ping":54},{"user_id":687,"name":"Crouching Helps","steam_id":76561198011862054,"connected_time":2681000000000,"state":"active","ping":72},{"user_id":710,"name":"I am just a fish","steam_id":76561198062459671,"connected_time":129000000000,"state":"active","ping":79},{"user_id":669,"name":"Rilshrink","steam_id":76561198202586792,"connected_time":3530000000000,"state":"active","ping":54},{"user_id":698,"name":"porz","steam_id":76561198195711453,"connected_time":1153000000000,"state":"active","ping":46},{"user_id":705,"name":"CandorDanceFloor","steam_id":76561198062980511,"connected_time":650000000000,"state":"active","ping":94},{"user_id":685,"name":"Gglilboy","steam_id":76561198097556319,"connected_time":2969000000000,"state":"active","ping":79},{"user_id":709,"name":"tsz","steam_id":76561199246231090,"connected_time":195000000000,"state":"active","ping":81},{"user_id":683,"name":"catboy","steam_id":76561198298140571,"connected_time":3244000000000,"state":"active","ping":94}]},{"server_id":108,"name":"Uncletopia | Dallas | 2 | All Maps","name_short":"dal-2","host":"dal-1.us.uncletopia.com","port":27025,"enabled":true,"region":"us-central","cc":"us","latitude":32.779167,"longitude":-96.80889,"reserved":0,"last_update":"0001-01-01T00:00:00Z","name_a2s":"Uncletopia | Dallas | 2 | All Maps","protocol":17,"map":"pl_swiftwater_final1","folder":"tf","game":"Team Fortress","app_id":440,"player_count":20,"max_players":24,"Bots":0,"server_type":"Dedicated","server_os":"Linux","password":true,"vac":true,"version":"7961495","steam_id":85568392924469988,"keywords":["nocrits","nodmgspread","payload","uncletopia"],"game_id":440,"stv_port":27026,"stv_name":"Uncletopia | Dallas | 2 | All Maps | STV","players":[{"user_id":760,"name":"makeshift_burrito","steam_id":76561198042510825,"connected_time":576000000000,"state":"active","ping":85},{"user_id":751,"name":"beyond","steam_id":76561198051009126,"connected_time":1025000000000,"state":"active","ping":84},{"user_id":653,"name":"rAnch","steam_id":76561198024562587,"connected_time":3222000000000,"state":"active","ping":31},{"user_id":761,"name":"lucasgamer4life","steam_id":76561198129816242,"connected_time":461000000000,"state":"active","ping":90},{"user_id":710,"name":"Taco+Taco=Burrito","steam_id":76561198063128663,"connected_time":2023000000000,"state":"active","ping":74},{"user_id":754,"name":"awakelist","steam_id":76561199129744011,"connected_time":950000000000,"state":"active","ping":139},{"user_id":766,"name":"Yapple Dapple","steam_id":76561198082422815,"connected_time":212000000000,"state":"active","ping":59},{"user_id":749,"name":"Maid Knight","steam_id":76561198214370515,"connected_time":1106000000000,"state":"active","ping":76},{"user_id":705,"name":"Manic","steam_id":76561198128149670,"connected_time":2154000000000,"state":"active","ping":45},{"user_id":762,"name":"SleepyScotoplanesTTV","steam_id":76561198968140914,"connected_time":453000000000,"state":"active","ping":62},{"user_id":756,"name":"Jimbei","steam_id":76561198081630453,"connected_time":933000000000,"state":"active","ping":93},{"user_id":740,"name":"kat","steam_id":76561198099191938,"connected_time":1298000000000,"state":"active","ping":68},{"user_id":750,"name":"gmaay","steam_id":76561199104911185,"connected_time":1071000000000,"state":"active","ping":76},{"user_id":577,"name":"FrostNova","steam_id":76561198348354629,"connected_time":6985000000000,"state":"active","ping":83},{"user_id":767,"name":"Maid 'n' China","steam_id":76561198423392976,"connected_time":165000000000,"state":"active","ping":81},{"user_id":768,"name":"uncle cheese","steam_id":76561198145072434,"connected_time":65000000000,"state":"active","ping":64},{"user_id":666,"name":"Joe Nathan","steam_id":76561198041030399,"connected_time":2966000000000,"state":"active","ping":56},{"user_id":759,"name":"Die-Sas","steam_id":76561198987794008,"connected_time":855000000000,"state":"active","ping":78},{"user_id":765,"name":"Bunny of Epicness","steam_id":76561198003897012,"connected_time":245000000000,"state":"active","ping":46},{"user_id":630,"name":"jon pickle water","steam_id":76561199036212135,"connected_time":3611000000000,"state":"active","ping":112}]},{"server_id":404,"name":"Uncletopia | Dallas | 3 | All Maps","name_short":"dal-3","host":"dal-1.us.uncletopia.com","port":27035,"enabled":true,"region":"us-central","cc":"us","latitude":32.779167,"longitude":-96.80889,"reserved":0,"last_update":"0001-01-01T00:00:00Z","name_a2s":"Uncletopia | Dallas | 3 | All Maps","protocol":17,"map":"cp_snakewater_final1","folder":"tf","game":"Team Fortress","app_id":440,"player_count":23,"max_players":24,"Bots":0,"server_type":"Dedicated","server_os":"Linux","password":true,"vac":true,"version":"7961495","steam_id":85568392924515219,"keywords":["cp","nocrits","nodmgspread","uncletopia"],"game_id":440,"stv_port":27036,"stv_name":"Uncletopia | Dallas | 3 | All Maps | STV","players":[{"user_id":613,"name":"OuterEos","steam_id":76561198151557939,"connected_time":3085000000000,"state":"active","ping":75},{"user_id":652,"name":"K.A.R.M.A.","steam_id":76561198240750142,"connected_time":5000000000,"state":"spawning","ping":74},{"user_id":642,"name":"LofiVibes","steam_id":76561198054533267,"connected_time":596000000000,"state":"active","ping":69},{"user_id":592,"name":"Kamin","steam_id":76561198255299559,"connected_time":3912000000000,"state":"active","ping":66},{"user_id":649,"name":"sc67","steam_id":76561199302471485,"connected_time":487000000000,"state":"active","ping":66},{"user_id":635,"name":"herb","steam_id":76561198185980055,"connected_time":763000000000,"state":"active","ping":72},{"user_id":620,"name":"i am clinically insane","steam_id":76561199013323529,"connected_time":2621000000000,"state":"active","ping":88},{"user_id":597,"name":"Snoopy","steam_id":76561198273735974,"connected_time":3769000000000,"state":"active","ping":80},{"user_id":626,"name":"Great Lord Fazzie","steam_id":76561198073628559,"connected_time":2400000000000,"state":"active","ping":93},{"user_id":640,"name":"50 bmg ratshot","steam_id":76561198156139568,"connected_time":685000000000,"state":"active","ping":63},{"user_id":627,"name":"Kenny","steam_id":76561198031540741,"connected_time":1770000000000,"state":"active","ping":90},{"user_id":599,"name":"alpha turbochad sigma hypermale","steam_id":76561198200174751,"connected_time":3695000000000,"state":"active","ping":75},{"user_id":650,"name":"dansal","steam_id":76561197997042510,"connected_time":388000000000,"state":"active","ping":58},{"user_id":633,"name":"Ryan Lewis truther","steam_id":76561198050505826,"connected_time":1107000000000,"state":"active","ping":59},{"user_id":601,"name":"Silver","steam_id":76561197994217357,"connected_time":3684000000000,"state":"active","ping":102},{"user_id":636,"name":"Ethan","steam_id":76561199218979828,"connected_time":750000000000,"state":"active","ping":53},{"user_id":603,"name":"Pizza","steam_id":76561198118748364,"connected_time":3672000000000,"state":"active","ping":78},{"user_id":651,"name":"jojeda654","steam_id":76561198002970763,"connected_time":369000000000,"state":"active","ping":53},{"user_id":605,"name":"No Chance of Pearly Gates","steam_id":76561198042570322,"connected_time":3657000000000,"state":"active","ping":80},{"user_id":638,"name":"NexFrost","steam_id":76561197985774837,"connected_time":717000000000,"state":"active","ping":36},{"user_id":607,"name":"Wilfred Carr","steam_id":76561198039149060,"connected_time":3606000000000,"state":"active","ping":82},{"user_id":639,"name":"2 3rd graders in a trenchcoat","steam_id":76561198084885479,"connected_time":716000000000,"state":"active","ping":76},{"user_id":610,"name":"Big Unck","steam_id":76561198024658073,"connected_time":3486000000000,"state":"active","ping":90}]},{"server_id":405,"name":"Uncletopia | Dallas | 4 | Community","name_short":"dal-4","host":"dal-1.us.uncletopia.com","port":27045,"enabled":true,"region":"us-central","cc":"us","latitude":32.779167,"longitude":-96.80889,"reserved":0,"last_update":"0001-01-01T00:00:00Z","name_a2s":"Uncletopia | Dallas | 4 | Community","protocol":17,"map":"workshop/cp_alloy_rc3.ugc592805587","folder":"tf","game":"Team Fortress","app_id":440,"player_count":0,"max_players":24,"Bots":0,"server_type":"Dedicated","server_os":"Linux","password":true,"vac":true,"version":"7961495","steam_id":85568392924515220,"keywords":["cp","nocrits","nodmgspread","uncletopia"],"game_id":440,"stv_port":27046,"stv_name":"Uncletopia | Dallas | 4 | Community | STV","players":null},{"server_id":5,"name":"Uncletopia | Frankfurt | 1 | All Maps","name_short":"frk-1","host":"frk-1.de.uncletopia.com","port":27015,"enabled":true,"region":"eu","cc":"de","latitude":50.110924,"longitude":8.682127,"reserved":0,"last_update":"0001-01-01T00:00:00Z","name_a2s":"Uncletopia | Frankfurt | 1 | All Maps","protocol":17,"map":"pl_badwater","folder":"tf","game":"Team Fortress","app_id":440,"player_count":0,"max_players":24,"Bots":0,"server_type":"Dedicated","server_os":"Linux","password":true,"vac":true,"version":"7961495","steam_id":85568392924469989,"keywords":["nocrits","nodmgspread","payload","uncletopia"],"game_id":440,"stv_port":27016,"stv_name":"Uncletopia | Frankfurt | 1 | All Maps | STV","players":null},{"server_id":110,"name":"Uncletopia | Frankfurt | 2 | All Maps","name_short":"frk-2","host":"frk-1.de.uncletopia.com","port":27025,"enabled":true,"region":"eu","cc":"de","latitude":50.110924,"longitude":8.682127,"reserved":0,"last_update":"0001-01-01T00:00:00Z","name_a2s":"Uncletopia | Frankfurt | 2 | All Maps","protocol":17,"map":"koth_lakeside_final","folder":"tf","game":"Team Fortress","app_id":440,"player_count":0,"max_players":24,"Bots":0,"server_type":"Dedicated","server_os":"Linux","password":true,"vac":true,"version":"7961495","steam_id":85568392924469990,"keywords":["cp","nocrits","nodmgspread","uncletopia"],"game_id":440,"stv_port":27026,"stv_name":"Uncletopia | Frankfurt | 2 | All Maps | STV","players":null},{"server_id":308,"name":"Uncletopia | Frankfurt | 3 | All Maps","name_short":"frk-3","host":"frk-1.de.uncletopia.com","port":27035,"enabled":true,"region":"eu","cc":"de","latitude":50.110924,"longitude":8.682127,"reserved":0,"last_update":"0001-01-01T00:00:00Z","name_a2s":"Uncletopia | Frankfurt | 3 | All Maps","protocol":17,"map":"cp_sunshine","folder":"tf","game":"Team Fortress","app_id":440,"player_count":0,"max_players":24,"Bots":0,"server_type":"Dedicated","server_os":"Linux","password":true,"vac":true,"version":"7961495","steam_id":85568392924504274,"keywords":["cp","nocrits","nodmgspread","uncletopia"],"game_id":440,"stv_port":27036,"stv_name":"Uncletopia | Frankfurt | 3 | All Maps | STV","players":null},{"server_id":309,"name":"Uncletopia | Frankfurt | 4 | All Maps","name_short":"frk-4","host":"frk-1.de.uncletopia.com","port":27045,"enabled":true,"region":"eu","cc":"de","latitude":50.110924,"longitude":8.682127,"reserved":0,"last_update":"0001-01-01T00:00:00Z","name_a2s":"Uncletopia | Frankfurt | 4 | All Maps","protocol":17,"map":"cp_altitude","folder":"tf","game":"Team Fortress","app_id":440,"player_count":0,"max_players":24,"Bots":0,"server_type":"Dedicated","server_os":"Linux","password":true,"vac":true,"version":"7961495","steam_id":85568392924504275,"keywords":["cp","nocrits","nodmgspread","uncletopia"],"game_id":440,"stv_port":27046,"stv_name":"Uncletopia | Frankfurt | 4 | All Maps | STV","players":null},{"server_id":310,"name":"Uncletopia | Frankfurt | 5 | All Maps","name_short":"frk-5","host":"frk-1.de.uncletopia.com","port":27055,"enabled":true,"region":"eu","cc":"de","latitude":50.110924,"longitude":8.682127,"reserved":0,"last_update":"0001-01-01T00:00:00Z","name_a2s":"Uncletopia | Frankfurt | 5 | All Maps","protocol":17,"map":"cp_process_final","folder":"tf","game":"Team Fortress","app_id":440,"player_count":0,"max_players":24,"Bots":0,"server_type":"Dedicated","server_os":"Linux","password":true,"vac":true,"version":"7961495","steam_id":85568392924504277,"keywords":["cp","nocrits","nodmgspread","uncletopia"],"game_id":440,"stv_port":27056,"stv_name":"Uncletopia | Frankfurt | 5 | All Maps | STV","players":null},{"server_id":311,"name":"Uncletopia | Frankfurt | 6 | All Maps","name_short":"frk-6","host":"frk-1.de.uncletopia.com","port":27065,"enabled":true,"region":"eu","cc":"de","latitude":50.110924,"longitude":8.682127,"reserved":0,"last_update":"0001-01-01T00:00:00Z","name_a2s":"Uncletopia | Frankfurt | 6 | All Maps","protocol":17,"map":"pl_barnblitz","folder":"tf","game":"Team Fortress","app_id":440,"player_count":0,"max_players":24,"Bots":0,"server_type":"Dedicated","server_os":"Linux","password":true,"vac":true,"version":"7961495","steam_id":85568392924504278,"keywords":["nocrits","nodmgspread","payload","uncletopia"],"game_id":440,"stv_port":27066,"stv_name":"Uncletopia | Frankfurt | 6 | All Maps | STV","players":null},{"server_id":23,"name":"Uncletopia | Frankfurt | 7 | Stopwatch Beta","name_short":"frk-7","host":"frk-1.de.uncletopia.com","port":27075,"enabled":true,"region":"eu","cc":"de","latitude":50.110924,"longitude":8.682127,"reserved":0,"last_update":"0001-01-01T00:00:00Z","name_a2s":"Uncletopia | Frankfurt | 7 | Stopwatch Beta","protocol":17,"map":"koth_cascade","folder":"tf","game":"Team Fortress","app_id":440,"player_count":0,"max_players":24,"Bots":0,"server_type":"Dedicated","server_os":"Linux","password":true,"vac":true,"version":"7961495","steam_id":85568392924742827,"keywords":["cp","nocrits","nodmgspread","uncletopia"],"game_id":440,"stv_port":27076,"stv_name":"Uncletopia | Frankfurt | 7 | Stopwatch Beta | STV","players":null},{"server_id":24,"name":"Uncletopia | Frankfurt | 8 | Community","name_short":"frk-8","host":"frk-1.de.uncletopia.com","port":27085,"enabled":true,"region":"eu","cc":"de","latitude":50.110924,"longitude":8.682127,"reserved":0,"last_update":"0001-01-01T00:00:00Z","name_a2s":"Uncletopia | Frankfurt | 8 | Community","protocol":17,"map":"cp_dustbowl","folder":"tf","game":"Team Fortress","app_id":440,"player_count":0,"max_players":24,"Bots":0,"server_type":"Dedicated","server_os":"Linux","password":true,"vac":true,"version":"7961495","steam_id":85568392924742828,"keywords":["cp","nocrits","nodmgspread","uncletopia"],"game_id":440,"stv_port":27086,"stv_name":"Uncletopia | Frankfurt | 8 | Community | STV","players":null},{"server_id":202,"name":"Uncletopia | Hong Kong | 1 | All Maps","name_short":"hgk-1","host":"hgk-1.hk.uncletopia.com","port":27015,"enabled":true,"region":"asia","cc":"hk","latitude":22.302711,"longitude":114.177216,"reserved":0,"last_update":"0001-01-01T00:00:00Z","name_a2s":"Uncletopia | Hong Kong | 1 | All Maps","protocol":17,"map":"koth_viaduct","folder":"tf","game":"Team Fortress","app_id":440,"player_count":0,"max_players":24,"Bots":0,"server_type":"Dedicated","server_os":"Linux","password":true,"vac":true,"version":"7961495","steam_id":85568392924494504,"keywords":["cp","nocrits","nodmgspread","uncletopia"],"game_id":440,"stv_port":27016,"stv_name":"Uncletopia | Hong Kong | 1 | All Maps | STV","players":null},{"server_id":1,"name":"Uncletopia | Los Angeles | 1 | All Maps","name_short":"lax-1","host":"lax-1.us.uncletopia.com","port":27015,"enabled":true,"region":"us-west","cc":"us","latitude":33.94279,"longitude":-118.41004,"reserved":0,"last_update":"0001-01-01T00:00:00Z","name_a2s":"Uncletopia | Los Angeles | 1 | All Maps","protocol":17,"map":"cp_dustbowl","folder":"tf","game":"Team Fortress","app_id":440,"player_count":24,"max_players":24,"Bots":0,"server_type":"Dedicated","server_os":"Linux","password":true,"vac":true,"version":"7961495","steam_id":85568392924469991,"keywords":["cp","nocrits","nodmgspread","uncletopia"],"game_id":440,"stv_port":27016,"stv_name":"Uncletopia | Los Angeles | 1 | All Maps | STV","players":[{"user_id":320,"name":"hash","steam_id":76561198058516339,"connected_time":2833000000000,"state":"active","ping":47},{"user_id":358,"name":"vioxynteris","steam_id":76561198161428666,"connected_time":404000000000,"state":"active","ping":31},{"user_id":351,"name":"An00bis","steam_id":76561198044084508,"connected_time":839000000000,"state":"active","ping":57},{"user_id":354,"name":"pebbleguye","steam_id":76561198034662654,"connected_time":781000000000,"state":"active","ping":85},{"user_id":330,"name":"xbox record that","steam_id":76561198150117455,"connected_time":1701000000000,"state":"active","ping":54},{"user_id":325,"name":"i cant aim","steam_id":76561198065873462,"connected_time":2360000000000,"state":"active","ping":47},{"user_id":337,"name":"dunnydunjo","steam_id":76561198069605283,"connected_time":1370000000000,"state":"active","ping":56},{"user_id":253,"name":"Schnitz","steam_id":76561198265484253,"connected_time":7940000000000,"state":"active","ping":58},{"user_id":217,"name":"Seshreb","steam_id":76561198846614634,"connected_time":10649000000000,"state":"active","ping":57},{"user_id":359,"name":"Higuma","steam_id":76561198375229012,"connected_time":324000000000,"state":"active","ping":67},{"user_id":310,"name":"werolat","steam_id":76561197960544784,"connected_time":3786000000000,"state":"active","ping":52},{"user_id":268,"name":"Tocha","steam_id":76561198119725400,"connected_time":6800000000000,"state":"active","ping":107},{"user_id":345,"name":"BurdBrain","steam_id":76561197962097737,"connected_time":1008000000000,"state":"active","ping":65},{"user_id":336,"name":"Tommy da bird","steam_id":76561198136340711,"connected_time":1384000000000,"state":"active","ping":96},{"user_id":338,"name":"Soda","steam_id":76561198108363656,"connected_time":1362000000000,"state":"active","ping":81},{"user_id":350,"name":"LogicalFurret","steam_id":76561198350604657,"connected_time":852000000000,"state":"active","ping":73},{"user_id":360,"name":"Dirtbomb","steam_id":76561198002403301,"connected_time":58000000000,"state":"active","ping":74},{"user_id":353,"name":"Tako","steam_id":76561199264073138,"connected_time":809000000000,"state":"active","ping":33},{"user_id":352,"name":"Person Man","steam_id":76561198293857963,"connected_time":825000000000,"state":"active","ping":201},{"user_id":357,"name":"Ralph Kramden (Slim Charles)","steam_id":76561197981687895,"connected_time":606000000000,"state":"active","ping":63},{"user_id":341,"name":"I gambled my wife away..","steam_id":76561198274180010,"connected_time":1300000000000,"state":"active","ping":51},{"user_id":355,"name":"fathead","steam_id":76561198150155615,"connected_time":756000000000,"state":"active","ping":79},{"user_id":356,"name":"breathing meat donut","steam_id":76561198123566649,"connected_time":751000000000,"state":"active","ping":89},{"user_id":303,"name":"Terror","steam_id":76561198188685728,"connected_time":4406000000000,"state":"active","ping":105}]},{"server_id":112,"name":"Uncletopia | Los Angeles | 2 | All Maps","name_short":"lax-2","host":"lax-1.us.uncletopia.com","port":27025,"enabled":true,"region":"us-west","cc":"us","latitude":33.94279,"longitude":-118.41004,"reserved":0,"last_update":"0001-01-01T00:00:00Z","name_a2s":"Uncletopia | Los Angeles | 2 | All Maps","protocol":17,"map":"pl_upward","folder":"tf","game":"Team Fortress","app_id":440,"player_count":21,"max_players":24,"Bots":0,"server_type":"Dedicated","server_os":"Linux","password":true,"vac":true,"version":"7961495","steam_id":85568392924469992,"keywords":["nocrits","nodmgspread","payload","uncletopia"],"game_id":440,"stv_port":27026,"stv_name":"Uncletopia | Los Angeles | 2 | All Maps | STV","players":[{"user_id":555,"name":"Sol","steam_id":76561198121500201,"connected_time":1307000000000,"state":"active","ping":46},{"user_id":569,"name":"framp down","steam_id":76561198006316527,"connected_time":688000000000,"state":"active","ping":54},{"user_id":522,"name":"RmBLe","steam_id":76561198150137369,"connected_time":4120000000000,"state":"active","ping":50},{"user_id":468,"name":"They could be ********","steam_id":76561198441020995,"connected_time":8223000000000,"state":"active","ping":63},{"user_id":588,"name":"oil","steam_id":76561198099980149,"connected_time":35000000000,"state":"active","ping":52},{"user_id":542,"name":"pt","steam_id":76561198143023330,"connected_time":3340000000000,"state":"active","ping":45},{"user_id":550,"name":"Trips","steam_id":76561198054581597,"connected_time":2210000000000,"state":"active","ping":49},{"user_id":589,"name":"EddieEnder","steam_id":76561198057912688,"connected_time":12000000000,"state":"spawning","ping":60},{"user_id":557,"name":"Farseer Ulwithy","steam_id":76561197965179245,"connected_time":1266000000000,"state":"active","ping":85},{"user_id":452,"name":"squibonacci","steam_id":76561198305870184,"connected_time":9026000000000,"state":"active","ping":63},{"user_id":590,"name":"porksoda","steam_id":76561198021451377,"connected_time":3000000000,"state":"spawning","ping":72},{"user_id":584,"name":"Blows","steam_id":76561198065349185,"connected_time":316000000000,"state":"active","ping":48},{"user_id":567,"name":"Rusty","steam_id":76561198055585129,"connected_time":756000000000,"state":"active","ping":76},{"user_id":578,"name":"Killing_Moon","steam_id":76561198028185566,"connected_time":438000000000,"state":"active","ping":47},{"user_id":586,"name":"Vegan Veal","steam_id":76561198123607452,"connected_time":181000000000,"state":"active","ping":150},{"user_id":392,"name":"JavaScript Frappuccino","steam_id":76561198111620153,"connected_time":12836000000000,"state":"active","ping":71},{"user_id":580,"name":"Nani","steam_id":76561198010230727,"connected_time":391000000000,"state":"active","ping":57},{"user_id":585,"name":"Maniac9","steam_id":76561197960530967,"connected_time":220000000000,"state":"active","ping":48},{"user_id":559,"name":"[DATS‚û°] Sugar Meowth","steam_id":76561197995251793,"connected_time":1155000000000,"state":"active","ping":62},{"user_id":583,"name":"flop","steam_id":76561199230528008,"connected_time":357000000000,"state":"active","ping":73},{"user_id":548,"name":"MisterT","steam_id":76561198079868873,"connected_time":2298000000000,"state":"active","ping":45}]},{"server_id":324,"name":"Uncletopia | Los Angeles | 3 | All Maps","name_short":"lax-3","host":"lax-1.us.uncletopia.com","port":27035,"enabled":true,"region":"us-west","cc":"us","latitude":33.94279,"longitude":-118.41004,"reserved":0,"last_update":"0001-01-01T00:00:00Z","name_a2s":"Uncletopia | Los Angeles | 3 | All Maps","protocol":17,"map":"pl_upward","folder":"tf","game":"Team Fortress","app_id":440,"player_count":24,"max_players":24,"Bots":0,"server_type":"Dedicated","server_os":"Linux","password":true,"vac":true,"version":"7961495","steam_id":85568392924510198,"keywords":["nocrits","nodmgspread","payload","uncletopia"],"game_id":440,"stv_port":27036,"stv_name":"Uncletopia | Los Angeles | 3 | All Maps | STV","players":[{"user_id":357,"name":"silly jester","steam_id":76561198079609974,"connected_time":4564000000000,"state":"active","ping":54},{"user_id":405,"name":"Walrus","steam_id":76561198001799905,"connected_time":1188000000000,"state":"active","ping":54},{"user_id":411,"name":"Chad the Sex Haver","steam_id":76561198058236528,"connected_time":922000000000,"state":"active","ping":46},{"user_id":372,"name":"TYLER","steam_id":76561198841399048,"connected_time":3341000000000,"state":"active","ping":95},{"user_id":404,"name":"It's a Doggydog World","steam_id":76561198018232414,"connected_time":1352000000000,"state":"active","ping":72},{"user_id":356,"name":"TrueGodOfBread","steam_id":76561198127577215,"connected_time":4587000000000,"state":"active","ping":46},{"user_id":426,"name":"1995 Cooler ranch Doritos","steam_id":76561199006526991,"connected_time":437000000000,"state":"active","ping":48},{"user_id":408,"name":"green dragon","steam_id":76561198308336837,"connected_time":1099000000000,"state":"active","ping":61},{"user_id":420,"name":"boomer","steam_id":76561198108761337,"connected_time":689000000000,"state":"active","ping":52},{"user_id":427,"name":"potassium and fiber heavy","steam_id":76561198032259680,"connected_time":250000000000,"state":"active","ping":111},{"user_id":422,"name":"Joe Biden (Deceased)","steam_id":76561198170427507,"connected_time":620000000000,"state":"active","ping":51},{"user_id":423,"name":"loco503","steam_id":76561198827495121,"connected_time":607000000000,"state":"active","ping":74},{"user_id":410,"name":"Zaiah","steam_id":76561198377588247,"connected_time":961000000000,"state":"active","ping":77},{"user_id":412,"name":"Leftovers","steam_id":76561198046041079,"connected_time":920000000000,"state":"active","ping":120},{"user_id":396,"name":"indyjacob","steam_id":76561198065158713,"connected_time":1660000000000,"state":"active","ping":70},{"user_id":297,"name":"goon refinery","steam_id":76561198166781089,"connected_time":8467000000000,"state":"active","ping":86},{"user_id":424,"name":"Five","steam_id":76561198026640473,"connected_time":583000000000,"state":"active","ping":60},{"user_id":414,"name":"vifi269","steam_id":76561198283749166,"connected_time":807000000000,"state":"active","ping":86},{"user_id":415,"name":"the hunchback of gay paris","steam_id":76561197987056308,"connected_time":785000000000,"state":"active","ping":74},{"user_id":419,"name":"meszaros1293","steam_id":76561198168201600,"connected_time":702000000000,"state":"active","ping":60},{"user_id":397,"name":"The_Pacific_gamer","steam_id":76561198089491446,"connected_time":1647000000000,"state":"active","ping":76},{"user_id":399,"name":"ATOMIC SPEED","steam_id":76561199407580843,"connected_time":1623000000000,"state":"active","ping":63},{"user_id":417,"name":"parallax","steam_id":76561198004438881,"connected_time":777000000000,"state":"active","ping":71},{"user_id":296,"name":"wrist game dumbin","steam_id":76561198247984828,"connected_time":8528000000000,"state":"active","ping":56}]},{"server_id":25,"name":"Uncletopia | Los Angeles | 4 | Stopwatch Beta","name_short":"lax-4","host":"lax-1.us.uncletopia.com","port":27045,"enabled":true,"region":"us-west","cc":"us","latitude":33.94279,"longitude":-118.41004,"reserved":0,"last_update":"0001-01-01T00:00:00Z","name_a2s":"Uncletopia | Los Angeles | 4 | Stopwatch Beta","protocol":17,"map":"workshop/koth_ashville_final.ugc2130459942","folder":"tf","game":"Team Fortress","app_id":440,"player_count":0,"max_players":24,"Bots":0,"server_type":"Dedicated","server_os":"Linux","password":true,"vac":true,"version":"7961495","steam_id":85568392924510199,"keywords":["cp","nocrits","nodmgspread","uncletopia"],"game_id":440,"stv_port":27046,"stv_name":"Uncletopia | Los Angeles | 4 | Stopwatch Beta | STV","players":null},{"server_id":11,"name":"Uncletopia | London | 1 | All Maps","name_short":"lon-1","host":"lon-1.uk.uncletopia.com","port":27015,"enabled":true,"region":"eu","cc":"gb","latitude":51.509865,"longitude":-0.118092,"reserved":0,"last_update":"0001-01-01T00:00:00Z","name_a2s":"Uncletopia | London | 1 | All Maps","protocol":17,"map":"pl_borneo","folder":"tf","game":"Team Fortress","app_id":440,"player_count":0,"max_players":24,"Bots":0,"server_type":"Dedicated","server_os":"Linux","password":true,"vac":true,"version":"7961495","steam_id":85568392924367362,"keywords":["nocrits","nodmgspread","payload","uncletopia"],"game_id":440,"stv_port":27016,"stv_name":"Uncletopia | London | 1 | All Maps | STV","players":null},{"server_id":114,"name":"Uncletopia | London | 2 | All Maps","name_short":"lon-2","host":"lon-1.uk.uncletopia.com","port":27025,"enabled":true,"region":"eu","cc":"gb","latitude":51.509865,"longitude":-0.118092,"reserved":0,"last_update":"0001-01-01T00:00:00Z","name_a2s":"Uncletopia | London | 2 | All Maps","protocol":17,"map":"cp_snakewater_final1","folder":"tf","game":"Team Fortress","app_id":440,"player_count":0,"max_players":24,"Bots":0,"server_type":"Dedicated","server_os":"Linux","password":true,"vac":true,"version":"7961495","steam_id":85568392924470941,"keywords":["cp","nocrits","nodmgspread","uncletopia"],"game_id":440,"stv_port":27026,"stv_name":"Uncletopia | London | 2 | All Maps | STV","players":null},{"server_id":320,"name":"Uncletopia | London | 3 | All Maps","name_short":"lon-3","host":"lon-1.uk.uncletopia.com","port":27035,"enabled":true,"region":"eu","cc":"gb","latitude":51.509865,"longitude":-0.118092,"reserved":0,"last_update":"0001-01-01T00:00:00Z","name_a2s":"Uncletopia | London | 3 | All Maps","protocol":17,"map":"pl_pier","folder":"tf","game":"Team Fortress","app_id":440,"player_count":0,"max_players":24,"Bots":0,"server_type":"Dedicated","server_os":"Linux","password":true,"vac":true,"version":"7961495","steam_id":85568392924510192,"keywords":["nocrits","nodmgspread","payload","uncletopia"],"game_id":440,"stv_port":27036,"stv_name":"Uncletopia | London | 3 | All Maps | STV","players":null},{"server_id":321,"name":"Uncletopia | London | 4 | All Maps","name_short":"lon-4","host":"lon-1.uk.uncletopia.com","port":27045,"enabled":true,"region":"eu","cc":"gb","latitude":51.509865,"longitude":-0.118092,"reserved":0,"last_update":"0001-01-01T00:00:00Z","name_a2s":"Uncletopia | London | 4 | All Maps","protocol":17,"map":"koth_viaduct","folder":"tf","game":"Team Fortress","app_id":440,"player_count":0,"max_players":24,"Bots":0,"server_type":"Dedicated","server_os":"Linux","password":true,"vac":true,"version":"7961495","steam_id":85568392924510193,"keywords":["cp","nocrits","nodmgspread","uncletopia"],"game_id":440,"stv_port":27046,"stv_name":"Uncletopia | London | 4 | All Maps | STV","players":null},{"server_id":21,"name":"Uncletopia | London | 5 | All Maps","name_short":"lon-5","host":"lon-1.uk.uncletopia.com","port":27055,"enabled":true,"region":"eu","cc":"gb","latitude":51.509865,"longitude":-0.118092,"reserved":0,"last_update":"0001-01-01T00:00:00Z","name_a2s":"Uncletopia | London | 5 | All Maps","protocol":17,"map":"pl_barnblitz","folder":"tf","game":"Team Fortress","app_id":440,"player_count":0,"max_players":24,"Bots":0,"server_type":"Dedicated","server_os":"Linux","password":true,"vac":true,"version":"7961495","steam_id":85568392924742829,"keywords":["nocrits","nodmgspread","payload","uncletopia"],"game_id":440,"stv_port":27056,"stv_name":"Uncletopia | London | 5 | All Maps | STV","players":null},{"server_id":22,"name":"Uncletopia | London | 6 | All Maps","name_short":"lon-6","host":"lon-1.uk.uncletopia.com","port":27065,"enabled":true,"region":"eu","cc":"gb","latitude":51.509865,"longitude":-0.118092,"reserved":0,"last_update":"0001-01-01T00:00:00Z","name_a2s":"Uncletopia | London | 6 | All Maps","protocol":17,"map":"pl_borneo","folder":"tf","game":"Team Fortress","app_id":440,"player_count":0,"max_players":24,"Bots":0,"server_type":"Dedicated","server_os":"Linux","password":true,"vac":true,"version":"7961495","steam_id":85568392924742830,"keywords":["nocrits","nodmgspread","payload","uncletopia"],"game_id":440,"stv_port":27066,"stv_name":"Uncletopia | London | 6 | All Maps | STV","players":null},{"server_id":40,"name":"Uncletopia | London | 7 | No Payload","name_short":"lon-7","host":"lon-1.uk.uncletopia.com","port":27075,"enabled":true,"region":"eu","cc":"gb","latitude":51.509865,"longitude":-0.118092,"reserved":0,"last_update":"0001-01-01T00:00:00Z","name_a2s":"Uncletopia | London | 7 | No Payload","protocol":17,"map":"pl_pier","folder":"tf","game":"Team Fortress","app_id":440,"player_count":0,"max_players":24,"Bots":0,"server_type":"Dedicated","server_os":"Linux","password":true,"vac":true,"version":"7961495","steam_id":85568392924964314,"keywords":["nocrits","nodmgspread","payload","uncletopia"],"game_id":440,"stv_port":27076,"stv_name":"Uncletopia | London | 7 | No Payload | STV","players":null},{"server_id":41,"name":"Uncletopia | London | 8 | Community","name_short":"lon-8","host":"lon-1.uk.uncletopia.com","port":27085,"enabled":true,"region":"eu","cc":"gb","latitude":51.509865,"longitude":-0.118092,"reserved":0,"last_update":"0001-01-01T00:00:00Z","name_a2s":"Uncletopia | London | 8 | Community","protocol":17,"map":"pl_borneo","folder":"tf","game":"Team Fortress","app_id":440,"player_count":0,"max_players":24,"Bots":0,"server_type":"Dedicated","server_os":"Linux","password":true,"vac":true,"version":"7961495","steam_id":85568392924964315,"keywords":["nocrits","nodmgspread","payload","uncletopia"],"game_id":440,"stv_port":27086,"stv_name":"Uncletopia | London | 8 | Community | STV","players":null},{"server_id":300,"name":"Uncletopia | Montr√©al | 1 | All Maps","name_short":"mtl-1","host":"mtl-1.ca.uncletopia.com","port":27015,"enabled":true,"region":"us-east","cc":"ca","latitude":45.50889,"longitude":-73.56167,"reserved":0,"last_update":"0001-01-01T00:00:00Z","name_a2s":"Uncletopia | Montr√©al | 1 | All Maps","protocol":17,"map":"pl_swiftwater_final1","folder":"tf","game":"Team Fortress","app_id":440,"player_count":0,"max_players":24,"Bots":0,"server_type":"Dedicated","server_os":"Linux","password":true,"vac":true,"version":"7961495","steam_id":85568392924500087,"keywords":["nocrits","nodmgspread","payload","uncletopia"],"game_id":440,"stv_port":27016,"stv_name":"Uncletopia | Montr√©al | 1 | All Maps | STV","players":null},{"server_id":301,"name":"Uncletopia | Montr√©al | 2 | All Maps","name_short":"mtl-2","host":"mtl-1.ca.uncletopia.com","port":27025,"enabled":true,"region":"us-east","cc":"ca","latitude":45.50889,"longitude":-73.56167,"reserved":0,"last_update":"0001-01-01T00:00:00Z","name_a2s":"Uncletopia | Montr√©al | 2 | All Maps","protocol":17,"map":"cp_dustbowl","folder":"tf","game":"Team Fortress","app_id":440,"player_count":0,"max_players":24,"Bots":0,"server_type":"Dedicated","server_os":"Linux","password":true,"vac":true,"version":"7961495","steam_id":85568392924500088,"keywords":["cp","nocrits","nodmgspread","uncletopia"],"game_id":440,"stv_port":27026,"stv_name":"Uncletopia | Montr√©al | 2 | All Maps | STV","players":null},{"server_id":302,"name":"Uncletopia | Montr√©al | 3 | All Maps","name_short":"mtl-3","host":"mtl-1.ca.uncletopia.com","port":27035,"enabled":true,"region":"us-east","cc":"ca","latitude":45.50889,"longitude":-73.56167,"reserved":0,"last_update":"0001-01-01T00:00:00Z","name_a2s":"Uncletopia | Montr√©al | 3 | All Maps","protocol":17,"map":"koth_cascade","folder":"tf","game":"Team Fortress","app_id":440,"player_count":0,"max_players":24,"Bots":0,"server_type":"Dedicated","server_os":"Linux","password":true,"vac":true,"version":"7961495","steam_id":85568392924500089,"keywords":["cp","nocrits","nodmgspread","uncletopia"],"game_id":440,"stv_port":27036,"stv_name":"Uncletopia | Montr√©al | 3 | All Maps | STV","players":null},{"server_id":303,"name":"Uncletopia | Montr√©al | 4 | No Payload","name_short":"mtl-4","host":"mtl-1.ca.uncletopia.com","port":27045,"enabled":true,"region":"us-east","cc":"ca","latitude":45.50889,"longitude":-73.56167,"reserved":0,"last_update":"0001-01-01T00:00:00Z","name_a2s":"Uncletopia | Montr√©al | 4 | No Payload","protocol":17,"map":"koth_lakeside_final","folder":"tf","game":"Team Fortress","app_id":440,"player_count":0,"max_players":24,"Bots":0,"server_type":"Dedicated","server_os":"Linux","password":true,"vac":true,"version":"7961495","steam_id":85568392924500090,"keywords":["cp","nocrits","nodmgspread","uncletopia"],"game_id":440,"stv_port":27046,"stv_name":"Uncletopia | Montr√©al | 4 | No Payload | STV","players":null},{"server_id":13,"name":"Uncletopia | New York City | 1 | All Maps","name_short":"nyc-1","host":"nyc-1.us.uncletopia.com","port":27015,"enabled":true,"region":"us-east","cc":"us","latitude":40.73061,"longitude":-73.93524,"reserved":0,"last_update":"0001-01-01T00:00:00Z","name_a2s":"Uncletopia | New York City | 1 | All Maps","protocol":17,"map":"pl_snowycoast","folder":"tf","game":"Team Fortress","app_id":440,"player_count":24,"max_players":24,"Bots":0,"server_type":"Dedicated","server_os":"Linux","password":true,"vac":true,"version":"7961495","steam_id":85568392924469993,"keywords":["nocrits","nodmgspread","payload","uncletopia"],"game_id":440,"stv_port":27016,"stv_name":"Uncletopia | New York City | 1 | All Maps | STV","players":[{"user_id":940,"name":"FueledBurrito","steam_id":76561198094396678,"connected_time":1218000000000,"state":"active","ping":63},{"user_id":939,"name":"JHLO","steam_id":76561198074359967,"connected_time":1241000000000,"state":"active","ping":58},{"user_id":949,"name":"pl_chicago","steam_id":76561198055626638,"connected_time":201000000000,"state":"active","ping":74},{"user_id":906,"name":"Gentoo Linux Gaming","steam_id":76561197999657118,"connected_time":5110000000000,"state":"active","ping":64},{"user_id":944,"name":"Bokchoi1","steam_id":76561198089076421,"connected_time":1032000000000,"state":"active","ping":71},{"user_id":926,"name":"roman","steam_id":76561198170066797,"connected_time":2913000000000,"state":"active","ping":56},{"user_id":922,"name":"Fun Sized Depression","steam_id":76561198835517383,"connected_time":3133000000000,"state":"active","ping":68},{"user_id":946,"name":"lulu","steam_id":76561199147764133,"connected_time":655000000000,"state":"active","ping":136},{"user_id":942,"name":"Toonice","steam_id":76561198402994885,"connected_time":1149000000000,"state":"active","ping":58},{"user_id":950,"name":"hatsune miku","steam_id":76561199445009981,"connected_time":194000000000,"state":"active","ping":114},{"user_id":927,"name":"tokyo","steam_id":76561199013458589,"connected_time":2876000000000,"state":"active","ping":64},{"user_id":947,"name":"Snoogs","steam_id":76561198444880931,"connected_time":475000000000,"state":"active","ping":71},{"user_id":937,"name":"eish","steam_id":76561198089463603,"connected_time":1806000000000,"state":"active","ping":134},{"user_id":928,"name":"Apetometrist","steam_id":76561198045391635,"connected_time":2832000000000,"state":"active","ping":75},{"user_id":900,"name":"Lumpy the Illegally Blind","steam_id":76561198053125768,"connected_time":5286000000000,"state":"active","ping":133},{"user_id":936,"name":"Jabbernaut","steam_id":76561198000383283,"connected_time":2030000000000,"state":"active","ping":80},{"user_id":929,"name":"ash","steam_id":76561198127890645,"connected_time":2830000000000,"state":"active","ping":83},{"user_id":930,"name":"Jimjonjoe","steam_id":76561199195695913,"connected_time":2825000000000,"state":"active","ping":84},{"user_id":888,"name":"morphine","steam_id":76561198072124799,"connected_time":5538000000000,"state":"active","ping":97},{"user_id":903,"name":"Venumb Bengal","steam_id":76561198156498290,"connected_time":5225000000000,"state":"active","ping":93},{"user_id":887,"name":"nomad","steam_id":76561197998740399,"connected_time":6274000000000,"state":"active","ping":51},{"user_id":948,"name":"automated wood production","steam_id":76561198307060128,"connected_time":394000000000,"state":"active","ping":85},{"user_id":931,"name":"Œ© Das Gebeine Œî","steam_id":76561198063665024,"connected_time":2814000000000,"state":"active","ping":109},{"user_id":864,"name":"Meh","steam_id":76561198078187920,"connected_time":8519000000000,"state":"active","ping":91}]},{"server_id":14,"name":"Uncletopia | New York City | 2 | All Maps","name_short":"nyc-2","host":"nyc-1.us.uncletopia.com","port":27025,"enabled":true,"region":"us-east","cc":"us","latitude":40.73061,"longitude":-73.93524,"reserved":0,"last_update":"0001-01-01T00:00:00Z","name_a2s":"Uncletopia | New York City | 2 | All Maps","protocol":17,"map":"cp_process_final","folder":"tf","game":"Team Fortress","app_id":440,"player_count":17,"max_players":24,"Bots":0,"server_type":"Dedicated","server_os":"Linux","password":true,"vac":true,"version":"7961495","steam_id":85568392924469994,"keywords":["cp","nocrits","nodmgspread","uncletopia"],"game_id":440,"stv_port":27026,"stv_name":"Uncletopia | New York City | 2 | All Maps | STV","players":[{"user_id":687,"name":"goliath birdeater","steam_id":76561198089852954,"connected_time":6450000000000,"state":"active","ping":88},{"user_id":768,"name":"orbisg","steam_id":76561198004133638,"connected_time":1678000000000,"state":"active","ping":108},{"user_id":686,"name":"dunk","steam_id":76561198066114874,"connected_time":6464000000000,"state":"active","ping":111},{"user_id":786,"name":"Dullahan","steam_id":76561198119668908,"connected_time":77000000000,"state":"active","ping":113},{"user_id":782,"name":"Zetawaves","steam_id":76561198113207896,"connected_time":704000000000,"state":"active","ping":74},{"user_id":773,"name":"A Puppy","steam_id":76561198828184456,"connected_time":1401000000000,"state":"active","ping":48},{"user_id":781,"name":"DragoDuck","steam_id":76561198385685683,"connected_time":727000000000,"state":"active","ping":107},{"user_id":787,"name":"GreenApples","steam_id":76561198120559543,"connected_time":73000000000,"state":"active","ping":110},{"user_id":750,"name":"wise","steam_id":76561198030066204,"connected_time":2277000000000,"state":"active","ping":31},{"user_id":788,"name":"joyboy","steam_id":76561198400381132,"connected_time":0,"state":"spawning","ping":18},{"user_id":777,"name":"on that zaza?","steam_id":76561198038713198,"connected_time":1324000000000,"state":"active","ping":46},{"user_id":785,"name":"Uncle Dan","steam_id":76561198435354491,"connected_time":149000000000,"state":"active","ping":68},{"user_id":735,"name":"Evil little man","steam_id":76561198311053471,"connected_time":3416000000000,"state":"active","ping":82},{"user_id":769,"name":"stile","steam_id":76561198149443710,"connected_time":1675000000000,"state":"active","ping":107},{"user_id":753,"name":"Yakul","steam_id":76561198100040013,"connected_time":2240000000000,"state":"active","ping":96},{"user_id":766,"name":"Funke Monke","steam_id":76561198079440976,"connected_time":1825000000000,"state":"active","ping":73},{"user_id":746,"name":"tracker","steam_id":76561198046911616,"connected_time":2468000000000,"state":"active","ping":43}]},{"server_id":15,"name":"Uncletopia | New York City | 3 | Stopwatch Beta","name_short":"nyc-3","host":"nyc-1.us.uncletopia.com","port":27035,"enabled":true,"region":"us-east","cc":"us","latitude":40.73061,"longitude":-73.93524,"reserved":0,"last_update":"0001-01-01T00:00:00Z","name_a2s":"Uncletopia | New York City | 3 | Stopwatch Beta","protocol":17,"map":"workshop/koth_bagel_rc6.ugc2514036946","folder":"tf","game":"Team Fortress","app_id":440,"player_count":0,"max_players":24,"Bots":0,"server_type":"Dedicated","server_os":"Linux","password":true,"vac":true,"version":"7961495","steam_id":85568392924742820,"keywords":["cp","nocrits","nodmgspread","uncletopia"],"game_id":440,"stv_port":27036,"stv_name":"Uncletopia | New York City | 3 | Stopwatch Beta | STV","players":null},{"server_id":16,"name":"Uncletopia | New York City | 4 | Community","name_short":"nyc-4","host":"nyc-1.us.uncletopia.com","port":27045,"enabled":true,"region":"us-east","cc":"us","latitude":40.73061,"longitude":-73.93524,"reserved":0,"last_update":"0001-01-01T00:00:00Z","name_a2s":"Uncletopia | New York City | 4 | Community","protocol":17,"map":"workshop/cp_croissant_final.ugc458840209","folder":"tf","game":"Team Fortress","app_id":440,"player_count":0,"max_players":24,"Bots":0,"server_type":"Dedicated","server_os":"Linux","password":true,"vac":true,"version":"7961495","steam_id":85568392924742821,"keywords":["cp","nocrits","nodmgspread","uncletopia"],"game_id":440,"stv_port":27046,"stv_name":"Uncletopia | New York City | 4 | Community | STV","players":null},{"server_id":142,"name":"Uncletopia | S√£o Paulo | 1 | All Maps","name_short":"sao-1","host":"sao-1.br.uncletopia.com","port":27015,"enabled":true,"region":"sa","cc":"br","latitude":-23.533773,"longitude":-46.62529,"reserved":0,"last_update":"0001-01-01T00:00:00Z","name_a2s":"Uncletopia | S√£o Paulo | 1 | All Maps","protocol":17,"map":"koth_viaduct","folder":"tf","game":"Team Fortress","app_id":440,"player_count":0,"max_players":24,"Bots":0,"server_type":"Dedicated","server_os":"Linux","password":true,"vac":true,"version":"7961495","steam_id":85568392924469996,"keywords":["cp","nocrits","nodmgspread","uncletopia"],"game_id":440,"stv_port":27016,"stv_name":"Uncletopia | S√£o Paulo | 1 | All Maps | STV","players":null},{"server_id":143,"name":"Uncletopia | S√£o Paulo | 2 | Community","name_short":"sao-2","host":"sao-2.br.uncletopia.com","port":27015,"enabled":true,"region":"sa","cc":"br","latitude":-23.533773,"longitude":-46.62529,"reserved":0,"last_update":"0001-01-01T00:00:00Z","name_a2s":"Uncletopia | S√£o Paulo | 2 | Community","protocol":17,"map":"workshop/pl_corrode_rc2.ugc546577989","folder":"tf","game":"Team Fortress","app_id":440,"player_count":0,"max_players":24,"Bots":0,"server_type":"Dedicated","server_os":"Linux","password":true,"vac":true,"version":"7961495","steam_id":85568392924485349,"keywords":["nocrits","nodmgspread","payload","uncletopia"],"game_id":440,"stv_port":27016,"stv_name":"Uncletopia | S√£o Paulo | 2 | Community | STV","players":null},{"server_id":7,"name":"Uncletopia | Seattle | 1 | All Maps","name_short":"sea-1","host":"sea-1.us.uncletopia.com","port":27015,"enabled":true,"region":"us-west","cc":"us","latitude":47.608013,"longitude":-122.33517,"reserved":0,"last_update":"0001-01-01T00:00:00Z","name_a2s":"Uncletopia | Seattle | 1 | All Maps","protocol":17,"map":"pl_upward","folder":"tf","game":"Team Fortress","app_id":440,"player_count":24,"max_players":24,"Bots":0,"server_type":"Dedicated","server_os":"Linux","password":true,"vac":true,"version":"7961495","steam_id":85568392924469997,"keywords":["nocrits","nodmgspread","payload","uncletopia"],"game_id":440,"stv_port":27016,"stv_name":"Uncletopia | Seattle | 1 | All Maps | STV","players":[{"user_id":365,"name":"ilun","steam_id":76561198042913843,"connected_time":13767000000000,"state":"active","ping":55},{"user_id":428,"name":"Haydob13","steam_id":76561198110378191,"connected_time":8524000000000,"state":"active","ping":55},{"user_id":464,"name":"mub","steam_id":76561197961943948,"connected_time":4821000000000,"state":"active","ping":47},{"user_id":482,"name":"WaffleWithNoToppings","steam_id":76561199088280111,"connected_time":2804000000000,"state":"active","ping":55},{"user_id":408,"name":"a cat plushie","steam_id":76561198080046542,"connected_time":10173000000000,"state":"active","ping":49},{"user_id":484,"name":"catlover443","steam_id":76561198335836405,"connected_time":2060000000000,"state":"active","ping":73},{"user_id":472,"name":"Luca","steam_id":76561198125087140,"connected_time":3526000000000,"state":"active","ping":52},{"user_id":494,"name":"Attrition","steam_id":76561197969881916,"connected_time":1049000000000,"state":"active","ping":54},{"user_id":475,"name":"gnoblin","steam_id":76561198210322871,"connected_time":3456000000000,"state":"active","ping":95},{"user_id":489,"name":"shane","steam_id":76561198060491451,"connected_time":1858000000000,"state":"active","ping":83},{"user_id":493,"name":"slushy :))","steam_id":76561198135281802,"connected_time":1241000000000,"state":"active","ping":50},{"user_id":487,"name":"soup","steam_id":76561198043209046,"connected_time":2044000000000,"state":"active","ping":84},{"user_id":486,"name":"Arsonist Goose","steam_id":76561198147441830,"connected_time":2050000000000,"state":"active","ping":74},{"user_id":501,"name":"Sploonbabagoosecooties","steam_id":76561198139972201,"connected_time":209000000000,"state":"active","ping":68},{"user_id":485,"name":"Radio","steam_id":76561198194821053,"connected_time":2060000000000,"state":"active","ping":53},{"user_id":457,"name":"‚õß Erƒìmitƒìs ŒòŒî ‚õß","steam_id":76561198126171688,"connected_time":5482000000000,"state":"active","ping":107},{"user_id":502,"name":"lusty","steam_id":76561198138478947,"connected_time":176000000000,"state":"active","ping":45},{"user_id":471,"name":"mega","steam_id":76561198089520959,"connected_time":3627000000000,"state":"active","ping":99},{"user_id":488,"name":"PopcornBucketGames","steam_id":76561199089562026,"connected_time":2044000000000,"state":"active","ping":55},{"user_id":495,"name":"Peppy","steam_id":76561198866629645,"connected_time":814000000000,"state":"active","ping":60},{"user_id":412,"name":"HaphazardHazel","steam_id":76561198316812693,"connected_time":9796000000000,"state":"active","ping":135},{"user_id":481,"name":"Username","steam_id":76561199033122306,"connected_time":3073000000000,"state":"active","ping":161},{"user_id":500,"name":"gldhd","steam_id":76561198051751133,"connected_time":383000000000,"state":"active","ping":65},{"user_id":463,"name":"H0UZM@$T3R!!!!1","steam_id":76561198044297170,"connected_time":4845000000000,"state":"active","ping":73}]},{"server_id":119,"name":"Uncletopia | Seattle | 2 | All Maps","name_short":"sea-2","host":"sea-1.us.uncletopia.com","port":27025,"enabled":true,"region":"us-west","cc":"us","latitude":47.608013,"longitude":-122.33517,"reserved":0,"last_update":"0001-01-01T00:00:00Z","name_a2s":"Uncletopia | Seattle | 2 | All Maps","protocol":17,"map":"plr_bananabay","folder":"tf","game":"Team Fortress","app_id":440,"player_count":24,"max_players":24,"Bots":0,"server_type":"Dedicated","server_os":"Linux","password":true,"vac":true,"version":"7961495","steam_id":85568392924469998,"keywords":["nocrits","nodmgspread","payload","uncletopia"],"game_id":440,"stv_port":27026,"stv_name":"Uncletopia | Seattle | 2 | All Maps | STV","players":[{"user_id":599,"name":"Florist","steam_id":76561198009121060,"connected_time":903000000000,"state":"active","ping":45},{"user_id":605,"name":"rorywashere /·ê† - Àï -„Éû ‚≥ä","steam_id":76561198065825165,"connected_time":592000000000,"state":"active","ping":96},{"user_id":571,"name":"Trueno","steam_id":76561199080515661,"connected_time":3570000000000,"state":"active","ping":71},{"user_id":457,"name":"......","steam_id":76561198067612741,"connected_time":12059000000000,"state":"active","ping":48},{"user_id":592,"name":"Stev the Lurid Quixote","steam_id":76561197999442625,"connected_time":1225000000000,"state":"active","ping":57},{"user_id":609,"name":"ùíÜùíóùíäùíçArnoldGamingÔæ†","steam_id":76561198040140247,"connected_time":163000000000,"state":"active","ping":152},{"user_id":584,"name":"Petrivus","steam_id":76561198202152453,"connected_time":2459000000000,"state":"active","ping":53},{"user_id":600,"name":"spurious george","steam_id":76561198043558709,"connected_time":898000000000,"state":"active","ping":47},{"user_id":566,"name":"DaBigA","steam_id":76561198326492538,"connected_time":4331000000000,"state":"active","ping":50},{"user_id":564,"name":"Ping","steam_id":76561199206514106,"connected_time":4445000000000,"state":"active","ping":112},{"user_id":607,"name":"Dr. Eggman","steam_id":76561199053746837,"connected_time":566000000000,"state":"active","ping":157},{"user_id":603,"name":"Ducks","steam_id":76561198130038345,"connected_time":646000000000,"state":"active","ping":79},{"user_id":575,"name":"Lordus","steam_id":76561198160381729,"connected_time":3455000000000,"state":"active","ping":57},{"user_id":601,"name":"thunderous prophet","steam_id":76561198131166135,"connected_time":896000000000,"state":"active","ping":37},{"user_id":595,"name":"Lazy_Vex","steam_id":76561198287661985,"connected_time":1019000000000,"state":"active","ping":173},{"user_id":587,"name":"Major_Pippy","steam_id":76561198004482878,"connected_time":2156000000000,"state":"active","ping":55},{"user_id":602,"name":"(414) fungi","steam_id":76561198169755734,"connected_time":890000000000,"state":"active","ping":67},{"user_id":593,"name":"zzrat","steam_id":76561198014925415,"connected_time":1166000000000,"state":"active","ping":57},{"user_id":604,"name":"NEBULA","steam_id":76561198086878595,"connected_time":644000000000,"state":"active","ping":74},{"user_id":550,"name":"Erik_Von_Derpinstien","steam_id":76561198853543456,"connected_time":5551000000000,"state":"active","ping":111},{"user_id":589,"name":"TheCowledWiz","steam_id":76561198016735868,"connected_time":1707000000000,"state":"active","ping":56},{"user_id":597,"name":"HotHead","steam_id":76561198138468982,"connected_time":976000000000,"state":"active","ping":46},{"user_id":533,"name":"T√ºCold","steam_id":76561198111278197,"connected_time":6511000000000,"state":"active","ping":60},{"user_id":563,"name":"D3AC0N","steam_id":76561198115695203,"connected_time":4613000000000,"state":"active","ping":95}]},{"server_id":406,"name":"Uncletopia | Seattle | 3 | Stopwatch Beta","name_short":"sea-3","host":"sea-1.us.uncletopia.com","port":27035,"enabled":true,"region":"us-west","cc":"us","latitude":47.608013,"longitude":-122.33517,"reserved":0,"last_update":"0001-01-01T00:00:00Z","name_a2s":"Uncletopia | Seattle | 3 | Stopwatch Beta","protocol":17,"map":"workshop/koth_ashville_final.ugc2130459942","folder":"tf","game":"Team Fortress","app_id":440,"player_count":0,"max_players":24,"Bots":0,"server_type":"Dedicated","server_os":"Linux","password":true,"vac":true,"version":"7961495","steam_id":85568392924515217,"keywords":["cp","nocrits","nodmgspread","uncletopia"],"game_id":440,"stv_port":27036,"stv_name":"Uncletopia | Seattle | 3 | Stopwatch Beta | STV","players":null},{"server_id":17,"name":"Uncletopia | San Francisco | 1 | All Maps","name_short":"sfo-1","host":"sfo-1.us.uncletopia.com","port":27015,"enabled":true,"region":"us-west","cc":"us","latitude":37.77397,"longitude":-122.4313,"reserved":0,"last_update":"0001-01-01T00:00:00Z","name_a2s":"Uncletopia | San Francisco | 1 | All Maps","protocol":17,"map":"pl_frontier_final","folder":"tf","game":"Team Fortress","app_id":440,"player_count":17,"max_players":24,"Bots":0,"server_type":"Dedicated","server_os":"Linux","password":true,"vac":true,"version":"7961495","steam_id":85568392924469999,"keywords":["nocrits","nodmgspread","payload","uncletopia"],"game_id":440,"stv_port":27016,"stv_name":"Uncletopia | San Francisco | 1 | All Maps | STV","players":[{"user_id":556,"name":"Cope","steam_id":76561198105929029,"connected_time":1152000000000,"state":"active","ping":78},{"user_id":557,"name":"PROFILE NAME","steam_id":76561199438851854,"connected_time":1121000000000,"state":"active","ping":83},{"user_id":561,"name":"MxProf","steam_id":76561198044519572,"connected_time":826000000000,"state":"active","ping":68},{"user_id":562,"name":"Pvt. Sandvich","steam_id":76561198010317453,"connected_time":799000000000,"state":"active","ping":45},{"user_id":567,"name":"Green Mario","steam_id":76561198094325997,"connected_time":634000000000,"state":"active","ping":72},{"user_id":563,"name":"osothedog","steam_id":76561198043226026,"connected_time":745000000000,"state":"active","ping":60},{"user_id":564,"name":"BoyKisser","steam_id":76561199200969139,"connected_time":741000000000,"state":"active","ping":113},{"user_id":565,"name":"Meexuy","steam_id":76561198841434402,"connected_time":675000000000,"state":"active","ping":74},{"user_id":548,"name":"AED","steam_id":76561198384123465,"connected_time":1671000000000,"state":"active","ping":106},{"user_id":566,"name":"Paxton Bradlyey","steam_id":76561198066979420,"connected_time":666000000000,"state":"active","ping":71},{"user_id":568,"name":"‚ô´ Gilgion","steam_id":76561198050297529,"connected_time":619000000000,"state":"active","ping":71},{"user_id":513,"name":"A Pile Of Bacon","steam_id":76561198105243785,"connected_time":4506000000000,"state":"active","ping":61},{"user_id":572,"name":"Kalir","steam_id":76561197996125658,"connected_time":536000000000,"state":"active","ping":70},{"user_id":573,"name":"You know the Vibes","steam_id":76561198119182243,"connected_time":519000000000,"state":"active","ping":58},{"user_id":575,"name":"Barton","steam_id":76561198203088523,"connected_time":472000000000,"state":"active","ping":76},{"user_id":576,"name":"!","steam_id":76561199189013920,"connected_time":467000000000,"state":"active","ping":31},{"user_id":577,"name":"Mr defrost","steam_id":76561198322125657,"connected_time":416000000000,"state":"active","ping":79}]},{"server_id":18,"name":"Uncletopia | San Francisco | 2 | All Maps","name_short":"sfo-2","host":"sfo-1.us.uncletopia.com","port":27025,"enabled":true,"region":"us-west","cc":"us","latitude":37.77397,"longitude":-122.4313,"reserved":0,"last_update":"0001-01-01T00:00:00Z","name_a2s":"Uncletopia | San Francisco | 2 | All Maps","protocol":17,"map":"pl_badwater","folder":"tf","game":"Team Fortress","app_id":440,"player_count":4,"max_players":24,"Bots":0,"server_type":"Dedicated","server_os":"Linux","password":true,"vac":true,"version":"7961495","steam_id":85568392924470000,"keywords":["nocrits","nodmgspread","payload","uncletopia"],"game_id":440,"stv_port":27026,"stv_name":"Uncletopia | San Francisco | 2 | All Maps | STV","players":[{"user_id":51,"name":"AverageAJ","steam_id":76561198882160891,"connected_time":3076000000000,"state":"active","ping":79},{"user_id":52,"name":"Onulator","steam_id":76561198948392056,"connected_time":3054000000000,"state":"active","ping":84},{"user_id":41,"name":"Mom","steam_id":76561198207936000,"connected_time":3572000000000,"state":"active","ping":33},{"user_id":79,"name":"bobletoob","steam_id":76561199184464900,"connected_time":629000000000,"state":"active","ping":62}]},{"server_id":19,"name":"Uncletopia | San Francisco | 3 | Stopwatch Beta","name_short":"sfo-3","host":"sfo-1.us.uncletopia.com","port":27035,"enabled":true,"region":"us-west","cc":"us","latitude":37.77397,"longitude":-122.4313,"reserved":0,"last_update":"0001-01-01T00:00:00Z","name_a2s":"Uncletopia | San Francisco | 3 | Stopwatch Beta","protocol":17,"map":"koth_highpass","folder":"tf","game":"Team Fortress","app_id":440,"player_count":0,"max_players":24,"Bots":0,"server_type":"Dedicated","server_os":"Linux","password":true,"vac":true,"version":"7961495","steam_id":85568392924742824,"keywords":["cp","nocrits","nodmgspread","uncletopia"],"game_id":440,"stv_port":27036,"stv_name":"Uncletopia | San Francisco | 3 | Stopwatch Beta | STV","players":null},{"server_id":20,"name":"Uncletopia | San Francisco | 4 | Community","name_short":"sfo-4","host":"sfo-1.us.uncletopia.com","port":27045,"enabled":true,"region":"us-west","cc":"us","latitude":37.77397,"longitude":-122.4313,"reserved":0,"last_update":"0001-01-01T00:00:00Z","name_a2s":"Uncletopia | San Francisco | 4 | Community","protocol":17,"map":"workshop/cp_glacier_rc6.ugc2905735376","folder":"tf","game":"Team Fortress","app_id":440,"player_count":0,"max_players":24,"Bots":0,"server_type":"Dedicated","server_os":"Linux","password":true,"vac":true,"version":"7961495","steam_id":85568392924742826,"keywords":["cp","nocrits","nodmgspread","uncletopia"],"game_id":440,"stv_port":27046,"stv_name":"Uncletopia | San Francisco | 4 | Community | STV","players":null},{"server_id":141,"name":"Uncletopia | Sydney | 1 | All Maps","name_short":"syd-1","host":"syd-1.au.uncletopia.com","port":27015,"enabled":true,"region":"au","cc":"au","latitude":-33.865143,"longitude":151.2099,"reserved":0,"last_update":"0001-01-01T00:00:00Z","name_a2s":"Uncletopia | Sydney | 1 | All Maps","protocol":17,"map":"koth_viaduct","folder":"tf","game":"Team Fortress","app_id":440,"player_count":0,"max_players":24,"Bots":0,"server_type":"Dedicated","server_os":"Linux","password":true,"vac":true,"version":"7961495","steam_id":85568392924470001,"keywords":["cp","nocrits","nodmgspread","uncletopia"],"game_id":440,"stv_port":27016,"stv_name":"Uncletopia | Sydney | 1 | All Maps | STV","players":null},{"server_id":123,"name":"Uncletopia | Sydney | 2 | All Maps","name_short":"syd-2","host":"syd-1.au.uncletopia.com","port":27025,"enabled":true,"region":"au","cc":"au","latitude":-33.865143,"longitude":151.2099,"reserved":0,"last_update":"0001-01-01T00:00:00Z","name_a2s":"Uncletopia | Sydney | 2 | All Maps","protocol":17,"map":"pl_swiftwater_final1","folder":"tf","game":"Team Fortress","app_id":440,"player_count":23,"max_players":24,"Bots":0,"server_type":"Dedicated","server_os":"Linux","password":true,"vac":true,"version":"7961495","steam_id":85568392924470002,"keywords":["nocrits","nodmgspread","payload","uncletopia"],"game_id":440,"stv_port":27026,"stv_name":"Uncletopia | Sydney | 2 | All Maps | STV","players":[{"user_id":6,"name":"Empol√©","steam_id":76561198363939040,"connected_time":5692000000000,"state":"active","ping":76},{"user_id":12,"name":"‡∏£—í–≥‡πè‡πè‡πì‡∏¨‡πÄ’áœÇ—í","steam_id":76561199422901400,"connected_time":4252000000000,"state":"active","ping":87},{"user_id":34,"name":"Perplexia","steam_id":76561198012215739,"connected_time":1229000000000,"state":"active","ping":79},{"user_id":13,"name":"Beangodhiann","steam_id":76561198189663681,"connected_time":3701000000000,"state":"active","ping":59},{"user_id":46,"name":"tauin","steam_id":76561198376995364,"connected_time":468000000000,"state":"active","ping":98},{"user_id":45,"name":"P","steam_id":76561198304514505,"connected_time":580000000000,"state":"active","ping":179},{"user_id":18,"name":"Precipire","steam_id":76561198076159518,"connected_time":2667000000000,"state":"active","ping":55},{"user_id":47,"name":"Skeb","steam_id":76561198280023361,"connected_time":333000000000,"state":"active","ping":83},{"user_id":29,"name":"Krimson","steam_id":76561198072463650,"connected_time":1874000000000,"state":"active","ping":60},{"user_id":42,"name":"Selling Anti-Matter for $543","steam_id":76561198070708382,"connected_time":761000000000,"state":"active","ping":50},{"user_id":41,"name":"Snowy","steam_id":76561198255720598,"connected_time":923000000000,"state":"active","ping":46},{"user_id":28,"name":"SoundlessPlum","steam_id":76561198077872547,"connected_time":2003000000000,"state":"active","ping":53},{"user_id":26,"name":"pee pee","steam_id":76561198169367991,"connected_time":2150000000000,"state":"active","ping":68},{"user_id":44,"name":"Potato","steam_id":76561199055123049,"connected_time":653000000000,"state":"active","ping":79},{"user_id":30,"name":"consume ur poon","steam_id":76561198288970258,"connected_time":1849000000000,"state":"active","ping":58},{"user_id":37,"name":"positivity","steam_id":76561198261629665,"connected_time":1059000000000,"state":"active","ping":61},{"user_id":32,"name":"UrAvgDMG","steam_id":76561199214859141,"connected_time":1724000000000,"state":"active","ping":139},{"user_id":48,"name":"Lain","steam_id":76561198149217307,"connected_time":269000000000,"state":"active","ping":90},{"user_id":39,"name":"uven","steam_id":76561198080981482,"connected_time":1010000000000,"state":"active","ping":36},{"user_id":49,"name":"Brick","steam_id":76561199177456602,"connected_time":222000000000,"state":"active","ping":166},{"user_id":50,"name":"cakey","steam_id":76561198173746761,"connected_time":140000000000,"state":"active","ping":53},{"user_id":51,"name":"sav","steam_id":76561198058760041,"connected_time":23000000000,"state":"spawning","ping":66},{"user_id":52,"name":"N0thing_but_pure_lag_and_luck","steam_id":76561199002102933,"connected_time":23000000000,"state":"spawning","ping":94}]},{"server_id":395,"name":"Uncletopia | Sydney | 3 | All Maps","name_short":"syd-3","host":"syd-1.au.uncletopia.com","port":27035,"enabled":true,"region":"au","cc":"au","latitude":-33.865143,"longitude":151.2099,"reserved":0,"last_update":"0001-01-01T00:00:00Z","name_a2s":"Uncletopia | Sydney | 3 | All Maps","protocol":17,"map":"cp_dustbowl","folder":"tf","game":"Team Fortress","app_id":440,"player_count":0,"max_players":24,"Bots":0,"server_type":"Dedicated","server_os":"Linux","password":true,"vac":true,"version":"7961495","steam_id":85568392925194467,"keywords":["cp","nocrits","nodmgspread","uncletopia"],"game_id":440,"stv_port":27036,"stv_name":"Uncletopia | Sydney | 3 | All Maps | STV","players":null},{"server_id":396,"name":"Uncletopia | Sydney | 4 | All Maps","name_short":"syd-4","host":"syd-1.au.uncletopia.com","port":27045,"enabled":true,"region":"au","cc":"au","latitude":-33.865143,"longitude":151.2099,"reserved":0,"last_update":"0001-01-01T00:00:00Z","name_a2s":"Uncletopia | Sydney | 4 | All Maps","protocol":17,"map":"koth_lakeside_final","folder":"tf","game":"Team Fortress","app_id":440,"player_count":0,"max_players":24,"Bots":0,"server_type":"Dedicated","server_os":"Linux","password":true,"vac":true,"version":"7961495","steam_id":85568392925397958,"keywords":["cp","nocrits","nodmgspread","uncletopia"],"game_id":440,"stv_port":27046,"stv_name":"Uncletopia | Sydney | 4 | All Maps | STV","players":null},{"server_id":58,"name":"Uncletopia | Sydney | 5 | Stopwatch Beta","name_short":"syd-5","host":"syd-1.au.uncletopia.com","port":27055,"enabled":true,"region":"au","cc":"au","latitude":-33.865143,"longitude":151.2099,"reserved":0,"last_update":"0001-01-01T00:00:00Z","name_a2s":"Uncletopia | Sydney | 5 | Stopwatch Beta","protocol":17,"map":"koth_viaduct","folder":"tf","game":"Team Fortress","app_id":440,"player_count":0,"max_players":24,"Bots":0,"server_type":"Dedicated","server_os":"Linux","password":true,"vac":true,"version":"7961495","steam_id":85568392925397959,"keywords":["cp","nocrits","nodmgspread","uncletopia"],"game_id":440,"stv_port":27056,"stv_name":"Uncletopia | Sydney | 5 | Stopwatch Beta | STV","players":null},{"server_id":59,"name":"Uncletopia | Sydney | 6 | Community","name_short":"syd-6","host":"syd-1.au.uncletopia.com","port":27065,"enabled":true,"region":"au","cc":"au","latitude":-33.865143,"longitude":151.2099,"reserved":0,"last_update":"0001-01-01T00:00:00Z","name_a2s":"Uncletopia | Sydney | 6 | Community","protocol":17,"map":"koth_cascade","folder":"tf","game":"Team Fortress","app_id":440,"player_count":0,"max_players":24,"Bots":0,"server_type":"Dedicated","server_os":"Linux","password":true,"vac":true,"version":"7961495","steam_id":85568392925397960,"keywords":["cp","nocrits","nodmgspread","uncletopia"],"game_id":440,"stv_port":27066,"stv_name":"Uncletopia | Sydney | 6 | Community | STV","players":null},{"server_id":49,"name":"Uncletopia | Warsaw | 1 | All Maps","name_short":"waw-1","host":"waw-1.pl.uncletopia.com","port":27015,"enabled":true,"region":"eu","cc":"pl","latitude":52.2297,"longitude":21.017532,"reserved":0,"last_update":"0001-01-01T00:00:00Z","name_a2s":"","protocol":0,"map":"","folder":"","game":"","app_id":0,"player_count":0,"max_players":0,"Bots":0,"server_type":"","server_os":"","password":false,"vac":false,"version":"","steam_id":0,"keywords":null,"game_id":0,"stv_port":0,"stv_name":"","players":null},{"server_id":50,"name":"Uncletopia | Warsaw | 2 | All Maps","name_short":"waw-2","host":"waw-1.pl.uncletopia.com","port":27025,"enabled":true,"region":"eu","cc":"pl","latitude":52.2297,"longitude":21.017532,"reserved":0,"last_update":"0001-01-01T00:00:00Z","name_a2s":"","protocol":0,"map":"","folder":"","game":"","app_id":0,"player_count":0,"max_players":0,"Bots":0,"server_type":"","server_os":"","password":false,"vac":false,"version":"","steam_id":0,"keywords":null,"game_id":0,"stv_port":0,"stv_name":"","players":null},{"server_id":51,"name":"Uncletopia | Warsaw | 3 | All Maps","name_short":"waw-3","host":"waw-1.pl.uncletopia.com","port":27035,"enabled":true,"region":"eu","cc":"pl","latitude":52.2297,"longitude":21.017532,"reserved":0,"last_update":"0001-01-01T00:00:00Z","name_a2s":"","protocol":0,"map":"","folder":"","game":"","app_id":0,"player_count":0,"max_players":0,"Bots":0,"server_type":"","server_os":"","password":false,"vac":false,"version":"","steam_id":0,"keywords":null,"game_id":0,"stv_port":0,"stv_name":"","players":null},{"server_id":52,"name":"Uncletopia | Warsaw | 4 | All Maps","name_short":"waw-4","host":"waw-1.pl.uncletopia.com","port":27045,"enabled":true,"region":"eu","cc":"pl","latitude":52.2297,"longitude":21.017532,"reserved":0,"last_update":"0001-01-01T00:00:00Z","name_a2s":"","protocol":0,"map":"","folder":"","game":"","app_id":0,"player_count":0,"max_players":0,"Bots":0,"server_type":"","server_os":"","password":false,"vac":false,"version":"","steam_id":0,"keywords":null,"game_id":0,"stv_port":0,"stv_name":"","players":null},{"server_id":53,"name":"Uncletopia | Warsaw | 5 | Stopwatch Beta","name_short":"waw-5","host":"waw-1.pl.uncletopia.com","port":27055,"enabled":true,"region":"eu","cc":"pl","latitude":52.2297,"longitude":21.017532,"reserved":0,"last_update":"0001-01-01T00:00:00Z","name_a2s":"","protocol":0,"map":"","folder":"","game":"","app_id":0,"player_count":0,"max_players":0,"Bots":0,"server_type":"","server_os":"","password":false,"vac":false,"version":"","steam_id":0,"keywords":null,"game_id":0,"stv_port":0,"stv_name":"","players":null},{"server_id":54,"name":"Uncletopia | Warsaw | 6 | Community","name_short":"waw-6","host":"waw-1.pl.uncletopia.com","port":27065,"enabled":true,"region":"eu","cc":"pl","latitude":52.2297,"longitude":21.017532,"reserved":0,"last_update":"0001-01-01T00:00:00Z","name_a2s":"","protocol":0,"map":"","folder":"","game":"","app_id":0,"player_count":0,"max_players":0,"Bots":0,"server_type":"","server_os":"","password":false,"vac":false,"version":"","steam_id":0,"keywords":null,"game_id":0,"stv_port":0,"stv_name":"","players":null}]}