{"status":true,"message":"","result":[{"server_id":9,"name":"Uncletopia | Atlanta | 1 | All Maps","name_short":"atl-1","host":"atl-1.us.uncletopia.com","port":27015,"enabled":true,"region":"us-east","cc":"us","latitude":33.753746,"longitude":-84.38633,"reserved":0,"last_update":"0001-01-01T00:00:00Z","name_a2s":"Uncletopia | Atlanta | 1 | All Maps","protocol":17,"map":"pl_swiftwater_final1","folder":"tf","game":"Team Fortress","app_id":440,"player_count":24,"max_players":24,"Bots":0,"server_type":"Dedicated","server_os":"Linux","password":true,"vac":true,"version":"7708610","steam_id":85568392924469982,"keywords":["nocrits","nodmgspread","payload","uncletopia"],"game_id":440,"stv_port":27016,"stv_name":"Uncletopia | Atlanta | 1 | All Maps | STV","players":[{"user_id":624,"name":"☙ Corrupt ❧","steam_id":76561197977631915,"connected_time":4204000000000,"state":"active","ping":64},{"user_id":648,"name":"lu","steam_id":76561198080731872,"connected_time":2655000000000,"state":"active","ping":74},{"user_id":664,"name":"ATL1 | Crystron","steam_id":76561198880437428,"connected_time":2064000000000,"state":"active","ping":87},{"user_id":594,"name":"lker","steam_id":76561197976975075,"connected_time":5844000000000,"state":"active","ping":44},{"user_id":575,"name":"Megadesk","steam_id":76561198078219641,"connected_time":8203000000000,"state":"active","ping":69},{"user_id":668,"name":"Medic","steam_id":76561198067869016,"connected_time":1721000000000,"state":"active","ping":63},{"user_id":691,"name":"Boop","steam_id":76561198376703875,"connected_time":35000000000,"state":"active","ping":54},{"user_id":678,"name":"josh","steam_id":76561198110063909,"connected_time":1011000000000,"state":"active","ping":77},{"user_id":623,"name":"bad spy player","steam_id":76561198873699671,"connected_time":4211000000000,"state":"active","ping":115},{"user_id":670,"name":"Sexual Butt","steam_id":76561198102241399,"connected_time":1494000000000,"state":"active","ping":75},{"user_id":671,"name":"lulu","steam_id":76561199147764133,"connected_time":1468000000000,"state":"active","ping":174},{"user_id":684,"name":"icecxld","steam_id":76561198079018805,"connected_time":336000000000,"state":"active","ping":86},{"user_id":690,"name":"ungr8t","steam_id":76561198063521721,"connected_time":119000000000,"state":"active","ping":74},{"user_id":683,"name":"estruli","steam_id":76561198295690725,"connected_time":463000000000,"state":"active","ping":58},{"user_id":672,"name":"♥Ranman♥Femboy♥","steam_id":76561198042144492,"connected_time":1424000000000,"state":"active","ping":50},{"user_id":687,"name":"big wheeza","steam_id":76561198345499005,"connected_time":187000000000,"state":"active","ping":59},{"user_id":674,"name":"Timon's high on crack cocaine!","steam_id":76561198180396430,"connected_time":1379000000000,"state":"active","ping":115},{"user_id":688,"name":"Cilantro","steam_id":76561198056432216,"connected_time":174000000000,"state":"active","ping":52},{"user_id":679,"name":"Shmoopy","steam_id":76561198030459152,"connected_time":919000000000,"state":"active","ping":60},{"user_id":666,"name":"HonoredOgre","steam_id":76561198353496638,"connected_time":1853000000000,"state":"active","ping":67},{"user_id":681,"name":"dairy","steam_id":76561198117033273,"connected_time":715000000000,"state":"active","ping":149},{"user_id":639,"name":"Mister","steam_id":76561198097164652,"connected_time":3737000000000,"state":"active","ping":73},{"user_id":689,"name":"jaqnalex","steam_id":76561198834835036,"connected_time":169000000000,"state":"active","ping":105}]},{"server_id":400,"name":"Uncletopia | Atlanta | 3 | All Maps","name_short":"atl-3","host":"atl-1.us.uncletopia.com","port":27035,"enabled":true,"region":"us-east","cc":"us","latitude":33.753746,"longitude":-84.38633,"reserved":0,"last_update":"0001-01-01T00:00:00Z","name_a2s":"Uncletopia | Atlanta | 3 | All Maps","protocol":17,"map":"cp_sunshine","folder":"tf","game":"Team Fortress","app_id":440,"player_count":24,"max_players":24,"Bots":0,"server_type":"Dedicated","server_os":"Linux","password":true,"vac":true,"version":"7708610","steam_id":85568392924515187,"keywords":["cp","nocrits","nodmgspread","uncletopia"],"game_id":440,"stv_port":27036,"stv_name":"Uncletopia | Atlanta | 3 | All Maps | STV","players":[{"user_id":105,"name":"Zelumie","steam_id":76561198147335801,"connected_time":1854000000000,"state":"active","ping":72},{"user_id":130,"name":"maArk","steam_id":76561198200380143,"connected_time":754000000000,"state":"active","ping":139},{"user_id":125,"name":"invb","steam_id":76561197998263914,"connected_time":976000000000,"state":"active","ping":83},{"user_id":108,"name":"The Builder","steam_id":76561198093432863,"connected_time":1818000000000,"state":"active","ping":68},{"user_id":111,"name":"John Team Fortress","steam_id":76561198053282055,"connected_time":1656000000000,"state":"active","ping":114},{"user_id":109,"name":"Fortress Man (two)","steam_id":76561198170407162,"connected_time":1675000000000,"state":"active","ping":67},{"user_id":112,"name":"larsvik","steam_id":76561198077948794,"connected_time":1619000000000,"state":"active","ping":62},{"user_id":128,"name":"RaixaR","steam_id":76561198025289430,"connected_time":822000000000,"state":"active","ping":73},{"user_id":132,"name":"25/8 678","steam_id":76561198012414439,"connected_time":152000000000,"state":"active","ping":128},{"user_id":114,"name":"xFactr","steam_id":76561198129007422,"connected_time":1560000000000,"state":"active","ping":60},{"user_id":115,"name":"indec","steam_id":76561198978404397,"connected_time":1468000000000,"state":"active","ping":115},{"user_id":116,"name":"Ariel Tone","steam_id":76561198086475014,"connected_time":1436000000000,"state":"active","ping":104},{"user_id":117,"name":"chexo4","steam_id":76561198150532531,"connected_time":1302000000000,"state":"active","ping":59},{"user_id":118,"name":"Amauri","steam_id":76561198130809137,"connected_time":1266000000000,"state":"active","ping":92},{"user_id":119,"name":"ansoonii","steam_id":76561198092494136,"connected_time":1255000000000,"state":"active","ping":67},{"user_id":120,"name":"kanya east","steam_id":76561198919287084,"connected_time":1244000000000,"state":"active","ping":114},{"user_id":121,"name":"heydaddy@aol.com","steam_id":76561198000548666,"connected_time":1218000000000,"state":"active","ping":66},{"user_id":122,"name":"PaintMyMeow","steam_id":76561198056860387,"connected_time":1139000000000,"state":"active","ping":90},{"user_id":123,"name":"|AG| Level","steam_id":76561198063633592,"connected_time":1097000000000,"state":"active","ping":76},{"user_id":87,"name":"A used self heating flesh-light","steam_id":76561198069918221,"connected_time":3629000000000,"state":"active","ping":73},{"user_id":101,"name":"Spike Bones","steam_id":76561198234926120,"connected_time":2230000000000,"state":"active","ping":76},{"user_id":124,"name":"MrLeftTurn","steam_id":76561198856743969,"connected_time":1096000000000,"state":"active","ping":155},{"user_id":126,"name":"DeityVester","steam_id":76561198153361428,"connected_time":970000000000,"state":"active","ping":77},{"user_id":127,"name":"L. Ron Thuggard","steam_id":76561198048992536,"connected_time":946000000000,"state":"active","ping":77}]},{"server_id":401,"name":"Uncletopia | Atlanta | 4 | No Payload","name_short":"atl-4","host":"atl-1.us.uncletopia.com","port":27045,"enabled":true,"region":"us-east","cc":"us","latitude":33.753746,"longitude":-84.38633,"reserved":0,"last_update":"0001-01-01T00:00:00Z","name_a2s":"Uncletopia | Atlanta | 4 | No Payload","protocol":17,"map":"koth_sawmill","folder":"tf","game":"Team Fortress","app_id":440,"player_count":0,"max_players":24,"Bots":0,"server_type":"Dedicated","server_os":"Linux","password":true,"vac":true,"version":"7708610","steam_id":85568392924515188,"keywords":["cp","nocrits","nodmgspread","uncletopia"],"game_id":440,"stv_port":27046,"stv_name":"Uncletopia | Atlanta | 4 | No Payload | STV","players":null},{"server_id":2,"name":"Uncletopia | Chicago | 1 | All Maps","name_short":"chi-1","host":"chi-1.us.uncletopia.com","port":27015,"enabled":true,"region":"us-central","cc":"us","latitude":41.881832,"longitude":-87.62318,"reserved":0,"last_update":"0001-01-01T00:00:00Z","name_a2s":"Uncletopia | Chicago | 1 | All Maps","protocol":17,"map":"koth_viaduct","folder":"tf","game":"Team Fortress","app_id":440,"player_count":12,"max_players":24,"Bots":0,"server_type":"Dedicated","server_os":"Linux","password":true,"vac":true,"version":"7708610","steam_id":85568392924469984,"keywords":["cp","nocrits","nodmgspread","uncletopia"],"game_id":440,"stv_port":27016,"stv_name":"Uncletopia | Chicago | 1 | All Maps | STV","players":[{"user_id":789,"name":"Ye (I Love Hitler) West","steam_id":76561198068830312,"connected_time":601000000000,"state":"active","ping":40},{"user_id":790,"name":"RICE A RONI JABRONI","steam_id":76561198251653444,"connected_time":538000000000,"state":"active","ping":78},{"user_id":684,"name":"debin","steam_id":76561198070711217,"connected_time":9154000000000,"state":"active","ping":51},{"user_id":791,"name":"bobbyreinman2009","steam_id":76561198804763186,"connected_time":488000000000,"state":"active","ping":57},{"user_id":792,"name":"ÒwÓ","steam_id":76561197997304387,"connected_time":260000000000,"state":"active","ping":60},{"user_id":739,"name":"Bartleby","steam_id":76561198028522711,"connected_time":4890000000000,"state":"active","ping":61},{"user_id":793,"name":"ThiccCat  Wamo :3","steam_id":76561198089067957,"connected_time":204000000000,"state":"active","ping":93},{"user_id":794,"name":"Dr. Pocket","steam_id":76561198263093857,"connected_time":124000000000,"state":"active","ping":69},{"user_id":776,"name":"TÖZI","steam_id":76561198045268695,"connected_time":2638000000000,"state":"active","ping":54},{"user_id":786,"name":"Audiphon","steam_id":76561198051340300,"connected_time":1027000000000,"state":"active","ping":137},{"user_id":762,"name":"Snake Handler","steam_id":76561198027198306,"connected_time":3572000000000,"state":"active","ping":58},{"user_id":785,"name":"brian eno","steam_id":76561198109901138,"connected_time":1278000000000,"state":"active","ping":74}]},{"server_id":106,"name":"Uncletopia | Chicago | 2 | All Maps","name_short":"chi-2","host":"chi-1.us.uncletopia.com","port":27025,"enabled":true,"region":"us-central","cc":"us","latitude":41.881832,"longitude":-87.62318,"reserved":0,"last_update":"0001-01-01T00:00:00Z","name_a2s":"Uncletopia | Chicago | 2 | All Maps","protocol":17,"map":"cp_mountainlab","folder":"tf","game":"Team Fortress","app_id":440,"player_count":0,"max_players":24,"Bots":0,"server_type":"Dedicated","server_os":"Linux","password":true,"vac":true,"version":"7708610","steam_id":85568392924469985,"keywords":["cp","nocrits","nodmgspread","uncletopia"],"game_id":440,"stv_port":27026,"stv_name":"Uncletopia | Chicago | 2 | All Maps | STV","players":null},{"server_id":402,"name":"Uncletopia | Chicago | 3 | All Maps","name_short":"chi-3","host":"chi-1.us.uncletopia.com","port":27035,"enabled":true,"region":"us-central","cc":"us","latitude":41.881832,"longitude":-87.62318,"reserved":0,"last_update":"0001-01-01T00:00:00Z","name_a2s":"Uncletopia | Chicago | 3 | All Maps","protocol":17,"map":"cp_sunshine","folder":"tf","game":"Team Fortress","app_id":440,"player_count":19,"max_players":24,"Bots":0,"server_type":"Dedicated","server_os":"Linux","password":true,"vac":true,"version":"7708610","steam_id":85568392924515191,"keywords":["cp","nocrits","nodmgspread","uncletopia"],"game_id":440,"stv_port":27036,"stv_name":"Uncletopia | Chicago | 3 | All Maps | STV","players":[{"user_id":353,"name":"hemispherectomy","steam_id":76561198119178364,"connected_time":9343000000000,"state":"active","ping":67},{"user_id":316,"name":"Ace Chromatica","steam_id":76561198042211131,"connected_time":12160000000000,"state":"active","ping":48},{"user_id":452,"name":"Pineapple Mango Lemonade","steam_id":76561198127421560,"connected_time":16000000000,"state":"active","ping":80},{"user_id":434,"name":"Webi Wabo","steam_id":76561198799224408,"connected_time":2240000000000,"state":"active","ping":58},{"user_id":395,"name":"sweaterfan","steam_id":76561199389567214,"connected_time":6485000000000,"state":"active","ping":66},{"user_id":444,"name":"Unspeakable Coconut","steam_id":76561199085391286,"connected_time":948000000000,"state":"active","ping":57},{"user_id":436,"name":"Golddick Lewisson","steam_id":76561198054719949,"connected_time":1931000000000,"state":"active","ping":132},{"user_id":437,"name":"the keithvinci kode","steam_id":76561198056622157,"connected_time":1784000000000,"state":"active","ping":61},{"user_id":396,"name":"Blagoni","steam_id":76561198079134230,"connected_time":6455000000000,"state":"active","ping":101},{"user_id":438,"name":"xenolith","steam_id":76561198041496496,"connected_time":1783000000000,"state":"active","ping":66},{"user_id":419,"name":"citrus","steam_id":76561198294606679,"connected_time":4366000000000,"state":"active","ping":61},{"user_id":416,"name":"Omni Monky","steam_id":76561198083975292,"connected_time":4601000000000,"state":"active","ping":83},{"user_id":439,"name":"Bee","steam_id":76561198074681324,"connected_time":1776000000000,"state":"active","ping":49},{"user_id":401,"name":"motorized bar of soap","steam_id":76561198882404753,"connected_time":5457000000000,"state":"active","ping":79},{"user_id":446,"name":"CHRISMTER CAT","steam_id":76561198042570322,"connected_time":907000000000,"state":"active","ping":60},{"user_id":451,"name":"Depresso Amber","steam_id":76561198074209737,"connected_time":252000000000,"state":"active","ping":59},{"user_id":427,"name":"a soul must somehow strive","steam_id":76561198096806703,"connected_time":3312000000000,"state":"active","ping":76},{"user_id":428,"name":"Pugz","steam_id":76561198149362234,"connected_time":3292000000000,"state":"active","ping":42},{"user_id":450,"name":"jalapeno handjob","steam_id":76561198123298824,"connected_time":504000000000,"state":"active","ping":88}]},{"server_id":403,"name":"Uncletopia | Chicago | 4 | All Maps","name_short":"chi-4","host":"chi-1.us.uncletopia.com","port":27045,"enabled":true,"region":"us-central","cc":"us","latitude":41.881832,"longitude":-87.62318,"reserved":0,"last_update":"0001-01-01T00:00:00Z","name_a2s":"Uncletopia | Chicago | 4 | All Maps","protocol":17,"map":"pl_frontier_final","folder":"tf","game":"Team Fortress","app_id":440,"player_count":24,"max_players":24,"Bots":0,"server_type":"Dedicated","server_os":"Linux","password":true,"vac":true,"version":"7708610","steam_id":85568392924515193,"keywords":["nocrits","nodmgspread","payload","uncletopia"],"game_id":440,"stv_port":27046,"stv_name":"Uncletopia | Chicago | 4 | All Maps | STV","players":[{"user_id":273,"name":"MC Ballyhoo","steam_id":76561198296310388,"connected_time":1106000000000,"state":"active","ping":87},{"user_id":288,"name":"mr. pants","steam_id":76561198069506128,"connected_time":232000000000,"state":"active","ping":58},{"user_id":196,"name":"barely sentient bag of meat","steam_id":76561198062763756,"connected_time":5472000000000,"state":"active","ping":86},{"user_id":255,"name":"Glass Joe","steam_id":76561198317365741,"connected_time":2376000000000,"state":"active","ping":62},{"user_id":279,"name":"Strangelove","steam_id":76561198353773611,"connected_time":666000000000,"state":"active","ping":82},{"user_id":256,"name":"Darghul the Skeleton Lord","steam_id":76561198004140161,"connected_time":2321000000000,"state":"active","ping":44},{"user_id":222,"name":"Walking Eye!","steam_id":76561198059501252,"connected_time":4098000000000,"state":"active","ping":63},{"user_id":258,"name":"Riku","steam_id":76561198200428695,"connected_time":2280000000000,"state":"active","ping":41},{"user_id":282,"name":"raduski","steam_id":76561198795699119,"connected_time":544000000000,"state":"active","ping":81},{"user_id":271,"name":"Xbmann | Resurfed","steam_id":76561198041017977,"connected_time":1143000000000,"state":"active","ping":74},{"user_id":280,"name":"Azaheth","steam_id":76561198253616898,"connected_time":662000000000,"state":"active","ping":100},{"user_id":275,"name":"valtiel","steam_id":76561198165212575,"connected_time":1103000000000,"state":"active","ping":74},{"user_id":247,"name":"Hertz","steam_id":76561198245322982,"connected_time":2981000000000,"state":"active","ping":60},{"user_id":286,"name":"wile","steam_id":76561198125261443,"connected_time":466000000000,"state":"active","ping":98},{"user_id":281,"name":"fishy","steam_id":76561198272354852,"connected_time":608000000000,"state":"active","ping":46},{"user_id":262,"name":"A raptor staring at you","steam_id":76561199388911950,"connected_time":2226000000000,"state":"active","ping":84},{"user_id":232,"name":"beaЯ","steam_id":76561198909415646,"connected_time":3805000000000,"state":"active","ping":81},{"user_id":223,"name":"Worml1ps","steam_id":76561198108185717,"connected_time":4094000000000,"state":"active","ping":77},{"user_id":224,"name":"M@dH@tter0","steam_id":76561199148773626,"connected_time":4092000000000,"state":"active","ping":111},{"user_id":277,"name":"Muffin","steam_id":76561198050715053,"connected_time":798000000000,"state":"active","ping":75},{"user_id":208,"name":"Ignalis","steam_id":76561198025662927,"connected_time":5296000000000,"state":"active","ping":63},{"user_id":264,"name":"Parth Makeo","steam_id":76561198002516581,"connected_time":2206000000000,"state":"active","ping":65},{"user_id":265,"name":"brae","steam_id":76561198047126327,"connected_time":2182000000000,"state":"active","ping":69},{"user_id":285,"name":"Comet Oblivion","steam_id":76561198072747271,"connected_time":487000000000,"state":"active","ping":68}]},{"server_id":36,"name":"Uncletopia | Chicago | 5 | All Maps","name_short":"chi-5","host":"chi-2.us.uncletopia.com","port":27015,"enabled":true,"region":"us-central","cc":"us","latitude":41.881832,"longitude":-87.62318,"reserved":0,"last_update":"0001-01-01T00:00:00Z","name_a2s":"Uncletopia | Chicago | 5 | All Maps","protocol":17,"map":"cp_mountainlab","folder":"tf","game":"Team Fortress","app_id":440,"player_count":0,"max_players":24,"Bots":0,"server_type":"Dedicated","server_os":"Linux","password":true,"vac":true,"version":"7708610","steam_id":85568392924866362,"keywords":["cp","nocrits","nodmgspread","uncletopia"],"game_id":440,"stv_port":27016,"stv_name":"Uncletopia | Chicago | 5 | All Maps | STV","players":null},{"server_id":37,"name":"Uncletopia | Chicago | 6 | All Maps","name_short":"chi-6","host":"chi-2.us.uncletopia.com","port":27025,"enabled":true,"region":"us-central","cc":"us","latitude":41.881832,"longitude":-87.62318,"reserved":0,"last_update":"0001-01-01T00:00:00Z","name_a2s":"Uncletopia | Chicago | 6 | All Maps","protocol":17,"map":"cp_process_final","folder":"tf","game":"Team Fortress","app_id":440,"player_count":4,"max_players":24,"Bots":0,"server_type":"Dedicated","server_os":"Linux","password":true,"vac":true,"version":"7708610","steam_id":85568392924866363,"keywords":["cp","nocrits","nodmgspread","uncletopia"],"game_id":440,"stv_port":27026,"stv_name":"Uncletopia | Chicago | 6 | All Maps | STV","players":[{"user_id":405,"name":"Sugercrash","steam_id":76561199187685119,"connected_time":482000000000,"state":"active","ping":90},{"user_id":407,"name":"PoltergussyLordoftheAsstralVoid","steam_id":76561199195004708,"connected_time":322000000000,"state":"active","ping":100},{"user_id":399,"name":"monsterkill4567","steam_id":76561198272986367,"connected_time":1699000000000,"state":"active","ping":102},{"user_id":382,"name":"Crow","steam_id":76561198055648496,"connected_time":3322000000000,"state":"active","ping":45}]},{"server_id":38,"name":"Uncletopia | Chicago | 7 | No Payload","name_short":"chi-7","host":"chi-2.us.uncletopia.com","port":27035,"enabled":true,"region":"us-central","cc":"us","latitude":41.881832,"longitude":-87.62318,"reserved":0,"last_update":"0001-01-01T00:00:00Z","name_a2s":"Uncletopia | Chicago | 7 | No Payload","protocol":17,"map":"koth_badlands","folder":"tf","game":"Team Fortress","app_id":440,"player_count":0,"max_players":24,"Bots":0,"server_type":"Dedicated","server_os":"Linux","password":true,"vac":true,"version":"7708610","steam_id":85568392924866364,"keywords":["cp","nocrits","nodmgspread","uncletopia"],"game_id":440,"stv_port":27036,"stv_name":"Uncletopia | Chicago | 7 | No Payload | STV","players":null},{"server_id":39,"name":"Uncletopia | Chicago | 8 | Community","name_short":"chi-8","host":"chi-2.us.uncletopia.com","port":27045,"enabled":true,"region":"us-central","cc":"us","latitude":41.881832,"longitude":-87.62318,"reserved":0,"last_update":"0001-01-01T00:00:00Z","name_a2s":"Uncletopia | Chicago | 8 | Community","protocol":17,"map":"workshop/koth_ashville_final.ugc2130459942","folder":"tf","game":"Team Fortress","app_id":440,"player_count":0,"max_players":24,"Bots":0,"server_type":"Dedicated","server_os":"Linux","password":true,"vac":true,"version":"7708610","steam_id":85568392924866365,"keywords":["cp","nocrits","nodmgspread","uncletopia"],"game_id":440,"stv_port":27046,"stv_name":"Uncletopia | Chicago | 8 | Community | STV","players":null},{"server_id":8,"name":"Uncletopia | Dallas | 1 | All Maps","name_short":"dal-1","host":"dal-1.us.uncletopia.com","port":27015,"enabled":true,"region":"us-central","cc":"us","latitude":32.779167,"longitude":-96.80889,"reserved":0,"last_update":"0001-01-01T00:00:00Z","name_a2s":"Uncletopia | Dallas | 1 | All Maps","protocol":17,"map":"cp_mountainlab","folder":"tf","game":"Team Fortress","app_id":440,"player_count":23,"max_players":24,"Bots":0,"server_type":"Dedicated","server_os":"Linux","password":true,"vac":true,"version":"7708610","steam_id":85568392924469986,"keywords":["cp","nocrits","nodmgspread","uncletopia"],"game_id":440,"stv_port":27016,"stv_name":"Uncletopia | Dallas | 1 | All Maps | STV","players":[{"user_id":575,"name":"Rusty","steam_id":76561198056557928,"connected_time":4754000000000,"state":"active","ping":62},{"user_id":628,"name":"Bootstrap","steam_id":76561199110353614,"connected_time":6000000000,"state":"spawning","ping":88},{"user_id":616,"name":"Blippy","steam_id":76561198225904600,"connected_time":1086000000000,"state":"active","ping":64},{"user_id":627,"name":"Gary Budussy","steam_id":76561197969793969,"connected_time":16000000000,"state":"spawning","ping":58},{"user_id":581,"name":"Ultra\u003c3","steam_id":76561198352021493,"connected_time":4379000000000,"state":"active","ping":80},{"user_id":622,"name":"trade me market gardener pls","steam_id":76561198037920420,"connected_time":325000000000,"state":"active","ping":65},{"user_id":527,"name":"yeti","steam_id":76561198000921358,"connected_time":6618000000000,"state":"active","ping":76},{"user_id":619,"name":"CodeRedDev","steam_id":76561198179982494,"connected_time":423000000000,"state":"active","ping":31},{"user_id":623,"name":"XIV Hyena","steam_id":76561198256653428,"connected_time":314000000000,"state":"active","ping":63},{"user_id":624,"name":"venomew2","steam_id":76561198327081077,"connected_time":259000000000,"state":"active","ping":75},{"user_id":620,"name":"Tenrou","steam_id":76561198061448188,"connected_time":412000000000,"state":"active","ping":83},{"user_id":533,"name":"Pazdispenser","steam_id":76561198020578777,"connected_time":6446000000000,"state":"active","ping":99},{"user_id":577,"name":"Moonflower ✦","steam_id":76561198191782483,"connected_time":4649000000000,"state":"active","ping":52},{"user_id":617,"name":"Raiden","steam_id":76561198094841207,"connected_time":756000000000,"state":"active","ping":67},{"user_id":558,"name":"PROD CHAMPION","steam_id":76561199245670274,"connected_time":5461000000000,"state":"active","ping":74},{"user_id":625,"name":"Lord Foog the 2st","steam_id":76561198073106278,"connected_time":206000000000,"state":"active","ping":54},{"user_id":611,"name":"frosters","steam_id":76561198120479533,"connected_time":1264000000000,"state":"active","ping":51},{"user_id":618,"name":"BaconBlitz","steam_id":76561198079461770,"connected_time":544000000000,"state":"active","ping":44},{"user_id":607,"name":"MCdipshit","steam_id":76561198861659031,"connected_time":2002000000000,"state":"active","ping":45},{"user_id":615,"name":"Bobwafflemanjr","steam_id":76561198271769725,"connected_time":1109000000000,"state":"active","ping":66},{"user_id":614,"name":"Devoid","steam_id":76561198254039012,"connected_time":1221000000000,"state":"active","ping":69},{"user_id":455,"name":"hollandese","steam_id":76561198078636737,"connected_time":12096000000000,"state":"active","ping":66},{"user_id":621,"name":"Remex","steam_id":76561198072651849,"connected_time":396000000000,"state":"active","ping":66}]},{"server_id":108,"name":"Uncletopia | Dallas | 2 | All Maps","name_short":"dal-2","host":"dal-1.us.uncletopia.com","port":27025,"enabled":true,"region":"us-central","cc":"us","latitude":32.779167,"longitude":-96.80889,"reserved":0,"last_update":"0001-01-01T00:00:00Z","name_a2s":"Uncletopia | Dallas | 2 | All Maps","protocol":17,"map":"pl_snowycoast","folder":"tf","game":"Team Fortress","app_id":440,"player_count":0,"max_players":24,"Bots":0,"server_type":"Dedicated","server_os":"Linux","password":true,"vac":true,"version":"7708610","steam_id":85568392924469988,"keywords":["nocrits","nodmgspread","payload","uncletopia"],"game_id":440,"stv_port":27026,"stv_name":"Uncletopia | Dallas | 2 | All Maps | STV","players":null},{"server_id":5,"name":"Uncletopia | Frankfurt | 1 | All Maps","name_short":"frk-1","host":"frk-1.de.uncletopia.com","port":27015,"enabled":true,"region":"eu","cc":"de","latitude":50.110924,"longitude":8.682127,"reserved":0,"last_update":"0001-01-01T00:00:00Z","name_a2s":"Uncletopia | Frankfurt | 1 | All Maps","protocol":17,"map":"koth_cascade","folder":"tf","game":"Team Fortress","app_id":440,"player_count":0,"max_players":24,"Bots":0,"server_type":"Dedicated","server_os":"Linux","password":true,"vac":true,"version":"7708610","steam_id":85568392924469989,"keywords":["cp","nocrits","nodmgspread","uncletopia"],"game_id":440,"stv_port":27016,"stv_name":"Uncletopia | Frankfurt | 1 | All Maps | STV","players":null},{"server_id":110,"name":"Uncletopia | Frankfurt | 2 | All Maps","name_short":"frk-2","host":"frk-1.de.uncletopia.com","port":27025,"enabled":true,"region":"eu","cc":"de","latitude":50.110924,"longitude":8.682127,"reserved":0,"last_update":"0001-01-01T00:00:00Z","name_a2s":"Uncletopia | Frankfurt | 2 | All Maps","protocol":17,"map":"pl_frontier_final","folder":"tf","game":"Team Fortress","app_id":440,"player_count":0,"max_players":24,"Bots":0,"server_type":"Dedicated","server_os":"Linux","password":true,"vac":true,"version":"7708610","steam_id":85568392924469990,"keywords":["nocrits","nodmgspread","payload","uncletopia"],"game_id":440,"stv_port":27026,"stv_name":"Uncletopia | Frankfurt | 2 | All Maps | STV","players":null},{"server_id":308,"name":"Uncletopia | Frankfurt | 3 | All Maps","name_short":"frk-3","host":"frk-1.de.uncletopia.com","port":27035,"enabled":true,"region":"eu","cc":"de","latitude":50.110924,"longitude":8.682127,"reserved":0,"last_update":"0001-01-01T00:00:00Z","name_a2s":"Uncletopia | Frankfurt | 3 | All Maps","protocol":17,"map":"cp_process_final","folder":"tf","game":"Team Fortress","app_id":440,"player_count":0,"max_players":24,"Bots":0,"server_type":"Dedicated","server_os":"Linux","password":true,"vac":true,"version":"7708610","steam_id":85568392924504274,"keywords":["cp","nocrits","nodmgspread","uncletopia"],"game_id":440,"stv_port":27036,"stv_name":"Uncletopia | Frankfurt | 3 | All Maps | STV","players":null},{"server_id":309,"name":"Uncletopia | Frankfurt | 4 | All Maps","name_short":"frk-4","host":"frk-1.de.uncletopia.com","port":27045,"enabled":true,"region":"eu","cc":"de","latitude":50.110924,"longitude":8.682127,"reserved":0,"last_update":"0001-01-01T00:00:00Z","name_a2s":"Uncletopia | Frankfurt | 4 | All Maps","protocol":17,"map":"pl_upward","folder":"tf","game":"Team Fortress","app_id":440,"player_count":0,"max_players":24,"Bots":0,"server_type":"Dedicated","server_os":"Linux","password":true,"vac":true,"version":"7708610","steam_id":85568392924504275,"keywords":["nocrits","nodmgspread","payload","uncletopia"],"game_id":440,"stv_port":27046,"stv_name":"Uncletopia | Frankfurt | 4 | All Maps | STV","players":null},{"server_id":310,"name":"Uncletopia | Frankfurt | 5 | All Maps","name_short":"frk-5","host":"frk-1.de.uncletopia.com","port":27055,"enabled":true,"region":"eu","cc":"de","latitude":50.110924,"longitude":8.682127,"reserved":0,"last_update":"0001-01-01T00:00:00Z","name_a2s":"Uncletopia | Frankfurt | 5 | All Maps","protocol":17,"map":"cp_sunshine","folder":"tf","game":"Team Fortress","app_id":440,"player_count":0,"max_players":24,"Bots":0,"server_type":"Dedicated","server_os":"Linux","password":true,"vac":true,"version":"7708610","steam_id":85568392924504277,"keywords":["cp","nocrits","nodmgspread","uncletopia"],"game_id":440,"stv_port":27056,"stv_name":"Uncletopia | Frankfurt | 5 | All Maps | STV","players":null},{"server_id":311,"name":"Uncletopia | Frankfurt | 6 | All Maps","name_short":"frk-6","host":"frk-1.de.uncletopia.com","port":27065,"enabled":true,"region":"eu","cc":"de","latitude":50.110924,"longitude":8.682127,"reserved":0,"last_update":"0001-01-01T00:00:00Z","name_a2s":"Uncletopia | Frankfurt | 6 | All Maps","protocol":17,"map":"pl_frontier_final","folder":"tf","game":"Team Fortress","app_id":440,"player_count":0,"max_players":24,"Bots":0,"server_type":"Dedicated","server_os":"Linux","password":true,"vac":true,"version":"7708610","steam_id":85568392924504278,"keywords":["nocrits","nodmgspread","payload","uncletopia"],"game_id":440,"stv_port":27066,"stv_name":"Uncletopia | Frankfurt | 6 | All Maps | STV","players":null},{"server_id":23,"name":"Uncletopia | Frankfurt | 7 | No Payload","name_short":"frk-7","host":"frk-1.de.uncletopia.com","port":27075,"enabled":true,"region":"eu","cc":"de","latitude":50.110924,"longitude":8.682127,"reserved":0,"last_update":"0001-01-01T00:00:00Z","name_a2s":"Uncletopia | Frankfurt | 7 | No Payload","protocol":17,"map":"koth_viaduct","folder":"tf","game":"Team Fortress","app_id":440,"player_count":0,"max_players":24,"Bots":0,"server_type":"Dedicated","server_os":"Linux","password":true,"vac":true,"version":"7708610","steam_id":85568392924742827,"keywords":["cp","nocrits","nodmgspread","uncletopia"],"game_id":440,"stv_port":27076,"stv_name":"Uncletopia | Frankfurt | 7 | No Payload | STV","players":null},{"server_id":24,"name":"Uncletopia | Frankfurt | 8 | Community","name_short":"frk-8","host":"frk-1.de.uncletopia.com","port":27085,"enabled":true,"region":"eu","cc":"de","latitude":50.110924,"longitude":8.682127,"reserved":0,"last_update":"0001-01-01T00:00:00Z","name_a2s":"Uncletopia | Frankfurt | 8 | Community","protocol":17,"map":"pl_borneo","folder":"tf","game":"Team Fortress","app_id":440,"player_count":0,"max_players":24,"Bots":0,"server_type":"Dedicated","server_os":"Linux","password":true,"vac":true,"version":"7708610","steam_id":85568392924742828,"keywords":["nocrits","nodmgspread","payload","uncletopia"],"game_id":440,"stv_port":27086,"stv_name":"Uncletopia | Frankfurt | 8 | Community | STV","players":null},{"server_id":202,"name":"Uncletopia | Hong Kong | 1 | All Maps","name_short":"hgk-1","host":"hgk-1.hk.uncletopia.com","port":27015,"enabled":true,"region":"asia","cc":"hk","latitude":22.302711,"longitude":114.177216,"reserved":0,"last_update":"0001-01-01T00:00:00Z","name_a2s":"Uncletopia | Hong Kong | 1 | All Maps","protocol":17,"map":"pl_frontier_final","folder":"tf","game":"Team Fortress","app_id":440,"player_count":18,"max_players":24,"Bots":0,"server_type":"Dedicated","server_os":"Linux","password":true,"vac":true,"version":"7708610","steam_id":85568392924494504,"keywords":["nocrits","nodmgspread","payload","uncletopia"],"game_id":440,"stv_port":27016,"stv_name":"Uncletopia | Hong Kong | 1 | All Maps | STV","players":[{"user_id":169,"name":"TheRealCrest","steam_id":76561199224421039,"connected_time":111000000000,"state":"active","ping":202},{"user_id":166,"name":"Level 3 sentry","steam_id":76561198979802944,"connected_time":199000000000,"state":"active","ping":59},{"user_id":167,"name":"hubohan0720","steam_id":76561199389078275,"connected_time":159000000000,"state":"active","ping":86},{"user_id":168,"name":"V","steam_id":76561198261975237,"connected_time":156000000000,"state":"active","ping":94},{"user_id":133,"name":"S c u m p","steam_id":76561199172582978,"connected_time":2359000000000,"state":"active","ping":147},{"user_id":170,"name":"quack","steam_id":76561198258934120,"connected_time":103000000000,"state":"active","ping":68},{"user_id":87,"name":"Nevergonnagiveyouup","steam_id":76561199366985069,"connected_time":5255000000000,"state":"active","ping":61},{"user_id":163,"name":"Bush.exe","steam_id":76561198124385307,"connected_time":431000000000,"state":"active","ping":59},{"user_id":156,"name":"Hyeong_","steam_id":76561199012504873,"connected_time":1107000000000,"state":"active","ping":115},{"user_id":173,"name":"Cienaga","steam_id":76561198195149342,"connected_time":0,"state":"spawning","ping":153},{"user_id":172,"name":"im_0ff","steam_id":76561198339346695,"connected_time":95000000000,"state":"active","ping":114},{"user_id":162,"name":"CyloCrypt","steam_id":76561199247129620,"connected_time":534000000000,"state":"active","ping":151},{"user_id":164,"name":"Noobclear","steam_id":76561198159105045,"connected_time":416000000000,"state":"active","ping":45},{"user_id":144,"name":"aeross","steam_id":76561198834445483,"connected_time":1747000000000,"state":"active","ping":70},{"user_id":128,"name":"Luye","steam_id":76561198811403379,"connected_time":2916000000000,"state":"active","ping":95},{"user_id":153,"name":"CaptainBozo","steam_id":76561199151959977,"connected_time":1325000000000,"state":"active","ping":51},{"user_id":148,"name":"Skyler White yo","steam_id":76561198895193247,"connected_time":1579000000000,"state":"active","ping":71},{"user_id":149,"name":"MS PowerPoint","steam_id":76561198369523192,"connected_time":1538000000000,"state":"active","ping":61}]},{"server_id":1,"name":"Uncletopia | Los Angeles | 1 | All Maps","name_short":"lax-1","host":"lax-1.us.uncletopia.com","port":27015,"enabled":true,"region":"us-west","cc":"us","latitude":33.94279,"longitude":-118.41004,"reserved":0,"last_update":"0001-01-01T00:00:00Z","name_a2s":"Uncletopia | Los Angeles | 1 | All Maps","protocol":17,"map":"cp_dustbowl","folder":"tf","game":"Team Fortress","app_id":440,"player_count":24,"max_players":24,"Bots":0,"server_type":"Dedicated","server_os":"Linux","password":true,"vac":true,"version":"7708610","steam_id":85568392924469991,"keywords":["cp","nocrits","nodmgspread","uncletopia"],"game_id":440,"stv_port":27016,"stv_name":"Uncletopia | Los Angeles | 1 | All Maps | STV","players":[{"user_id":490,"name":"HeroOfTime","steam_id":76561199096218001,"connected_time":323000000000,"state":"active","ping":53},{"user_id":484,"name":"MistakesWereMade","steam_id":76561199059220481,"connected_time":544000000000,"state":"active","ping":54},{"user_id":441,"name":"Some idiot vibing","steam_id":76561198317982960,"connected_time":3676000000000,"state":"active","ping":104},{"user_id":463,"name":"Zino Primo","steam_id":76561198044562994,"connected_time":1924000000000,"state":"active","ping":83},{"user_id":399,"name":"Arbiter Soul","steam_id":76561198067798973,"connected_time":7965000000000,"state":"active","ping":61},{"user_id":479,"name":"[S]Mr. X [No Monitor]","steam_id":76561197963746035,"connected_time":819000000000,"state":"active","ping":99},{"user_id":470,"name":"SpaceOak","steam_id":76561198072561549,"connected_time":1493000000000,"state":"active","ping":100},{"user_id":466,"name":"JeffMate","steam_id":76561198296353007,"connected_time":1716000000000,"state":"active","ping":77},{"user_id":431,"name":"Big Pete","steam_id":76561198100754827,"connected_time":4560000000000,"state":"active","ping":56},{"user_id":443,"name":"OakTea (real)","steam_id":76561198408773115,"connected_time":3580000000000,"state":"active","ping":149},{"user_id":480,"name":"Bevan(The Manager)","steam_id":76561198073890273,"connected_time":761000000000,"state":"active","ping":78},{"user_id":467,"name":"territori64","steam_id":76561199206483682,"connected_time":1714000000000,"state":"active","ping":46},{"user_id":460,"name":"Batso","steam_id":76561198106589452,"connected_time":2145000000000,"state":"active","ping":50},{"user_id":481,"name":"Susan","steam_id":76561198045705049,"connected_time":745000000000,"state":"active","ping":57},{"user_id":477,"name":"Noob-a-tron","steam_id":76561197970555113,"connected_time":1078000000000,"state":"active","ping":48},{"user_id":486,"name":"ROTTINGGIRL","steam_id":76561198051445358,"connected_time":426000000000,"state":"active","ping":40},{"user_id":482,"name":"ena - d","steam_id":76561198072329335,"connected_time":741000000000,"state":"active","ping":93},{"user_id":487,"name":"Douze","steam_id":76561198272934982,"connected_time":419000000000,"state":"active","ping":118},{"user_id":488,"name":"EmmLoaf","steam_id":76561198022097954,"connected_time":405000000000,"state":"active","ping":60},{"user_id":430,"name":"☃️Festive Wormhole☃","steam_id":76561199008302939,"connected_time":4778000000000,"state":"active","ping":75},{"user_id":491,"name":"Morbius","steam_id":76561198387984694,"connected_time":287000000000,"state":"active","ping":86},{"user_id":483,"name":"CherryYeti","steam_id":76561199221441151,"connected_time":682000000000,"state":"active","ping":58},{"user_id":454,"name":"DeckofDragons","steam_id":76561198057398213,"connected_time":2948000000000,"state":"active","ping":78},{"user_id":468,"name":"Snorflex","steam_id":76561198141862965,"connected_time":1633000000000,"state":"active","ping":70}]},{"server_id":112,"name":"Uncletopia | Los Angeles | 2 | All Maps","name_short":"lax-2","host":"lax-1.us.uncletopia.com","port":27025,"enabled":true,"region":"us-west","cc":"us","latitude":33.94279,"longitude":-118.41004,"reserved":0,"last_update":"0001-01-01T00:00:00Z","name_a2s":"Uncletopia | Los Angeles | 2 | All Maps","protocol":17,"map":"koth_viaduct","folder":"tf","game":"Team Fortress","app_id":440,"player_count":0,"max_players":24,"Bots":0,"server_type":"Dedicated","server_os":"Linux","password":true,"vac":true,"version":"7708610","steam_id":85568392924469992,"keywords":["cp","nocrits","nodmgspread","uncletopia"],"game_id":440,"stv_port":27026,"stv_name":"Uncletopia | Los Angeles | 2 | All Maps | STV","players":null},{"server_id":324,"name":"Uncletopia | Los Angeles | 3 | All Maps","name_short":"lax-3","host":"lax-1.us.uncletopia.com","port":27035,"enabled":true,"region":"us-west","cc":"us","latitude":33.94279,"longitude":-118.41004,"reserved":0,"last_update":"0001-01-01T00:00:00Z","name_a2s":"Uncletopia | Los Angeles | 3 | All Maps","protocol":17,"map":"koth_highpass","folder":"tf","game":"Team Fortress","app_id":440,"player_count":12,"max_players":24,"Bots":0,"server_type":"Dedicated","server_os":"Linux","password":true,"vac":true,"version":"7708610","steam_id":85568392924510198,"keywords":["cp","nocrits","nodmgspread","uncletopia"],"game_id":440,"stv_port":27036,"stv_name":"Uncletopia | Los Angeles | 3 | All Maps | STV","players":[{"user_id":277,"name":"sleesherj","steam_id":76561198295326194,"connected_time":385000000000,"state":"active","ping":115},{"user_id":278,"name":"Walter","steam_id":76561198176428878,"connected_time":144000000000,"state":"active","ping":70},{"user_id":276,"name":"Potsy","steam_id":76561198067411054,"connected_time":548000000000,"state":"active","ping":54},{"user_id":279,"name":"PlasmaSnake","steam_id":76561198353521281,"connected_time":74000000000,"state":"active","ping":43},{"user_id":270,"name":"Noxus","steam_id":76561199009820852,"connected_time":1635000000000,"state":"active","ping":82},{"user_id":280,"name":"hackxer","steam_id":76561199106093716,"connected_time":26000000000,"state":"spawning","ping":214},{"user_id":179,"name":"benson","steam_id":76561198105075752,"connected_time":8103000000000,"state":"active","ping":65},{"user_id":274,"name":"{[G.E.W.P]} benglengler","steam_id":76561198150137369,"connected_time":965000000000,"state":"active","ping":42},{"user_id":258,"name":"fortzei","steam_id":76561198210920541,"connected_time":2116000000000,"state":"active","ping":57},{"user_id":275,"name":"Dwayne \"The Crack Rock\" Johnson","steam_id":76561198073699764,"connected_time":566000000000,"state":"active","ping":44},{"user_id":273,"name":"Demianeithor","steam_id":76561198800036537,"connected_time":1438000000000,"state":"active","ping":62},{"user_id":228,"name":"NeenerzFon","steam_id":76561198080876204,"connected_time":4706000000000,"state":"active","ping":59}]},{"server_id":25,"name":"Uncletopia | Los Angeles | 4 | No Payload","name_short":"lax-4","host":"lax-1.us.uncletopia.com","port":27045,"enabled":true,"region":"us-west","cc":"us","latitude":33.94279,"longitude":-118.41004,"reserved":0,"last_update":"0001-01-01T00:00:00Z","name_a2s":"Uncletopia | Los Angeles | 4 | No Payload","protocol":17,"map":"cp_snakewater_final1","folder":"tf","game":"Team Fortress","app_id":440,"player_count":0,"max_players":24,"Bots":0,"server_type":"Dedicated","server_os":"Linux","password":true,"vac":true,"version":"7708610","steam_id":85568392924510199,"keywords":["cp","nocrits","nodmgspread","uncletopia"],"game_id":440,"stv_port":27046,"stv_name":"Uncletopia | Los Angeles | 4 | No Payload | STV","players":null},{"server_id":11,"name":"Uncletopia | London | 1 | All Maps","name_short":"lon-1","host":"lon-1.uk.uncletopia.com","port":27015,"enabled":true,"region":"eu","cc":"gb","latitude":51.509865,"longitude":-0.118092,"reserved":0,"last_update":"0001-01-01T00:00:00Z","name_a2s":"Uncletopia | London | 1 | All Maps","protocol":17,"map":"cp_snakewater_final1","folder":"tf","game":"Team Fortress","app_id":440,"player_count":0,"max_players":24,"Bots":0,"server_type":"Dedicated","server_os":"Linux","password":true,"vac":true,"version":"7708610","steam_id":85568392924367362,"keywords":["cp","nocrits","nodmgspread","uncletopia"],"game_id":440,"stv_port":27016,"stv_name":"Uncletopia | London | 1 | All Maps | STV","players":null},{"server_id":114,"name":"Uncletopia | London | 2 | All Maps","name_short":"lon-2","host":"lon-1.uk.uncletopia.com","port":27025,"enabled":true,"region":"eu","cc":"gb","latitude":51.509865,"longitude":-0.118092,"reserved":0,"last_update":"0001-01-01T00:00:00Z","name_a2s":"Uncletopia | London | 2 | All Maps","protocol":17,"map":"cp_sunshine","folder":"tf","game":"Team Fortress","app_id":440,"player_count":0,"max_players":24,"Bots":0,"server_type":"Dedicated","server_os":"Linux","password":true,"vac":true,"version":"7708610","steam_id":85568392924470941,"keywords":["cp","nocrits","nodmgspread","uncletopia"],"game_id":440,"stv_port":27026,"stv_name":"Uncletopia | London | 2 | All Maps | STV","players":null},{"server_id":320,"name":"Uncletopia | London | 3 | All Maps","name_short":"lon-3","host":"lon-1.uk.uncletopia.com","port":27035,"enabled":true,"region":"eu","cc":"gb","latitude":51.509865,"longitude":-0.118092,"reserved":0,"last_update":"0001-01-01T00:00:00Z","name_a2s":"Uncletopia | London | 3 | All Maps","protocol":17,"map":"koth_cascade","folder":"tf","game":"Team Fortress","app_id":440,"player_count":0,"max_players":24,"Bots":0,"server_type":"Dedicated","server_os":"Linux","password":true,"vac":true,"version":"7708610","steam_id":85568392924510192,"keywords":["cp","nocrits","nodmgspread","uncletopia"],"game_id":440,"stv_port":27036,"stv_name":"Uncletopia | London | 3 | All Maps | STV","players":null},{"server_id":321,"name":"Uncletopia | London | 4 | All Maps","name_short":"lon-4","host":"lon-1.uk.uncletopia.com","port":27045,"enabled":true,"region":"eu","cc":"gb","latitude":51.509865,"longitude":-0.118092,"reserved":0,"last_update":"0001-01-01T00:00:00Z","name_a2s":"Uncletopia | London | 4 | All Maps","protocol":17,"map":"pl_upward","folder":"tf","game":"Team Fortress","app_id":440,"player_count":0,"max_players":24,"Bots":0,"server_type":"Dedicated","server_os":"Linux","password":true,"vac":true,"version":"7708610","steam_id":85568392924510193,"keywords":["nocrits","nodmgspread","payload","uncletopia"],"game_id":440,"stv_port":27046,"stv_name":"Uncletopia | London | 4 | All Maps | STV","players":null},{"server_id":21,"name":"Uncletopia | London | 5 | All Maps","name_short":"lon-5","host":"lon-1.uk.uncletopia.com","port":27055,"enabled":true,"region":"eu","cc":"gb","latitude":51.509865,"longitude":-0.118092,"reserved":0,"last_update":"0001-01-01T00:00:00Z","name_a2s":"Uncletopia | London | 5 | All Maps","protocol":17,"map":"pl_badwater","folder":"tf","game":"Team Fortress","app_id":440,"player_count":0,"max_players":24,"Bots":0,"server_type":"Dedicated","server_os":"Linux","password":true,"vac":true,"version":"7708610","steam_id":85568392924742829,"keywords":["nocrits","nodmgspread","payload","uncletopia"],"game_id":440,"stv_port":27056,"stv_name":"Uncletopia | London | 5 | All Maps | STV","players":null},{"server_id":22,"name":"Uncletopia | London | 6 | All Maps","name_short":"lon-6","host":"lon-1.uk.uncletopia.com","port":27065,"enabled":true,"region":"eu","cc":"gb","latitude":51.509865,"longitude":-0.118092,"reserved":0,"last_update":"0001-01-01T00:00:00Z","name_a2s":"Uncletopia | London | 6 | All Maps","protocol":17,"map":"pl_frontier_final","folder":"tf","game":"Team Fortress","app_id":440,"player_count":0,"max_players":24,"Bots":0,"server_type":"Dedicated","server_os":"Linux","password":true,"vac":true,"version":"7708610","steam_id":85568392924742830,"keywords":["nocrits","nodmgspread","payload","uncletopia"],"game_id":440,"stv_port":27066,"stv_name":"Uncletopia | London | 6 | All Maps | STV","players":null},{"server_id":40,"name":"Uncletopia | London | 7 | No Payload","name_short":"lon-7","host":"lon-1.uk.uncletopia.com","port":27075,"enabled":true,"region":"eu","cc":"gb","latitude":51.509865,"longitude":-0.118092,"reserved":0,"last_update":"0001-01-01T00:00:00Z","name_a2s":"Uncletopia | London | 7 | No Payload","protocol":17,"map":"pl_barnblitz","folder":"tf","game":"Team Fortress","app_id":440,"player_count":0,"max_players":24,"Bots":0,"server_type":"Dedicated","server_os":"Linux","password":true,"vac":true,"version":"7708610","steam_id":85568392924964314,"keywords":["nocrits","nodmgspread","payload","uncletopia"],"game_id":440,"stv_port":27076,"stv_name":"Uncletopia | London | 7 | No Payload | STV","players":null},{"server_id":41,"name":"Uncletopia | London | 8 | Community","name_short":"lon-8","host":"lon-1.uk.uncletopia.com","port":27085,"enabled":true,"region":"eu","cc":"gb","latitude":51.509865,"longitude":-0.118092,"reserved":0,"last_update":"0001-01-01T00:00:00Z","name_a2s":"Uncletopia | London | 8 | Community","protocol":17,"map":"pl_pier","folder":"tf","game":"Team Fortress","app_id":440,"player_count":0,"max_players":24,"Bots":0,"server_type":"Dedicated","server_os":"Linux","password":true,"vac":true,"version":"7708610","steam_id":85568392924964315,"keywords":["nocrits","nodmgspread","payload","uncletopia"],"game_id":440,"stv_port":27086,"stv_name":"Uncletopia | London | 8 | Community | STV","players":null},{"server_id":300,"name":"Uncletopia | Montréal | 1 | All Maps","name_short":"mtl-1","host":"mtl-1.ca.uncletopia.com","port":27015,"enabled":true,"region":"us-east","cc":"ca","latitude":45.50889,"longitude":-73.56167,"reserved":0,"last_update":"0001-01-01T00:00:00Z","name_a2s":"Uncletopia | Montréal | 1 | All Maps","protocol":17,"map":"koth_viaduct","folder":"tf","game":"Team Fortress","app_id":440,"player_count":0,"max_players":24,"Bots":0,"server_type":"Dedicated","server_os":"Linux","password":true,"vac":true,"version":"7708610","steam_id":85568392924500087,"keywords":["cp","nocrits","nodmgspread","uncletopia"],"game_id":440,"stv_port":27016,"stv_name":"Uncletopia | Montréal | 1 | All Maps | STV","players":null},{"server_id":301,"name":"Uncletopia | Montréal | 2 | All Maps","name_short":"mtl-2","host":"mtl-1.ca.uncletopia.com","port":27025,"enabled":true,"region":"us-east","cc":"ca","latitude":45.50889,"longitude":-73.56167,"reserved":0,"last_update":"0001-01-01T00:00:00Z","name_a2s":"Uncletopia | Montréal | 2 | All Maps","protocol":17,"map":"koth_highpass","folder":"tf","game":"Team Fortress","app_id":440,"player_count":0,"max_players":24,"Bots":0,"server_type":"Dedicated","server_os":"Linux","password":true,"vac":true,"version":"7708610","steam_id":85568392924500088,"keywords":["cp","nocrits","nodmgspread","uncletopia"],"game_id":440,"stv_port":27026,"stv_name":"Uncletopia | Montréal | 2 | All Maps | STV","players":null},{"server_id":302,"name":"Uncletopia | Montréal | 3 | All Maps","name_short":"mtl-3","host":"mtl-1.ca.uncletopia.com","port":27035,"enabled":true,"region":"us-east","cc":"ca","latitude":45.50889,"longitude":-73.56167,"reserved":0,"last_update":"0001-01-01T00:00:00Z","name_a2s":"Uncletopia | Montréal | 3 | All Maps","protocol":17,"map":"cp_process_final","folder":"tf","game":"Team Fortress","app_id":440,"player_count":0,"max_players":24,"Bots":0,"server_type":"Dedicated","server_os":"Linux","password":true,"vac":true,"version":"7708610","steam_id":85568392924500089,"keywords":["cp","nocrits","nodmgspread","uncletopia"],"game_id":440,"stv_port":27036,"stv_name":"Uncletopia | Montréal | 3 | All Maps | STV","players":null},{"server_id":303,"name":"Uncletopia | Montréal | 4 | No Payload","name_short":"mtl-4","host":"mtl-1.ca.uncletopia.com","port":27045,"enabled":true,"region":"us-east","cc":"ca","latitude":45.50889,"longitude":-73.56167,"reserved":0,"last_update":"0001-01-01T00:00:00Z","name_a2s":"Uncletopia | Montréal | 4 | No Payload","protocol":17,"map":"cp_granary","folder":"tf","game":"Team Fortress","app_id":440,"player_count":0,"max_players":24,"Bots":0,"server_type":"Dedicated","server_os":"Linux","password":true,"vac":true,"version":"7708610","steam_id":85568392924500090,"keywords":["cp","nocrits","nodmgspread","uncletopia"],"game_id":440,"stv_port":27046,"stv_name":"Uncletopia | Montréal | 4 | No Payload | STV","players":null},{"server_id":13,"name":"Uncletopia | New York City | 1 | All Maps","name_short":"nyc-1","host":"nyc-1.us.uncletopia.com","port":27015,"enabled":true,"region":"us-east","cc":"us","latitude":40.73061,"longitude":-73.93524,"reserved":0,"last_update":"0001-01-01T00:00:00Z","name_a2s":"Uncletopia | New York City | 1 | All Maps","protocol":17,"map":"koth_lakeside_final","folder":"tf","game":"Team Fortress","app_id":440,"player_count":0,"max_players":24,"Bots":0,"server_type":"Dedicated","server_os":"Linux","password":true,"vac":true,"version":"7708610","steam_id":85568392924469993,"keywords":["cp","nocrits","nodmgspread","uncletopia"],"game_id":440,"stv_port":27016,"stv_name":"Uncletopia | New York City | 1 | All Maps | STV","players":null},{"server_id":14,"name":"Uncletopia | New York City | 2 | All Maps","name_short":"nyc-2","host":"nyc-1.us.uncletopia.com","port":27025,"enabled":true,"region":"us-east","cc":"us","latitude":40.73061,"longitude":-73.93524,"reserved":0,"last_update":"0001-01-01T00:00:00Z","name_a2s":"Uncletopia | New York City | 2 | All Maps","protocol":17,"map":"pl_barnblitz","folder":"tf","game":"Team Fortress","app_id":440,"player_count":24,"max_players":24,"Bots":0,"server_type":"Dedicated","server_os":"Linux","password":true,"vac":true,"version":"7708610","steam_id":85568392924469994,"keywords":["nocrits","nodmgspread","payload","uncletopia"],"game_id":440,"stv_port":27026,"stv_name":"Uncletopia | New York City | 2 | All Maps | STV","players":[{"user_id":439,"name":"Brainfreezzzzz","steam_id":76561198068496884,"connected_time":6267000000000,"state":"active","ping":49},{"user_id":513,"name":"azzzertyy","steam_id":76561198083483187,"connected_time":355000000000,"state":"active","ping":118},{"user_id":512,"name":"Strangetamer","steam_id":76561197996716051,"connected_time":453000000000,"state":"active","ping":66},{"user_id":510,"name":"CSCX","steam_id":76561198022728525,"connected_time":559000000000,"state":"active","ping":123},{"user_id":476,"name":"Johnny Esports","steam_id":76561198115812405,"connected_time":3056000000000,"state":"active","ping":59},{"user_id":505,"name":":3","steam_id":76561198078721142,"connected_time":937000000000,"state":"active","ping":66},{"user_id":511,"name":"Lataluleela","steam_id":76561198077800698,"connected_time":550000000000,"state":"active","ping":84},{"user_id":507,"name":"Artic_Ryuu","steam_id":76561198182194918,"connected_time":849000000000,"state":"active","ping":105},{"user_id":514,"name":"sawrik","steam_id":76561198018808213,"connected_time":308000000000,"state":"active","ping":70},{"user_id":492,"name":"boxagon","steam_id":76561198307845869,"connected_time":2294000000000,"state":"active","ping":62},{"user_id":474,"name":"⟦𝓐𝓖𝓜𝓨⟧ Crossfit","steam_id":76561198097459143,"connected_time":3587000000000,"state":"active","ping":60},{"user_id":466,"name":"SlipperyBiz","steam_id":76561198011132403,"connected_time":4741000000000,"state":"active","ping":109},{"user_id":500,"name":"a table","steam_id":76561198158461279,"connected_time":1493000000000,"state":"active","ping":129},{"user_id":503,"name":"MitcheyHD","steam_id":76561198066489645,"connected_time":1082000000000,"state":"active","ping":62},{"user_id":508,"name":"Karma's Kringle Caper","steam_id":76561198059385185,"connected_time":840000000000,"state":"active","ping":70},{"user_id":515,"name":"Corn","steam_id":76561198177186718,"connected_time":194000000000,"state":"active","ping":62},{"user_id":448,"name":"Stressmelo","steam_id":76561199204445185,"connected_time":5925000000000,"state":"active","ping":75},{"user_id":497,"name":"4Lukaska","steam_id":76561198083515060,"connected_time":1783000000000,"state":"active","ping":48},{"user_id":509,"name":"i'll have what you're having","steam_id":76561198035337657,"connected_time":831000000000,"state":"active","ping":51},{"user_id":469,"name":"Sharp","steam_id":76561198044565001,"connected_time":4615000000000,"state":"active","ping":88},{"user_id":470,"name":"goodheartchris","steam_id":76561198045836210,"connected_time":4111000000000,"state":"active","ping":73},{"user_id":472,"name":"TuxedoCat","steam_id":76561198106596278,"connected_time":3685000000000,"state":"active","ping":107},{"user_id":516,"name":"MILK MAN","steam_id":76561199012860639,"connected_time":192000000000,"state":"active","ping":69},{"user_id":517,"name":"mike","steam_id":76561198099412571,"connected_time":174000000000,"state":"active","ping":58}]},{"server_id":15,"name":"Uncletopia | New York City | 3 | All Maps","name_short":"nyc-3","host":"nyc-1.us.uncletopia.com","port":27035,"enabled":true,"region":"us-east","cc":"us","latitude":40.73061,"longitude":-73.93524,"reserved":0,"last_update":"0001-01-01T00:00:00Z","name_a2s":"Uncletopia | New York City | 3 | All Maps","protocol":17,"map":"koth_viaduct","folder":"tf","game":"Team Fortress","app_id":440,"player_count":0,"max_players":24,"Bots":0,"server_type":"Dedicated","server_os":"Linux","password":true,"vac":true,"version":"7708610","steam_id":85568392924742820,"keywords":["cp","nocrits","nodmgspread","uncletopia"],"game_id":440,"stv_port":27036,"stv_name":"Uncletopia | New York City | 3 | All Maps | STV","players":null},{"server_id":16,"name":"Uncletopia | New York City | 4 | Community","name_short":"nyc-4","host":"nyc-1.us.uncletopia.com","port":27045,"enabled":true,"region":"us-east","cc":"us","latitude":40.73061,"longitude":-73.93524,"reserved":0,"last_update":"0001-01-01T00:00:00Z","name_a2s":"Uncletopia | New York City | 4 | Community","protocol":17,"map":"workshop/koth_synthetic_rc6a.ugc1549817316","folder":"tf","game":"Team Fortress","app_id":440,"player_count":0,"max_players":24,"Bots":0,"server_type":"Dedicated","server_os":"Linux","password":true,"vac":true,"version":"7708610","steam_id":85568392924742821,"keywords":["cp","nocrits","nodmgspread","uncletopia"],"game_id":440,"stv_port":27046,"stv_name":"Uncletopia | New York City | 4 | Community | STV","players":null},{"server_id":142,"name":"Uncletopia | São Paulo | 1 | All Maps","name_short":"sao-1","host":"sao-1.br.uncletopia.com","port":27015,"enabled":true,"region":"sa","cc":"br","latitude":-23.533773,"longitude":-46.62529,"reserved":0,"last_update":"0001-01-01T00:00:00Z","name_a2s":"Uncletopia | São Paulo | 1 | All Maps","protocol":17,"map":"pl_snowycoast","folder":"tf","game":"Team Fortress","app_id":440,"player_count":0,"max_players":24,"Bots":0,"server_type":"Dedicated","server_os":"Linux","password":true,"vac":true,"version":"7708610","steam_id":85568392924469996,"keywords":["nocrits","nodmgspread","payload","uncletopia"],"game_id":440,"stv_port":27016,"stv_name":"Uncletopia | São Paulo | 1 | All Maps | STV","players":null},{"server_id":143,"name":"Uncletopia | São Paulo | 2 | All Maps","name_short":"sao-2","host":"sao-2.br.uncletopia.com","port":27015,"enabled":true,"region":"sa","cc":"br","latitude":-23.533773,"longitude":-46.62529,"reserved":0,"last_update":"0001-01-01T00:00:00Z","name_a2s":"Uncletopia | São Paulo | 2 | All Maps","protocol":17,"map":"koth_cascade","folder":"tf","game":"Team Fortress","app_id":440,"player_count":0,"max_players":24,"Bots":0,"server_type":"Dedicated","server_os":"Linux","password":true,"vac":true,"version":"7708610","steam_id":85568392924485349,"keywords":["cp","nocrits","nodmgspread","uncletopia"],"game_id":440,"stv_port":27016,"stv_name":"Uncletopia | São Paulo | 2 | All Maps | STV","players":null},{"server_id":7,"name":"Uncletopia | Seattle | 1 | All Maps","name_short":"sea-1","host":"sea-1.us.uncletopia.com","port":27015,"enabled":true,"region":"us-west","cc":"us","latitude":47.608013,"longitude":-122.33517,"reserved":0,"last_update":"0001-01-01T00:00:00Z","name_a2s":"Uncletopia | Seattle | 1 | All Maps","protocol":17,"map":"pl_snowycoast","folder":"tf","game":"Team Fortress","app_id":440,"player_count":24,"max_players":24,"Bots":0,"server_type":"Dedicated","server_os":"Linux","password":true,"vac":true,"version":"7708610","steam_id":85568392924469997,"keywords":["nocrits","nodmgspread","payload","uncletopia"],"game_id":440,"stv_port":27016,"stv_name":"Uncletopia | Seattle | 1 | All Maps | STV","players":[{"user_id":754,"name":"GameGuru the Green Gryphon","steam_id":76561198118495354,"connected_time":944000000000,"state":"active","ping":56},{"user_id":720,"name":"reiidieya","steam_id":76561198325306660,"connected_time":3791000000000,"state":"active","ping":56},{"user_id":750,"name":"Harley [Ramiel]","steam_id":76561198079510840,"connected_time":1277000000000,"state":"active","ping":46},{"user_id":738,"name":"Mike Hawk","steam_id":76561198045053326,"connected_time":2225000000000,"state":"active","ping":47},{"user_id":730,"name":"Avem","steam_id":76561198058763710,"connected_time":2795000000000,"state":"active","ping":83},{"user_id":739,"name":"Jei","steam_id":76561198151596927,"connected_time":1891000000000,"state":"active","ping":123},{"user_id":757,"name":"Chris P. Wiener","steam_id":76561198168808551,"connected_time":335000000000,"state":"active","ping":56},{"user_id":721,"name":"rat gets the cheese","steam_id":76561198031234032,"connected_time":3556000000000,"state":"active","ping":113},{"user_id":747,"name":"SmallErection","steam_id":76561198071770147,"connected_time":1332000000000,"state":"active","ping":58},{"user_id":753,"name":"Seriously Bruh","steam_id":76561198070408485,"connected_time":1066000000000,"state":"active","ping":62},{"user_id":732,"name":"Arsonist Goose","steam_id":76561198147441830,"connected_time":2778000000000,"state":"active","ping":76},{"user_id":749,"name":"Closed.","steam_id":76561198212598967,"connected_time":1304000000000,"state":"active","ping":85},{"user_id":715,"name":"BLØRG","steam_id":76561198036126673,"connected_time":4391000000000,"state":"active","ping":90},{"user_id":734,"name":"JON","steam_id":76561198057971005,"connected_time":2724000000000,"state":"active","ping":38},{"user_id":755,"name":"Donkski","steam_id":76561198406895347,"connected_time":848000000000,"state":"active","ping":78},{"user_id":746,"name":"Ayayahuasca","steam_id":76561199002906056,"connected_time":1356000000000,"state":"active","ping":48},{"user_id":751,"name":"Screwwie","steam_id":76561198006892781,"connected_time":1258000000000,"state":"active","ping":52},{"user_id":742,"name":"Shah","steam_id":76561198047508851,"connected_time":1674000000000,"state":"active","ping":46},{"user_id":643,"name":"Lord Hater","steam_id":76561199158148782,"connected_time":10969000000000,"state":"active","ping":68},{"user_id":758,"name":"blinkerton city","steam_id":76561198054270410,"connected_time":274000000000,"state":"active","ping":56},{"user_id":695,"name":"delight","steam_id":76561197980280272,"connected_time":6034000000000,"state":"active","ping":49},{"user_id":745,"name":"Wrench","steam_id":76561198137242573,"connected_time":1364000000000,"state":"active","ping":55},{"user_id":752,"name":"Biggest Dude In Town 4U","steam_id":76561198070281464,"connected_time":1257000000000,"state":"active","ping":110},{"user_id":759,"name":"Aux","steam_id":76561199091651065,"connected_time":271000000000,"state":"active","ping":70}]},{"server_id":119,"name":"Uncletopia | Seattle | 2 | All Maps","name_short":"sea-2","host":"sea-1.us.uncletopia.com","port":27025,"enabled":true,"region":"us-west","cc":"us","latitude":47.608013,"longitude":-122.33517,"reserved":0,"last_update":"0001-01-01T00:00:00Z","name_a2s":"Uncletopia | Seattle | 2 | All Maps","protocol":17,"map":"pl_badwater","folder":"tf","game":"Team Fortress","app_id":440,"player_count":24,"max_players":24,"Bots":0,"server_type":"Dedicated","server_os":"Linux","password":true,"vac":true,"version":"7708610","steam_id":85568392924469998,"keywords":["nocrits","nodmgspread","payload","uncletopia"],"game_id":440,"stv_port":27026,"stv_name":"Uncletopia | Seattle | 2 | All Maps | STV","players":[{"user_id":359,"name":"tim E","steam_id":76561198401800919,"connected_time":73000000000,"state":"active","ping":90},{"user_id":333,"name":"Ace","steam_id":76561199202306398,"connected_time":2347000000000,"state":"active","ping":93},{"user_id":300,"name":"Dogg wader","steam_id":76561199090314340,"connected_time":4934000000000,"state":"active","ping":108},{"user_id":294,"name":"jacix3 [gay wolfgirl]{she/it}","steam_id":76561198205004165,"connected_time":5228000000000,"state":"active","ping":60},{"user_id":357,"name":"LIN♡","steam_id":76561199411560141,"connected_time":175000000000,"state":"active","ping":47},{"user_id":339,"name":"......","steam_id":76561198067612741,"connected_time":1643000000000,"state":"active","ping":44},{"user_id":348,"name":"Gilgamesh","steam_id":76561198317113179,"connected_time":631000000000,"state":"active","ping":94},{"user_id":349,"name":"Greskrendtregk","steam_id":76561197969553142,"connected_time":621000000000,"state":"active","ping":52},{"user_id":350,"name":"Patio","steam_id":76561197986082608,"connected_time":595000000000,"state":"active","ping":51},{"user_id":351,"name":"NIGHTGAMER7","steam_id":76561198079419562,"connected_time":573000000000,"state":"active","ping":112},{"user_id":345,"name":"Noe97663","steam_id":76561198111468690,"connected_time":1181000000000,"state":"active","ping":84},{"user_id":352,"name":"Mr.Indian Jokar","steam_id":76561198381343086,"connected_time":525000000000,"state":"active","ping":76},{"user_id":347,"name":"nutty","steam_id":76561198043804390,"connected_time":668000000000,"state":"active","ping":129},{"user_id":323,"name":"Optimore","steam_id":76561198047662990,"connected_time":3040000000000,"state":"active","ping":73},{"user_id":344,"name":"hosewater","steam_id":76561198023383126,"connected_time":1354000000000,"state":"active","ping":56},{"user_id":353,"name":"zig","steam_id":76561199020345303,"connected_time":524000000000,"state":"active","ping":84},{"user_id":354,"name":"a crazy hobo","steam_id":76561198289650060,"connected_time":520000000000,"state":"active","ping":75},{"user_id":336,"name":"oil","steam_id":76561198099980149,"connected_time":1781000000000,"state":"active","ping":75},{"user_id":355,"name":"backyard scientist","steam_id":76561198879205905,"connected_time":514000000000,"state":"active","ping":57},{"user_id":282,"name":"The Horny","steam_id":76561198863639459,"connected_time":6213000000000,"state":"active","ping":89},{"user_id":335,"name":"Banjo","steam_id":76561198004652853,"connected_time":2287000000000,"state":"active","ping":58},{"user_id":356,"name":"Chat only you baloney d=","steam_id":76561198847974905,"connected_time":514000000000,"state":"active","ping":59},{"user_id":319,"name":"\u003cMoonflower\u003e","steam_id":76561198287647436,"connected_time":3750000000000,"state":"active","ping":47},{"user_id":341,"name":"Amateur Glaswegian","steam_id":76561198030851956,"connected_time":1617000000000,"state":"active","ping":47}]},{"server_id":17,"name":"Uncletopia | San Francisco | 1 | All Maps","name_short":"sfo-1","host":"sfo-1.us.uncletopia.com","port":27015,"enabled":true,"region":"us-west","cc":"us","latitude":37.77397,"longitude":-122.4313,"reserved":0,"last_update":"0001-01-01T00:00:00Z","name_a2s":"Uncletopia | San Francisco | 1 | All Maps","protocol":17,"map":"koth_highpass","folder":"tf","game":"Team Fortress","app_id":440,"player_count":0,"max_players":24,"Bots":0,"server_type":"Dedicated","server_os":"Linux","password":true,"vac":true,"version":"7708610","steam_id":85568392924469999,"keywords":["cp","nocrits","nodmgspread","uncletopia"],"game_id":440,"stv_port":27016,"stv_name":"Uncletopia | San Francisco | 1 | All Maps | STV","players":null},{"server_id":18,"name":"Uncletopia | San Francisco | 2 | All Maps","name_short":"sfo-2","host":"sfo-1.us.uncletopia.com","port":27025,"enabled":true,"region":"us-west","cc":"us","latitude":37.77397,"longitude":-122.4313,"reserved":0,"last_update":"0001-01-01T00:00:00Z","name_a2s":"Uncletopia | San Francisco | 2 | All Maps","protocol":17,"map":"pl_borneo","folder":"tf","game":"Team Fortress","app_id":440,"player_count":24,"max_players":24,"Bots":0,"server_type":"Dedicated","server_os":"Linux","password":true,"vac":true,"version":"7708610","steam_id":85568392924470000,"keywords":["nocrits","nodmgspread","payload","uncletopia"],"game_id":440,"stv_port":27026,"stv_name":"Uncletopia | San Francisco | 2 | All Maps | STV","players":[{"user_id":58,"name":"The Male's Return.","steam_id":76561199132426068,"connected_time":6527000000000,"state":"active","ping":127},{"user_id":126,"name":"PunishedCrab","steam_id":76561198079650017,"connected_time":1565000000000,"state":"active","ping":65},{"user_id":123,"name":"ganjasmoker22","steam_id":76561198168621580,"connected_time":2142000000000,"state":"active","ping":79},{"user_id":136,"name":"☆","steam_id":76561198803824764,"connected_time":187000000000,"state":"active","ping":80},{"user_id":114,"name":"Eggnog","steam_id":76561197968179862,"connected_time":2620000000000,"state":"active","ping":64},{"user_id":127,"name":"Branz","steam_id":76561198076632143,"connected_time":1408000000000,"state":"active","ping":73},{"user_id":128,"name":"explosives anonymous","steam_id":76561198141862936,"connected_time":1370000000000,"state":"active","ping":45},{"user_id":90,"name":"BlahBlah","steam_id":76561198027446969,"connected_time":4171000000000,"state":"active","ping":51},{"user_id":116,"name":"Deborp","steam_id":76561198118868430,"connected_time":2580000000000,"state":"active","ping":119},{"user_id":134,"name":"CFGU || RAWRWAFL","steam_id":76561198032118386,"connected_time":429000000000,"state":"active","ping":105},{"user_id":137,"name":"gretchling","steam_id":76561198046111695,"connected_time":152000000000,"state":"active","ping":80},{"user_id":108,"name":"Amogous Supreme","steam_id":76561198025476774,"connected_time":2880000000000,"state":"active","ping":56},{"user_id":119,"name":"Satori Komeiji","steam_id":76561198158211423,"connected_time":2280000000000,"state":"active","ping":45},{"user_id":139,"name":"Vladimir Chirgin","steam_id":76561198170035235,"connected_time":129000000000,"state":"active","ping":80},{"user_id":64,"name":"Obtibotimus Prime","steam_id":76561198066091050,"connected_time":6482000000000,"state":"active","ping":76},{"user_id":130,"name":"drécat","steam_id":76561198048541049,"connected_time":1266000000000,"state":"active","ping":112},{"user_id":133,"name":"Casey Ballistic","steam_id":76561198896112206,"connected_time":943000000000,"state":"active","ping":51},{"user_id":131,"name":"is always watching.","steam_id":76561198859793304,"connected_time":1262000000000,"state":"active","ping":125},{"user_id":135,"name":"Goblin","steam_id":76561198804708922,"connected_time":219000000000,"state":"active","ping":52},{"user_id":56,"name":"lol","steam_id":76561198026491738,"connected_time":6660000000000,"state":"active","ping":65},{"user_id":124,"name":"Pyrotek⁴","steam_id":76561198072747672,"connected_time":1911000000000,"state":"active","ping":56},{"user_id":117,"name":"Bob the Builder","steam_id":76561199069029812,"connected_time":2433000000000,"state":"active","ping":55},{"user_id":132,"name":"BRUHBRUHBRUHBRUHBRUHBRUHBRUHBRU","steam_id":76561199030836659,"connected_time":1256000000000,"state":"active","ping":90},{"user_id":113,"name":"NooBHatteR","steam_id":76561198077662703,"connected_time":2743000000000,"state":"active","ping":72}]},{"server_id":19,"name":"Uncletopia | San Francisco | 3 | No Payload","name_short":"sfo-3","host":"sfo-1.us.uncletopia.com","port":27035,"enabled":true,"region":"us-west","cc":"us","latitude":37.77397,"longitude":-122.4313,"reserved":0,"last_update":"0001-01-01T00:00:00Z","name_a2s":"Uncletopia | San Francisco | 3 | No Payload","protocol":17,"map":"koth_lazarus","folder":"tf","game":"Team Fortress","app_id":440,"player_count":0,"max_players":24,"Bots":0,"server_type":"Dedicated","server_os":"Linux","password":true,"vac":true,"version":"7708610","steam_id":85568392924742824,"keywords":["cp","nocrits","nodmgspread","uncletopia"],"game_id":440,"stv_port":27036,"stv_name":"Uncletopia | San Francisco | 3 | No Payload | STV","players":null},{"server_id":20,"name":"Uncletopia | San Francisco | 4 | Community","name_short":"sfo-4","host":"sfo-1.us.uncletopia.com","port":27045,"enabled":true,"region":"us-west","cc":"us","latitude":37.77397,"longitude":-122.4313,"reserved":0,"last_update":"0001-01-01T00:00:00Z","name_a2s":"Uncletopia | San Francisco | 4 | Community","protocol":17,"map":"workshop/koth_slaughter_rc1.ugc1712845210","folder":"tf","game":"Team Fortress","app_id":440,"player_count":0,"max_players":24,"Bots":0,"server_type":"Dedicated","server_os":"Linux","password":true,"vac":true,"version":"7708610","steam_id":85568392924742826,"keywords":["cp","nocrits","nodmgspread","uncletopia"],"game_id":440,"stv_port":27046,"stv_name":"Uncletopia | San Francisco | 4 | Community | STV","players":null},{"server_id":141,"name":"Uncletopia | Sydney | 1 | All Maps","name_short":"syd-1","host":"syd-1.au.uncletopia.com","port":27015,"enabled":true,"region":"au","cc":"au","latitude":-33.865143,"longitude":151.2099,"reserved":0,"last_update":"0001-01-01T00:00:00Z","name_a2s":"Uncletopia | Sydney | 1 | All Maps","protocol":17,"map":"ctf_2fort","folder":"tf","game":"Team Fortress","app_id":440,"player_count":24,"max_players":24,"Bots":0,"server_type":"Dedicated","server_os":"Linux","password":true,"vac":true,"version":"7708610","steam_id":85568392924470001,"keywords":["ctf","nocrits","nodmgspread","uncletopia"],"game_id":440,"stv_port":27016,"stv_name":"Uncletopia | Sydney | 1 | All Maps | STV","players":[{"user_id":375,"name":"Orsn","steam_id":76561198297074145,"connected_time":2260000000000,"state":"active","ping":86},{"user_id":362,"name":"Mooty","steam_id":76561198301293435,"connected_time":2889000000000,"state":"active","ping":53},{"user_id":383,"name":"FrontlineNinja","steam_id":76561198046731954,"connected_time":1340000000000,"state":"active","ping":53},{"user_id":377,"name":"monocrumb","steam_id":76561199126588682,"connected_time":1902000000000,"state":"active","ping":66},{"user_id":370,"name":"catboy","steam_id":76561198071482715,"connected_time":2441000000000,"state":"active","ping":35},{"user_id":395,"name":"Parcy","steam_id":76561198071114047,"connected_time":74000000000,"state":"active","ping":64},{"user_id":360,"name":"Isotope","steam_id":76561198182437450,"connected_time":2902000000000,"state":"active","ping":92},{"user_id":382,"name":"SaltierThanYou","steam_id":76561198444395188,"connected_time":1572000000000,"state":"active","ping":76},{"user_id":394,"name":"Extra Exotic","steam_id":76561198045191981,"connected_time":248000000000,"state":"active","ping":63},{"user_id":278,"name":"Dankered","steam_id":76561198195891217,"connected_time":7934000000000,"state":"active","ping":55},{"user_id":378,"name":"NewChris","steam_id":76561198254754182,"connected_time":1850000000000,"state":"active","ping":78},{"user_id":393,"name":"Jack","steam_id":76561198064889041,"connected_time":275000000000,"state":"active","ping":47},{"user_id":386,"name":"krandlez` (Any/All)","steam_id":76561198044839726,"connected_time":1009000000000,"state":"active","ping":42},{"user_id":337,"name":"Lyric","steam_id":76561198047515471,"connected_time":4785000000000,"state":"active","ping":94},{"user_id":368,"name":"Russel Crower","steam_id":76561198018183495,"connected_time":2488000000000,"state":"active","ping":43},{"user_id":381,"name":"pixerler2point0","steam_id":76561199102787464,"connected_time":1729000000000,"state":"active","ping":61},{"user_id":341,"name":"TheDoctor30","steam_id":76561198433686866,"connected_time":4748000000000,"state":"active","ping":97},{"user_id":372,"name":"KeeperOfBalance","steam_id":76561198028070089,"connected_time":2386000000000,"state":"active","ping":78},{"user_id":391,"name":"Salty Dog","steam_id":76561198038713921,"connected_time":721000000000,"state":"active","ping":61},{"user_id":371,"name":"surreal","steam_id":76561198983120413,"connected_time":2437000000000,"state":"active","ping":66},{"user_id":355,"name":"Spicy Baguette","steam_id":76561198238030210,"connected_time":3692000000000,"state":"active","ping":50},{"user_id":364,"name":"No Keyboard Gaming","steam_id":76561198412979983,"connected_time":2824000000000,"state":"active","ping":73},{"user_id":379,"name":"toots","steam_id":76561198094589768,"connected_time":1790000000000,"state":"active","ping":70},{"user_id":387,"name":"Sleepy_boi_123","steam_id":76561199172880360,"connected_time":969000000000,"state":"active","ping":65}]},{"server_id":123,"name":"Uncletopia | Sydney | 2 | All Maps","name_short":"syd-2","host":"syd-1.au.uncletopia.com","port":27025,"enabled":true,"region":"au","cc":"au","latitude":-33.865143,"longitude":151.2099,"reserved":0,"last_update":"0001-01-01T00:00:00Z","name_a2s":"Uncletopia | Sydney | 2 | All Maps","protocol":17,"map":"pl_swiftwater_final1","folder":"tf","game":"Team Fortress","app_id":440,"player_count":0,"max_players":24,"Bots":0,"server_type":"Dedicated","server_os":"Linux","password":true,"vac":true,"version":"7708610","steam_id":85568392924470002,"keywords":["nocrits","nodmgspread","payload","uncletopia"],"game_id":440,"stv_port":27026,"stv_name":"Uncletopia | Sydney | 2 | All Maps | STV","players":null},{"server_id":395,"name":"Uncletopia | Sydney | 3 | All Maps","name_short":"syd-3","host":"syd-1.au.uncletopia.com","port":27035,"enabled":true,"region":"au","cc":"au","latitude":-33.865143,"longitude":151.2099,"reserved":0,"last_update":"0001-01-01T00:00:00Z","name_a2s":"Uncletopia | Sydney | 3 | All Maps","protocol":17,"map":"koth_viaduct","folder":"tf","game":"Team Fortress","app_id":440,"player_count":0,"max_players":24,"Bots":0,"server_type":"Dedicated","server_os":"Linux","password":true,"vac":true,"version":"7708610","steam_id":85568392925194467,"keywords":["cp","nocrits","nodmgspread","uncletopia"],"game_id":440,"stv_port":27036,"stv_name":"Uncletopia | Sydney | 3 | All Maps | STV","players":null},{"server_id":396,"name":"Uncletopia | Sydney | 4 | All Maps","name_short":"syd-4","host":"syd-1.au.uncletopia.com","port":27045,"enabled":true,"region":"au","cc":"au","latitude":-33.865143,"longitude":151.2099,"reserved":0,"last_update":"0001-01-01T00:00:00Z","name_a2s":"Uncletopia | Sydney | 4 | All Maps","protocol":17,"map":"pl_frontier_final","folder":"tf","game":"Team Fortress","app_id":440,"player_count":0,"max_players":24,"Bots":0,"server_type":"Dedicated","server_os":"Linux","password":true,"vac":true,"version":"7708610","steam_id":85568392925397958,"keywords":["nocrits","nodmgspread","payload","uncletopia"],"game_id":440,"stv_port":27046,"stv_name":"Uncletopia | Sydney | 4 | All Maps | STV","players":null},{"server_id":58,"name":"Uncletopia | Sydney | 5 | No Payload","name_short":"syd-5","host":"syd-1.au.uncletopia.com","port":27055,"enabled":true,"region":"au","cc":"au","latitude":-33.865143,"longitude":151.2099,"reserved":0,"last_update":"0001-01-01T00:00:00Z","name_a2s":"Uncletopia | Sydney | 5 | No Payload","protocol":17,"map":"plr_hightower","folder":"tf","game":"Team Fortress","app_id":440,"player_count":0,"max_players":24,"Bots":0,"server_type":"Dedicated","server_os":"Linux","password":true,"vac":true,"version":"7708610","steam_id":85568392925397959,"keywords":["nocrits","nodmgspread","payload","uncletopia"],"game_id":440,"stv_port":27056,"stv_name":"Uncletopia | Sydney | 5 | No Payload | STV","players":null},{"server_id":59,"name":"Uncletopia | Sydney | 6 | Community","name_short":"syd-6","host":"syd-1.au.uncletopia.com","port":27065,"enabled":true,"region":"au","cc":"au","latitude":-33.865143,"longitude":151.2099,"reserved":0,"last_update":"0001-01-01T00:00:00Z","name_a2s":"Uncletopia | Sydney | 6 | Community","protocol":17,"map":"workshop/pl_barnblitz_pro7.ugc582280235","folder":"tf","game":"Team Fortress","app_id":440,"player_count":0,"max_players":24,"Bots":0,"server_type":"Dedicated","server_os":"Linux","password":true,"vac":true,"version":"7708610","steam_id":85568392925397960,"keywords":["nocrits","nodmgspread","payload","uncletopia"],"game_id":440,"stv_port":27066,"stv_name":"Uncletopia | Sydney | 6 | Community | STV","players":null},{"server_id":49,"name":"Uncletopia | Warsaw | 1 | All Maps","name_short":"waw-1","host":"waw-1.pl.uncletopia.com","port":27015,"enabled":true,"region":"eu","cc":"pl","latitude":52.2297,"longitude":21.017532,"reserved":0,"last_update":"0001-01-01T00:00:00Z","name_a2s":"Uncletopia | Warsaw | 1 | All Maps","protocol":17,"map":"pl_snowycoast","folder":"tf","game":"Team Fortress","app_id":440,"player_count":0,"max_players":24,"Bots":0,"server_type":"Dedicated","server_os":"Linux","password":true,"vac":true,"version":"7708610","steam_id":85568392925397850,"keywords":["nocrits","nodmgspread","payload","uncletopia"],"game_id":440,"stv_port":27016,"stv_name":"Uncletopia | Warsaw | 1 | All Maps | STV","players":null},{"server_id":50,"name":"Uncletopia | Warsaw | 2 | All Maps","name_short":"waw-2","host":"waw-1.pl.uncletopia.com","port":27025,"enabled":true,"region":"eu","cc":"pl","latitude":52.2297,"longitude":21.017532,"reserved":0,"last_update":"0001-01-01T00:00:00Z","name_a2s":"Uncletopia | Warsaw | 2 | All Maps","protocol":17,"map":"pl_barnblitz","folder":"tf","game":"Team Fortress","app_id":440,"player_count":0,"max_players":24,"Bots":0,"server_type":"Dedicated","server_os":"Linux","password":true,"vac":true,"version":"7708610","steam_id":85568392925397851,"keywords":["nocrits","nodmgspread","payload","uncletopia"],"game_id":440,"stv_port":27026,"stv_name":"Uncletopia | Warsaw | 2 | All Maps | STV","players":null},{"server_id":51,"name":"Uncletopia | Warsaw | 3 | All Maps","name_short":"waw-3","host":"waw-1.pl.uncletopia.com","port":27035,"enabled":true,"region":"eu","cc":"pl","latitude":52.2297,"longitude":21.017532,"reserved":0,"last_update":"0001-01-01T00:00:00Z","name_a2s":"Uncletopia | Warsaw | 3 | All Maps","protocol":17,"map":"pl_badwater","folder":"tf","game":"Team Fortress","app_id":440,"player_count":0,"max_players":24,"Bots":0,"server_type":"Dedicated","server_os":"Linux","password":true,"vac":true,"version":"7708610","steam_id":85568392925397852,"keywords":["nocrits","nodmgspread","payload","uncletopia"],"game_id":440,"stv_port":27036,"stv_name":"Uncletopia | Warsaw | 3 | All Maps | STV","players":null},{"server_id":52,"name":"Uncletopia | Warsaw | 4 | All Maps","name_short":"waw-4","host":"waw-1.pl.uncletopia.com","port":27045,"enabled":true,"region":"eu","cc":"pl","latitude":52.2297,"longitude":21.017532,"reserved":0,"last_update":"0001-01-01T00:00:00Z","name_a2s":"Uncletopia | Warsaw | 4 | All Maps","protocol":17,"map":"pl_pier","folder":"tf","game":"Team Fortress","app_id":440,"player_count":0,"max_players":24,"Bots":0,"server_type":"Dedicated","server_os":"Linux","password":true,"vac":true,"version":"7708610","steam_id":85568392925397853,"keywords":["nocrits","nodmgspread","payload","uncletopia"],"game_id":440,"stv_port":27046,"stv_name":"Uncletopia | Warsaw | 4 | All Maps | STV","players":null},{"server_id":53,"name":"Uncletopia | Warsaw | 5 | No Payload","name_short":"waw-5","host":"waw-1.pl.uncletopia.com","port":27055,"enabled":true,"region":"eu","cc":"pl","latitude":52.2297,"longitude":21.017532,"reserved":0,"last_update":"0001-01-01T00:00:00Z","name_a2s":"Uncletopia | Warsaw | 5 | No Payload","protocol":17,"map":"pl_borneo","folder":"tf","game":"Team Fortress","app_id":440,"player_count":0,"max_players":24,"Bots":0,"server_type":"Dedicated","server_os":"Linux","password":true,"vac":true,"version":"7708610","steam_id":85568392925397854,"keywords":["nocrits","nodmgspread","payload","uncletopia"],"game_id":440,"stv_port":27056,"stv_name":"Uncletopia | Warsaw | 5 | No Payload | STV","players":null},{"server_id":54,"name":"Uncletopia | Warsaw | 6 | Community","name_short":"waw-6","host":"waw-1.pl.uncletopia.com","port":27065,"enabled":true,"region":"eu","cc":"pl","latitude":52.2297,"longitude":21.017532,"reserved":0,"last_update":"0001-01-01T00:00:00Z","name_a2s":"Uncletopia | Warsaw | 6 | Community","protocol":17,"map":"pl_swiftwater_final1","folder":"tf","game":"Team Fortress","app_id":440,"player_count":0,"max_players":24,"Bots":0,"server_type":"Dedicated","server_os":"Linux","password":true,"vac":true,"version":"7708610","steam_id":85568392925397856,"keywords":["nocrits","nodmgspread","payload","uncletopia"],"game_id":440,"stv_port":27066,"stv_name":"Uncletopia | Warsaw | 6 | Community | STV","players":null}]}