{"status":true,"message":"","result":[{"server_id":9,"name":"Uncletopia | Atlanta | 1 | All Maps","name_short":"atl-1","host":"atl-1.us.uncletopia.com","port":27015,"enabled":true,"region":"us-east","cc":"us","latitude":33.753746,"longitude":-84.38633,"reserved":0,"last_update":"0001-01-01T00:00:00Z","name_a2s":"Uncletopia | Atlanta | 1 | All Maps","protocol":17,"map":"pl_snowycoast","folder":"tf","game":"Team Fortress","app_id":440,"player_count":0,"max_players":24,"Bots":0,"server_type":"Dedicated","server_os":"Linux","password":true,"vac":true,"version":"7742253","steam_id":85568392924469982,"keywords":["nocrits","nodmgspread","payload","uncletopia"],"game_id":440,"stv_port":27016,"stv_name":"Uncletopia | Atlanta | 1 | All Maps | STV","players":null},{"server_id":400,"name":"Uncletopia | Atlanta | 3 | Stopwatch Beta","name_short":"atl-3","host":"atl-1.us.uncletopia.com","port":27035,"enabled":true,"region":"us-east","cc":"us","latitude":33.753746,"longitude":-84.38633,"reserved":0,"last_update":"0001-01-01T00:00:00Z","name_a2s":"Uncletopia | Atlanta | 3 | Stopwatch Beta","protocol":17,"map":"pl_pier","folder":"tf","game":"Team Fortress","app_id":440,"player_count":0,"max_players":24,"Bots":0,"server_type":"Dedicated","server_os":"Linux","password":true,"vac":true,"version":"7742253","steam_id":85568392924515187,"keywords":["nocrits","nodmgspread","payload","uncletopia"],"game_id":440,"stv_port":27036,"stv_name":"Uncletopia | Atlanta | 3 | Stopwatch Beta | STV","players":null},{"server_id":401,"name":"Uncletopia | Atlanta | 4 | No Payload","name_short":"atl-4","host":"atl-1.us.uncletopia.com","port":27045,"enabled":true,"region":"us-east","cc":"us","latitude":33.753746,"longitude":-84.38633,"reserved":0,"last_update":"0001-01-01T00:00:00Z","name_a2s":"Uncletopia | Atlanta | 4 | No Payload","protocol":17,"map":"pl_pier","folder":"tf","game":"Team Fortress","app_id":440,"player_count":0,"max_players":24,"Bots":0,"server_type":"Dedicated","server_os":"Linux","password":true,"vac":true,"version":"7723704","steam_id":85568392924515188,"keywords":["nocrits","nodmgspread","payload","uncletopia"],"game_id":440,"stv_port":27046,"stv_name":"Uncletopia | Atlanta | 4 | No Payload | STV","players":null},{"server_id":2,"name":"Uncletopia | Chicago | 1 | All Maps","name_short":"chi-1","host":"chi-1.us.uncletopia.com","port":27015,"enabled":true,"region":"us-central","cc":"us","latitude":41.881832,"longitude":-87.62318,"reserved":0,"last_update":"0001-01-01T00:00:00Z","name_a2s":"Uncletopia | Chicago | 1 | All Maps","protocol":17,"map":"pl_barnblitz","folder":"tf","game":"Team Fortress","app_id":440,"player_count":0,"max_players":24,"Bots":0,"server_type":"Dedicated","server_os":"Linux","password":true,"vac":true,"version":"7742253","steam_id":85568392924469984,"keywords":["nocrits","nodmgspread","payload","uncletopia"],"game_id":440,"stv_port":27016,"stv_name":"Uncletopia | Chicago | 1 | All Maps | STV","players":null},{"server_id":106,"name":"Uncletopia | Chicago | 2 | All Maps","name_short":"chi-2","host":"chi-1.us.uncletopia.com","port":27025,"enabled":true,"region":"us-central","cc":"us","latitude":41.881832,"longitude":-87.62318,"reserved":0,"last_update":"0001-01-01T00:00:00Z","name_a2s":"Uncletopia | Chicago | 2 | All Maps","protocol":17,"map":"pl_snowycoast","folder":"tf","game":"Team Fortress","app_id":440,"player_count":0,"max_players":24,"Bots":0,"server_type":"Dedicated","server_os":"Linux","password":true,"vac":true,"version":"7742253","steam_id":85568392924469985,"keywords":["nocrits","nodmgspread","payload","uncletopia"],"game_id":440,"stv_port":27026,"stv_name":"Uncletopia | Chicago | 2 | All Maps | STV","players":null},{"server_id":402,"name":"Uncletopia | Chicago | 3 | All Maps","name_short":"chi-3","host":"chi-1.us.uncletopia.com","port":27035,"enabled":true,"region":"us-central","cc":"us","latitude":41.881832,"longitude":-87.62318,"reserved":0,"last_update":"0001-01-01T00:00:00Z","name_a2s":"Uncletopia | Chicago | 3 | All Maps","protocol":17,"map":"pl_frontier_final","folder":"tf","game":"Team Fortress","app_id":440,"player_count":24,"max_players":24,"Bots":0,"server_type":"Dedicated","server_os":"Linux","password":true,"vac":true,"version":"7742253","steam_id":85568392924515191,"keywords":["nocrits","nodmgspread","payload","uncletopia"],"game_id":440,"stv_port":27036,"stv_name":"Uncletopia | Chicago | 3 | All Maps | STV","players":[{"user_id":109,"name":"Soldier Impact","steam_id":76561198157004224,"connected_time":9000000000,"state":"spawning","ping":112},{"user_id":81,"name":"DeltaTroopa","steam_id":76561197969922298,"connected_time":2415000000000,"state":"active","ping":75},{"user_id":64,"name":"Moychel","steam_id":76561198135551500,"connected_time":3153000000000,"state":"active","ping":99},{"user_id":104,"name":"Kiss Master","steam_id":76561198289572271,"connected_time":551000000000,"state":"active","ping":66},{"user_id":63,"name":"CPUnit","steam_id":76561198162881878,"connected_time":3350000000000,"state":"active","ping":77},{"user_id":94,"name":"facecheck","steam_id":76561198115269587,"connected_time":1793000000000,"state":"active","ping":66},{"user_id":103,"name":"Magik","steam_id":76561198200169706,"connected_time":851000000000,"state":"active","ping":55},{"user_id":89,"name":"Ralsei","steam_id":76561198023352750,"connected_time":1899000000000,"state":"active","ping":84},{"user_id":49,"name":"Mogwr","steam_id":76561198124942972,"connected_time":4176000000000,"state":"active","ping":76},{"user_id":90,"name":"❤Graphite Muncher❤","steam_id":76561199200969139,"connected_time":1869000000000,"state":"active","ping":110},{"user_id":99,"name":"GuyGoom","steam_id":76561198254522178,"connected_time":997000000000,"state":"active","ping":54},{"user_id":80,"name":"Salium","steam_id":76561197961546093,"connected_time":2472000000000,"state":"active","ping":105},{"user_id":100,"name":"analytical therapist","steam_id":76561198081220016,"connected_time":981000000000,"state":"active","ping":53},{"user_id":91,"name":"Bryce Gobo","steam_id":76561199411560141,"connected_time":1856000000000,"state":"active","ping":93},{"user_id":35,"name":"Mothership","steam_id":76561198044029501,"connected_time":4965000000000,"state":"active","ping":149},{"user_id":77,"name":"imago","steam_id":76561198368441527,"connected_time":2509000000000,"state":"active","ping":74},{"user_id":36,"name":"Austin","steam_id":76561198046130018,"connected_time":4944000000000,"state":"active","ping":73},{"user_id":98,"name":"CalmBlue","steam_id":76561199129902780,"connected_time":1079000000000,"state":"active","ping":92},{"user_id":106,"name":"Daz","steam_id":76561198041431938,"connected_time":387000000000,"state":"active","ping":75},{"user_id":97,"name":"Draconic Ballad","steam_id":76561198027191515,"connected_time":1232000000000,"state":"active","ping":47},{"user_id":79,"name":"Not_an_Ace","steam_id":76561198819106762,"connected_time":2474000000000,"state":"active","ping":81},{"user_id":95,"name":"Unchained Zeity","steam_id":76561198414129606,"connected_time":1694000000000,"state":"active","ping":177},{"user_id":43,"name":"A Large Wooden Badger","steam_id":76561197993747302,"connected_time":4543000000000,"state":"active","ping":86},{"user_id":101,"name":"amagicowl","steam_id":76561199060487814,"connected_time":976000000000,"state":"active","ping":105}]},{"server_id":403,"name":"Uncletopia | Chicago | 4 | All Maps","name_short":"chi-4","host":"chi-1.us.uncletopia.com","port":27045,"enabled":true,"region":"us-central","cc":"us","latitude":41.881832,"longitude":-87.62318,"reserved":0,"last_update":"0001-01-01T00:00:00Z","name_a2s":"Uncletopia | Chicago | 4 | All Maps","protocol":17,"map":"koth_lakeside_final","folder":"tf","game":"Team Fortress","app_id":440,"player_count":0,"max_players":24,"Bots":0,"server_type":"Dedicated","server_os":"Linux","password":true,"vac":true,"version":"7742253","steam_id":85568392924515193,"keywords":["cp","nocrits","nodmgspread","uncletopia"],"game_id":440,"stv_port":27046,"stv_name":"Uncletopia | Chicago | 4 | All Maps | STV","players":null},{"server_id":36,"name":"Uncletopia | Chicago | 5 | All Maps","name_short":"chi-5","host":"chi-2.us.uncletopia.com","port":27015,"enabled":true,"region":"us-central","cc":"us","latitude":41.881832,"longitude":-87.62318,"reserved":0,"last_update":"0001-01-01T00:00:00Z","name_a2s":"Uncletopia | Chicago | 5 | All Maps","protocol":17,"map":"pl_upward","folder":"tf","game":"Team Fortress","app_id":440,"player_count":0,"max_players":24,"Bots":0,"server_type":"Dedicated","server_os":"Linux","password":true,"vac":true,"version":"7742253","steam_id":85568392924866362,"keywords":["nocrits","nodmgspread","payload","uncletopia"],"game_id":440,"stv_port":27016,"stv_name":"Uncletopia | Chicago | 5 | All Maps | STV","players":null},{"server_id":37,"name":"Uncletopia | Chicago | 6 | All Maps","name_short":"chi-6","host":"chi-2.us.uncletopia.com","port":27025,"enabled":true,"region":"us-central","cc":"us","latitude":41.881832,"longitude":-87.62318,"reserved":0,"last_update":"0001-01-01T00:00:00Z","name_a2s":"Uncletopia | Chicago | 6 | All Maps","protocol":17,"map":"cp_sunshine","folder":"tf","game":"Team Fortress","app_id":440,"player_count":0,"max_players":24,"Bots":0,"server_type":"Dedicated","server_os":"Linux","password":true,"vac":true,"version":"7742253","steam_id":85568392924866363,"keywords":["cp","nocrits","nodmgspread","uncletopia"],"game_id":440,"stv_port":27026,"stv_name":"Uncletopia | Chicago | 6 | All Maps | STV","players":null},{"server_id":38,"name":"Uncletopia | Chicago | 7 | Stopwatch Beta","name_short":"chi-7","host":"chi-2.us.uncletopia.com","port":27035,"enabled":true,"region":"us-central","cc":"us","latitude":41.881832,"longitude":-87.62318,"reserved":0,"last_update":"0001-01-01T00:00:00Z","name_a2s":"Uncletopia | Chicago | 7 | Stopwatch Beta","protocol":17,"map":"koth_lakeside_final","folder":"tf","game":"Team Fortress","app_id":440,"player_count":0,"max_players":24,"Bots":0,"server_type":"Dedicated","server_os":"Linux","password":true,"vac":true,"version":"7742253","steam_id":85568392924866364,"keywords":["cp","nocrits","nodmgspread","uncletopia"],"game_id":440,"stv_port":27036,"stv_name":"Uncletopia | Chicago | 7 | Stopwatch Beta | STV","players":null},{"server_id":39,"name":"Uncletopia | Chicago | 8 | Community","name_short":"chi-8","host":"chi-2.us.uncletopia.com","port":27045,"enabled":true,"region":"us-central","cc":"us","latitude":41.881832,"longitude":-87.62318,"reserved":0,"last_update":"0001-01-01T00:00:00Z","name_a2s":"Uncletopia | Chicago | 8 | Community","protocol":17,"map":"koth_lakeside_final","folder":"tf","game":"Team Fortress","app_id":440,"player_count":0,"max_players":24,"Bots":0,"server_type":"Dedicated","server_os":"Linux","password":true,"vac":true,"version":"7742253","steam_id":85568392924866365,"keywords":["cp","nocrits","nodmgspread","uncletopia"],"game_id":440,"stv_port":27046,"stv_name":"Uncletopia | Chicago | 8 | Community | STV","players":null},{"server_id":8,"name":"Uncletopia | Dallas | 1 | All Maps","name_short":"dal-1","host":"dal-1.us.uncletopia.com","port":27015,"enabled":true,"region":"us-central","cc":"us","latitude":32.779167,"longitude":-96.80889,"reserved":0,"last_update":"0001-01-01T00:00:00Z","name_a2s":"Uncletopia | Dallas | 1 | All Maps","protocol":17,"map":"cp_mountainlab","folder":"tf","game":"Team Fortress","app_id":440,"player_count":0,"max_players":24,"Bots":0,"server_type":"Dedicated","server_os":"Linux","password":true,"vac":true,"version":"7742253","steam_id":85568392924469986,"keywords":["cp","nocrits","nodmgspread","uncletopia"],"game_id":440,"stv_port":27016,"stv_name":"Uncletopia | Dallas | 1 | All Maps | STV","players":null},{"server_id":108,"name":"Uncletopia | Dallas | 2 | All Maps","name_short":"dal-2","host":"dal-1.us.uncletopia.com","port":27025,"enabled":true,"region":"us-central","cc":"us","latitude":32.779167,"longitude":-96.80889,"reserved":0,"last_update":"0001-01-01T00:00:00Z","name_a2s":"Uncletopia | Dallas | 2 | All Maps","protocol":17,"map":"cp_process_final","folder":"tf","game":"Team Fortress","app_id":440,"player_count":0,"max_players":24,"Bots":0,"server_type":"Dedicated","server_os":"Linux","password":true,"vac":true,"version":"7742253","steam_id":85568392924469988,"keywords":["cp","nocrits","nodmgspread","uncletopia"],"game_id":440,"stv_port":27026,"stv_name":"Uncletopia | Dallas | 2 | All Maps | STV","players":null},{"server_id":5,"name":"Uncletopia | Frankfurt | 1 | All Maps","name_short":"frk-1","host":"frk-1.de.uncletopia.com","port":27015,"enabled":true,"region":"eu","cc":"de","latitude":50.110924,"longitude":8.682127,"reserved":0,"last_update":"0001-01-01T00:00:00Z","name_a2s":"Uncletopia | Frankfurt | 1 | All Maps","protocol":17,"map":"cp_dustbowl","folder":"tf","game":"Team Fortress","app_id":440,"player_count":24,"max_players":24,"Bots":0,"server_type":"Dedicated","server_os":"Linux","password":true,"vac":true,"version":"7742253","steam_id":85568392924469989,"keywords":["cp","nocrits","nodmgspread","uncletopia"],"game_id":440,"stv_port":27016,"stv_name":"Uncletopia | Frankfurt | 1 | All Maps | STV","players":[{"user_id":132,"name":"ROB","steam_id":76561198982164150,"connected_time":2329000000000,"state":"active","ping":65},{"user_id":176,"name":"Good Ol' Frank","steam_id":76561198118490202,"connected_time":230000000000,"state":"active","ping":60},{"user_id":131,"name":"[Q]","steam_id":76561198018729683,"connected_time":2362000000000,"state":"active","ping":57},{"user_id":88,"name":"Cossack","steam_id":76561198076661772,"connected_time":5364000000000,"state":"active","ping":79},{"user_id":160,"name":"SoupER","steam_id":76561198063056668,"connected_time":877000000000,"state":"active","ping":51},{"user_id":152,"name":"Amon Gus","steam_id":76561199094540960,"connected_time":1036000000000,"state":"active","ping":53},{"user_id":155,"name":"☆twyn[BRK]65","steam_id":76561197993439750,"connected_time":954000000000,"state":"active","ping":60},{"user_id":156,"name":"Stargazer","steam_id":76561199050069286,"connected_time":946000000000,"state":"active","ping":64},{"user_id":146,"name":"juni","steam_id":76561198036504214,"connected_time":1470000000000,"state":"active","ping":47},{"user_id":169,"name":"MeloMamas","steam_id":76561199203778915,"connected_time":715000000000,"state":"active","ping":67},{"user_id":158,"name":"vanyodyi","steam_id":76561199142019999,"connected_time":936000000000,"state":"active","ping":62},{"user_id":101,"name":"FaceShackle","steam_id":76561198038371397,"connected_time":4419000000000,"state":"active","ping":41},{"user_id":159,"name":"tallen","steam_id":76561198061708595,"connected_time":936000000000,"state":"active","ping":83},{"user_id":136,"name":"Dzan50","steam_id":76561198059758591,"connected_time":2165000000000,"state":"active","ping":90},{"user_id":177,"name":"KeNNy L.O.L","steam_id":76561198041918418,"connected_time":99000000000,"state":"active","ping":94},{"user_id":162,"name":"Trasher","steam_id":76561199099638375,"connected_time":822000000000,"state":"active","ping":48},{"user_id":163,"name":"*Ladaskie8*","steam_id":76561199022297133,"connected_time":799000000000,"state":"active","ping":75},{"user_id":170,"name":"MrBanana","steam_id":76561198116021623,"connected_time":670000000000,"state":"active","ping":45},{"user_id":150,"name":"Lemon","steam_id":76561198188535947,"connected_time":1077000000000,"state":"active","ping":75},{"user_id":171,"name":"stud muffin","steam_id":76561198100415364,"connected_time":608000000000,"state":"active","ping":62},{"user_id":172,"name":"PK Blizzard","steam_id":76561198039836567,"connected_time":596000000000,"state":"active","ping":51},{"user_id":167,"name":"dripstein","steam_id":76561198059598696,"connected_time":772000000000,"state":"active","ping":47},{"user_id":119,"name":"Wattoz","steam_id":76561198127779511,"connected_time":3310000000000,"state":"active","ping":73},{"user_id":113,"name":"S0LDaTo","steam_id":76561198269413360,"connected_time":3577000000000,"state":"active","ping":74}]},{"server_id":110,"name":"Uncletopia | Frankfurt | 2 | All Maps","name_short":"frk-2","host":"frk-1.de.uncletopia.com","port":27025,"enabled":true,"region":"eu","cc":"de","latitude":50.110924,"longitude":8.682127,"reserved":0,"last_update":"0001-01-01T00:00:00Z","name_a2s":"Uncletopia | Frankfurt | 2 | All Maps","protocol":17,"map":"pl_upward","folder":"tf","game":"Team Fortress","app_id":440,"player_count":24,"max_players":24,"Bots":0,"server_type":"Dedicated","server_os":"Linux","password":true,"vac":true,"version":"7742253","steam_id":85568392924469990,"keywords":["nocrits","nodmgspread","payload","uncletopia"],"game_id":440,"stv_port":27026,"stv_name":"Uncletopia | Frankfurt | 2 | All Maps | STV","players":[{"user_id":68,"name":"Michamya","steam_id":76561198116338844,"connected_time":785000000000,"state":"active","ping":56},{"user_id":73,"name":"banrab","steam_id":76561198083615367,"connected_time":585000000000,"state":"active","ping":51},{"user_id":49,"name":"My Name is Jeff XDDDDDD","steam_id":76561198163644527,"connected_time":2804000000000,"state":"active","ping":60},{"user_id":21,"name":"Enigmus","steam_id":76561197994063627,"connected_time":3920000000000,"state":"active","ping":76},{"user_id":34,"name":"KillerQueen (he/they/she)","steam_id":76561199019399725,"connected_time":3342000000000,"state":"active","ping":59},{"user_id":57,"name":"Shade","steam_id":76561198223081768,"connected_time":2028000000000,"state":"active","ping":74},{"user_id":63,"name":"zdX","steam_id":76561198163735277,"connected_time":885000000000,"state":"active","ping":51},{"user_id":67,"name":"Crocodile","steam_id":76561197984680667,"connected_time":805000000000,"state":"active","ping":60},{"user_id":70,"name":"jaMie","steam_id":76561198170148783,"connected_time":770000000000,"state":"active","ping":56},{"user_id":30,"name":"Alin","steam_id":76561198059679991,"connected_time":3447000000000,"state":"active","ping":191},{"user_id":52,"name":"Miatthew","steam_id":76561198034102895,"connected_time":2669000000000,"state":"active","ping":65},{"user_id":55,"name":"Krzysztof Krawczyk","steam_id":76561197971010519,"connected_time":2423000000000,"state":"active","ping":60},{"user_id":65,"name":"Lessoz","steam_id":76561199211572036,"connected_time":810000000000,"state":"active","ping":98},{"user_id":35,"name":".apo","steam_id":76561198003042239,"connected_time":3210000000000,"state":"active","ping":52},{"user_id":53,"name":"Johnny McDonald's","steam_id":76561198875409640,"connected_time":2561000000000,"state":"active","ping":68},{"user_id":71,"name":"Moon","steam_id":76561198077888538,"connected_time":737000000000,"state":"active","ping":54},{"user_id":38,"name":"We are in a world of magic","steam_id":76561198104745492,"connected_time":3141000000000,"state":"active","ping":66},{"user_id":50,"name":":\u003e","steam_id":76561198349324196,"connected_time":2804000000000,"state":"active","ping":178},{"user_id":56,"name":"Luke SpyWalker","steam_id":76561198008643276,"connected_time":2406000000000,"state":"active","ping":60},{"user_id":72,"name":"Iva","steam_id":76561198254963150,"connected_time":718000000000,"state":"active","ping":53},{"user_id":62,"name":"Queen Rabbit","steam_id":76561198072409436,"connected_time":1134000000000,"state":"active","ping":52},{"user_id":74,"name":".::[SerafeTTiN]::.","steam_id":76561198009471724,"connected_time":216000000000,"state":"active","ping":90},{"user_id":47,"name":"RedFog","steam_id":76561198284713081,"connected_time":2995000000000,"state":"active","ping":48},{"user_id":64,"name":"♫★Xriasp★♫","steam_id":76561198104721321,"connected_time":831000000000,"state":"active","ping":96}]},{"server_id":308,"name":"Uncletopia | Frankfurt | 3 | All Maps","name_short":"frk-3","host":"frk-1.de.uncletopia.com","port":27035,"enabled":true,"region":"eu","cc":"de","latitude":50.110924,"longitude":8.682127,"reserved":0,"last_update":"0001-01-01T00:00:00Z","name_a2s":"Uncletopia | Frankfurt | 3 | All Maps","protocol":17,"map":"cp_process_final","folder":"tf","game":"Team Fortress","app_id":440,"player_count":0,"max_players":24,"Bots":0,"server_type":"Dedicated","server_os":"Linux","password":true,"vac":true,"version":"7742253","steam_id":85568392924504274,"keywords":["cp","nocrits","nodmgspread","uncletopia"],"game_id":440,"stv_port":27036,"stv_name":"Uncletopia | Frankfurt | 3 | All Maps | STV","players":null},{"server_id":309,"name":"Uncletopia | Frankfurt | 4 | All Maps","name_short":"frk-4","host":"frk-1.de.uncletopia.com","port":27045,"enabled":true,"region":"eu","cc":"de","latitude":50.110924,"longitude":8.682127,"reserved":0,"last_update":"0001-01-01T00:00:00Z","name_a2s":"Uncletopia | Frankfurt | 4 | All Maps","protocol":17,"map":"cp_snakewater_final1","folder":"tf","game":"Team Fortress","app_id":440,"player_count":24,"max_players":24,"Bots":0,"server_type":"Dedicated","server_os":"Linux","password":true,"vac":true,"version":"7742253","steam_id":85568392924504275,"keywords":["cp","nocrits","nodmgspread","uncletopia"],"game_id":440,"stv_port":27046,"stv_name":"Uncletopia | Frankfurt | 4 | All Maps | STV","players":[{"user_id":257,"name":"EEEEEH","steam_id":76561198126717413,"connected_time":1472000000000,"state":"active","ping":75},{"user_id":283,"name":"R1x_","steam_id":76561199063898421,"connected_time":64000000000,"state":"active","ping":90},{"user_id":280,"name":"Wutvillain","steam_id":76561198205501279,"connected_time":367000000000,"state":"active","ping":87},{"user_id":210,"name":"Gordon Birdman","steam_id":76561198013382324,"connected_time":5841000000000,"state":"active","ping":75},{"user_id":247,"name":"Wololo","steam_id":76561197972235375,"connected_time":1975000000000,"state":"active","ping":57},{"user_id":252,"name":"German Prick","steam_id":76561198181410637,"connected_time":1687000000000,"state":"active","ping":47},{"user_id":277,"name":"Speedwagon","steam_id":76561198387667243,"connected_time":451000000000,"state":"active","ping":133},{"user_id":253,"name":"Keizer420","steam_id":76561198354567661,"connected_time":1502000000000,"state":"active","ping":44},{"user_id":273,"name":"Lempii","steam_id":76561198433507634,"connected_time":462000000000,"state":"active","ping":85},{"user_id":279,"name":"The Weakest Brazilian Male","steam_id":76561198273215396,"connected_time":405000000000,"state":"active","ping":56},{"user_id":263,"name":"20BB Raxor","steam_id":76561198239927434,"connected_time":1145000000000,"state":"active","ping":80},{"user_id":174,"name":"somehow danced","steam_id":76561198128250460,"connected_time":8038000000000,"state":"active","ping":97},{"user_id":276,"name":"gogi","steam_id":76561198123793420,"connected_time":455000000000,"state":"active","ping":120},{"user_id":265,"name":"Animatic","steam_id":76561198186421601,"connected_time":1070000000000,"state":"active","ping":160},{"user_id":202,"name":"ivanmixo","steam_id":76561198160213989,"connected_time":6027000000000,"state":"active","ping":63},{"user_id":270,"name":"Tank","steam_id":76561199059174576,"connected_time":621000000000,"state":"active","ping":165},{"user_id":282,"name":"Parigonicalus","steam_id":76561198044637492,"connected_time":278000000000,"state":"active","ping":79},{"user_id":278,"name":"i forgot my xbox gamertag","steam_id":76561199400809482,"connected_time":449000000000,"state":"active","ping":66},{"user_id":244,"name":"Blastrock64","steam_id":76561199008932704,"connected_time":2345000000000,"state":"active","ping":80},{"user_id":281,"name":"IT'S PAIN TRAIN O'CLOCK","steam_id":76561198873306107,"connected_time":342000000000,"state":"active","ping":51},{"user_id":262,"name":"quentuez","steam_id":76561198216566024,"connected_time":1157000000000,"state":"active","ping":114},{"user_id":255,"name":"[Erathia]ARKHALIS","steam_id":76561198993900003,"connected_time":1492000000000,"state":"active","ping":68},{"user_id":228,"name":"Kenny","steam_id":76561198107911141,"connected_time":4021000000000,"state":"active","ping":59},{"user_id":271,"name":"Echo of Abyss","steam_id":76561198981841782,"connected_time":483000000000,"state":"active","ping":71}]},{"server_id":310,"name":"Uncletopia | Frankfurt | 5 | All Maps","name_short":"frk-5","host":"frk-1.de.uncletopia.com","port":27055,"enabled":true,"region":"eu","cc":"de","latitude":50.110924,"longitude":8.682127,"reserved":0,"last_update":"0001-01-01T00:00:00Z","name_a2s":"Uncletopia | Frankfurt | 5 | All Maps","protocol":17,"map":"cp_gullywash_final1","folder":"tf","game":"Team Fortress","app_id":440,"player_count":24,"max_players":24,"Bots":0,"server_type":"Dedicated","server_os":"Linux","password":true,"vac":true,"version":"7742253","steam_id":85568392924504277,"keywords":["cp","nocrits","nodmgspread","uncletopia"],"game_id":440,"stv_port":27056,"stv_name":"Uncletopia | Frankfurt | 5 | All Maps | STV","players":[{"user_id":246,"name":"k","steam_id":76561198818452217,"connected_time":1301000000000,"state":"active","ping":60},{"user_id":220,"name":"Canny8","steam_id":76561199142022395,"connected_time":2590000000000,"state":"active","ping":61},{"user_id":260,"name":"skagok","steam_id":76561198439561745,"connected_time":404000000000,"state":"active","ping":149},{"user_id":262,"name":"Guy with squares as username","steam_id":76561198269524918,"connected_time":53000000000,"state":"active","ping":55},{"user_id":189,"name":"FUKAYU","steam_id":76561198380484033,"connected_time":4908000000000,"state":"active","ping":53},{"user_id":259,"name":"Double your risk","steam_id":76561197995194628,"connected_time":473000000000,"state":"active","ping":60},{"user_id":255,"name":"Bonuxer","steam_id":76561198093098132,"connected_time":645000000000,"state":"active","ping":75},{"user_id":203,"name":"Z4p4d","steam_id":76561198011755675,"connected_time":4120000000000,"state":"active","ping":64},{"user_id":242,"name":"dismissy","steam_id":76561198073904781,"connected_time":1655000000000,"state":"active","ping":73},{"user_id":261,"name":"árvíztűrő tükörfúrógép","steam_id":76561198296643061,"connected_time":74000000000,"state":"active","ping":53},{"user_id":35,"name":"the only thing i know for real","steam_id":76561198133532980,"connected_time":14402000000000,"state":"active","ping":59},{"user_id":221,"name":"Sch","steam_id":76561198071341689,"connected_time":2588000000000,"state":"active","ping":57},{"user_id":234,"name":"fried","steam_id":76561198307522022,"connected_time":2396000000000,"state":"active","ping":55},{"user_id":238,"name":"Mottinen","steam_id":76561198223868928,"connected_time":1809000000000,"state":"active","ping":74},{"user_id":235,"name":"Val23","steam_id":76561198099480715,"connected_time":2359000000000,"state":"active","ping":55},{"user_id":258,"name":"DeCypher","steam_id":76561198171992619,"connected_time":504000000000,"state":"active","ping":62},{"user_id":254,"name":"Danilka","steam_id":76561199222725839,"connected_time":787000000000,"state":"active","ping":109},{"user_id":226,"name":"♣Бредовый Месяц","steam_id":76561198796404149,"connected_time":2538000000000,"state":"active","ping":98},{"user_id":201,"name":"cl","steam_id":76561199436640904,"connected_time":4132000000000,"state":"active","ping":64},{"user_id":243,"name":"Builder2395","steam_id":76561198133246006,"connected_time":1655000000000,"state":"active","ping":60},{"user_id":256,"name":"hypno","steam_id":76561198070420362,"connected_time":636000000000,"state":"active","ping":61},{"user_id":249,"name":"Noodle","steam_id":76561197997208006,"connected_time":957000000000,"state":"active","ping":52},{"user_id":257,"name":"☆-Senti-★","steam_id":76561198330309272,"connected_time":608000000000,"state":"active","ping":65},{"user_id":252,"name":"Le Carpe","steam_id":76561198972038742,"connected_time":925000000000,"state":"active","ping":65}]},{"server_id":311,"name":"Uncletopia | Frankfurt | 6 | All Maps","name_short":"frk-6","host":"frk-1.de.uncletopia.com","port":27065,"enabled":true,"region":"eu","cc":"de","latitude":50.110924,"longitude":8.682127,"reserved":0,"last_update":"0001-01-01T00:00:00Z","name_a2s":"Uncletopia | Frankfurt | 6 | All Maps","protocol":17,"map":"koth_lakeside_final","folder":"tf","game":"Team Fortress","app_id":440,"player_count":0,"max_players":24,"Bots":0,"server_type":"Dedicated","server_os":"Linux","password":true,"vac":true,"version":"7742253","steam_id":85568392924504278,"keywords":["cp","nocrits","nodmgspread","uncletopia"],"game_id":440,"stv_port":27066,"stv_name":"Uncletopia | Frankfurt | 6 | All Maps | STV","players":null},{"server_id":23,"name":"Uncletopia | Frankfurt | 7 | Stopwatch Beta","name_short":"frk-7","host":"frk-1.de.uncletopia.com","port":27075,"enabled":true,"region":"eu","cc":"de","latitude":50.110924,"longitude":8.682127,"reserved":0,"last_update":"0001-01-01T00:00:00Z","name_a2s":"Uncletopia | Frankfurt | 7 | Stopwatch Beta","protocol":17,"map":"workshop/koth_clearcut_b15.ugc2107050255","folder":"tf","game":"Team Fortress","app_id":440,"player_count":0,"max_players":24,"Bots":0,"server_type":"Dedicated","server_os":"Linux","password":true,"vac":true,"version":"7742253","steam_id":85568392924742827,"keywords":["cp","nocrits","nodmgspread","uncletopia"],"game_id":440,"stv_port":27076,"stv_name":"Uncletopia | Frankfurt | 7 | Stopwatch Beta | STV","players":null},{"server_id":24,"name":"Uncletopia | Frankfurt | 8 | Community","name_short":"frk-8","host":"frk-1.de.uncletopia.com","port":27085,"enabled":true,"region":"eu","cc":"de","latitude":50.110924,"longitude":8.682127,"reserved":0,"last_update":"0001-01-01T00:00:00Z","name_a2s":"Uncletopia | Frankfurt | 8 | Community","protocol":17,"map":"koth_cascade","folder":"tf","game":"Team Fortress","app_id":440,"player_count":0,"max_players":24,"Bots":0,"server_type":"Dedicated","server_os":"Linux","password":true,"vac":true,"version":"7742253","steam_id":85568392924742828,"keywords":["cp","nocrits","nodmgspread","uncletopia"],"game_id":440,"stv_port":27086,"stv_name":"Uncletopia | Frankfurt | 8 | Community | STV","players":null},{"server_id":202,"name":"Uncletopia | Hong Kong | 1 | All Maps","name_short":"hgk-1","host":"hgk-1.hk.uncletopia.com","port":27015,"enabled":true,"region":"asia","cc":"hk","latitude":22.302711,"longitude":114.177216,"reserved":0,"last_update":"0001-01-01T00:00:00Z","name_a2s":"Uncletopia | Hong Kong | 1 | All Maps","protocol":17,"map":"koth_viaduct","folder":"tf","game":"Team Fortress","app_id":440,"player_count":24,"max_players":24,"Bots":0,"server_type":"Dedicated","server_os":"Linux","password":true,"vac":true,"version":"7742253","steam_id":85568392924494504,"keywords":["cp","nocrits","nodmgspread","uncletopia"],"game_id":440,"stv_port":27016,"stv_name":"Uncletopia | Hong Kong | 1 | All Maps | STV","players":[{"user_id":428,"name":"Rephex","steam_id":76561198308185574,"connected_time":482000000000,"state":"active","ping":114},{"user_id":417,"name":"Ivan","steam_id":76561198201473205,"connected_time":2335000000000,"state":"active","ping":96},{"user_id":377,"name":"brizzard","steam_id":76561198048438653,"connected_time":5377000000000,"state":"active","ping":46},{"user_id":424,"name":"Cheesey","steam_id":76561198975684137,"connected_time":754000000000,"state":"active","ping":90},{"user_id":418,"name":"rachel.cylara.2003","steam_id":76561198819779240,"connected_time":2239000000000,"state":"active","ping":159},{"user_id":431,"name":"Gordon.Freeman","steam_id":76561198337746852,"connected_time":213000000000,"state":"active","ping":61},{"user_id":423,"name":"Professor 'Iggins","steam_id":76561198064448905,"connected_time":937000000000,"state":"active","ping":42},{"user_id":400,"name":"Icewallowcome(F2p)","steam_id":76561199128295257,"connected_time":3313000000000,"state":"active","ping":118},{"user_id":425,"name":"Diavolo Diablo","steam_id":76561198166295333,"connected_time":506000000000,"state":"active","ping":67},{"user_id":421,"name":"m1ko-  ❀❆","steam_id":76561198337154745,"connected_time":1135000000000,"state":"active","ping":84},{"user_id":407,"name":"A Toilet","steam_id":76561198148278657,"connected_time":2741000000000,"state":"active","ping":156},{"user_id":416,"name":"쿠키","steam_id":76561197997220367,"connected_time":2357000000000,"state":"active","ping":46},{"user_id":409,"name":"Deadass","steam_id":76561199355841736,"connected_time":2701000000000,"state":"active","ping":83},{"user_id":410,"name":"UltraFat","steam_id":76561198253918132,"connected_time":2652000000000,"state":"active","ping":86},{"user_id":396,"name":":)","steam_id":76561198437941450,"connected_time":3686000000000,"state":"active","ping":82},{"user_id":426,"name":"Momoxhien","steam_id":76561198414997429,"connected_time":501000000000,"state":"active","ping":57},{"user_id":343,"name":"Steve","steam_id":76561198429235506,"connected_time":8102000000000,"state":"active","ping":79},{"user_id":413,"name":"dog from raditude","steam_id":76561198405393811,"connected_time":2492000000000,"state":"active","ping":92},{"user_id":391,"name":"VaporeonSimp69","steam_id":76561198823521095,"connected_time":4619000000000,"state":"active","ping":49},{"user_id":414,"name":"hasty","steam_id":76561198439382132,"connected_time":2468000000000,"state":"active","ping":113},{"user_id":420,"name":"Walking Ted.","steam_id":76561198008544426,"connected_time":1313000000000,"state":"active","ping":53},{"user_id":429,"name":"PyroByte","steam_id":76561198272083196,"connected_time":338000000000,"state":"active","ping":52},{"user_id":310,"name":"Bertengkar","steam_id":76561198213031155,"connected_time":8624000000000,"state":"active","ping":103},{"user_id":432,"name":"Neloru","steam_id":76561198447825755,"connected_time":194000000000,"state":"active","ping":53}]},{"server_id":1,"name":"Uncletopia | Los Angeles | 1 | All Maps","name_short":"lax-1","host":"lax-1.us.uncletopia.com","port":27015,"enabled":true,"region":"us-west","cc":"us","latitude":33.94279,"longitude":-118.41004,"reserved":0,"last_update":"0001-01-01T00:00:00Z","name_a2s":"Uncletopia | Los Angeles | 1 | All Maps","protocol":17,"map":"pl_barnblitz","folder":"tf","game":"Team Fortress","app_id":440,"player_count":0,"max_players":24,"Bots":0,"server_type":"Dedicated","server_os":"Linux","password":true,"vac":true,"version":"7742253","steam_id":85568392924469991,"keywords":["nocrits","nodmgspread","payload","uncletopia"],"game_id":440,"stv_port":27016,"stv_name":"Uncletopia | Los Angeles | 1 | All Maps | STV","players":null},{"server_id":112,"name":"Uncletopia | Los Angeles | 2 | All Maps","name_short":"lax-2","host":"lax-1.us.uncletopia.com","port":27025,"enabled":true,"region":"us-west","cc":"us","latitude":33.94279,"longitude":-118.41004,"reserved":0,"last_update":"0001-01-01T00:00:00Z","name_a2s":"Uncletopia | Los Angeles | 2 | All Maps","protocol":17,"map":"cp_process_final","folder":"tf","game":"Team Fortress","app_id":440,"player_count":0,"max_players":24,"Bots":0,"server_type":"Dedicated","server_os":"Linux","password":true,"vac":true,"version":"7742253","steam_id":85568392924469992,"keywords":["cp","nocrits","nodmgspread","uncletopia"],"game_id":440,"stv_port":27026,"stv_name":"Uncletopia | Los Angeles | 2 | All Maps | STV","players":null},{"server_id":324,"name":"Uncletopia | Los Angeles | 3 | All Maps","name_short":"lax-3","host":"lax-1.us.uncletopia.com","port":27035,"enabled":true,"region":"us-west","cc":"us","latitude":33.94279,"longitude":-118.41004,"reserved":0,"last_update":"0001-01-01T00:00:00Z","name_a2s":"Uncletopia | Los Angeles | 3 | All Maps","protocol":17,"map":"koth_lakeside_final","folder":"tf","game":"Team Fortress","app_id":440,"player_count":0,"max_players":24,"Bots":0,"server_type":"Dedicated","server_os":"Linux","password":true,"vac":true,"version":"7742253","steam_id":85568392924510198,"keywords":["cp","nocrits","nodmgspread","uncletopia"],"game_id":440,"stv_port":27036,"stv_name":"Uncletopia | Los Angeles | 3 | All Maps | STV","players":null},{"server_id":25,"name":"Uncletopia | Los Angeles | 4 | Stopwatch Beta","name_short":"lax-4","host":"lax-1.us.uncletopia.com","port":27045,"enabled":true,"region":"us-west","cc":"us","latitude":33.94279,"longitude":-118.41004,"reserved":0,"last_update":"0001-01-01T00:00:00Z","name_a2s":"Uncletopia | Los Angeles | 4 | Stopwatch Beta","protocol":17,"map":"pl_upward","folder":"tf","game":"Team Fortress","app_id":440,"player_count":0,"max_players":24,"Bots":0,"server_type":"Dedicated","server_os":"Linux","password":true,"vac":true,"version":"7742253","steam_id":85568392924510199,"keywords":["nocrits","nodmgspread","payload","uncletopia"],"game_id":440,"stv_port":27046,"stv_name":"Uncletopia | Los Angeles | 4 | Stopwatch Beta | STV","players":null},{"server_id":11,"name":"Uncletopia | London | 1 | All Maps","name_short":"lon-1","host":"lon-1.uk.uncletopia.com","port":27015,"enabled":true,"region":"eu","cc":"gb","latitude":51.509865,"longitude":-0.118092,"reserved":0,"last_update":"0001-01-01T00:00:00Z","name_a2s":"Uncletopia | London | 1 | All Maps","protocol":17,"map":"pl_pier","folder":"tf","game":"Team Fortress","app_id":440,"player_count":24,"max_players":24,"Bots":0,"server_type":"Dedicated","server_os":"Linux","password":true,"vac":true,"version":"7742253","steam_id":85568392924367362,"keywords":["nocrits","nodmgspread","payload","uncletopia"],"game_id":440,"stv_port":27016,"stv_name":"Uncletopia | London | 1 | All Maps | STV","players":[{"user_id":205,"name":"Son Goku","steam_id":76561199383437138,"connected_time":545000000000,"state":"active","ping":117},{"user_id":176,"name":"Destinys","steam_id":76561198056132894,"connected_time":3492000000000,"state":"active","ping":66},{"user_id":178,"name":"Gryoss","steam_id":76561197999837111,"connected_time":3467000000000,"state":"active","ping":107},{"user_id":213,"name":"green_frog","steam_id":76561199202028346,"connected_time":8000000000,"state":"spawning","ping":209},{"user_id":206,"name":"a wheelbarrow (real)","steam_id":76561198220124617,"connected_time":545000000000,"state":"active","ping":71},{"user_id":204,"name":"Joy","steam_id":76561198155314925,"connected_time":587000000000,"state":"active","ping":55},{"user_id":194,"name":"gaming","steam_id":76561198054146505,"connected_time":1674000000000,"state":"active","ping":43},{"user_id":171,"name":"Cheeli","steam_id":76561198150704425,"connected_time":4439000000000,"state":"active","ping":74},{"user_id":209,"name":"Uncle Nicky","steam_id":76561198063275767,"connected_time":385000000000,"state":"active","ping":42},{"user_id":210,"name":"Ampiong99","steam_id":76561199245197481,"connected_time":359000000000,"state":"active","ping":54},{"user_id":136,"name":"Mari_Kross ❤","steam_id":76561198130863086,"connected_time":7465000000000,"state":"active","ping":75},{"user_id":212,"name":"Frenchie","steam_id":76561198178298931,"connected_time":92000000000,"state":"active","ping":39},{"user_id":146,"name":"Pineapple Okanつ ◕_◕ ༽\ufffd\ufffd","steam_id":76561198069199449,"connected_time":7004000000000,"state":"active","ping":103},{"user_id":161,"name":"AnonTron","steam_id":76561199031895493,"connected_time":6012000000000,"state":"active","ping":169},{"user_id":167,"name":"Vezage","steam_id":76561198064916164,"connected_time":4880000000000,"state":"active","ping":75},{"user_id":179,"name":"Based","steam_id":76561199059078922,"connected_time":3409000000000,"state":"active","ping":108},{"user_id":147,"name":"gRocc0","steam_id":76561198283840637,"connected_time":6987000000000,"state":"active","ping":101},{"user_id":196,"name":"jt7","steam_id":76561198073655162,"connected_time":1664000000000,"state":"active","ping":74},{"user_id":190,"name":"Asgaard","steam_id":76561198026516905,"connected_time":2006000000000,"state":"active","ping":99},{"user_id":200,"name":"Motley_","steam_id":76561198116057976,"connected_time":1624000000000,"state":"active","ping":30},{"user_id":207,"name":"WiiSportKing","steam_id":76561198114139081,"connected_time":544000000000,"state":"active","ping":40},{"user_id":191,"name":"ciliorkun18","steam_id":76561198228942500,"connected_time":1998000000000,"state":"active","ping":92},{"user_id":208,"name":"murderwow","steam_id":76561198024566944,"connected_time":543000000000,"state":"active","ping":109},{"user_id":185,"name":"Dominus.","steam_id":76561199065917088,"connected_time":2865000000000,"state":"active","ping":63}]},{"server_id":114,"name":"Uncletopia | London | 2 | All Maps","name_short":"lon-2","host":"lon-1.uk.uncletopia.com","port":27025,"enabled":true,"region":"eu","cc":"gb","latitude":51.509865,"longitude":-0.118092,"reserved":0,"last_update":"0001-01-01T00:00:00Z","name_a2s":"Uncletopia | London | 2 | All Maps","protocol":17,"map":"pl_thundermountain","folder":"tf","game":"Team Fortress","app_id":440,"player_count":24,"max_players":24,"Bots":0,"server_type":"Dedicated","server_os":"Linux","password":true,"vac":true,"version":"7742253","steam_id":85568392924470941,"keywords":["nocrits","nodmgspread","payload","uncletopia"],"game_id":440,"stv_port":27026,"stv_name":"Uncletopia | London | 2 | All Maps | STV","players":[{"user_id":363,"name":"kbbq","steam_id":76561198346638308,"connected_time":2061000000000,"state":"active","ping":56},{"user_id":344,"name":"BalSock","steam_id":76561198165339392,"connected_time":3412000000000,"state":"active","ping":92},{"user_id":353,"name":"Flare","steam_id":76561198039098320,"connected_time":2783000000000,"state":"active","ping":49},{"user_id":236,"name":"тукку ирма","steam_id":76561197998715016,"connected_time":11097000000000,"state":"active","ping":61},{"user_id":355,"name":"CarrierPigeon","steam_id":76561198143126135,"connected_time":2672000000000,"state":"active","ping":49},{"user_id":385,"name":"Dwevy","steam_id":76561198090379437,"connected_time":132000000000,"state":"active","ping":40},{"user_id":358,"name":"neo","steam_id":76561198136265838,"connected_time":2379000000000,"state":"active","ping":74},{"user_id":368,"name":"Nobaddy","steam_id":76561198037871007,"connected_time":1902000000000,"state":"active","ping":71},{"user_id":287,"name":"Pabs :D","steam_id":76561198000016962,"connected_time":7963000000000,"state":"active","ping":68},{"user_id":356,"name":"FluiDCobRa™","steam_id":76561198142461723,"connected_time":2620000000000,"state":"active","ping":102},{"user_id":369,"name":"K3YRING","steam_id":76561198408597576,"connected_time":1871000000000,"state":"active","ping":87},{"user_id":360,"name":"El`Capitano Flex","steam_id":76561198061813730,"connected_time":2206000000000,"state":"active","ping":72},{"user_id":365,"name":"run baby run","steam_id":76561198091895569,"connected_time":2048000000000,"state":"active","ping":151},{"user_id":329,"name":"Mr.Cupcake","steam_id":76561198152711174,"connected_time":4423000000000,"state":"active","ping":73},{"user_id":370,"name":"Totally Something","steam_id":76561198916824935,"connected_time":1865000000000,"state":"active","ping":83},{"user_id":384,"name":"kpn","steam_id":76561198063512694,"connected_time":509000000000,"state":"active","ping":91},{"user_id":327,"name":"dogwater69","steam_id":76561198058366676,"connected_time":4646000000000,"state":"active","ping":79},{"user_id":381,"name":"azurehaiku","steam_id":76561198091273530,"connected_time":961000000000,"state":"active","ping":64},{"user_id":383,"name":"Tortoise","steam_id":76561198229648184,"connected_time":743000000000,"state":"active","ping":40},{"user_id":382,"name":"Dododid","steam_id":76561198159185258,"connected_time":956000000000,"state":"active","ping":54},{"user_id":380,"name":"Windows Vista Cruiser","steam_id":76561198064102233,"connected_time":964000000000,"state":"active","ping":62},{"user_id":366,"name":"bad at gaem","steam_id":76561198072373587,"connected_time":1994000000000,"state":"active","ping":58},{"user_id":367,"name":"Posho","steam_id":76561198062396436,"connected_time":1981000000000,"state":"active","ping":45},{"user_id":375,"name":"Heavy The Tit Slayer","steam_id":76561198812649243,"connected_time":1556000000000,"state":"active","ping":106}]},{"server_id":320,"name":"Uncletopia | London | 3 | All Maps","name_short":"lon-3","host":"lon-1.uk.uncletopia.com","port":27035,"enabled":true,"region":"eu","cc":"gb","latitude":51.509865,"longitude":-0.118092,"reserved":0,"last_update":"0001-01-01T00:00:00Z","name_a2s":"Uncletopia | London | 3 | All Maps","protocol":17,"map":"pl_pier","folder":"tf","game":"Team Fortress","app_id":440,"player_count":24,"max_players":24,"Bots":0,"server_type":"Dedicated","server_os":"Linux","password":true,"vac":true,"version":"7742253","steam_id":85568392924510192,"keywords":["nocrits","nodmgspread","payload","uncletopia"],"game_id":440,"stv_port":27036,"stv_name":"Uncletopia | London | 3 | All Maps | STV","players":[{"user_id":76,"name":"Puck","steam_id":76561198121260981,"connected_time":2512000000000,"state":"active","ping":43},{"user_id":74,"name":"Warrior","steam_id":76561198187911222,"connected_time":2585000000000,"state":"active","ping":35},{"user_id":77,"name":"Joel!","steam_id":76561198155422742,"connected_time":2108000000000,"state":"active","ping":45},{"user_id":13,"name":"Lebri","steam_id":76561199017535766,"connected_time":6802000000000,"state":"active","ping":78},{"user_id":98,"name":"JimTheMagicJumper","steam_id":76561197996773886,"connected_time":75000000000,"state":"active","ping":39},{"user_id":78,"name":"AVIATER77-DK-","steam_id":76561197999901604,"connected_time":2071000000000,"state":"active","ping":75},{"user_id":79,"name":"bum","steam_id":76561198067678158,"connected_time":2026000000000,"state":"active","ping":44},{"user_id":85,"name":"Seppo Supermies","steam_id":76561199275012023,"connected_time":1665000000000,"state":"active","ping":138},{"user_id":96,"name":"Florua","steam_id":76561198182297846,"connected_time":353000000000,"state":"active","ping":69},{"user_id":95,"name":"CanineCaribou52","steam_id":76561198869623946,"connected_time":377000000000,"state":"active","ping":53},{"user_id":66,"name":"Cuthbert","steam_id":76561198204649481,"connected_time":3178000000000,"state":"active","ping":97},{"user_id":67,"name":"You slumber","steam_id":76561198344639692,"connected_time":3152000000000,"state":"active","ping":81},{"user_id":86,"name":"Dolcelatte","steam_id":76561198038501770,"connected_time":1664000000000,"state":"active","ping":66},{"user_id":50,"name":"Bruschetta","steam_id":76561198251927162,"connected_time":4724000000000,"state":"active","ping":68},{"user_id":94,"name":"Revo","steam_id":76561198046021202,"connected_time":400000000000,"state":"active","ping":46},{"user_id":83,"name":"walking sentry","steam_id":76561199225363633,"connected_time":1777000000000,"state":"active","ping":103},{"user_id":26,"name":"Psychicpie","steam_id":76561198126065206,"connected_time":5689000000000,"state":"active","ping":59},{"user_id":93,"name":"Chefatron","steam_id":76561198218808579,"connected_time":1091000000000,"state":"active","ping":38},{"user_id":90,"name":"Jan005","steam_id":76561198410047633,"connected_time":1634000000000,"state":"active","ping":52},{"user_id":89,"name":"Large Seel","steam_id":76561198419483326,"connected_time":1646000000000,"state":"active","ping":92},{"user_id":80,"name":"N0tzz","steam_id":76561198391025653,"connected_time":2013000000000,"state":"active","ping":63},{"user_id":97,"name":"Autonomous movement","steam_id":76561198087800030,"connected_time":351000000000,"state":"active","ping":75},{"user_id":70,"name":"ุุdante2628","steam_id":76561198044429647,"connected_time":3087000000000,"state":"active","ping":75},{"user_id":71,"name":"dante2628","steam_id":76561198115371318,"connected_time":3069000000000,"state":"active","ping":83}]},{"server_id":321,"name":"Uncletopia | London | 4 | All Maps","name_short":"lon-4","host":"lon-1.uk.uncletopia.com","port":27045,"enabled":true,"region":"eu","cc":"gb","latitude":51.509865,"longitude":-0.118092,"reserved":0,"last_update":"0001-01-01T00:00:00Z","name_a2s":"Uncletopia | London | 4 | All Maps","protocol":17,"map":"koth_highpass","folder":"tf","game":"Team Fortress","app_id":440,"player_count":0,"max_players":24,"Bots":0,"server_type":"Dedicated","server_os":"Linux","password":true,"vac":true,"version":"7742253","steam_id":85568392924510193,"keywords":["cp","nocrits","nodmgspread","uncletopia"],"game_id":440,"stv_port":27046,"stv_name":"Uncletopia | London | 4 | All Maps | STV","players":null},{"server_id":21,"name":"Uncletopia | London | 5 | All Maps","name_short":"lon-5","host":"lon-1.uk.uncletopia.com","port":27055,"enabled":true,"region":"eu","cc":"gb","latitude":51.509865,"longitude":-0.118092,"reserved":0,"last_update":"0001-01-01T00:00:00Z","name_a2s":"Uncletopia | London | 5 | All Maps","protocol":17,"map":"pl_frontier_final","folder":"tf","game":"Team Fortress","app_id":440,"player_count":0,"max_players":24,"Bots":0,"server_type":"Dedicated","server_os":"Linux","password":true,"vac":true,"version":"7742253","steam_id":85568392924742829,"keywords":["nocrits","nodmgspread","payload","uncletopia"],"game_id":440,"stv_port":27056,"stv_name":"Uncletopia | London | 5 | All Maps | STV","players":null},{"server_id":22,"name":"Uncletopia | London | 6 | All Maps","name_short":"lon-6","host":"lon-1.uk.uncletopia.com","port":27065,"enabled":true,"region":"eu","cc":"gb","latitude":51.509865,"longitude":-0.118092,"reserved":0,"last_update":"0001-01-01T00:00:00Z","name_a2s":"Uncletopia | London | 6 | All Maps","protocol":17,"map":"pl_swiftwater_final1","folder":"tf","game":"Team Fortress","app_id":440,"player_count":13,"max_players":24,"Bots":0,"server_type":"Dedicated","server_os":"Linux","password":true,"vac":true,"version":"7742253","steam_id":85568392924742830,"keywords":["nocrits","nodmgspread","payload","uncletopia"],"game_id":440,"stv_port":27066,"stv_name":"Uncletopia | London | 6 | All Maps | STV","players":[{"user_id":7,"name":"Españaa","steam_id":76561198879587832,"connected_time":1416000000000,"state":"active","ping":69},{"user_id":8,"name":"Redkiller","steam_id":76561199453655288,"connected_time":1193000000000,"state":"active","ping":120},{"user_id":9,"name":"MtnDew","steam_id":76561199100059743,"connected_time":1113000000000,"state":"active","ping":117},{"user_id":28,"name":"frost","steam_id":76561198167675482,"connected_time":42000000000,"state":"active","ping":91},{"user_id":11,"name":"p!ke","steam_id":76561198416081952,"connected_time":418000000000,"state":"active","ping":60},{"user_id":29,"name":"bur","steam_id":76561198824712597,"connected_time":26000000000,"state":"active","ping":56},{"user_id":25,"name":"MeWhen","steam_id":76561199092307672,"connected_time":131000000000,"state":"active","ping":346},{"user_id":15,"name":"nop 21","steam_id":76561198331641220,"connected_time":306000000000,"state":"active","ping":50},{"user_id":16,"name":"holmes6007","steam_id":76561198200075734,"connected_time":301000000000,"state":"active","ping":67},{"user_id":24,"name":"DecentTurtle","steam_id":76561198411860840,"connected_time":132000000000,"state":"active","ping":41},{"user_id":18,"name":"Ged","steam_id":76561198079288943,"connected_time":261000000000,"state":"active","ping":121},{"user_id":21,"name":"CosminSL","steam_id":76561198055827684,"connected_time":240000000000,"state":"active","ping":79},{"user_id":27,"name":"NhouBrane","steam_id":76561198293577735,"connected_time":93000000000,"state":"active","ping":65}]},{"server_id":40,"name":"Uncletopia | London | 7 | No Payload","name_short":"lon-7","host":"lon-1.uk.uncletopia.com","port":27075,"enabled":true,"region":"eu","cc":"gb","latitude":51.509865,"longitude":-0.118092,"reserved":0,"last_update":"0001-01-01T00:00:00Z","name_a2s":"Uncletopia | London | 7 | No Payload","protocol":17,"map":"koth_viaduct","folder":"tf","game":"Team Fortress","app_id":440,"player_count":0,"max_players":24,"Bots":0,"server_type":"Dedicated","server_os":"Linux","password":true,"vac":true,"version":"7742253","steam_id":85568392924964314,"keywords":["cp","nocrits","nodmgspread","uncletopia"],"game_id":440,"stv_port":27076,"stv_name":"Uncletopia | London | 7 | No Payload | STV","players":null},{"server_id":41,"name":"Uncletopia | London | 8 | Community","name_short":"lon-8","host":"lon-1.uk.uncletopia.com","port":27085,"enabled":true,"region":"eu","cc":"gb","latitude":51.509865,"longitude":-0.118092,"reserved":0,"last_update":"0001-01-01T00:00:00Z","name_a2s":"Uncletopia | London | 8 | Community","protocol":17,"map":"workshop/pl_cactuscanyon_redux_rc4b.ugc2579644293","folder":"tf","game":"Team Fortress","app_id":440,"player_count":21,"max_players":24,"Bots":0,"server_type":"Dedicated","server_os":"Linux","password":true,"vac":true,"version":"7742253","steam_id":85568392924964315,"keywords":["nocrits","nodmgspread","payload","uncletopia"],"game_id":440,"stv_port":27086,"stv_name":"Uncletopia | London | 8 | Community | STV","players":[{"user_id":4,"name":"Jaggy Snake","steam_id":76561197972779231,"connected_time":2404000000000,"state":"active","ping":43},{"user_id":5,"name":"YourDoom","steam_id":76561198080790857,"connected_time":2122000000000,"state":"active","ping":45},{"user_id":17,"name":"󠀡","steam_id":76561198930439379,"connected_time":1269000000000,"state":"active","ping":93},{"user_id":46,"name":"Chris Chan (real)","steam_id":76561199005562645,"connected_time":285000000000,"state":"active","ping":88},{"user_id":47,"name":"Dora","steam_id":76561198072207649,"connected_time":282000000000,"state":"active","ping":73},{"user_id":11,"name":"Bilaterial Newt","steam_id":76561198074655679,"connected_time":1674000000000,"state":"active","ping":91},{"user_id":52,"name":"Pietro Badoglio","steam_id":76561198302435743,"connected_time":236000000000,"state":"active","ping":82},{"user_id":14,"name":"Bloop","steam_id":76561198152645636,"connected_time":1473000000000,"state":"active","ping":45},{"user_id":18,"name":"RazzvyBerry","steam_id":76561198127331399,"connected_time":1253000000000,"state":"active","ping":80},{"user_id":54,"name":"Stitch","steam_id":76561198034169403,"connected_time":61000000000,"state":"active","ping":57},{"user_id":49,"name":"SubDragon","steam_id":76561199074530966,"connected_time":271000000000,"state":"active","ping":120},{"user_id":21,"name":"cumGoblin","steam_id":76561198064130889,"connected_time":1219000000000,"state":"active","ping":59},{"user_id":51,"name":"Lukas","steam_id":76561198009118452,"connected_time":257000000000,"state":"active","ping":65},{"user_id":43,"name":"Haituga","steam_id":76561198048718174,"connected_time":531000000000,"state":"active","ping":67},{"user_id":24,"name":"islandmonkey","steam_id":76561198078839950,"connected_time":1202000000000,"state":"active","ping":46},{"user_id":41,"name":"Arpixa","steam_id":76561198101850435,"connected_time":558000000000,"state":"active","ping":73},{"user_id":28,"name":"wicked","steam_id":76561198164376035,"connected_time":1059000000000,"state":"active","ping":76},{"user_id":55,"name":"ChillinHenry","steam_id":76561198978207349,"connected_time":12000000000,"state":"active","ping":94},{"user_id":30,"name":"Banana","steam_id":76561198236284774,"connected_time":1054000000000,"state":"active","ping":59},{"user_id":42,"name":"Whallie","steam_id":76561198881117247,"connected_time":541000000000,"state":"active","ping":76},{"user_id":35,"name":"Moc","steam_id":76561197999164303,"connected_time":963000000000,"state":"active","ping":62}]},{"server_id":300,"name":"Uncletopia | Montréal | 1 | All Maps","name_short":"mtl-1","host":"mtl-1.ca.uncletopia.com","port":27015,"enabled":true,"region":"us-east","cc":"ca","latitude":45.50889,"longitude":-73.56167,"reserved":0,"last_update":"0001-01-01T00:00:00Z","name_a2s":"Uncletopia | Montréal | 1 | All Maps","protocol":17,"map":"cp_snakewater_final1","folder":"tf","game":"Team Fortress","app_id":440,"player_count":0,"max_players":24,"Bots":0,"server_type":"Dedicated","server_os":"Linux","password":true,"vac":true,"version":"7742253","steam_id":85568392924500087,"keywords":["cp","nocrits","nodmgspread","uncletopia"],"game_id":440,"stv_port":27016,"stv_name":"Uncletopia | Montréal | 1 | All Maps | STV","players":null},{"server_id":301,"name":"Uncletopia | Montréal | 2 | All Maps","name_short":"mtl-2","host":"mtl-1.ca.uncletopia.com","port":27025,"enabled":true,"region":"us-east","cc":"ca","latitude":45.50889,"longitude":-73.56167,"reserved":0,"last_update":"0001-01-01T00:00:00Z","name_a2s":"Uncletopia | Montréal | 2 | All Maps","protocol":17,"map":"koth_highpass","folder":"tf","game":"Team Fortress","app_id":440,"player_count":0,"max_players":24,"Bots":0,"server_type":"Dedicated","server_os":"Linux","password":true,"vac":true,"version":"7742253","steam_id":85568392924500088,"keywords":["cp","nocrits","nodmgspread","uncletopia"],"game_id":440,"stv_port":27026,"stv_name":"Uncletopia | Montréal | 2 | All Maps | STV","players":null},{"server_id":302,"name":"Uncletopia | Montréal | 3 | All Maps","name_short":"mtl-3","host":"mtl-1.ca.uncletopia.com","port":27035,"enabled":true,"region":"us-east","cc":"ca","latitude":45.50889,"longitude":-73.56167,"reserved":0,"last_update":"0001-01-01T00:00:00Z","name_a2s":"Uncletopia | Montréal | 3 | All Maps","protocol":17,"map":"cp_mountainlab","folder":"tf","game":"Team Fortress","app_id":440,"player_count":0,"max_players":24,"Bots":0,"server_type":"Dedicated","server_os":"Linux","password":true,"vac":true,"version":"7742253","steam_id":85568392924500089,"keywords":["cp","nocrits","nodmgspread","uncletopia"],"game_id":440,"stv_port":27036,"stv_name":"Uncletopia | Montréal | 3 | All Maps | STV","players":null},{"server_id":303,"name":"Uncletopia | Montréal | 4 | No Payload","name_short":"mtl-4","host":"mtl-1.ca.uncletopia.com","port":27045,"enabled":true,"region":"us-east","cc":"ca","latitude":45.50889,"longitude":-73.56167,"reserved":0,"last_update":"0001-01-01T00:00:00Z","name_a2s":"Uncletopia | Montréal | 4 | No Payload","protocol":17,"map":"cp_snakewater_final1","folder":"tf","game":"Team Fortress","app_id":440,"player_count":0,"max_players":24,"Bots":0,"server_type":"Dedicated","server_os":"Linux","password":true,"vac":true,"version":"7742253","steam_id":85568392924500090,"keywords":["cp","nocrits","nodmgspread","uncletopia"],"game_id":440,"stv_port":27046,"stv_name":"Uncletopia | Montréal | 4 | No Payload | STV","players":null},{"server_id":13,"name":"Uncletopia | New York City | 1 | All Maps","name_short":"nyc-1","host":"nyc-1.us.uncletopia.com","port":27015,"enabled":true,"region":"us-east","cc":"us","latitude":40.73061,"longitude":-73.93524,"reserved":0,"last_update":"0001-01-01T00:00:00Z","name_a2s":"Uncletopia | New York City | 1 | All Maps","protocol":17,"map":"plr_hightower","folder":"tf","game":"Team Fortress","app_id":440,"player_count":1,"max_players":24,"Bots":0,"server_type":"Dedicated","server_os":"Linux","password":true,"vac":true,"version":"7742253","steam_id":85568392924469993,"keywords":["nocrits","nodmgspread","payload","uncletopia"],"game_id":440,"stv_port":27016,"stv_name":"Uncletopia | New York City | 1 | All Maps | STV","players":[{"user_id":4,"name":"kozaevazam","steam_id":76561199374664643,"connected_time":54000000000,"state":"spawning","ping":182}]},{"server_id":14,"name":"Uncletopia | New York City | 2 | All Maps","name_short":"nyc-2","host":"nyc-1.us.uncletopia.com","port":27025,"enabled":true,"region":"us-east","cc":"us","latitude":40.73061,"longitude":-73.93524,"reserved":0,"last_update":"0001-01-01T00:00:00Z","name_a2s":"Uncletopia | New York City | 2 | All Maps","protocol":17,"map":"cp_altitude","folder":"tf","game":"Team Fortress","app_id":440,"player_count":0,"max_players":24,"Bots":0,"server_type":"Dedicated","server_os":"Linux","password":true,"vac":true,"version":"7742253","steam_id":85568392924469994,"keywords":["cp","nocrits","nodmgspread","uncletopia"],"game_id":440,"stv_port":27026,"stv_name":"Uncletopia | New York City | 2 | All Maps | STV","players":null},{"server_id":15,"name":"Uncletopia | New York City | 3 | Stopwatch Beta","name_short":"nyc-3","host":"nyc-1.us.uncletopia.com","port":27035,"enabled":true,"region":"us-east","cc":"us","latitude":40.73061,"longitude":-73.93524,"reserved":0,"last_update":"0001-01-01T00:00:00Z","name_a2s":"Uncletopia | New York City | 3 | Stopwatch Beta","protocol":17,"map":"pl_pier","folder":"tf","game":"Team Fortress","app_id":440,"player_count":0,"max_players":24,"Bots":0,"server_type":"Dedicated","server_os":"Linux","password":true,"vac":true,"version":"7742253","steam_id":85568392924742820,"keywords":["nocrits","nodmgspread","payload","uncletopia"],"game_id":440,"stv_port":27036,"stv_name":"Uncletopia | New York City | 3 | Stopwatch Beta | STV","players":null},{"server_id":16,"name":"Uncletopia | New York City | 4 | Community","name_short":"nyc-4","host":"nyc-1.us.uncletopia.com","port":27045,"enabled":true,"region":"us-east","cc":"us","latitude":40.73061,"longitude":-73.93524,"reserved":0,"last_update":"0001-01-01T00:00:00Z","name_a2s":"Uncletopia | New York City | 4 | Community","protocol":17,"map":"koth_viaduct","folder":"tf","game":"Team Fortress","app_id":440,"player_count":0,"max_players":24,"Bots":0,"server_type":"Dedicated","server_os":"Linux","password":true,"vac":true,"version":"7742253","steam_id":85568392924742821,"keywords":["cp","nocrits","nodmgspread","uncletopia"],"game_id":440,"stv_port":27046,"stv_name":"Uncletopia | New York City | 4 | Community | STV","players":null},{"server_id":142,"name":"Uncletopia | São Paulo | 1 | All Maps","name_short":"sao-1","host":"sao-1.br.uncletopia.com","port":27015,"enabled":true,"region":"sa","cc":"br","latitude":-23.533773,"longitude":-46.62529,"reserved":0,"last_update":"0001-01-01T00:00:00Z","name_a2s":"Uncletopia | São Paulo | 1 | All Maps","protocol":17,"map":"koth_viaduct","folder":"tf","game":"Team Fortress","app_id":440,"player_count":0,"max_players":24,"Bots":0,"server_type":"Dedicated","server_os":"Linux","password":true,"vac":true,"version":"7742253","steam_id":85568392924469996,"keywords":["cp","nocrits","nodmgspread","uncletopia"],"game_id":440,"stv_port":27016,"stv_name":"Uncletopia | São Paulo | 1 | All Maps | STV","players":null},{"server_id":143,"name":"Uncletopia | São Paulo | 2 | All Maps","name_short":"sao-2","host":"sao-2.br.uncletopia.com","port":27015,"enabled":true,"region":"sa","cc":"br","latitude":-23.533773,"longitude":-46.62529,"reserved":0,"last_update":"0001-01-01T00:00:00Z","name_a2s":"Uncletopia | São Paulo | 2 | All Maps","protocol":17,"map":"koth_viaduct","folder":"tf","game":"Team Fortress","app_id":440,"player_count":0,"max_players":24,"Bots":0,"server_type":"Dedicated","server_os":"Linux","password":true,"vac":true,"version":"7742253","steam_id":85568392924485349,"keywords":["cp","nocrits","nodmgspread","uncletopia"],"game_id":440,"stv_port":27016,"stv_name":"Uncletopia | São Paulo | 2 | All Maps | STV","players":null},{"server_id":7,"name":"Uncletopia | Seattle | 1 | All Maps","name_short":"sea-1","host":"sea-1.us.uncletopia.com","port":27015,"enabled":true,"region":"us-west","cc":"us","latitude":47.608013,"longitude":-122.33517,"reserved":0,"last_update":"0001-01-01T00:00:00Z","name_a2s":"Uncletopia | Seattle | 1 | All Maps","protocol":17,"map":"pl_badwater","folder":"tf","game":"Team Fortress","app_id":440,"player_count":9,"max_players":24,"Bots":0,"server_type":"Dedicated","server_os":"Linux","password":true,"vac":true,"version":"7742253","steam_id":85568392924469997,"keywords":["nocrits","nodmgspread","payload","uncletopia"],"game_id":440,"stv_port":27016,"stv_name":"Uncletopia | Seattle | 1 | All Maps | STV","players":[{"user_id":1069,"name":"Omega","steam_id":76561198961009900,"connected_time":2460000000000,"state":"active","ping":76},{"user_id":1094,"name":"Andy Tate (Sigma)","steam_id":76561199449380475,"connected_time":380000000000,"state":"active","ping":119},{"user_id":1100,"name":"sentry turret","steam_id":76561198327057433,"connected_time":82000000000,"state":"active","ping":125},{"user_id":1095,"name":"Slime the Protogen","steam_id":76561198070632295,"connected_time":344000000000,"state":"active","ping":198},{"user_id":1098,"name":"nailbxmb98","steam_id":76561199131463997,"connected_time":176000000000,"state":"active","ping":86},{"user_id":1096,"name":"Spooky Wizard","steam_id":76561198052573339,"connected_time":287000000000,"state":"active","ping":100},{"user_id":1079,"name":"Kay Z1014","steam_id":76561198374228296,"connected_time":1358000000000,"state":"active","ping":60},{"user_id":1097,"name":"obbeymaster19","steam_id":76561199197244143,"connected_time":245000000000,"state":"active","ping":127},{"user_id":1099,"name":"Ping","steam_id":76561199206514106,"connected_time":125000000000,"state":"active","ping":116}]},{"server_id":119,"name":"Uncletopia | Seattle | 2 | All Maps","name_short":"sea-2","host":"sea-1.us.uncletopia.com","port":27025,"enabled":true,"region":"us-west","cc":"us","latitude":47.608013,"longitude":-122.33517,"reserved":0,"last_update":"0001-01-01T00:00:00Z","name_a2s":"Uncletopia | Seattle | 2 | All Maps","protocol":17,"map":"cp_mountainlab","folder":"tf","game":"Team Fortress","app_id":440,"player_count":0,"max_players":24,"Bots":0,"server_type":"Dedicated","server_os":"Linux","password":true,"vac":true,"version":"7742253","steam_id":85568392924469998,"keywords":["cp","nocrits","nodmgspread","uncletopia"],"game_id":440,"stv_port":27026,"stv_name":"Uncletopia | Seattle | 2 | All Maps | STV","players":null},{"server_id":406,"name":"Uncletopia | Seattle | 3 | Stopwatch Beta","name_short":"sea-3","host":"sea-1.us.uncletopia.com","port":27035,"enabled":true,"region":"us-west","cc":"us","latitude":47.608013,"longitude":-122.33517,"reserved":0,"last_update":"0001-01-01T00:00:00Z","name_a2s":"Uncletopia | Seattle | 3 | Stopwatch Beta","protocol":17,"map":"pl_borneo","folder":"tf","game":"Team Fortress","app_id":440,"player_count":0,"max_players":24,"Bots":0,"server_type":"Dedicated","server_os":"Linux","password":true,"vac":true,"version":"7742253","steam_id":85568392924515217,"keywords":["nocrits","nodmgspread","payload","uncletopia"],"game_id":440,"stv_port":27036,"stv_name":"Uncletopia | Seattle | 3 | Stopwatch Beta | STV","players":null},{"server_id":17,"name":"Uncletopia | San Francisco | 1 | All Maps","name_short":"sfo-1","host":"sfo-1.us.uncletopia.com","port":27015,"enabled":true,"region":"us-west","cc":"us","latitude":37.77397,"longitude":-122.4313,"reserved":0,"last_update":"0001-01-01T00:00:00Z","name_a2s":"Uncletopia | San Francisco | 1 | All Maps","protocol":17,"map":"koth_lakeside_final","folder":"tf","game":"Team Fortress","app_id":440,"player_count":0,"max_players":24,"Bots":0,"server_type":"Dedicated","server_os":"Linux","password":true,"vac":true,"version":"7742253","steam_id":85568392924469999,"keywords":["cp","nocrits","nodmgspread","uncletopia"],"game_id":440,"stv_port":27016,"stv_name":"Uncletopia | San Francisco | 1 | All Maps | STV","players":null},{"server_id":18,"name":"Uncletopia | San Francisco | 2 | All Maps","name_short":"sfo-2","host":"sfo-1.us.uncletopia.com","port":27025,"enabled":true,"region":"us-west","cc":"us","latitude":37.77397,"longitude":-122.4313,"reserved":0,"last_update":"0001-01-01T00:00:00Z","name_a2s":"Uncletopia | San Francisco | 2 | All Maps","protocol":17,"map":"cp_mountainlab","folder":"tf","game":"Team Fortress","app_id":440,"player_count":0,"max_players":24,"Bots":0,"server_type":"Dedicated","server_os":"Linux","password":true,"vac":true,"version":"7742253","steam_id":85568392924470000,"keywords":["cp","nocrits","nodmgspread","uncletopia"],"game_id":440,"stv_port":27026,"stv_name":"Uncletopia | San Francisco | 2 | All Maps | STV","players":null},{"server_id":19,"name":"Uncletopia | San Francisco | 3 | Stopwatch Beta","name_short":"sfo-3","host":"sfo-1.us.uncletopia.com","port":27035,"enabled":true,"region":"us-west","cc":"us","latitude":37.77397,"longitude":-122.4313,"reserved":0,"last_update":"0001-01-01T00:00:00Z","name_a2s":"Uncletopia | San Francisco | 3 | Stopwatch Beta","protocol":17,"map":"koth_lakeside_final","folder":"tf","game":"Team Fortress","app_id":440,"player_count":0,"max_players":24,"Bots":0,"server_type":"Dedicated","server_os":"Linux","password":true,"vac":true,"version":"7742253","steam_id":85568392924742824,"keywords":["cp","nocrits","nodmgspread","uncletopia"],"game_id":440,"stv_port":27036,"stv_name":"Uncletopia | San Francisco | 3 | Stopwatch Beta | STV","players":null},{"server_id":20,"name":"Uncletopia | San Francisco | 4 | Community","name_short":"sfo-4","host":"sfo-1.us.uncletopia.com","port":27045,"enabled":true,"region":"us-west","cc":"us","latitude":37.77397,"longitude":-122.4313,"reserved":0,"last_update":"0001-01-01T00:00:00Z","name_a2s":"Uncletopia | San Francisco | 4 | Community","protocol":17,"map":"workshop/rd_asteroid_redux_b1.ugc2154902912","folder":"tf","game":"Team Fortress","app_id":440,"player_count":0,"max_players":24,"Bots":0,"server_type":"Dedicated","server_os":"Linux","password":true,"vac":true,"version":"7742253","steam_id":85568392924742826,"keywords":["beta","nocrits","nodmgspread","rd","uncletopia"],"game_id":440,"stv_port":27046,"stv_name":"Uncletopia | San Francisco | 4 | Community | STV","players":null},{"server_id":141,"name":"Uncletopia | Sydney | 1 | All Maps","name_short":"syd-1","host":"syd-1.au.uncletopia.com","port":27015,"enabled":true,"region":"au","cc":"au","latitude":-33.865143,"longitude":151.2099,"reserved":0,"last_update":"0001-01-01T00:00:00Z","name_a2s":"Uncletopia | Sydney | 1 | All Maps","protocol":17,"map":"pl_badwater","folder":"tf","game":"Team Fortress","app_id":440,"player_count":12,"max_players":24,"Bots":0,"server_type":"Dedicated","server_os":"Linux","password":true,"vac":true,"version":"7742253","steam_id":85568392924470001,"keywords":["nocrits","nodmgspread","payload","uncletopia"],"game_id":440,"stv_port":27016,"stv_name":"Uncletopia | Sydney | 1 | All Maps | STV","players":[{"user_id":824,"name":"D,Knight","steam_id":76561198434385732,"connected_time":732000000000,"state":"active","ping":231},{"user_id":825,"name":"CaptBirdbeak","steam_id":76561198048640885,"connected_time":533000000000,"state":"active","ping":65},{"user_id":826,"name":"Matt","steam_id":76561198006791420,"connected_time":499000000000,"state":"active","ping":90},{"user_id":827,"name":"MayhemG","steam_id":76561198178065077,"connected_time":466000000000,"state":"active","ping":67},{"user_id":828,"name":"Alex Vandemeer","steam_id":76561198308105172,"connected_time":462000000000,"state":"active","ping":96},{"user_id":765,"name":"Apteryx","steam_id":76561197976460834,"connected_time":4910000000000,"state":"active","ping":62},{"user_id":829,"name":"teleporter","steam_id":76561199437194123,"connected_time":47000000000,"state":"active","ping":256},{"user_id":796,"name":"im holding mid btw","steam_id":76561198062505286,"connected_time":2592000000000,"state":"active","ping":46},{"user_id":815,"name":"las","steam_id":76561198039162155,"connected_time":1555000000000,"state":"active","ping":60},{"user_id":771,"name":"Corrupt","steam_id":76561198008567328,"connected_time":4681000000000,"state":"active","ping":111},{"user_id":811,"name":"blicky","steam_id":76561198029829077,"connected_time":1833000000000,"state":"active","ping":92},{"user_id":819,"name":"Hot Yoga Instructor","steam_id":76561199163801558,"connected_time":1435000000000,"state":"active","ping":51}]},{"server_id":123,"name":"Uncletopia | Sydney | 2 | All Maps","name_short":"syd-2","host":"syd-1.au.uncletopia.com","port":27025,"enabled":true,"region":"au","cc":"au","latitude":-33.865143,"longitude":151.2099,"reserved":0,"last_update":"0001-01-01T00:00:00Z","name_a2s":"Uncletopia | Sydney | 2 | All Maps","protocol":17,"map":"cp_mountainlab","folder":"tf","game":"Team Fortress","app_id":440,"player_count":0,"max_players":24,"Bots":0,"server_type":"Dedicated","server_os":"Linux","password":true,"vac":true,"version":"7742253","steam_id":85568392924470002,"keywords":["cp","nocrits","nodmgspread","uncletopia"],"game_id":440,"stv_port":27026,"stv_name":"Uncletopia | Sydney | 2 | All Maps | STV","players":null},{"server_id":395,"name":"Uncletopia | Sydney | 3 | All Maps","name_short":"syd-3","host":"syd-1.au.uncletopia.com","port":27035,"enabled":true,"region":"au","cc":"au","latitude":-33.865143,"longitude":151.2099,"reserved":0,"last_update":"0001-01-01T00:00:00Z","name_a2s":"Uncletopia | Sydney | 3 | All Maps","protocol":17,"map":"koth_highpass","folder":"tf","game":"Team Fortress","app_id":440,"player_count":0,"max_players":24,"Bots":0,"server_type":"Dedicated","server_os":"Linux","password":true,"vac":true,"version":"7742253","steam_id":85568392925194467,"keywords":["cp","nocrits","nodmgspread","uncletopia"],"game_id":440,"stv_port":27036,"stv_name":"Uncletopia | Sydney | 3 | All Maps | STV","players":null},{"server_id":396,"name":"Uncletopia | Sydney | 4 | All Maps","name_short":"syd-4","host":"syd-1.au.uncletopia.com","port":27045,"enabled":true,"region":"au","cc":"au","latitude":-33.865143,"longitude":151.2099,"reserved":0,"last_update":"0001-01-01T00:00:00Z","name_a2s":"Uncletopia | Sydney | 4 | All Maps","protocol":17,"map":"cp_sunshine","folder":"tf","game":"Team Fortress","app_id":440,"player_count":0,"max_players":24,"Bots":0,"server_type":"Dedicated","server_os":"Linux","password":true,"vac":true,"version":"7742253","steam_id":85568392925397958,"keywords":["cp","nocrits","nodmgspread","uncletopia"],"game_id":440,"stv_port":27046,"stv_name":"Uncletopia | Sydney | 4 | All Maps | STV","players":null},{"server_id":58,"name":"Uncletopia | Sydney | 5 | Stopwatch Beta","name_short":"syd-5","host":"syd-1.au.uncletopia.com","port":27055,"enabled":true,"region":"au","cc":"au","latitude":-33.865143,"longitude":151.2099,"reserved":0,"last_update":"0001-01-01T00:00:00Z","name_a2s":"Uncletopia | Sydney | 5 | Stopwatch Beta","protocol":17,"map":"cp_process_final","folder":"tf","game":"Team Fortress","app_id":440,"player_count":0,"max_players":24,"Bots":0,"server_type":"Dedicated","server_os":"Linux","password":true,"vac":true,"version":"7742253","steam_id":85568392925397959,"keywords":["cp","nocrits","nodmgspread","uncletopia"],"game_id":440,"stv_port":27056,"stv_name":"Uncletopia | Sydney | 5 | Stopwatch Beta | STV","players":null},{"server_id":59,"name":"Uncletopia | Sydney | 6 | Community","name_short":"syd-6","host":"syd-1.au.uncletopia.com","port":27065,"enabled":true,"region":"au","cc":"au","latitude":-33.865143,"longitude":151.2099,"reserved":0,"last_update":"0001-01-01T00:00:00Z","name_a2s":"Uncletopia | Sydney | 6 | Community","protocol":17,"map":"workshop/pl_barnblitz_pro7.ugc582280235","folder":"tf","game":"Team Fortress","app_id":440,"player_count":0,"max_players":24,"Bots":0,"server_type":"Dedicated","server_os":"Linux","password":true,"vac":true,"version":"7742253","steam_id":85568392925397960,"keywords":["nocrits","nodmgspread","payload","uncletopia"],"game_id":440,"stv_port":27066,"stv_name":"Uncletopia | Sydney | 6 | Community | STV","players":null},{"server_id":49,"name":"Uncletopia | Warsaw | 1 | All Maps","name_short":"waw-1","host":"waw-1.pl.uncletopia.com","port":27015,"enabled":true,"region":"eu","cc":"pl","latitude":52.2297,"longitude":21.017532,"reserved":0,"last_update":"0001-01-01T00:00:00Z","name_a2s":"","protocol":0,"map":"","folder":"","game":"","app_id":0,"player_count":0,"max_players":0,"Bots":0,"server_type":"","server_os":"","password":false,"vac":false,"version":"","steam_id":0,"keywords":null,"game_id":0,"stv_port":0,"stv_name":"","players":null},{"server_id":50,"name":"Uncletopia | Warsaw | 2 | All Maps","name_short":"waw-2","host":"waw-1.pl.uncletopia.com","port":27025,"enabled":true,"region":"eu","cc":"pl","latitude":52.2297,"longitude":21.017532,"reserved":0,"last_update":"0001-01-01T00:00:00Z","name_a2s":"Uncletopia | Warsaw | 2 | All Maps","protocol":17,"map":"pl_snowycoast","folder":"tf","game":"Team Fortress","app_id":440,"player_count":3,"max_players":24,"Bots":0,"server_type":"Dedicated","server_os":"Linux","password":true,"vac":true,"version":"7742253","steam_id":85568392925397851,"keywords":["nocrits","nodmgspread","payload","uncletopia"],"game_id":440,"stv_port":27026,"stv_name":"Uncletopia | Warsaw | 2 | All Maps | STV","players":[{"user_id":7,"name":"Oobly","steam_id":76561198046696930,"connected_time":844000000000,"state":"active","ping":106},{"user_id":8,"name":"nöfnöfoink","steam_id":76561198845868531,"connected_time":746000000000,"state":"active","ping":107},{"user_id":9,"name":"Alec_76a","steam_id":76561198054305165,"connected_time":115000000000,"state":"active","ping":75}]},{"server_id":51,"name":"Uncletopia | Warsaw | 3 | All Maps","name_short":"waw-3","host":"waw-1.pl.uncletopia.com","port":27035,"enabled":true,"region":"eu","cc":"pl","latitude":52.2297,"longitude":21.017532,"reserved":0,"last_update":"0001-01-01T00:00:00Z","name_a2s":"Uncletopia | Warsaw | 3 | All Maps","protocol":17,"map":"koth_lakeside_final","folder":"tf","game":"Team Fortress","app_id":440,"player_count":0,"max_players":24,"Bots":0,"server_type":"Dedicated","server_os":"Linux","password":true,"vac":true,"version":"7742253","steam_id":85568392925397852,"keywords":["cp","nocrits","nodmgspread","uncletopia"],"game_id":440,"stv_port":27036,"stv_name":"Uncletopia | Warsaw | 3 | All Maps | STV","players":null},{"server_id":52,"name":"Uncletopia | Warsaw | 4 | All Maps","name_short":"waw-4","host":"waw-1.pl.uncletopia.com","port":27045,"enabled":true,"region":"eu","cc":"pl","latitude":52.2297,"longitude":21.017532,"reserved":0,"last_update":"0001-01-01T00:00:00Z","name_a2s":"Uncletopia | Warsaw | 4 | All Maps","protocol":17,"map":"pl_upward","folder":"tf","game":"Team Fortress","app_id":440,"player_count":0,"max_players":24,"Bots":0,"server_type":"Dedicated","server_os":"Linux","password":true,"vac":true,"version":"7742253","steam_id":85568392925397853,"keywords":["nocrits","nodmgspread","payload","uncletopia"],"game_id":440,"stv_port":27046,"stv_name":"Uncletopia | Warsaw | 4 | All Maps | STV","players":null},{"server_id":53,"name":"Uncletopia | Warsaw | 5 | Stopwatch Beta","name_short":"waw-5","host":"waw-1.pl.uncletopia.com","port":27055,"enabled":true,"region":"eu","cc":"pl","latitude":52.2297,"longitude":21.017532,"reserved":0,"last_update":"0001-01-01T00:00:00Z","name_a2s":"Uncletopia | Warsaw | 5 | Stopwatch Beta","protocol":17,"map":"pl_swiftwater_final1","folder":"tf","game":"Team Fortress","app_id":440,"player_count":0,"max_players":24,"Bots":0,"server_type":"Dedicated","server_os":"Linux","password":true,"vac":true,"version":"7742253","steam_id":85568392925397854,"keywords":["nocrits","nodmgspread","payload","uncletopia"],"game_id":440,"stv_port":27056,"stv_name":"Uncletopia | Warsaw | 5 | Stopwatch Beta | STV","players":null},{"server_id":54,"name":"Uncletopia | Warsaw | 6 | Community","name_short":"waw-6","host":"waw-1.pl.uncletopia.com","port":27065,"enabled":true,"region":"eu","cc":"pl","latitude":52.2297,"longitude":21.017532,"reserved":0,"last_update":"0001-01-01T00:00:00Z","name_a2s":"Uncletopia | Warsaw | 6 | Community","protocol":17,"map":"koth_highpass","folder":"tf","game":"Team Fortress","app_id":440,"player_count":0,"max_players":24,"Bots":0,"server_type":"Dedicated","server_os":"Linux","password":true,"vac":true,"version":"7742253","steam_id":85568392925397856,"keywords":["cp","nocrits","nodmgspread","uncletopia"],"game_id":440,"stv_port":27066,"stv_name":"Uncletopia | Warsaw | 6 | Community | STV","players":null}]}