{"status":true,"message":"","result":[{"server_id":9,"name":"Uncletopia | Atlanta | 1 | All Maps","name_short":"atl-1","host":"atl-1.us.uncletopia.com","port":27015,"enabled":true,"region":"us-east","cc":"us","latitude":33.753746,"longitude":-84.38633,"reserved":0,"last_update":"0001-01-01T00:00:00Z","name_a2s":"Uncletopia | Atlanta | 1 | All Maps","protocol":17,"map":"koth_harvest_final","folder":"tf","game":"Team Fortress","app_id":440,"player_count":22,"max_players":24,"Bots":0,"server_type":"Dedicated","server_os":"Linux","password":true,"vac":true,"version":"7961495","steam_id":85568392924469982,"keywords":["cp","nocrits","nodmgspread","uncletopia"],"game_id":440,"stv_port":27016,"stv_name":"Uncletopia | Atlanta | 1 | All Maps | STV","players":[{"user_id":876,"name":"sompsy","steam_id":76561198047369854,"connected_time":3153000000000,"state":"active","ping":105},{"user_id":858,"name":"Luigi4tl","steam_id":76561198051862389,"connected_time":4850000000000,"state":"active","ping":62},{"user_id":635,"name":"CoffeeZombi","steam_id":76561198172708053,"connected_time":18021000000000,"state":"active","ping":50},{"user_id":905,"name":"DisDoodEatFood","steam_id":76561198360724348,"connected_time":200000000000,"state":"active","ping":118},{"user_id":865,"name":"Paradox","steam_id":76561198450881715,"connected_time":4348000000000,"state":"active","ping":107},{"user_id":901,"name":"Bodhi (she/they)","steam_id":76561198103230995,"connected_time":926000000000,"state":"active","ping":62},{"user_id":862,"name":"mangokip","steam_id":76561198156471516,"connected_time":4409000000000,"state":"active","ping":53},{"user_id":906,"name":"Surfing Garchomp","steam_id":76561199107236884,"connected_time":197000000000,"state":"active","ping":108},{"user_id":896,"name":"Jin","steam_id":76561198119873148,"connected_time":1785000000000,"state":"active","ping":73},{"user_id":872,"name":"eish","steam_id":76561198089463603,"connected_time":3683000000000,"state":"active","ping":120},{"user_id":854,"name":"ash","steam_id":76561198127890645,"connected_time":5293000000000,"state":"active","ping":63},{"user_id":907,"name":"why","steam_id":76561199059732212,"connected_time":94000000000,"state":"active","ping":46},{"user_id":908,"name":"gretchling","steam_id":76561198046111695,"connected_time":81000000000,"state":"active","ping":63},{"user_id":909,"name":"BIG HOG","steam_id":76561198079923652,"connected_time":48000000000,"state":"active","ping":62},{"user_id":904,"name":"tack","steam_id":76561198408477421,"connected_time":465000000000,"state":"active","ping":86},{"user_id":885,"name":"Tue","steam_id":76561198181668501,"connected_time":2592000000000,"state":"active","ping":53},{"user_id":888,"name":"subdromeda","steam_id":76561198884351860,"connected_time":2270000000000,"state":"active","ping":89},{"user_id":658,"name":"Ashes!","steam_id":76561197998475441,"connected_time":15607000000000,"state":"active","ping":67},{"user_id":673,"name":"Tay1Qr","steam_id":76561198082809935,"connected_time":14915000000000,"state":"active","ping":57},{"user_id":849,"name":"Night time Dan","steam_id":76561199022178492,"connected_time":5876000000000,"state":"active","ping":43},{"user_id":900,"name":"lil hog","steam_id":76561199230929836,"connected_time":976000000000,"state":"active","ping":77},{"user_id":873,"name":"BotchyAlarm8","steam_id":76561198092682129,"connected_time":3570000000000,"state":"active","ping":68}]},{"server_id":104,"name":"Uncletopia | Atlanta | 2 | All Maps","name_short":"atl-2","host":"atl-1.us.uncletopia.com","port":27025,"enabled":true,"region":"us-east","cc":"us","latitude":33.753746,"longitude":-84.38633,"reserved":0,"last_update":"0001-01-01T00:00:00Z","name_a2s":"Uncletopia | Atlanta | 2 | All Maps","protocol":17,"map":"cp_process_final","folder":"tf","game":"Team Fortress","app_id":440,"player_count":3,"max_players":24,"Bots":0,"server_type":"Dedicated","server_os":"Linux","password":true,"vac":true,"version":"7961495","steam_id":85568392924469983,"keywords":["cp","nocrits","nodmgspread","uncletopia"],"game_id":440,"stv_port":27026,"stv_name":"Uncletopia | Atlanta | 2 | All Maps | STV","players":[{"user_id":562,"name":"Archie","steam_id":76561198137112917,"connected_time":1093000000000,"state":"active","ping":93},{"user_id":561,"name":"WeirdTigy","steam_id":76561198247004274,"connected_time":1187000000000,"state":"active","ping":66},{"user_id":563,"name":"Toto","steam_id":76561198011800106,"connected_time":1070000000000,"state":"active","ping":99}]},{"server_id":400,"name":"Uncletopia | Atlanta | 3 | Stopwatch","name_short":"atl-3","host":"atl-1.us.uncletopia.com","port":27035,"enabled":true,"region":"us-east","cc":"us","latitude":33.753746,"longitude":-84.38633,"reserved":0,"last_update":"0001-01-01T00:00:00Z","name_a2s":"Uncletopia | Atlanta | 3 | Stopwatch","protocol":17,"map":"koth_highpass","folder":"tf","game":"Team Fortress","app_id":440,"player_count":0,"max_players":24,"Bots":0,"server_type":"Dedicated","server_os":"Linux","password":true,"vac":true,"version":"7961495","steam_id":85568392924515187,"keywords":["cp","nocrits","nodmgspread","uncletopia"],"game_id":440,"stv_port":27036,"stv_name":"Uncletopia | Atlanta | 3 | Stopwatch | STV","players":null},{"server_id":401,"name":"Uncletopia | Atlanta | 4 | Community","name_short":"atl-4","host":"atl-1.us.uncletopia.com","port":27045,"enabled":true,"region":"us-east","cc":"us","latitude":33.753746,"longitude":-84.38633,"reserved":0,"last_update":"0001-01-01T00:00:00Z","name_a2s":"Uncletopia | Atlanta | 4 | Community","protocol":17,"map":"workshop/koth_bagel_rc6.ugc2514036946","folder":"tf","game":"Team Fortress","app_id":440,"player_count":0,"max_players":24,"Bots":0,"server_type":"Dedicated","server_os":"Linux","password":true,"vac":true,"version":"7961495","steam_id":85568392924515188,"keywords":["cp","nocrits","nodmgspread","uncletopia"],"game_id":440,"stv_port":27046,"stv_name":"Uncletopia | Atlanta | 4 | Community | STV","players":null},{"server_id":2,"name":"Uncletopia | Chicago | 1 | All Maps","name_short":"chi-1","host":"chi-1.us.uncletopia.com","port":27015,"enabled":true,"region":"us-central","cc":"us","latitude":41.881832,"longitude":-87.62318,"reserved":0,"last_update":"0001-01-01T00:00:00Z","name_a2s":"Uncletopia | Chicago | 1 | All Maps","protocol":17,"map":"pl_borneo","folder":"tf","game":"Team Fortress","app_id":440,"player_count":24,"max_players":24,"Bots":0,"server_type":"Dedicated","server_os":"Linux","password":true,"vac":true,"version":"7961495","steam_id":85568392924469984,"keywords":["nocrits","nodmgspread","payload","uncletopia"],"game_id":440,"stv_port":27016,"stv_name":"Uncletopia | Chicago | 1 | All Maps | STV","players":[{"user_id":601,"name":"Kzjytsugn","steam_id":76561198130241974,"connected_time":3202000000000,"state":"active","ping":90},{"user_id":602,"name":"DevoutPage14990","steam_id":76561198831347354,"connected_time":3022000000000,"state":"active","ping":75},{"user_id":628,"name":"IanSanity","steam_id":76561198068795111,"connected_time":970000000000,"state":"active","ping":105},{"user_id":635,"name":"ùíÜùíóùíäùíçArnoldGamingÔæ†","steam_id":76561198040140247,"connected_time":789000000000,"state":"active","ping":93},{"user_id":579,"name":"Luna","steam_id":76561198082944789,"connected_time":4401000000000,"state":"active","ping":85},{"user_id":629,"name":"frank","steam_id":76561198137777483,"connected_time":949000000000,"state":"active","ping":66},{"user_id":627,"name":"DO NOT call me BART SIMPSON!!","steam_id":76561198069113375,"connected_time":1107000000000,"state":"active","ping":65},{"user_id":608,"name":"Two-Teste Tommy","steam_id":76561198064308936,"connected_time":2746000000000,"state":"active","ping":74},{"user_id":609,"name":"Scarecrow","steam_id":76561198045870511,"connected_time":2741000000000,"state":"active","ping":70},{"user_id":638,"name":"UNIT 220","steam_id":76561198042243497,"connected_time":38000000000,"state":"active","ping":65},{"user_id":626,"name":"Traceback","steam_id":76561197993212340,"connected_time":1331000000000,"state":"active","ping":74},{"user_id":578,"name":"Muselk, but mexican","steam_id":76561199289676387,"connected_time":4423000000000,"state":"active","ping":72},{"user_id":636,"name":"Pocky","steam_id":76561199096774182,"connected_time":780000000000,"state":"active","ping":119},{"user_id":575,"name":"Weary","steam_id":76561198145767546,"connected_time":4740000000000,"state":"active","ping":74},{"user_id":637,"name":"WalrusNyetheBonkGuy","steam_id":76561197995626774,"connected_time":228000000000,"state":"active","ping":115},{"user_id":598,"name":"rf","steam_id":76561198195359229,"connected_time":3376000000000,"state":"active","ping":78},{"user_id":557,"name":"Weird Round","steam_id":76561197969205852,"connected_time":6748000000000,"state":"active","ping":81},{"user_id":591,"name":"uberchain","steam_id":76561198059177902,"connected_time":3775000000000,"state":"active","ping":96},{"user_id":634,"name":"jb","steam_id":76561198038607085,"connected_time":838000000000,"state":"active","ping":82},{"user_id":617,"name":"Rudy","steam_id":76561198013456828,"connected_time":2114000000000,"state":"active","ping":61},{"user_id":613,"name":"Ket","steam_id":76561198241951244,"connected_time":2424000000000,"state":"active","ping":71},{"user_id":618,"name":"Gargathor the Entity Catcher","steam_id":76561198189429665,"connected_time":1863000000000,"state":"active","ping":74},{"user_id":631,"name":"Jolly","steam_id":76561198104802817,"connected_time":907000000000,"state":"active","ping":96},{"user_id":615,"name":"comet sooicidy","steam_id":76561198025173479,"connected_time":2383000000000,"state":"active","ping":94}]},{"server_id":106,"name":"Uncletopia | Chicago | 2 | All Maps","name_short":"chi-2","host":"chi-1.us.uncletopia.com","port":27025,"enabled":true,"region":"us-central","cc":"us","latitude":41.881832,"longitude":-87.62318,"reserved":0,"last_update":"0001-01-01T00:00:00Z","name_a2s":"Uncletopia | Chicago | 2 | All Maps","protocol":17,"map":"pl_snowycoast","folder":"tf","game":"Team Fortress","app_id":440,"player_count":17,"max_players":24,"Bots":0,"server_type":"Dedicated","server_os":"Linux","password":true,"vac":true,"version":"7961495","steam_id":85568392924469985,"keywords":["nocrits","nodmgspread","payload","uncletopia"],"game_id":440,"stv_port":27026,"stv_name":"Uncletopia | Chicago | 2 | All Maps | STV","players":[{"user_id":710,"name":"Ahten Xevious","steam_id":76561198075469828,"connected_time":2091000000000,"state":"active","ping":67},{"user_id":708,"name":"ball'd-out fist [NGW]","steam_id":76561199071209640,"connected_time":2468000000000,"state":"active","ping":94},{"user_id":733,"name":"con queso","steam_id":76561198119656147,"connected_time":56000000000,"state":"active","ping":51},{"user_id":726,"name":"Satori Komeiji","steam_id":76561198158211423,"connected_time":383000000000,"state":"active","ping":91},{"user_id":731,"name":"Papa Smoke","steam_id":76561198181348206,"connected_time":147000000000,"state":"active","ping":52},{"user_id":717,"name":"BIG SCIENCE","steam_id":76561197991871713,"connected_time":764000000000,"state":"active","ping":66},{"user_id":718,"name":"50-pound ball of ants","steam_id":76561198046131295,"connected_time":655000000000,"state":"active","ping":66},{"user_id":693,"name":"freyja","steam_id":76561198012480197,"connected_time":3372000000000,"state":"active","ping":84},{"user_id":719,"name":"Willowl","steam_id":76561198074612980,"connected_time":649000000000,"state":"active","ping":80},{"user_id":720,"name":"Baconator","steam_id":76561198941700660,"connected_time":639000000000,"state":"active","ping":112},{"user_id":725,"name":"Quin","steam_id":76561198985618311,"connected_time":406000000000,"state":"active","ping":90},{"user_id":722,"name":"i like my hammer :)","steam_id":76561198317982960,"connected_time":520000000000,"state":"active","ping":92},{"user_id":728,"name":"Borb","steam_id":76561198402193691,"connected_time":323000000000,"state":"active","ping":70},{"user_id":729,"name":"T3","steam_id":76561199019536727,"connected_time":233000000000,"state":"active","ping":111},{"user_id":730,"name":"binary search tree gaming","steam_id":76561198099721950,"connected_time":221000000000,"state":"active","ping":69},{"user_id":732,"name":"QweX_","steam_id":76561198051250642,"connected_time":102000000000,"state":"active","ping":102},{"user_id":734,"name":"The Ambiguous Briton","steam_id":76561198007495748,"connected_time":55000000000,"state":"active","ping":121}]},{"server_id":402,"name":"Uncletopia | Chicago | 3 | All Maps","name_short":"chi-3","host":"chi-1.us.uncletopia.com","port":27035,"enabled":true,"region":"us-central","cc":"us","latitude":41.881832,"longitude":-87.62318,"reserved":0,"last_update":"0001-01-01T00:00:00Z","name_a2s":"Uncletopia | Chicago | 3 | All Maps","protocol":17,"map":"pl_barnblitz","folder":"tf","game":"Team Fortress","app_id":440,"player_count":0,"max_players":24,"Bots":0,"server_type":"Dedicated","server_os":"Linux","password":true,"vac":true,"version":"7961495","steam_id":85568392924515191,"keywords":["nocrits","nodmgspread","payload","uncletopia"],"game_id":440,"stv_port":27036,"stv_name":"Uncletopia | Chicago | 3 | All Maps | STV","players":null},{"server_id":403,"name":"Uncletopia | Chicago | 4 | All Maps","name_short":"chi-4","host":"chi-1.us.uncletopia.com","port":27045,"enabled":true,"region":"us-central","cc":"us","latitude":41.881832,"longitude":-87.62318,"reserved":0,"last_update":"0001-01-01T00:00:00Z","name_a2s":"Uncletopia | Chicago | 4 | All Maps","protocol":17,"map":"pl_snowycoast","folder":"tf","game":"Team Fortress","app_id":440,"player_count":24,"max_players":24,"Bots":0,"server_type":"Dedicated","server_os":"Linux","password":true,"vac":true,"version":"7961495","steam_id":85568392924515193,"keywords":["nocrits","nodmgspread","payload","uncletopia"],"game_id":440,"stv_port":27046,"stv_name":"Uncletopia | Chicago | 4 | All Maps | STV","players":[{"user_id":809,"name":"[MRY] Sk-iLite","steam_id":76561198041797350,"connected_time":1385000000000,"state":"active","ping":67},{"user_id":799,"name":"pathulhu","steam_id":76561198323941614,"connected_time":2000000000000,"state":"active","ping":69},{"user_id":813,"name":"Poyo Boyo","steam_id":76561198010201227,"connected_time":976000000000,"state":"active","ping":73},{"user_id":825,"name":"Wheat","steam_id":76561198106270789,"connected_time":28000000000,"state":"active","ping":55},{"user_id":783,"name":"GLURRIN","steam_id":76561198315690955,"connected_time":3430000000000,"state":"active","ping":56},{"user_id":826,"name":"‚úß.*Remzy‚úß.*","steam_id":76561199239412094,"connected_time":23000000000,"state":"active","ping":219},{"user_id":815,"name":"Yummy Kabobz","steam_id":76561198067661705,"connected_time":764000000000,"state":"active","ping":59},{"user_id":793,"name":"James Melon","steam_id":76561198084494577,"connected_time":2700000000000,"state":"active","ping":74},{"user_id":816,"name":"what a fukkin","steam_id":76561198298442983,"connected_time":742000000000,"state":"active","ping":96},{"user_id":824,"name":"AWGER","steam_id":76561198284683624,"connected_time":120000000000,"state":"active","ping":75},{"user_id":810,"name":"‚∏∏ gaige ‚õß","steam_id":76561198090576796,"connected_time":1259000000000,"state":"active","ping":52},{"user_id":807,"name":"Wenimechaindasuma","steam_id":76561199019813462,"connected_time":1510000000000,"state":"active","ping":99},{"user_id":790,"name":"padrooga","steam_id":76561198335292512,"connected_time":2922000000000,"state":"active","ping":59},{"user_id":798,"name":"mommy","steam_id":76561198129195009,"connected_time":2449000000000,"state":"active","ping":88},{"user_id":808,"name":"Orgasmo","steam_id":76561198213716931,"connected_time":1456000000000,"state":"active","ping":146},{"user_id":820,"name":"profit paul","steam_id":76561198056622157,"connected_time":555000000000,"state":"active","ping":62},{"user_id":823,"name":"Sir, your pants are down.","steam_id":76561198019023270,"connected_time":217000000000,"state":"active","ping":108},{"user_id":821,"name":"Potassium!","steam_id":76561199082921723,"connected_time":488000000000,"state":"active","ping":92},{"user_id":822,"name":"Aster","steam_id":76561198037920420,"connected_time":314000000000,"state":"active","ping":61},{"user_id":796,"name":"Memoirist","steam_id":76561198026002842,"connected_time":2588000000000,"state":"active","ping":72},{"user_id":818,"name":"defcon","steam_id":76561198100656328,"connected_time":721000000000,"state":"active","ping":75},{"user_id":811,"name":"dabsol","steam_id":76561198272096751,"connected_time":1226000000000,"state":"active","ping":54},{"user_id":812,"name":"yair_1302","steam_id":76561199193064727,"connected_time":1202000000000,"state":"active","ping":58},{"user_id":819,"name":"Octo","steam_id":76561198024056355,"connected_time":721000000000,"state":"active","ping":116}]},{"server_id":36,"name":"Uncletopia | Chicago | 5 | All Maps","name_short":"chi-5","host":"chi-2.us.uncletopia.com","port":27015,"enabled":true,"region":"us-central","cc":"us","latitude":41.881832,"longitude":-87.62318,"reserved":0,"last_update":"0001-01-01T00:00:00Z","name_a2s":"Uncletopia | Chicago | 5 | All Maps","protocol":17,"map":"cp_process_final","folder":"tf","game":"Team Fortress","app_id":440,"player_count":0,"max_players":24,"Bots":0,"server_type":"Dedicated","server_os":"Linux","password":true,"vac":true,"version":"7961495","steam_id":85568392924866362,"keywords":["cp","nocrits","nodmgspread","uncletopia"],"game_id":440,"stv_port":27016,"stv_name":"Uncletopia | Chicago | 5 | All Maps | STV","players":null},{"server_id":37,"name":"Uncletopia | Chicago | 6 | All Maps","name_short":"chi-6","host":"chi-2.us.uncletopia.com","port":27025,"enabled":true,"region":"us-central","cc":"us","latitude":41.881832,"longitude":-87.62318,"reserved":0,"last_update":"0001-01-01T00:00:00Z","name_a2s":"Uncletopia | Chicago | 6 | All Maps","protocol":17,"map":"cp_sunshine","folder":"tf","game":"Team Fortress","app_id":440,"player_count":0,"max_players":24,"Bots":0,"server_type":"Dedicated","server_os":"Linux","password":true,"vac":true,"version":"7961495","steam_id":85568392924866363,"keywords":["cp","nocrits","nodmgspread","uncletopia"],"game_id":440,"stv_port":27026,"stv_name":"Uncletopia | Chicago | 6 | All Maps | STV","players":null},{"server_id":38,"name":"Uncletopia | Chicago | 7 | Stopwatch","name_short":"chi-7","host":"chi-2.us.uncletopia.com","port":27035,"enabled":true,"region":"us-central","cc":"us","latitude":41.881832,"longitude":-87.62318,"reserved":0,"last_update":"0001-01-01T00:00:00Z","name_a2s":"Uncletopia | Chicago | 7 | Stopwatch","protocol":17,"map":"workshop/koth_clearcut_b15.ugc2107050255","folder":"tf","game":"Team Fortress","app_id":440,"player_count":0,"max_players":24,"Bots":0,"server_type":"Dedicated","server_os":"Linux","password":true,"vac":true,"version":"7961495","steam_id":85568392924866364,"keywords":["cp","nocrits","nodmgspread","uncletopia"],"game_id":440,"stv_port":27036,"stv_name":"Uncletopia | Chicago | 7 | Stopwatch | STV","players":null},{"server_id":39,"name":"Uncletopia | Chicago | 8 | Community","name_short":"chi-8","host":"chi-2.us.uncletopia.com","port":27045,"enabled":true,"region":"us-central","cc":"us","latitude":41.881832,"longitude":-87.62318,"reserved":0,"last_update":"0001-01-01T00:00:00Z","name_a2s":"Uncletopia | Chicago | 8 | Community","protocol":17,"map":"workshop/pl_jinn_rc2.ugc2964570577","folder":"tf","game":"Team Fortress","app_id":440,"player_count":0,"max_players":24,"Bots":0,"server_type":"Dedicated","server_os":"Linux","password":true,"vac":true,"version":"7961495","steam_id":85568392924866365,"keywords":["nocrits","nodmgspread","payload","uncletopia"],"game_id":440,"stv_port":27046,"stv_name":"Uncletopia | Chicago | 8 | Community | STV","players":null},{"server_id":8,"name":"Uncletopia | Dallas | 1 | All Maps","name_short":"dal-1","host":"dal-1.us.uncletopia.com","port":27015,"enabled":true,"region":"us-central","cc":"us","latitude":32.779167,"longitude":-96.80889,"reserved":0,"last_update":"0001-01-01T00:00:00Z","name_a2s":"Uncletopia | Dallas | 1 | All Maps","protocol":17,"map":"pl_upward","folder":"tf","game":"Team Fortress","app_id":440,"player_count":24,"max_players":24,"Bots":0,"server_type":"Dedicated","server_os":"Linux","password":true,"vac":true,"version":"7961495","steam_id":85568392924469986,"keywords":["nocrits","nodmgspread","payload","uncletopia"],"game_id":440,"stv_port":27016,"stv_name":"Uncletopia | Dallas | 1 | All Maps | STV","players":[{"user_id":584,"name":"bad spy player","steam_id":76561198873699671,"connected_time":2300000000000,"state":"active","ping":105},{"user_id":598,"name":"Stroop","steam_id":76561198138687730,"connected_time":322000000000,"state":"active","ping":104},{"user_id":554,"name":"Bogey","steam_id":76561198096227944,"connected_time":4434000000000,"state":"active","ping":49},{"user_id":596,"name":"BL√òRG","steam_id":76561198036126673,"connected_time":641000000000,"state":"active","ping":75},{"user_id":589,"name":"Shotgun Sniffer","steam_id":76561198025030539,"connected_time":1758000000000,"state":"active","ping":76},{"user_id":505,"name":"AlonelyBard","steam_id":76561198333764079,"connected_time":8890000000000,"state":"active","ping":61},{"user_id":591,"name":"Nestor","steam_id":76561198070782619,"connected_time":1132000000000,"state":"active","ping":88},{"user_id":597,"name":"story","steam_id":76561199088496817,"connected_time":372000000000,"state":"active","ping":66},{"user_id":572,"name":"errant","steam_id":76561197961758410,"connected_time":3036000000000,"state":"active","ping":42},{"user_id":573,"name":"Cheetose Intolerant","steam_id":76561198013399809,"connected_time":3003000000000,"state":"active","ping":61},{"user_id":586,"name":"Lee?","steam_id":76561199060892634,"connected_time":2257000000000,"state":"active","ping":66},{"user_id":599,"name":"Kafka Stan","steam_id":76561198127039453,"connected_time":307000000000,"state":"active","ping":69},{"user_id":574,"name":"Sheep","steam_id":76561198161218914,"connected_time":2995000000000,"state":"active","ping":83},{"user_id":527,"name":"wajanta","steam_id":76561199040280852,"connected_time":6813000000000,"state":"active","ping":63},{"user_id":592,"name":"Bodhisattva","steam_id":76561198085228896,"connected_time":1115000000000,"state":"active","ping":77},{"user_id":604,"name":"Power","steam_id":76561197978508626,"connected_time":136000000000,"state":"active","ping":75},{"user_id":595,"name":"Hamlindigo Blue‚Ñ¢","steam_id":76561198116337540,"connected_time":904000000000,"state":"active","ping":82},{"user_id":530,"name":"Certified Hood Classic","steam_id":76561199086159354,"connected_time":6755000000000,"state":"active","ping":62},{"user_id":603,"name":"Vynthex","steam_id":76561198990762666,"connected_time":250000000000,"state":"active","ping":90},{"user_id":593,"name":"START PRAYIN BOY","steam_id":76561198089173996,"connected_time":1094000000000,"state":"active","ping":97},{"user_id":605,"name":"Nero25","steam_id":76561198027720631,"connected_time":62000000000,"state":"active","ping":94},{"user_id":602,"name":"Onsyn","steam_id":76561199201517591,"connected_time":268000000000,"state":"active","ping":90},{"user_id":583,"name":"confield","steam_id":76561198004322265,"connected_time":2330000000000,"state":"active","ping":66},{"user_id":431,"name":"Pvt. Dimitri Petrenko","steam_id":76561198078040091,"connected_time":12808000000000,"state":"active","ping":57}]},{"server_id":108,"name":"Uncletopia | Dallas | 2 | All Maps","name_short":"dal-2","host":"dal-1.us.uncletopia.com","port":27025,"enabled":true,"region":"us-central","cc":"us","latitude":32.779167,"longitude":-96.80889,"reserved":0,"last_update":"0001-01-01T00:00:00Z","name_a2s":"Uncletopia | Dallas | 2 | All Maps","protocol":17,"map":"cp_process_final","folder":"tf","game":"Team Fortress","app_id":440,"player_count":18,"max_players":24,"Bots":0,"server_type":"Dedicated","server_os":"Linux","password":true,"vac":true,"version":"7961495","steam_id":85568392924469988,"keywords":["cp","nocrits","nodmgspread","uncletopia"],"game_id":440,"stv_port":27026,"stv_name":"Uncletopia | Dallas | 2 | All Maps | STV","players":[{"user_id":699,"name":"*chu*","steam_id":76561198116115189,"connected_time":5000000000,"state":"spawning","ping":74},{"user_id":676,"name":"Femboy Dracula","steam_id":76561198090606686,"connected_time":1103000000000,"state":"active","ping":88},{"user_id":666,"name":"5ft Powerhouse","steam_id":76561198078040365,"connected_time":1481000000000,"state":"active","ping":55},{"user_id":649,"name":"Zozbieta","steam_id":76561198010336265,"connected_time":3926000000000,"state":"active","ping":58},{"user_id":696,"name":"vulcan nightclub pon farr night","steam_id":76561197974283797,"connected_time":62000000000,"state":"active","ping":61},{"user_id":692,"name":"Wholesale Socks","steam_id":76561198169911945,"connected_time":190000000000,"state":"active","ping":118},{"user_id":691,"name":"_Pai","steam_id":76561198108196753,"connected_time":233000000000,"state":"active","ping":65},{"user_id":673,"name":"Legit_Jaxer","steam_id":76561198172234053,"connected_time":1163000000000,"state":"active","ping":107},{"user_id":680,"name":"Goldwalker","steam_id":76561198279461590,"connected_time":1028000000000,"state":"active","ping":73},{"user_id":591,"name":"EvilPi99let","steam_id":76561197987243470,"connected_time":6960000000000,"state":"active","ping":77},{"user_id":698,"name":"blademiss","steam_id":76561198062083019,"connected_time":43000000000,"state":"active","ping":68},{"user_id":681,"name":"stockhack","steam_id":76561198050220225,"connected_time":964000000000,"state":"active","ping":79},{"user_id":655,"name":"Sexy Kitten (toxic)","steam_id":76561197979056451,"connected_time":3219000000000,"state":"active","ping":91},{"user_id":658,"name":"hungry kibten","steam_id":76561198184099558,"connected_time":2397000000000,"state":"active","ping":96},{"user_id":660,"name":"eminixx!","steam_id":76561198962857708,"connected_time":2148000000000,"state":"active","ping":84},{"user_id":664,"name":"Danial","steam_id":76561199029201184,"connected_time":1653000000000,"state":"active","ping":112},{"user_id":685,"name":"Lickity Split","steam_id":76561198132051047,"connected_time":871000000000,"state":"active","ping":105},{"user_id":661,"name":"paws :3","steam_id":76561199371694361,"connected_time":2147000000000,"state":"active","ping":84}]},{"server_id":404,"name":"Uncletopia | Dallas | 3 | All Maps","name_short":"dal-3","host":"dal-1.us.uncletopia.com","port":27035,"enabled":true,"region":"us-central","cc":"us","latitude":32.779167,"longitude":-96.80889,"reserved":0,"last_update":"0001-01-01T00:00:00Z","name_a2s":"Uncletopia | Dallas | 3 | All Maps","protocol":17,"map":"ctf_2fort","folder":"tf","game":"Team Fortress","app_id":440,"player_count":24,"max_players":24,"Bots":0,"server_type":"Dedicated","server_os":"Linux","password":true,"vac":true,"version":"7961495","steam_id":85568392924515219,"keywords":["ctf","nocrits","nodmgspread","uncletopia"],"game_id":440,"stv_port":27036,"stv_name":"Uncletopia | Dallas | 3 | All Maps | STV","players":[{"user_id":537,"name":"Seasoned Shrimp","steam_id":76561198405863627,"connected_time":1636000000000,"state":"active","ping":126},{"user_id":530,"name":"SgT_Spam","steam_id":76561198275753768,"connected_time":1775000000000,"state":"active","ping":55},{"user_id":547,"name":"Firecrotch Fredo","steam_id":76561198099658220,"connected_time":678000000000,"state":"active","ping":83},{"user_id":540,"name":"Quietsharp","steam_id":76561198277968438,"connected_time":1508000000000,"state":"active","ping":81},{"user_id":546,"name":"CeLeb144","steam_id":76561199089907740,"connected_time":728000000000,"state":"active","ping":61},{"user_id":542,"name":"it's weskin time","steam_id":76561198183859213,"connected_time":1227000000000,"state":"active","ping":54},{"user_id":541,"name":"Rukks","steam_id":76561197993918954,"connected_time":1395000000000,"state":"active","ping":82},{"user_id":562,"name":"Samillie","steam_id":76561198182077115,"connected_time":170000000000,"state":"active","ping":62},{"user_id":549,"name":"ItsThatBear","steam_id":76561198169617659,"connected_time":671000000000,"state":"active","ping":72},{"user_id":543,"name":"Prinz","steam_id":76561198175476071,"connected_time":1213000000000,"state":"active","ping":77},{"user_id":560,"name":"Edith","steam_id":76561198329131447,"connected_time":302000000000,"state":"active","ping":80},{"user_id":561,"name":"ddt3d","steam_id":76561198238806116,"connected_time":269000000000,"state":"active","ping":64},{"user_id":552,"name":"GuyGoom","steam_id":76561198254522178,"connected_time":650000000000,"state":"active","ping":96},{"user_id":564,"name":"literally tyler durden","steam_id":76561199014628655,"connected_time":111000000000,"state":"active","ping":59},{"user_id":509,"name":"ZombieSlayer77","steam_id":76561199023974356,"connected_time":4051000000000,"state":"active","ping":92},{"user_id":554,"name":"Best Shark on the Market","steam_id":76561198155307745,"connected_time":613000000000,"state":"active","ping":64},{"user_id":535,"name":"mr. big","steam_id":76561198007318337,"connected_time":1699000000000,"state":"active","ping":83},{"user_id":458,"name":"Stillkill","steam_id":76561198065069057,"connected_time":8125000000000,"state":"active","ping":37},{"user_id":565,"name":"bobbymcbobington","steam_id":76561199089411172,"connected_time":106000000000,"state":"active","ping":119},{"user_id":556,"name":"steb","steam_id":76561197997345332,"connected_time":543000000000,"state":"active","ping":83},{"user_id":502,"name":"xlesz","steam_id":76561199020119161,"connected_time":4579000000000,"state":"active","ping":89},{"user_id":510,"name":"Password is Taco","steam_id":76561198026092945,"connected_time":3860000000000,"state":"active","ping":65},{"user_id":557,"name":"Precious from \"Precious\"","steam_id":76561199170057249,"connected_time":541000000000,"state":"active","ping":48},{"user_id":558,"name":"Space Captainface","steam_id":76561197995103493,"connected_time":525000000000,"state":"active","ping":76}]},{"server_id":405,"name":"Uncletopia | Dallas | 4 | Community","name_short":"dal-4","host":"dal-1.us.uncletopia.com","port":27045,"enabled":true,"region":"us-central","cc":"us","latitude":32.779167,"longitude":-96.80889,"reserved":0,"last_update":"0001-01-01T00:00:00Z","name_a2s":"Uncletopia | Dallas | 4 | Community","protocol":17,"map":"workshop/pl_extinction_rc1.ugc2961457712","folder":"tf","game":"Team Fortress","app_id":440,"player_count":24,"max_players":24,"Bots":0,"server_type":"Dedicated","server_os":"Linux","password":true,"vac":true,"version":"7961495","steam_id":85568392924515220,"keywords":["nocrits","nodmgspread","payload","uncletopia"],"game_id":440,"stv_port":27046,"stv_name":"Uncletopia | Dallas | 4 | Community | STV","players":[{"user_id":122,"name":"Nut Bustray","steam_id":76561198092403883,"connected_time":1101000000000,"state":"active","ping":88},{"user_id":105,"name":"Bandit","steam_id":76561199087543553,"connected_time":2018000000000,"state":"active","ping":91},{"user_id":47,"name":"SN0W","steam_id":76561198153665468,"connected_time":6471000000000,"state":"active","ping":61},{"user_id":128,"name":"Karma","steam_id":76561198320530905,"connected_time":795000000000,"state":"active","ping":45},{"user_id":137,"name":"ÎùºÎãà","steam_id":76561198399201495,"connected_time":200000000000,"state":"active","ping":62},{"user_id":127,"name":"Wikked","steam_id":76561198196149207,"connected_time":801000000000,"state":"active","ping":133},{"user_id":120,"name":"r0biN","steam_id":76561198097861434,"connected_time":1208000000000,"state":"active","ping":93},{"user_id":75,"name":"lanoc","steam_id":76561198055415367,"connected_time":4715000000000,"state":"active","ping":60},{"user_id":114,"name":"stuffedidiot","steam_id":76561199181513019,"connected_time":1564000000000,"state":"active","ping":118},{"user_id":129,"name":"BK (King Buford)","steam_id":76561198272057200,"connected_time":776000000000,"state":"active","ping":90},{"user_id":130,"name":"Nixhalis","steam_id":76561198289151385,"connected_time":770000000000,"state":"active","ping":127},{"user_id":74,"name":"AlecTheNefarious","steam_id":76561198035291230,"connected_time":4872000000000,"state":"active","ping":59},{"user_id":100,"name":"DeckofDragons","steam_id":76561198057398213,"connected_time":2457000000000,"state":"active","ping":65},{"user_id":55,"name":"portal robewrtson big fan","steam_id":76561198150428763,"connected_time":5830000000000,"state":"active","ping":82},{"user_id":102,"name":"kr1tsurf3r","steam_id":76561198076402476,"connected_time":2345000000000,"state":"active","ping":96},{"user_id":103,"name":"summerof69","steam_id":76561198069049410,"connected_time":2316000000000,"state":"active","ping":74},{"user_id":63,"name":"sithreis","steam_id":76561198000564263,"connected_time":5205000000000,"state":"active","ping":73},{"user_id":138,"name":"i am clinically insane","steam_id":76561199013323529,"connected_time":116000000000,"state":"active","ping":99},{"user_id":118,"name":"username","steam_id":76561198063006130,"connected_time":1322000000000,"state":"active","ping":83},{"user_id":132,"name":"Soft copper wings","steam_id":76561198092317849,"connected_time":732000000000,"state":"active","ping":75},{"user_id":136,"name":"Dank Ghost","steam_id":76561198400690889,"connected_time":448000000000,"state":"active","ping":101},{"user_id":134,"name":"G.bo","steam_id":76561198085176270,"connected_time":707000000000,"state":"active","ping":89},{"user_id":135,"name":"≈õlimak z zadania 14","steam_id":76561199084680369,"connected_time":704000000000,"state":"active","ping":180},{"user_id":121,"name":"Moonshine Man","steam_id":76561198088010073,"connected_time":1163000000000,"state":"active","ping":75}]},{"server_id":5,"name":"Uncletopia | Frankfurt | 1 | All Maps","name_short":"frk-1","host":"frk-1.de.uncletopia.com","port":27015,"enabled":true,"region":"eu","cc":"de","latitude":50.110924,"longitude":8.682127,"reserved":0,"last_update":"0001-01-01T00:00:00Z","name_a2s":"Uncletopia | Frankfurt | 1 | All Maps","protocol":17,"map":"ctf_doublecross","folder":"tf","game":"Team Fortress","app_id":440,"player_count":0,"max_players":24,"Bots":0,"server_type":"Dedicated","server_os":"Linux","password":true,"vac":true,"version":"7961495","steam_id":85568392924469989,"keywords":["ctf","nocrits","nodmgspread","uncletopia"],"game_id":440,"stv_port":27016,"stv_name":"Uncletopia | Frankfurt | 1 | All Maps | STV","players":null},{"server_id":110,"name":"Uncletopia | Frankfurt | 2 | All Maps","name_short":"frk-2","host":"frk-1.de.uncletopia.com","port":27025,"enabled":true,"region":"eu","cc":"de","latitude":50.110924,"longitude":8.682127,"reserved":0,"last_update":"0001-01-01T00:00:00Z","name_a2s":"Uncletopia | Frankfurt | 2 | All Maps","protocol":17,"map":"cp_coldfront","folder":"tf","game":"Team Fortress","app_id":440,"player_count":0,"max_players":24,"Bots":0,"server_type":"Dedicated","server_os":"Linux","password":true,"vac":true,"version":"7961495","steam_id":85568392924469990,"keywords":["cp","nocrits","nodmgspread","uncletopia"],"game_id":440,"stv_port":27026,"stv_name":"Uncletopia | Frankfurt | 2 | All Maps | STV","players":null},{"server_id":308,"name":"Uncletopia | Frankfurt | 3 | All Maps","name_short":"frk-3","host":"frk-1.de.uncletopia.com","port":27035,"enabled":true,"region":"eu","cc":"de","latitude":50.110924,"longitude":8.682127,"reserved":0,"last_update":"0001-01-01T00:00:00Z","name_a2s":"Uncletopia | Frankfurt | 3 | All Maps","protocol":17,"map":"plr_pipeline","folder":"tf","game":"Team Fortress","app_id":440,"player_count":0,"max_players":24,"Bots":0,"server_type":"Dedicated","server_os":"Linux","password":true,"vac":true,"version":"7961495","steam_id":85568392924504274,"keywords":["nocrits","nodmgspread","payload","uncletopia"],"game_id":440,"stv_port":27036,"stv_name":"Uncletopia | Frankfurt | 3 | All Maps | STV","players":null},{"server_id":309,"name":"Uncletopia | Frankfurt | 4 | All Maps","name_short":"frk-4","host":"frk-1.de.uncletopia.com","port":27045,"enabled":true,"region":"eu","cc":"de","latitude":50.110924,"longitude":8.682127,"reserved":0,"last_update":"0001-01-01T00:00:00Z","name_a2s":"Uncletopia | Frankfurt | 4 | All Maps","protocol":17,"map":"koth_lakeside_final","folder":"tf","game":"Team Fortress","app_id":440,"player_count":0,"max_players":24,"Bots":0,"server_type":"Dedicated","server_os":"Linux","password":true,"vac":true,"version":"7961495","steam_id":85568392924504275,"keywords":["cp","nocrits","nodmgspread","uncletopia"],"game_id":440,"stv_port":27046,"stv_name":"Uncletopia | Frankfurt | 4 | All Maps | STV","players":null},{"server_id":310,"name":"Uncletopia | Frankfurt | 5 | All Maps","name_short":"frk-5","host":"frk-1.de.uncletopia.com","port":27055,"enabled":true,"region":"eu","cc":"de","latitude":50.110924,"longitude":8.682127,"reserved":0,"last_update":"0001-01-01T00:00:00Z","name_a2s":"Uncletopia | Frankfurt | 5 | All Maps","protocol":17,"map":"pl_frontier_final","folder":"tf","game":"Team Fortress","app_id":440,"player_count":19,"max_players":24,"Bots":0,"server_type":"Dedicated","server_os":"Linux","password":true,"vac":true,"version":"7961495","steam_id":85568392924504277,"keywords":["nocrits","nodmgspread","payload","uncletopia"],"game_id":440,"stv_port":27056,"stv_name":"Uncletopia | Frankfurt | 5 | All Maps | STV","players":[{"user_id":81,"name":"ja","steam_id":76561199228540618,"connected_time":222000000000,"state":"active","ping":47},{"user_id":66,"name":"PP_master69420","steam_id":76561199019913910,"connected_time":1462000000000,"state":"active","ping":82},{"user_id":6,"name":"63756d","steam_id":76561198808699024,"connected_time":6789000000000,"state":"active","ping":60},{"user_id":68,"name":"Stellar Fox","steam_id":76561198236985244,"connected_time":1367000000000,"state":"active","ping":60},{"user_id":8,"name":"sokige","steam_id":76561198167112371,"connected_time":6785000000000,"state":"active","ping":77},{"user_id":72,"name":"Playback_time","steam_id":76561198349426598,"connected_time":578000000000,"state":"active","ping":45},{"user_id":61,"name":"Canis[Magnus]Pectus","steam_id":76561198363775072,"connected_time":2004000000000,"state":"active","ping":125},{"user_id":73,"name":"zheka1243","steam_id":76561198871057117,"connected_time":574000000000,"state":"active","ping":120},{"user_id":83,"name":"Gaarke","steam_id":76561198023099219,"connected_time":58000000000,"state":"active","ping":73},{"user_id":74,"name":"please do not the cat","steam_id":76561198089003514,"connected_time":452000000000,"state":"active","ping":42},{"user_id":75,"name":"tempLimit","steam_id":76561199158363470,"connected_time":405000000000,"state":"active","ping":79},{"user_id":76,"name":"sassy stalemate","steam_id":76561198085227558,"connected_time":362000000000,"state":"active","ping":85},{"user_id":77,"name":"The Killer z","steam_id":76561198309194481,"connected_time":330000000000,"state":"active","ping":58},{"user_id":78,"name":"HopeDaGamer","steam_id":76561199487262348,"connected_time":314000000000,"state":"active","ping":245},{"user_id":79,"name":"ZETRO","steam_id":76561199465434479,"connected_time":291000000000,"state":"active","ping":139},{"user_id":46,"name":"Sigfig","steam_id":76561198000237899,"connected_time":3065000000000,"state":"active","ping":149},{"user_id":80,"name":"Kris","steam_id":76561199175021237,"connected_time":245000000000,"state":"active","ping":208},{"user_id":36,"name":"CumbustiblePunda","steam_id":76561197974274677,"connected_time":4057000000000,"state":"active","ping":54},{"user_id":48,"name":"Brozy","steam_id":76561199014951849,"connected_time":2959000000000,"state":"active","ping":76}]},{"server_id":311,"name":"Uncletopia | Frankfurt | 6 | All Maps","name_short":"frk-6","host":"frk-1.de.uncletopia.com","port":27065,"enabled":true,"region":"eu","cc":"de","latitude":50.110924,"longitude":8.682127,"reserved":0,"last_update":"0001-01-01T00:00:00Z","name_a2s":"Uncletopia | Frankfurt | 6 | All Maps","protocol":17,"map":"cp_steel","folder":"tf","game":"Team Fortress","app_id":440,"player_count":0,"max_players":24,"Bots":0,"server_type":"Dedicated","server_os":"Linux","password":true,"vac":true,"version":"7961495","steam_id":85568392924504278,"keywords":["cp","nocrits","nodmgspread","uncletopia"],"game_id":440,"stv_port":27066,"stv_name":"Uncletopia | Frankfurt | 6 | All Maps | STV","players":null},{"server_id":23,"name":"Uncletopia | Frankfurt | 7 | Stopwatch","name_short":"frk-7","host":"frk-1.de.uncletopia.com","port":27075,"enabled":true,"region":"eu","cc":"de","latitude":50.110924,"longitude":8.682127,"reserved":0,"last_update":"0001-01-01T00:00:00Z","name_a2s":"Uncletopia | Frankfurt | 7 | Stopwatch","protocol":17,"map":"koth_highpass","folder":"tf","game":"Team Fortress","app_id":440,"player_count":0,"max_players":24,"Bots":0,"server_type":"Dedicated","server_os":"Linux","password":true,"vac":true,"version":"7961495","steam_id":85568392924742827,"keywords":["cp","nocrits","nodmgspread","uncletopia"],"game_id":440,"stv_port":27076,"stv_name":"Uncletopia | Frankfurt | 7 | Stopwatch | STV","players":null},{"server_id":24,"name":"Uncletopia | Frankfurt | 8 | Community","name_short":"frk-8","host":"frk-1.de.uncletopia.com","port":27085,"enabled":true,"region":"eu","cc":"de","latitude":50.110924,"longitude":8.682127,"reserved":0,"last_update":"0001-01-01T00:00:00Z","name_a2s":"Uncletopia | Frankfurt | 8 | Community","protocol":17,"map":"workshop/pl_stallberg_rc3.ugc1849111469","folder":"tf","game":"Team Fortress","app_id":440,"player_count":0,"max_players":24,"Bots":0,"server_type":"Dedicated","server_os":"Linux","password":true,"vac":true,"version":"7961495","steam_id":85568392924742828,"keywords":["nocrits","nodmgspread","payload","uncletopia"],"game_id":440,"stv_port":27086,"stv_name":"Uncletopia | Frankfurt | 8 | Community | STV","players":null},{"server_id":202,"name":"Uncletopia | Hong Kong | 1 | All Maps","name_short":"hgk-1","host":"hgk-1.hk.uncletopia.com","port":27015,"enabled":true,"region":"asia","cc":"hk","latitude":22.302711,"longitude":114.177216,"reserved":0,"last_update":"0001-01-01T00:00:00Z","name_a2s":"Uncletopia | Hong Kong | 1 | All Maps","protocol":17,"map":"koth_lakeside_final","folder":"tf","game":"Team Fortress","app_id":440,"player_count":1,"max_players":24,"Bots":0,"server_type":"Dedicated","server_os":"Linux","password":true,"vac":true,"version":"7961495","steam_id":85568392924494504,"keywords":["cp","nocrits","nodmgspread","uncletopia"],"game_id":440,"stv_port":27016,"stv_name":"Uncletopia | Hong Kong | 1 | All Maps | STV","players":[{"user_id":9,"name":"in the balls","steam_id":76561199481967063,"connected_time":79000000000,"state":"active","ping":75}]},{"server_id":1,"name":"Uncletopia | Los Angeles | 1 | All Maps","name_short":"lax-1","host":"lax-1.us.uncletopia.com","port":27015,"enabled":true,"region":"us-west","cc":"us","latitude":33.94279,"longitude":-118.41004,"reserved":0,"last_update":"0001-01-01T00:00:00Z","name_a2s":"Uncletopia | Los Angeles | 1 | All Maps","protocol":17,"map":"cp_sunshine","folder":"tf","game":"Team Fortress","app_id":440,"player_count":0,"max_players":24,"Bots":0,"server_type":"Dedicated","server_os":"Linux","password":true,"vac":true,"version":"7961495","steam_id":85568392924469991,"keywords":["cp","nocrits","nodmgspread","uncletopia"],"game_id":440,"stv_port":27016,"stv_name":"Uncletopia | Los Angeles | 1 | All Maps | STV","players":null},{"server_id":112,"name":"Uncletopia | Los Angeles | 2 | All Maps","name_short":"lax-2","host":"lax-1.us.uncletopia.com","port":27025,"enabled":true,"region":"us-west","cc":"us","latitude":33.94279,"longitude":-118.41004,"reserved":0,"last_update":"0001-01-01T00:00:00Z","name_a2s":"Uncletopia | Los Angeles | 2 | All Maps","protocol":17,"map":"cp_sunshine","folder":"tf","game":"Team Fortress","app_id":440,"player_count":24,"max_players":24,"Bots":0,"server_type":"Dedicated","server_os":"Linux","password":true,"vac":true,"version":"7961495","steam_id":85568392924469992,"keywords":["cp","nocrits","nodmgspread","uncletopia"],"game_id":440,"stv_port":27026,"stv_name":"Uncletopia | Los Angeles | 2 | All Maps | STV","players":[{"user_id":460,"name":"Rascallyyy","steam_id":76561198184552369,"connected_time":1733000000000,"state":"active","ping":45},{"user_id":458,"name":"TeeVeeGee","steam_id":76561198009869685,"connected_time":1968000000000,"state":"active","ping":52},{"user_id":454,"name":"Birb","steam_id":76561198220234419,"connected_time":2612000000000,"state":"active","ping":60},{"user_id":463,"name":"An00bis","steam_id":76561198044084508,"connected_time":1683000000000,"state":"active","ping":50},{"user_id":426,"name":"jacket","steam_id":76561199494406383,"connected_time":4673000000000,"state":"active","ping":49},{"user_id":473,"name":"NotWobs","steam_id":76561199087891992,"connected_time":22000000000,"state":"spawning","ping":74},{"user_id":375,"name":"HooDoo","steam_id":76561198088994018,"connected_time":7871000000000,"state":"active","ping":76},{"user_id":437,"name":"slammin","steam_id":76561197965022076,"connected_time":3739000000000,"state":"active","ping":105},{"user_id":436,"name":"HEADRUSH31","steam_id":76561198072716327,"connected_time":3772000000000,"state":"active","ping":122},{"user_id":350,"name":"Humble Learner","steam_id":76561198066091050,"connected_time":9258000000000,"state":"active","ping":71},{"user_id":451,"name":"A Pile Of Bacon","steam_id":76561198105243785,"connected_time":2746000000000,"state":"active","ping":68},{"user_id":464,"name":"Galactamarx","steam_id":76561198028065755,"connected_time":1609000000000,"state":"active","ping":105},{"user_id":323,"name":"Antzen","steam_id":76561198041343470,"connected_time":11297000000000,"state":"active","ping":63},{"user_id":465,"name":"monsterkill4567","steam_id":76561198272986367,"connected_time":1511000000000,"state":"active","ping":57},{"user_id":349,"name":"lol","steam_id":76561198026491738,"connected_time":9765000000000,"state":"active","ping":66},{"user_id":421,"name":"weed lesbian","steam_id":76561198042263805,"connected_time":4963000000000,"state":"active","ping":89},{"user_id":466,"name":"dillinger","steam_id":76561198110661425,"connected_time":1471000000000,"state":"active","ping":80},{"user_id":448,"name":"Human Resources Manager","steam_id":76561198066386411,"connected_time":3046000000000,"state":"active","ping":58},{"user_id":457,"name":"A bendy straw in disguise","steam_id":76561198257743986,"connected_time":2036000000000,"state":"active","ping":64},{"user_id":467,"name":"Ikalpo","steam_id":76561198044686915,"connected_time":1470000000000,"state":"active","ping":91},{"user_id":459,"name":"Seanvich","steam_id":76561198065805500,"connected_time":1923000000000,"state":"active","ping":120},{"user_id":446,"name":"Eden","steam_id":76561198081284664,"connected_time":3514000000000,"state":"active","ping":57},{"user_id":470,"name":"Beef Wellington","steam_id":76561197995635241,"connected_time":1364000000000,"state":"active","ping":160},{"user_id":472,"name":"so","steam_id":76561198453203619,"connected_time":1309000000000,"state":"active","ping":47}]},{"server_id":324,"name":"Uncletopia | Los Angeles | 3 | All Maps","name_short":"lax-3","host":"lax-1.us.uncletopia.com","port":27035,"enabled":true,"region":"us-west","cc":"us","latitude":33.94279,"longitude":-118.41004,"reserved":0,"last_update":"0001-01-01T00:00:00Z","name_a2s":"Uncletopia | Los Angeles | 3 | All Maps","protocol":17,"map":"cp_process_final","folder":"tf","game":"Team Fortress","app_id":440,"player_count":17,"max_players":24,"Bots":0,"server_type":"Dedicated","server_os":"Linux","password":true,"vac":true,"version":"7961495","steam_id":85568392924510198,"keywords":["cp","nocrits","nodmgspread","uncletopia"],"game_id":440,"stv_port":27036,"stv_name":"Uncletopia | Los Angeles | 3 | All Maps | STV","players":[{"user_id":50,"name":"Captin_Ciyro","steam_id":76561198861899909,"connected_time":2658000000000,"state":"active","ping":55},{"user_id":51,"name":"Matt","steam_id":76561199122703238,"connected_time":2614000000000,"state":"active","ping":100},{"user_id":52,"name":"Verdi Loudmouth","steam_id":76561198211839171,"connected_time":2108000000000,"state":"active","ping":192},{"user_id":76,"name":"audun","steam_id":76561198998420932,"connected_time":23000000000,"state":"active","ping":69},{"user_id":60,"name":"johnman gooberguy","steam_id":76561199014859764,"connected_time":1131000000000,"state":"active","ping":69},{"user_id":62,"name":"Mom","steam_id":76561198207936000,"connected_time":776000000000,"state":"active","ping":31},{"user_id":63,"name":"GROOVYROOM","steam_id":76561199153684166,"connected_time":585000000000,"state":"active","ping":70},{"user_id":64,"name":"yung hoisin","steam_id":76561199122537902,"connected_time":474000000000,"state":"active","ping":45},{"user_id":65,"name":"KrageSpawn","steam_id":76561199214730628,"connected_time":452000000000,"state":"active","ping":58},{"user_id":67,"name":"costum","steam_id":76561198197086561,"connected_time":278000000000,"state":"active","ping":117},{"user_id":68,"name":"American Dad Funny Moments #32","steam_id":76561198254874328,"connected_time":242000000000,"state":"active","ping":79},{"user_id":69,"name":"kosmo404","steam_id":76561198983163386,"connected_time":171000000000,"state":"active","ping":62},{"user_id":70,"name":"Dreamzapp","steam_id":76561199084936632,"connected_time":143000000000,"state":"active","ping":68},{"user_id":71,"name":"Insop","steam_id":76561199128281547,"connected_time":127000000000,"state":"active","ping":59},{"user_id":75,"name":"TinyGayGuitar","steam_id":76561198130737316,"connected_time":41000000000,"state":"active","ping":70},{"user_id":74,"name":"ninety9dragonfly","steam_id":76561198363406983,"connected_time":60000000000,"state":"active","ping":94},{"user_id":77,"name":"bossman","steam_id":76561198103515747,"connected_time":22000000000,"state":"spawning","ping":59}]},{"server_id":25,"name":"Uncletopia | Los Angeles | 4 | Stopwatch","name_short":"lax-4","host":"lax-1.us.uncletopia.com","port":27045,"enabled":true,"region":"us-west","cc":"us","latitude":33.94279,"longitude":-118.41004,"reserved":0,"last_update":"0001-01-01T00:00:00Z","name_a2s":"Uncletopia | Los Angeles | 4 | Stopwatch","protocol":17,"map":"workshop/koth_ashville_final.ugc2130459942","folder":"tf","game":"Team Fortress","app_id":440,"player_count":0,"max_players":24,"Bots":0,"server_type":"Dedicated","server_os":"Linux","password":true,"vac":true,"version":"7961495","steam_id":85568392924510199,"keywords":["cp","nocrits","nodmgspread","uncletopia"],"game_id":440,"stv_port":27046,"stv_name":"Uncletopia | Los Angeles | 4 | Stopwatch | STV","players":null},{"server_id":11,"name":"Uncletopia | London | 1 | All Maps","name_short":"lon-1","host":"lon-1.uk.uncletopia.com","port":27015,"enabled":true,"region":"eu","cc":"gb","latitude":51.509865,"longitude":-0.118092,"reserved":0,"last_update":"0001-01-01T00:00:00Z","name_a2s":"Uncletopia | London | 1 | All Maps","protocol":17,"map":"koth_sawmill","folder":"tf","game":"Team Fortress","app_id":440,"player_count":0,"max_players":24,"Bots":0,"server_type":"Dedicated","server_os":"Linux","password":true,"vac":true,"version":"7961495","steam_id":85568392924367362,"keywords":["cp","nocrits","nodmgspread","uncletopia"],"game_id":440,"stv_port":27016,"stv_name":"Uncletopia | London | 1 | All Maps | STV","players":null},{"server_id":114,"name":"Uncletopia | London | 2 | All Maps","name_short":"lon-2","host":"lon-1.uk.uncletopia.com","port":27025,"enabled":true,"region":"eu","cc":"gb","latitude":51.509865,"longitude":-0.118092,"reserved":0,"last_update":"0001-01-01T00:00:00Z","name_a2s":"Uncletopia | London | 2 | All Maps","protocol":17,"map":"cp_mountainlab","folder":"tf","game":"Team Fortress","app_id":440,"player_count":0,"max_players":24,"Bots":0,"server_type":"Dedicated","server_os":"Linux","password":true,"vac":true,"version":"7961495","steam_id":85568392924470941,"keywords":["cp","nocrits","nodmgspread","uncletopia"],"game_id":440,"stv_port":27026,"stv_name":"Uncletopia | London | 2 | All Maps | STV","players":null},{"server_id":320,"name":"Uncletopia | London | 3 | All Maps","name_short":"lon-3","host":"lon-1.uk.uncletopia.com","port":27035,"enabled":true,"region":"eu","cc":"gb","latitude":51.509865,"longitude":-0.118092,"reserved":0,"last_update":"0001-01-01T00:00:00Z","name_a2s":"Uncletopia | London | 3 | All Maps","protocol":17,"map":"cp_mountainlab","folder":"tf","game":"Team Fortress","app_id":440,"player_count":0,"max_players":24,"Bots":0,"server_type":"Dedicated","server_os":"Linux","password":true,"vac":true,"version":"7961495","steam_id":85568392924510192,"keywords":["cp","nocrits","nodmgspread","uncletopia"],"game_id":440,"stv_port":27036,"stv_name":"Uncletopia | London | 3 | All Maps | STV","players":null},{"server_id":321,"name":"Uncletopia | London | 4 | All Maps","name_short":"lon-4","host":"lon-1.uk.uncletopia.com","port":27045,"enabled":true,"region":"eu","cc":"gb","latitude":51.509865,"longitude":-0.118092,"reserved":0,"last_update":"0001-01-01T00:00:00Z","name_a2s":"Uncletopia | London | 4 | All Maps","protocol":17,"map":"pl_badwater","folder":"tf","game":"Team Fortress","app_id":440,"player_count":0,"max_players":24,"Bots":0,"server_type":"Dedicated","server_os":"Linux","password":true,"vac":true,"version":"7961495","steam_id":85568392924510193,"keywords":["nocrits","nodmgspread","payload","uncletopia"],"game_id":440,"stv_port":27046,"stv_name":"Uncletopia | London | 4 | All Maps | STV","players":null},{"server_id":21,"name":"Uncletopia | London | 5 | All Maps","name_short":"lon-5","host":"lon-1.uk.uncletopia.com","port":27055,"enabled":true,"region":"eu","cc":"gb","latitude":51.509865,"longitude":-0.118092,"reserved":0,"last_update":"0001-01-01T00:00:00Z","name_a2s":"Uncletopia | London | 5 | All Maps","protocol":17,"map":"koth_suijin","folder":"tf","game":"Team Fortress","app_id":440,"player_count":1,"max_players":24,"Bots":0,"server_type":"Dedicated","server_os":"Linux","password":true,"vac":true,"version":"7961495","steam_id":85568392924742829,"keywords":["cp","nocrits","nodmgspread","uncletopia"],"game_id":440,"stv_port":27056,"stv_name":"Uncletopia | London | 5 | All Maps | STV","players":[{"user_id":7,"name":"Larynx","steam_id":76561199425162651,"connected_time":1199000000000,"state":"active","ping":59}]},{"server_id":22,"name":"Uncletopia | London | 6 | All Maps","name_short":"lon-6","host":"lon-1.uk.uncletopia.com","port":27065,"enabled":true,"region":"eu","cc":"gb","latitude":51.509865,"longitude":-0.118092,"reserved":0,"last_update":"0001-01-01T00:00:00Z","name_a2s":"Uncletopia | London | 6 | All Maps","protocol":17,"map":"pl_frontier_final","folder":"tf","game":"Team Fortress","app_id":440,"player_count":0,"max_players":24,"Bots":0,"server_type":"Dedicated","server_os":"Linux","password":true,"vac":true,"version":"7961495","steam_id":85568392924742830,"keywords":["nocrits","nodmgspread","payload","uncletopia"],"game_id":440,"stv_port":27066,"stv_name":"Uncletopia | London | 6 | All Maps | STV","players":null},{"server_id":40,"name":"Uncletopia | London | 7 | Stopwatch","name_short":"lon-7","host":"lon-1.uk.uncletopia.com","port":27075,"enabled":true,"region":"eu","cc":"gb","latitude":51.509865,"longitude":-0.118092,"reserved":0,"last_update":"0001-01-01T00:00:00Z","name_a2s":"Uncletopia | London | 7 | Stopwatch","protocol":17,"map":"pl_swiftwater_final1","folder":"tf","game":"Team Fortress","app_id":440,"player_count":0,"max_players":24,"Bots":0,"server_type":"Dedicated","server_os":"Linux","password":true,"vac":true,"version":"7961495","steam_id":85568392924964314,"keywords":["nocrits","nodmgspread","payload","uncletopia"],"game_id":440,"stv_port":27076,"stv_name":"Uncletopia | London | 7 | Stopwatch | STV","players":null},{"server_id":41,"name":"Uncletopia | London | 8 | Community","name_short":"lon-8","host":"lon-1.uk.uncletopia.com","port":27085,"enabled":true,"region":"eu","cc":"gb","latitude":51.509865,"longitude":-0.118092,"reserved":0,"last_update":"0001-01-01T00:00:00Z","name_a2s":"Uncletopia | London | 8 | Community","protocol":17,"map":"workshop/cp_propaganda_b18.ugc1603743849","folder":"tf","game":"Team Fortress","app_id":440,"player_count":0,"max_players":24,"Bots":0,"server_type":"Dedicated","server_os":"Linux","password":true,"vac":true,"version":"7961495","steam_id":85568392924964315,"keywords":["cp","nocrits","nodmgspread","uncletopia"],"game_id":440,"stv_port":27086,"stv_name":"Uncletopia | London | 8 | Community | STV","players":null},{"server_id":300,"name":"Uncletopia | Montr√©al | 1 | One Thousand Uncles","name_short":"mtl-1","host":"mtl-1.ca.uncletopia.com","port":27015,"enabled":true,"region":"us-east","cc":"ca","latitude":45.50889,"longitude":-73.56167,"reserved":0,"last_update":"0001-01-01T00:00:00Z","name_a2s":"Uncletopia | Montr√©al | 1 | One Thousand Uncles","protocol":17,"map":"pl_thundermountain","folder":"tf","game":"Team Fortress","app_id":440,"player_count":0,"max_players":32,"Bots":0,"server_type":"Dedicated","server_os":"Linux","password":true,"vac":true,"version":"7961495","steam_id":85568392924500087,"keywords":["alltalk","danepve","increased_maxplayers","norespawntime","payload","uncletopia"],"game_id":440,"stv_port":0,"stv_name":"","players":null},{"server_id":301,"name":"Uncletopia | Montr√©al | 2 | One Thousand Uncles","name_short":"mtl-2","host":"mtl-1.ca.uncletopia.com","port":27025,"enabled":true,"region":"us-east","cc":"ca","latitude":45.50889,"longitude":-73.56167,"reserved":0,"last_update":"0001-01-01T00:00:00Z","name_a2s":"Uncletopia | Montr√©al | 2 | One Thousand Uncles","protocol":17,"map":"cp_dustbowl","folder":"tf","game":"Team Fortress","app_id":440,"player_count":0,"max_players":32,"Bots":0,"server_type":"Dedicated","server_os":"Linux","password":true,"vac":true,"version":"7961495","steam_id":85568392924500088,"keywords":["alltalk","cp","danepve","increased_maxplayers","norespawntime","uncletopia"],"game_id":440,"stv_port":0,"stv_name":"","players":null},{"server_id":302,"name":"Uncletopia | Montr√©al | 3 | One Thousand Uncles","name_short":"mtl-3","host":"mtl-1.ca.uncletopia.com","port":27035,"enabled":true,"region":"us-east","cc":"ca","latitude":45.50889,"longitude":-73.56167,"reserved":0,"last_update":"0001-01-01T00:00:00Z","name_a2s":"Uncletopia | Montr√©al | 3 | One Thousand Uncles","protocol":17,"map":"pl_swiftwater_final1","folder":"tf","game":"Team Fortress","app_id":440,"player_count":0,"max_players":32,"Bots":0,"server_type":"Dedicated","server_os":"Linux","password":true,"vac":true,"version":"7961495","steam_id":85568392924500089,"keywords":["alltalk","danepve","increased_maxplayers","norespawntime","payload","uncletopia"],"game_id":440,"stv_port":0,"stv_name":"","players":null},{"server_id":13,"name":"Uncletopia | New York City | 1 | All Maps","name_short":"nyc-1","host":"nyc-1.us.uncletopia.com","port":27015,"enabled":true,"region":"us-east","cc":"us","latitude":40.73061,"longitude":-73.93524,"reserved":0,"last_update":"0001-01-01T00:00:00Z","name_a2s":"Uncletopia | New York City | 1 | All Maps","protocol":17,"map":"koth_cascade","folder":"tf","game":"Team Fortress","app_id":440,"player_count":0,"max_players":24,"Bots":0,"server_type":"Dedicated","server_os":"Linux","password":true,"vac":true,"version":"7961495","steam_id":85568392924469993,"keywords":["cp","nocrits","nodmgspread","uncletopia"],"game_id":440,"stv_port":27016,"stv_name":"Uncletopia | New York City | 1 | All Maps | STV","players":null},{"server_id":14,"name":"Uncletopia | New York City | 2 | All Maps","name_short":"nyc-2","host":"nyc-1.us.uncletopia.com","port":27025,"enabled":true,"region":"us-east","cc":"us","latitude":40.73061,"longitude":-73.93524,"reserved":0,"last_update":"0001-01-01T00:00:00Z","name_a2s":"Uncletopia | New York City | 2 | All Maps","protocol":17,"map":"koth_viaduct","folder":"tf","game":"Team Fortress","app_id":440,"player_count":0,"max_players":24,"Bots":0,"server_type":"Dedicated","server_os":"Linux","password":true,"vac":true,"version":"7961495","steam_id":85568392924469994,"keywords":["cp","nocrits","nodmgspread","uncletopia"],"game_id":440,"stv_port":27026,"stv_name":"Uncletopia | New York City | 2 | All Maps | STV","players":null},{"server_id":15,"name":"Uncletopia | New York City | 3 | Stopwatch","name_short":"nyc-3","host":"nyc-1.us.uncletopia.com","port":27035,"enabled":true,"region":"us-east","cc":"us","latitude":40.73061,"longitude":-73.93524,"reserved":0,"last_update":"0001-01-01T00:00:00Z","name_a2s":"Uncletopia | New York City | 3 | Stopwatch","protocol":17,"map":"workshop/pl_vigil_rc10.ugc1266210012","folder":"tf","game":"Team Fortress","app_id":440,"player_count":0,"max_players":24,"Bots":0,"server_type":"Dedicated","server_os":"Linux","password":true,"vac":true,"version":"7961495","steam_id":85568392924742820,"keywords":["nocrits","nodmgspread","payload","uncletopia"],"game_id":440,"stv_port":27036,"stv_name":"Uncletopia | New York City | 3 | Stopwatch | STV","players":null},{"server_id":16,"name":"Uncletopia | New York City | 4 | Community","name_short":"nyc-4","host":"nyc-1.us.uncletopia.com","port":27045,"enabled":true,"region":"us-east","cc":"us","latitude":40.73061,"longitude":-73.93524,"reserved":0,"last_update":"0001-01-01T00:00:00Z","name_a2s":"Uncletopia | New York City | 4 | Community","protocol":17,"map":"workshop/pl_shoreleave_rc2.ugc1238849347","folder":"tf","game":"Team Fortress","app_id":440,"player_count":0,"max_players":24,"Bots":0,"server_type":"Dedicated","server_os":"Linux","password":true,"vac":true,"version":"7961495","steam_id":85568392924742821,"keywords":["nocrits","nodmgspread","payload","uncletopia"],"game_id":440,"stv_port":27046,"stv_name":"Uncletopia | New York City | 4 | Community | STV","players":null},{"server_id":142,"name":"Uncletopia | S√£o Paulo | 1 | All Maps","name_short":"sao-1","host":"sao-1.br.uncletopia.com","port":27015,"enabled":true,"region":"sa","cc":"br","latitude":-23.533773,"longitude":-46.62529,"reserved":0,"last_update":"0001-01-01T00:00:00Z","name_a2s":"Uncletopia | S√£o Paulo | 1 | All Maps","protocol":17,"map":"koth_lakeside_final","folder":"tf","game":"Team Fortress","app_id":440,"player_count":0,"max_players":24,"Bots":0,"server_type":"Dedicated","server_os":"Linux","password":true,"vac":true,"version":"7961495","steam_id":85568392924469996,"keywords":["cp","nocrits","nodmgspread","uncletopia"],"game_id":440,"stv_port":27016,"stv_name":"Uncletopia | S√£o Paulo | 1 | All Maps | STV","players":null},{"server_id":143,"name":"Uncletopia | S√£o Paulo | 2 | Community","name_short":"sao-2","host":"sao-2.br.uncletopia.com","port":27015,"enabled":true,"region":"sa","cc":"br","latitude":-23.533773,"longitude":-46.62529,"reserved":0,"last_update":"0001-01-01T00:00:00Z","name_a2s":"Uncletopia | S√£o Paulo | 2 | Community","protocol":17,"map":"workshop/koth_slaughter_rc1.ugc1712845210","folder":"tf","game":"Team Fortress","app_id":440,"player_count":0,"max_players":24,"Bots":0,"server_type":"Dedicated","server_os":"Linux","password":true,"vac":true,"version":"7961495","steam_id":85568392924485349,"keywords":["cp","nocrits","nodmgspread","uncletopia"],"game_id":440,"stv_port":27016,"stv_name":"Uncletopia | S√£o Paulo | 2 | Community | STV","players":null},{"server_id":7,"name":"Uncletopia | Seattle | 1 | All Maps","name_short":"sea-1","host":"sea-1.us.uncletopia.com","port":27015,"enabled":true,"region":"us-west","cc":"us","latitude":47.608013,"longitude":-122.33517,"reserved":0,"last_update":"0001-01-01T00:00:00Z","name_a2s":"Uncletopia | Seattle | 1 | All Maps","protocol":17,"map":"pl_upward","folder":"tf","game":"Team Fortress","app_id":440,"player_count":24,"max_players":24,"Bots":0,"server_type":"Dedicated","server_os":"Linux","password":true,"vac":true,"version":"7961495","steam_id":85568392924469997,"keywords":["nocrits","nodmgspread","payload","uncletopia"],"game_id":440,"stv_port":27016,"stv_name":"Uncletopia | Seattle | 1 | All Maps | STV","players":[{"user_id":658,"name":"Attrition","steam_id":76561197969881916,"connected_time":1117000000000,"state":"active","ping":51},{"user_id":516,"name":"Level 99 Mudcrab","steam_id":76561198077452771,"connected_time":6432000000000,"state":"active","ping":65},{"user_id":646,"name":"lyn","steam_id":76561198152950432,"connected_time":2561000000000,"state":"active","ping":98},{"user_id":659,"name":"Greskrendtregk","steam_id":76561197969553142,"connected_time":1021000000000,"state":"active","ping":49},{"user_id":664,"name":"jello","steam_id":76561199274158922,"connected_time":386000000000,"state":"active","ping":52},{"user_id":665,"name":"ghor","steam_id":76561197994547132,"connected_time":386000000000,"state":"active","ping":33},{"user_id":547,"name":"ed","steam_id":76561198080475712,"connected_time":4277000000000,"state":"active","ping":66},{"user_id":653,"name":"rat gets the cheese","steam_id":76561198031234032,"connected_time":2241000000000,"state":"active","ping":98},{"user_id":514,"name":"Preston","steam_id":76561198255721392,"connected_time":6924000000000,"state":"active","ping":122},{"user_id":524,"name":"Jibanyanlnewells69","steam_id":76561198337420431,"connected_time":5791000000000,"state":"active","ping":122},{"user_id":529,"name":"lavender","steam_id":76561199069518286,"connected_time":4907000000000,"state":"active","ping":74},{"user_id":614,"name":"Cosmo","steam_id":76561199085643398,"connected_time":3202000000000,"state":"active","ping":76},{"user_id":531,"name":"Callahan","steam_id":76561197976928457,"connected_time":4793000000000,"state":"active","ping":53},{"user_id":515,"name":"World's Biggest Sniper Hater","steam_id":76561198209153291,"connected_time":6664000000000,"state":"active","ping":79},{"user_id":648,"name":"Grill Skills","steam_id":76561198053575147,"connected_time":2497000000000,"state":"active","ping":59},{"user_id":650,"name":"(TPT) Ghost","steam_id":76561198123262873,"connected_time":2409000000000,"state":"active","ping":80},{"user_id":654,"name":"PopcornBucketGames","steam_id":76561199089562026,"connected_time":1359000000000,"state":"active","ping":51},{"user_id":522,"name":"Lily Thorn","steam_id":76561198305488625,"connected_time":5982000000000,"state":"active","ping":70},{"user_id":534,"name":"Brathic","steam_id":76561198966232163,"connected_time":4557000000000,"state":"active","ping":83},{"user_id":661,"name":"Furikuri","steam_id":76561197998277739,"connected_time":773000000000,"state":"active","ping":45},{"user_id":500,"name":"Ayayayayayayayayayayayayahuasca","steam_id":76561199002906056,"connected_time":8614000000000,"state":"active","ping":57},{"user_id":528,"name":"Closed.","steam_id":76561198212598967,"connected_time":5028000000000,"state":"active","ping":79},{"user_id":595,"name":"sobaka","steam_id":76561198116008934,"connected_time":3554000000000,"state":"active","ping":72},{"user_id":655,"name":"Cheezbeargur","steam_id":76561198164702899,"connected_time":1358000000000,"state":"active","ping":70}]},{"server_id":119,"name":"Uncletopia | Seattle | 2 | All Maps","name_short":"sea-2","host":"sea-1.us.uncletopia.com","port":27025,"enabled":true,"region":"us-west","cc":"us","latitude":47.608013,"longitude":-122.33517,"reserved":0,"last_update":"0001-01-01T00:00:00Z","name_a2s":"Uncletopia | Seattle | 2 | All Maps","protocol":17,"map":"cp_powerhouse","folder":"tf","game":"Team Fortress","app_id":440,"player_count":21,"max_players":24,"Bots":0,"server_type":"Dedicated","server_os":"Linux","password":true,"vac":true,"version":"7961495","steam_id":85568392924469998,"keywords":["cp","nocrits","nodmgspread","uncletopia"],"game_id":440,"stv_port":27026,"stv_name":"Uncletopia | Seattle | 2 | All Maps | STV","players":[{"user_id":417,"name":"trackpad gaming | f2p","steam_id":76561198840414371,"connected_time":444000000000,"state":"active","ping":57},{"user_id":420,"name":"lorient","steam_id":76561198150831438,"connected_time":39000000000,"state":"active","ping":84},{"user_id":419,"name":"FedSmoker","steam_id":76561198255854081,"connected_time":88000000000,"state":"active","ping":53},{"user_id":387,"name":"ocean Backwards","steam_id":76561199246614260,"connected_time":2941000000000,"state":"active","ping":60},{"user_id":402,"name":"crouching tiger heavy","steam_id":76561198121767390,"connected_time":2489000000000,"state":"active","ping":46},{"user_id":320,"name":"vfa","steam_id":76561198055729118,"connected_time":7918000000000,"state":"active","ping":59},{"user_id":328,"name":"Streamline","steam_id":76561198031098638,"connected_time":7687000000000,"state":"active","ping":100},{"user_id":379,"name":"Natsuki the Scunt","steam_id":76561199175922684,"connected_time":3105000000000,"state":"active","ping":89},{"user_id":278,"name":"Scorcho","steam_id":76561198071413833,"connected_time":10784000000000,"state":"active","ping":60},{"user_id":412,"name":"Houdini Cache","steam_id":76561198045506970,"connected_time":1105000000000,"state":"active","ping":50},{"user_id":385,"name":"Mr8bittripper","steam_id":76561198133894229,"connected_time":3041000000000,"state":"active","ping":44},{"user_id":380,"name":"Rev","steam_id":76561199060355036,"connected_time":3103000000000,"state":"active","ping":32},{"user_id":414,"name":"Hawksgamer","steam_id":76561198152405941,"connected_time":902000000000,"state":"active","ping":53},{"user_id":334,"name":"Hex","steam_id":76561198185369025,"connected_time":7356000000000,"state":"active","ping":132},{"user_id":415,"name":"Umbra","steam_id":76561198267752855,"connected_time":692000000000,"state":"active","ping":61},{"user_id":407,"name":"Liam TF2","steam_id":76561198067137160,"connected_time":1833000000000,"state":"active","ping":75},{"user_id":371,"name":"mub","steam_id":76561197961943948,"connected_time":3546000000000,"state":"active","ping":32},{"user_id":391,"name":"Templar Senpai","steam_id":76561198105659850,"connected_time":2843000000000,"state":"active","ping":45},{"user_id":393,"name":"Shazzy","steam_id":76561198145460523,"connected_time":2830000000000,"state":"active","ping":47},{"user_id":418,"name":"holl","steam_id":76561199212388215,"connected_time":268000000000,"state":"active","ping":114},{"user_id":358,"name":"Dusk","steam_id":76561198088681558,"connected_time":4906000000000,"state":"active","ping":45}]},{"server_id":406,"name":"Uncletopia | Seattle | 3 | Stopwatch","name_short":"sea-3","host":"sea-1.us.uncletopia.com","port":27035,"enabled":true,"region":"us-west","cc":"us","latitude":47.608013,"longitude":-122.33517,"reserved":0,"last_update":"0001-01-01T00:00:00Z","name_a2s":"Uncletopia | Seattle | 3 | Stopwatch","protocol":17,"map":"workshop/koth_jamram_rc1a.ugc2964065613","folder":"tf","game":"Team Fortress","app_id":440,"player_count":0,"max_players":24,"Bots":0,"server_type":"Dedicated","server_os":"Linux","password":true,"vac":true,"version":"7961495","steam_id":85568392924515217,"keywords":["cp","nocrits","nodmgspread","uncletopia"],"game_id":440,"stv_port":27036,"stv_name":"Uncletopia | Seattle | 3 | Stopwatch | STV","players":null},{"server_id":17,"name":"Uncletopia | San Francisco | 1 | All Maps","name_short":"sfo-1","host":"sfo-1.us.uncletopia.com","port":27015,"enabled":true,"region":"us-west","cc":"us","latitude":37.77397,"longitude":-122.4313,"reserved":0,"last_update":"0001-01-01T00:00:00Z","name_a2s":"Uncletopia | San Francisco | 1 | All Maps","protocol":17,"map":"pl_badwater","folder":"tf","game":"Team Fortress","app_id":440,"player_count":24,"max_players":24,"Bots":0,"server_type":"Dedicated","server_os":"Linux","password":true,"vac":true,"version":"7961495","steam_id":85568392924469999,"keywords":["nocrits","nodmgspread","payload","uncletopia"],"game_id":440,"stv_port":27016,"stv_name":"Uncletopia | San Francisco | 1 | All Maps | STV","players":[{"user_id":313,"name":"Elephant Seal","steam_id":76561198065364829,"connected_time":1660000000000,"state":"active","ping":137},{"user_id":295,"name":"MK_RJ23","steam_id":76561198805919627,"connected_time":2404000000000,"state":"active","ping":181},{"user_id":327,"name":"EggPencil","steam_id":76561198043633284,"connected_time":524000000000,"state":"active","ping":65},{"user_id":316,"name":"kaede","steam_id":76561198345528370,"connected_time":1403000000000,"state":"active","ping":44},{"user_id":325,"name":"Rafl","steam_id":76561198055222756,"connected_time":706000000000,"state":"active","ping":79},{"user_id":330,"name":"John wick from John wick","steam_id":76561199054195871,"connected_time":337000000000,"state":"active","ping":60},{"user_id":299,"name":"EdxTheFig","steam_id":76561198108650109,"connected_time":2193000000000,"state":"active","ping":51},{"user_id":253,"name":"Lambchop","steam_id":76561198043900363,"connected_time":6599000000000,"state":"active","ping":61},{"user_id":322,"name":".tv/d1nerotf","steam_id":76561198295578318,"connected_time":833000000000,"state":"active","ping":38},{"user_id":282,"name":"MantisToboggan","steam_id":76561197969447887,"connected_time":4002000000000,"state":"active","ping":99},{"user_id":331,"name":"El Gato Paranoico","steam_id":76561198116567116,"connected_time":319000000000,"state":"active","ping":105},{"user_id":117,"name":"SolarusD","steam_id":76561198029279861,"connected_time":15870000000000,"state":"active","ping":46},{"user_id":319,"name":"Whimsy!","steam_id":76561197989578836,"connected_time":1026000000000,"state":"active","ping":63},{"user_id":320,"name":"dunk ringme","steam_id":76561198066114874,"connected_time":979000000000,"state":"active","ping":75},{"user_id":315,"name":"Brigadier Brownie","steam_id":76561198040852898,"connected_time":1574000000000,"state":"active","ping":66},{"user_id":333,"name":"lover is my jean billie not","steam_id":76561198054070811,"connected_time":72000000000,"state":"active","ping":56},{"user_id":278,"name":"They might as well be bread","steam_id":76561198028612613,"connected_time":4226000000000,"state":"active","ping":74},{"user_id":323,"name":"Saucy Boy","steam_id":76561198178332031,"connected_time":828000000000,"state":"active","ping":118},{"user_id":307,"name":"BongWater","steam_id":76561198066438008,"connected_time":1873000000000,"state":"active","ping":108},{"user_id":332,"name":"iggybones (girl with balls)","steam_id":76561198101610291,"connected_time":299000000000,"state":"active","ping":66},{"user_id":308,"name":"NightmareOhm","steam_id":76561198338853664,"connected_time":1852000000000,"state":"active","ping":76},{"user_id":326,"name":"Tideflat","steam_id":76561198179850851,"connected_time":705000000000,"state":"active","ping":80},{"user_id":324,"name":"NE–ØO","steam_id":76561197965450216,"connected_time":818000000000,"state":"active","ping":64},{"user_id":312,"name":"Dr. Sex","steam_id":76561198110144123,"connected_time":1762000000000,"state":"active","ping":105}]},{"server_id":18,"name":"Uncletopia | San Francisco | 2 | All Maps","name_short":"sfo-2","host":"sfo-1.us.uncletopia.com","port":27025,"enabled":true,"region":"us-west","cc":"us","latitude":37.77397,"longitude":-122.4313,"reserved":0,"last_update":"0001-01-01T00:00:00Z","name_a2s":"Uncletopia | San Francisco | 2 | All Maps","protocol":17,"map":"pl_pier","folder":"tf","game":"Team Fortress","app_id":440,"player_count":24,"max_players":24,"Bots":0,"server_type":"Dedicated","server_os":"Linux","password":true,"vac":true,"version":"7961495","steam_id":85568392924470000,"keywords":["nocrits","nodmgspread","payload","uncletopia"],"game_id":440,"stv_port":27026,"stv_name":"Uncletopia | San Francisco | 2 | All Maps | STV","players":[{"user_id":314,"name":"halcyon019","steam_id":76561199339323468,"connected_time":1286000000000,"state":"active","ping":61},{"user_id":318,"name":"Rat Cycle","steam_id":76561198113364714,"connected_time":1100000000000,"state":"active","ping":101},{"user_id":310,"name":"Soupreem","steam_id":76561198091944393,"connected_time":1435000000000,"state":"active","ping":78},{"user_id":312,"name":"jordanddean2016","steam_id":76561198323772677,"connected_time":1383000000000,"state":"active","ping":73},{"user_id":311,"name":"dax","steam_id":76561198045335319,"connected_time":1412000000000,"state":"active","ping":130},{"user_id":319,"name":"‚ô†","steam_id":76561198043256782,"connected_time":1064000000000,"state":"active","ping":110},{"user_id":46,"name":"Kepa","steam_id":76561198091975728,"connected_time":11005000000000,"state":"active","ping":86},{"user_id":304,"name":"Chi-Chia","steam_id":76561198067955987,"connected_time":1984000000000,"state":"active","ping":73},{"user_id":315,"name":"Ya_Boi_Clapitao","steam_id":76561198274969584,"connected_time":1251000000000,"state":"active","ping":66},{"user_id":273,"name":"kiwi","steam_id":76561198052177917,"connected_time":3427000000000,"state":"active","ping":77},{"user_id":332,"name":"Siopao","steam_id":76561198254089497,"connected_time":503000000000,"state":"active","ping":63},{"user_id":316,"name":"[Industrial] A_HUMBLEBUMBLED","steam_id":76561198064771878,"connected_time":1182000000000,"state":"active","ping":49},{"user_id":333,"name":"Boobie and vagene","steam_id":76561198078464924,"connected_time":499000000000,"state":"active","ping":78},{"user_id":320,"name":"pat","steam_id":76561198040595468,"connected_time":1027000000000,"state":"active","ping":74},{"user_id":334,"name":"Pablo Sr.","steam_id":76561199139116062,"connected_time":476000000000,"state":"active","ping":84},{"user_id":322,"name":"Defeat","steam_id":76561198065203818,"connected_time":929000000000,"state":"active","ping":60},{"user_id":336,"name":"Keamy","steam_id":76561199471434875,"connected_time":186000000000,"state":"active","ping":60},{"user_id":324,"name":"Gwuf","steam_id":76561198091503282,"connected_time":904000000000,"state":"active","ping":82},{"user_id":335,"name":"the cock","steam_id":76561198065153674,"connected_time":473000000000,"state":"active","ping":68},{"user_id":328,"name":"Greg Heffley","steam_id":76561198812876396,"connected_time":801000000000,"state":"active","ping":60},{"user_id":327,"name":"eatmysteel","steam_id":76561198976437527,"connected_time":838000000000,"state":"active","ping":122},{"user_id":329,"name":"tadsandco","steam_id":76561198037266781,"connected_time":794000000000,"state":"active","ping":54},{"user_id":297,"name":"Maid 'n' China","steam_id":76561198423392976,"connected_time":2533000000000,"state":"active","ping":52},{"user_id":331,"name":"Unfortunate Ending","steam_id":76561198329347646,"connected_time":654000000000,"state":"active","ping":69}]},{"server_id":19,"name":"Uncletopia | San Francisco | 3 | Stopwatch","name_short":"sfo-3","host":"sfo-1.us.uncletopia.com","port":27035,"enabled":true,"region":"us-west","cc":"us","latitude":37.77397,"longitude":-122.4313,"reserved":0,"last_update":"0001-01-01T00:00:00Z","name_a2s":"Uncletopia | San Francisco | 3 | Stopwatch","protocol":17,"map":"cp_process_final","folder":"tf","game":"Team Fortress","app_id":440,"player_count":0,"max_players":24,"Bots":0,"server_type":"Dedicated","server_os":"Linux","password":true,"vac":true,"version":"7961495","steam_id":85568392924742824,"keywords":["cp","nocrits","nodmgspread","uncletopia"],"game_id":440,"stv_port":27036,"stv_name":"Uncletopia | San Francisco | 3 | Stopwatch | STV","players":null},{"server_id":20,"name":"Uncletopia | San Francisco | 4 | Community","name_short":"sfo-4","host":"sfo-1.us.uncletopia.com","port":27045,"enabled":true,"region":"us-west","cc":"us","latitude":37.77397,"longitude":-122.4313,"reserved":0,"last_update":"0001-01-01T00:00:00Z","name_a2s":"Uncletopia | San Francisco | 4 | Community","protocol":17,"map":"workshop/koth_trenchfoot_ab1.ugc731436616","folder":"tf","game":"Team Fortress","app_id":440,"player_count":0,"max_players":24,"Bots":0,"server_type":"Dedicated","server_os":"Linux","password":true,"vac":true,"version":"7961495","steam_id":85568392924742826,"keywords":["cp","nocrits","nodmgspread","uncletopia"],"game_id":440,"stv_port":27046,"stv_name":"Uncletopia | San Francisco | 4 | Community | STV","players":null},{"server_id":141,"name":"Uncletopia | Sydney | 1 | All Maps","name_short":"syd-1","host":"syd-1.au.uncletopia.com","port":27015,"enabled":true,"region":"au","cc":"au","latitude":-33.865143,"longitude":151.2099,"reserved":0,"last_update":"0001-01-01T00:00:00Z","name_a2s":"Uncletopia | Sydney | 1 | All Maps","protocol":17,"map":"pl_upward","folder":"tf","game":"Team Fortress","app_id":440,"player_count":21,"max_players":24,"Bots":0,"server_type":"Dedicated","server_os":"Linux","password":true,"vac":true,"version":"7961495","steam_id":85568392924470001,"keywords":["nocrits","nodmgspread","payload","uncletopia"],"game_id":440,"stv_port":27016,"stv_name":"Uncletopia | Sydney | 1 | All Maps | STV","players":[{"user_id":7,"name":"Vanessa","steam_id":76561198077728992,"connected_time":2796000000000,"state":"active","ping":61},{"user_id":14,"name":"PastafarianCat","steam_id":76561199215200562,"connected_time":1608000000000,"state":"active","ping":61},{"user_id":9,"name":"Lambert","steam_id":76561198860155814,"connected_time":2185000000000,"state":"active","ping":81},{"user_id":34,"name":"2200","steam_id":76561198048634605,"connected_time":126000000000,"state":"active","ping":44},{"user_id":19,"name":"The Hole Warrior","steam_id":76561198069036644,"connected_time":962000000000,"state":"active","ping":54},{"user_id":13,"name":"...","steam_id":76561198309750355,"connected_time":1973000000000,"state":"active","ping":54},{"user_id":16,"name":"dinxie","steam_id":76561199448765541,"connected_time":1276000000000,"state":"active","ping":61},{"user_id":17,"name":"Glockenspe (She/Her)","steam_id":76561199184115241,"connected_time":1270000000000,"state":"active","ping":48},{"user_id":18,"name":"annoying crow 2","steam_id":76561199349518133,"connected_time":1166000000000,"state":"active","ping":57},{"user_id":25,"name":"T-10a","steam_id":76561198054765522,"connected_time":386000000000,"state":"active","ping":47},{"user_id":26,"name":"Green Goblin","steam_id":76561198067795404,"connected_time":381000000000,"state":"active","ping":117},{"user_id":23,"name":"Renzo Dormac","steam_id":76561198083077313,"connected_time":663000000000,"state":"active","ping":61},{"user_id":28,"name":"Aim_Not","steam_id":76561199305879202,"connected_time":309000000000,"state":"active","ping":99},{"user_id":27,"name":"sav","steam_id":76561198058760041,"connected_time":378000000000,"state":"active","ping":76},{"user_id":29,"name":"Marzell","steam_id":76561198151276153,"connected_time":309000000000,"state":"active","ping":83},{"user_id":30,"name":"Hona","steam_id":76561198221809496,"connected_time":294000000000,"state":"active","ping":59},{"user_id":31,"name":"monnickev","steam_id":76561198252587162,"connected_time":280000000000,"state":"active","ping":43},{"user_id":32,"name":"Oblivious blob","steam_id":76561198141673936,"connected_time":277000000000,"state":"active","ping":87},{"user_id":33,"name":"scoot010","steam_id":76561198821606563,"connected_time":162000000000,"state":"active","ping":46},{"user_id":36,"name":"Chrisy","steam_id":76561198092382473,"connected_time":29000000000,"state":"active","ping":86},{"user_id":37,"name":"Rcon","steam_id":76561199222328844,"connected_time":10000000000,"state":"spawning","ping":45}]},{"server_id":123,"name":"Uncletopia | Sydney | 2 | All Maps","name_short":"syd-2","host":"syd-1.au.uncletopia.com","port":27025,"enabled":true,"region":"au","cc":"au","latitude":-33.865143,"longitude":151.2099,"reserved":0,"last_update":"0001-01-01T00:00:00Z","name_a2s":"Uncletopia | Sydney | 2 | All Maps","protocol":17,"map":"cp_mercenarypark","folder":"tf","game":"Team Fortress","app_id":440,"player_count":0,"max_players":24,"Bots":0,"server_type":"Dedicated","server_os":"Linux","password":true,"vac":true,"version":"7961495","steam_id":85568392924470002,"keywords":["cp","nocrits","nodmgspread","uncletopia"],"game_id":440,"stv_port":27026,"stv_name":"Uncletopia | Sydney | 2 | All Maps | STV","players":null},{"server_id":395,"name":"Uncletopia | Sydney | 3 | All Maps","name_short":"syd-3","host":"syd-1.au.uncletopia.com","port":27035,"enabled":true,"region":"au","cc":"au","latitude":-33.865143,"longitude":151.2099,"reserved":0,"last_update":"0001-01-01T00:00:00Z","name_a2s":"Uncletopia | Sydney | 3 | All Maps","protocol":17,"map":"koth_brazil","folder":"tf","game":"Team Fortress","app_id":440,"player_count":0,"max_players":24,"Bots":0,"server_type":"Dedicated","server_os":"Linux","password":true,"vac":true,"version":"7961495","steam_id":85568392925194467,"keywords":["cp","nocrits","nodmgspread","uncletopia"],"game_id":440,"stv_port":27036,"stv_name":"Uncletopia | Sydney | 3 | All Maps | STV","players":null},{"server_id":396,"name":"Uncletopia | Sydney | 4 | All Maps","name_short":"syd-4","host":"syd-1.au.uncletopia.com","port":27045,"enabled":true,"region":"au","cc":"au","latitude":-33.865143,"longitude":151.2099,"reserved":0,"last_update":"0001-01-01T00:00:00Z","name_a2s":"Uncletopia | Sydney | 4 | All Maps","protocol":17,"map":"pl_swiftwater_final1","folder":"tf","game":"Team Fortress","app_id":440,"player_count":0,"max_players":24,"Bots":0,"server_type":"Dedicated","server_os":"Linux","password":true,"vac":true,"version":"7961495","steam_id":85568392925397958,"keywords":["nocrits","nodmgspread","payload","uncletopia"],"game_id":440,"stv_port":27046,"stv_name":"Uncletopia | Sydney | 4 | All Maps | STV","players":null},{"server_id":58,"name":"Uncletopia | Sydney | 5 | Stopwatch","name_short":"syd-5","host":"syd-1.au.uncletopia.com","port":27055,"enabled":true,"region":"au","cc":"au","latitude":-33.865143,"longitude":151.2099,"reserved":0,"last_update":"0001-01-01T00:00:00Z","name_a2s":"Uncletopia | Sydney | 5 | Stopwatch","protocol":17,"map":"koth_highpass","folder":"tf","game":"Team Fortress","app_id":440,"player_count":0,"max_players":24,"Bots":0,"server_type":"Dedicated","server_os":"Linux","password":true,"vac":true,"version":"7961495","steam_id":85568392925397959,"keywords":["cp","nocrits","nodmgspread","uncletopia"],"game_id":440,"stv_port":27056,"stv_name":"Uncletopia | Sydney | 5 | Stopwatch | STV","players":null},{"server_id":59,"name":"Uncletopia | Sydney | 6 | Community","name_short":"syd-6","host":"syd-1.au.uncletopia.com","port":27065,"enabled":true,"region":"au","cc":"au","latitude":-33.865143,"longitude":151.2099,"reserved":0,"last_update":"0001-01-01T00:00:00Z","name_a2s":"Uncletopia | Sydney | 6 | Community","protocol":17,"map":"workshop/koth_soot_final1.ugc2969540689","folder":"tf","game":"Team Fortress","app_id":440,"player_count":0,"max_players":24,"Bots":0,"server_type":"Dedicated","server_os":"Linux","password":true,"vac":true,"version":"7961495","steam_id":85568392925397960,"keywords":["cp","nocrits","nodmgspread","uncletopia"],"game_id":440,"stv_port":27066,"stv_name":"Uncletopia | Sydney | 6 | Community | STV","players":null},{"server_id":49,"name":"Uncletopia | Warsaw | 1 | One Thousand Uncles","name_short":"waw-1","host":"waw-1.pl.uncletopia.com","port":27015,"enabled":true,"region":"eu","cc":"pl","latitude":52.2297,"longitude":21.017532,"reserved":0,"last_update":"0001-01-01T00:00:00Z","name_a2s":"Uncletopia | Warsaw | 1 | One Thousand Uncles","protocol":17,"map":"cp_egypt_final","folder":"tf","game":"Team Fortress","app_id":440,"player_count":0,"max_players":32,"Bots":0,"server_type":"Dedicated","server_os":"Linux","password":true,"vac":true,"version":"7961495","steam_id":85568392925397850,"keywords":["alltalk","cp","danepve","increased_maxplayers","norespawntime","uncletopia"],"game_id":440,"stv_port":0,"stv_name":"","players":null},{"server_id":50,"name":"Uncletopia | Warsaw | 2 | One Thousand Uncles","name_short":"waw-2","host":"waw-1.pl.uncletopia.com","port":27025,"enabled":true,"region":"eu","cc":"pl","latitude":52.2297,"longitude":21.017532,"reserved":0,"last_update":"0001-01-01T00:00:00Z","name_a2s":"Uncletopia | Warsaw | 2 | One Thousand Uncles","protocol":17,"map":"pl_pier","folder":"tf","game":"Team Fortress","app_id":440,"player_count":23,"max_players":32,"Bots":20,"server_type":"Dedicated","server_os":"Linux","password":true,"vac":true,"version":"7961495","steam_id":85568392925397851,"keywords":["alltalk","bots","danepve","increased_maxplayers","norespawntime","payload","uncletopia"],"game_id":440,"stv_port":0,"stv_name":"","players":[{"user_id":2,"name":"BFG 8=====–≠","steam_id":76561198019254889,"connected_time":3951000000000,"state":"active","ping":92},{"user_id":23,"name":"RacoonGamer","steam_id":76561198100907657,"connected_time":2084000000000,"state":"active","ping":162},{"user_id":24,"name":"bilanmikolaj2","steam_id":76561199509522530,"connected_time":169000000000,"state":"active","ping":62}]},{"server_id":51,"name":"Uncletopia | Warsaw | 3 | All Maps","name_short":"waw-3","host":"waw-1.pl.uncletopia.com","port":27035,"enabled":true,"region":"eu","cc":"pl","latitude":52.2297,"longitude":21.017532,"reserved":0,"last_update":"0001-01-01T00:00:00Z","name_a2s":"Uncletopia | Warsaw | 3 | All Maps","protocol":17,"map":"pl_frontier_final","folder":"tf","game":"Team Fortress","app_id":440,"player_count":0,"max_players":24,"Bots":0,"server_type":"Dedicated","server_os":"Linux","password":true,"vac":true,"version":"7961495","steam_id":85568392925397852,"keywords":["nocrits","nodmgspread","payload","uncletopia"],"game_id":440,"stv_port":27036,"stv_name":"Uncletopia | Warsaw | 3 | All Maps | STV","players":null},{"server_id":52,"name":"Uncletopia | Warsaw | 4 | All Maps","name_short":"waw-4","host":"waw-1.pl.uncletopia.com","port":27045,"enabled":true,"region":"eu","cc":"pl","latitude":52.2297,"longitude":21.017532,"reserved":0,"last_update":"0001-01-01T00:00:00Z","name_a2s":"Uncletopia | Warsaw | 4 | All Maps","protocol":17,"map":"ctf_turbine","folder":"tf","game":"Team Fortress","app_id":440,"player_count":0,"max_players":24,"Bots":0,"server_type":"Dedicated","server_os":"Linux","password":true,"vac":true,"version":"7961495","steam_id":85568392925397853,"keywords":["ctf","nocrits","nodmgspread","uncletopia"],"game_id":440,"stv_port":27046,"stv_name":"Uncletopia | Warsaw | 4 | All Maps | STV","players":null},{"server_id":53,"name":"Uncletopia | Warsaw | 5 | Stopwatch","name_short":"waw-5","host":"waw-1.pl.uncletopia.com","port":27055,"enabled":true,"region":"eu","cc":"pl","latitude":52.2297,"longitude":21.017532,"reserved":0,"last_update":"0001-01-01T00:00:00Z","name_a2s":"Uncletopia | Warsaw | 5 | Stopwatch","protocol":17,"map":"workshop/koth_clearcut_b15.ugc2107050255","folder":"tf","game":"Team Fortress","app_id":440,"player_count":0,"max_players":24,"Bots":0,"server_type":"Dedicated","server_os":"Linux","password":true,"vac":true,"version":"7961495","steam_id":85568392925397854,"keywords":["cp","nocrits","nodmgspread","uncletopia"],"game_id":440,"stv_port":27056,"stv_name":"Uncletopia | Warsaw | 5 | Stopwatch | STV","players":null},{"server_id":54,"name":"Uncletopia | Warsaw | 6 | Community","name_short":"waw-6","host":"waw-1.pl.uncletopia.com","port":27065,"enabled":true,"region":"eu","cc":"pl","latitude":52.2297,"longitude":21.017532,"reserved":0,"last_update":"0001-01-01T00:00:00Z","name_a2s":"Uncletopia | Warsaw | 6 | Community","protocol":17,"map":"workshop/pl_highwood_b19.ugc1769496557","folder":"tf","game":"Team Fortress","app_id":440,"player_count":0,"max_players":24,"Bots":0,"server_type":"Dedicated","server_os":"Linux","password":true,"vac":true,"version":"7961495","steam_id":85568392925397856,"keywords":["nocrits","nodmgspread","payload","uncletopia"],"game_id":440,"stv_port":27066,"stv_name":"Uncletopia | Warsaw | 6 | Community | STV","players":null}]}