{"status":true,"message":"","result":[{"server_id":9,"name":"Uncletopia | Atlanta | 1 | All Maps","name_short":"atl-1","host":"atl-1.us.uncletopia.com","port":27015,"enabled":true,"region":"us-east","cc":"us","latitude":33.753746,"longitude":-84.38633,"reserved":0,"last_update":"0001-01-01T00:00:00Z","name_a2s":"Uncletopia | Atlanta | 1 | All Maps","protocol":17,"map":"pl_badwater","folder":"tf","game":"Team Fortress","app_id":440,"player_count":24,"max_players":24,"Bots":0,"server_type":"Dedicated","server_os":"Linux","password":true,"vac":true,"version":"7757534","steam_id":85568392924469982,"keywords":["nocrits","nodmgspread","payload","uncletopia"],"game_id":440,"stv_port":27016,"stv_name":"Uncletopia | Atlanta | 1 | All Maps | STV","players":[{"user_id":665,"name":"-Silke-","steam_id":76561198066481985,"connected_time":225000000000,"state":"active","ping":78},{"user_id":635,"name":"Yukon Cornelius","steam_id":76561198261512781,"connected_time":1725000000000,"state":"active","ping":48},{"user_id":630,"name":"Brian","steam_id":76561198089908485,"connected_time":2432000000000,"state":"active","ping":68},{"user_id":664,"name":"plum","steam_id":76561198145759044,"connected_time":280000000000,"state":"active","ping":430},{"user_id":640,"name":"twitch.tv/Yoshi21 | TF2Pugs.com","steam_id":76561198002516729,"connected_time":1699000000000,"state":"active","ping":45},{"user_id":636,"name":"Kitsu","steam_id":76561199183087028,"connected_time":1721000000000,"state":"active","ping":86},{"user_id":643,"name":"an unimportant NPC","steam_id":76561198840484105,"connected_time":1509000000000,"state":"active","ping":53},{"user_id":641,"name":"Faraday","steam_id":76561198089928357,"connected_time":1683000000000,"state":"active","ping":71},{"user_id":666,"name":"Whopper Enjoyer","steam_id":76561199163263543,"connected_time":191000000000,"state":"active","ping":67},{"user_id":556,"name":"GKEmperor","steam_id":76561197995187011,"connected_time":8836000000000,"state":"active","ping":76},{"user_id":667,"name":"Spirosity","steam_id":76561198013485753,"connected_time":132000000000,"state":"active","ping":54},{"user_id":608,"name":"mos","steam_id":76561198146126212,"connected_time":3858000000000,"state":"active","ping":60},{"user_id":668,"name":"DV","steam_id":76561198295570806,"connected_time":123000000000,"state":"active","ping":98},{"user_id":633,"name":"Just PYE","steam_id":76561199439622967,"connected_time":2317000000000,"state":"active","ping":77},{"user_id":669,"name":"hollowfornow","steam_id":76561197962111850,"connected_time":111000000000,"state":"active","ping":59},{"user_id":609,"name":"noah","steam_id":76561198140305002,"connected_time":3844000000000,"state":"active","ping":96},{"user_id":594,"name":"DFR Le4n!!!","steam_id":76561198045522596,"connected_time":5936000000000,"state":"active","ping":64},{"user_id":657,"name":"Zillers","steam_id":76561198095248744,"connected_time":560000000000,"state":"active","ping":75},{"user_id":654,"name":"Saikyo","steam_id":76561198212461467,"connected_time":691000000000,"state":"active","ping":74},{"user_id":662,"name":"mwocha","steam_id":76561198136778702,"connected_time":419000000000,"state":"active","ping":90},{"user_id":629,"name":"habib_g6ix_God","steam_id":76561198053621664,"connected_time":2489000000000,"state":"active","ping":67},{"user_id":655,"name":"onion","steam_id":76561198242311084,"connected_time":677000000000,"state":"active","ping":55},{"user_id":631,"name":"sand","steam_id":76561198086193212,"connected_time":2424000000000,"state":"active","ping":60},{"user_id":670,"name":"Wrong Fob","steam_id":76561198057724326,"connected_time":37000000000,"state":"active","ping":196}]},{"server_id":104,"name":"Uncletopia | Atlanta | 2 | All Maps","name_short":"atl-2","host":"atl-1.us.uncletopia.com","port":27025,"enabled":true,"region":"us-east","cc":"us","latitude":33.753746,"longitude":-84.38633,"reserved":0,"last_update":"0001-01-01T00:00:00Z","name_a2s":"Uncletopia | Atlanta | 2 | All Maps","protocol":17,"map":"cp_sunshine","folder":"tf","game":"Team Fortress","app_id":440,"player_count":0,"max_players":24,"Bots":0,"server_type":"Dedicated","server_os":"Linux","password":true,"vac":true,"version":"7757534","steam_id":85568392924469983,"keywords":["cp","nocrits","nodmgspread","uncletopia"],"game_id":440,"stv_port":27026,"stv_name":"Uncletopia | Atlanta | 2 | All Maps | STV","players":null},{"server_id":400,"name":"Uncletopia | Atlanta | 3 | Community","name_short":"atl-3","host":"atl-1.us.uncletopia.com","port":27035,"enabled":true,"region":"us-east","cc":"us","latitude":33.753746,"longitude":-84.38633,"reserved":0,"last_update":"0001-01-01T00:00:00Z","name_a2s":"Uncletopia | Atlanta | 3 | Community","protocol":17,"map":"workshop/koth_kemptown_rc1.ugc767410655","folder":"tf","game":"Team Fortress","app_id":440,"player_count":0,"max_players":24,"Bots":0,"server_type":"Dedicated","server_os":"Linux","password":true,"vac":true,"version":"7757534","steam_id":85568392924515187,"keywords":["cp","nocrits","nodmgspread","uncletopia"],"game_id":440,"stv_port":27036,"stv_name":"Uncletopia | Atlanta | 3 | Community | STV","players":null},{"server_id":401,"name":"Uncletopia | Atlanta | 4 | No Payload","name_short":"atl-4","host":"atl-1.us.uncletopia.com","port":27045,"enabled":true,"region":"us-east","cc":"us","latitude":33.753746,"longitude":-84.38633,"reserved":0,"last_update":"0001-01-01T00:00:00Z","name_a2s":"","protocol":0,"map":"","folder":"","game":"","app_id":0,"player_count":0,"max_players":0,"Bots":0,"server_type":"","server_os":"","password":false,"vac":false,"version":"","steam_id":0,"keywords":null,"game_id":0,"stv_port":0,"stv_name":"","players":null},{"server_id":2,"name":"Uncletopia | Chicago | 1 | All Maps","name_short":"chi-1","host":"chi-1.us.uncletopia.com","port":27015,"enabled":true,"region":"us-central","cc":"us","latitude":41.881832,"longitude":-87.62318,"reserved":0,"last_update":"0001-01-01T00:00:00Z","name_a2s":"Uncletopia | Chicago | 1 | All Maps","protocol":17,"map":"pl_upward","folder":"tf","game":"Team Fortress","app_id":440,"player_count":24,"max_players":24,"Bots":0,"server_type":"Dedicated","server_os":"Linux","password":true,"vac":true,"version":"7757534","steam_id":85568392924469984,"keywords":["nocrits","nodmgspread","payload","uncletopia"],"game_id":440,"stv_port":27016,"stv_name":"Uncletopia | Chicago | 1 | All Maps | STV","players":[{"user_id":684,"name":"ttv/sqwtv","steam_id":76561198280142450,"connected_time":1168000000000,"state":"active","ping":71},{"user_id":582,"name":"Derpydude2002","steam_id":76561198811719519,"connected_time":6614000000000,"state":"active","ping":59},{"user_id":673,"name":"Thy.Roid","steam_id":76561198122291992,"connected_time":1770000000000,"state":"active","ping":48},{"user_id":678,"name":"Mr. Dry Lips","steam_id":76561198028157625,"connected_time":1230000000000,"state":"active","ping":76},{"user_id":677,"name":"MooseTrousers","steam_id":76561199385624015,"connected_time":1251000000000,"state":"active","ping":64},{"user_id":676,"name":"Mixxium","steam_id":76561198170205893,"connected_time":1471000000000,"state":"active","ping":74},{"user_id":679,"name":"kunzy","steam_id":76561198322051622,"connected_time":1212000000000,"state":"active","ping":66},{"user_id":680,"name":"Unregistered Hypercam 2","steam_id":76561198046895822,"connected_time":1200000000000,"state":"active","ping":89},{"user_id":668,"name":"Nolan","steam_id":76561198169648081,"connected_time":1951000000000,"state":"active","ping":83},{"user_id":647,"name":"Jimbo","steam_id":76561198159568572,"connected_time":2589000000000,"state":"active","ping":41},{"user_id":687,"name":"Numberforty1","steam_id":76561198103653795,"connected_time":768000000000,"state":"active","ping":114},{"user_id":667,"name":"M4 Sherman","steam_id":76561198011096132,"connected_time":1959000000000,"state":"active","ping":96},{"user_id":655,"name":"worker","steam_id":76561198039608940,"connected_time":2392000000000,"state":"active","ping":136},{"user_id":551,"name":"GeneralTaco","steam_id":76561198026783097,"connected_time":9358000000000,"state":"active","ping":114},{"user_id":695,"name":"Sunflower","steam_id":76561198081223793,"connected_time":202000000000,"state":"active","ping":65},{"user_id":656,"name":"Breadn","steam_id":76561199478078821,"connected_time":2381000000000,"state":"active","ping":47},{"user_id":617,"name":"Spike Bones","steam_id":76561198234926120,"connected_time":3608000000000,"state":"active","ping":94},{"user_id":690,"name":"Plato","steam_id":76561198200429330,"connected_time":467000000000,"state":"active","ping":59},{"user_id":618,"name":"Squubles #SaveTF2","steam_id":76561198315128664,"connected_time":3599000000000,"state":"active","ping":75},{"user_id":697,"name":"Potato Skills","steam_id":76561197974468653,"connected_time":130000000000,"state":"active","ping":67},{"user_id":603,"name":"AdmiralSharpie","steam_id":76561198066394239,"connected_time":4557000000000,"state":"active","ping":72},{"user_id":675,"name":"cow","steam_id":76561198117331762,"connected_time":1654000000000,"state":"active","ping":45},{"user_id":686,"name":"you've been deuced on!","steam_id":76561198236028020,"connected_time":1133000000000,"state":"active","ping":99},{"user_id":664,"name":"mu","steam_id":76561197997530228,"connected_time":2244000000000,"state":"active","ping":104}]},{"server_id":106,"name":"Uncletopia | Chicago | 2 | All Maps","name_short":"chi-2","host":"chi-1.us.uncletopia.com","port":27025,"enabled":true,"region":"us-central","cc":"us","latitude":41.881832,"longitude":-87.62318,"reserved":0,"last_update":"0001-01-01T00:00:00Z","name_a2s":"Uncletopia | Chicago | 2 | All Maps","protocol":17,"map":"cp_snakewater_final1","folder":"tf","game":"Team Fortress","app_id":440,"player_count":0,"max_players":24,"Bots":0,"server_type":"Dedicated","server_os":"Linux","password":true,"vac":true,"version":"7757534","steam_id":85568392924469985,"keywords":["cp","nocrits","nodmgspread","uncletopia"],"game_id":440,"stv_port":27026,"stv_name":"Uncletopia | Chicago | 2 | All Maps | STV","players":null},{"server_id":402,"name":"Uncletopia | Chicago | 3 | All Maps","name_short":"chi-3","host":"chi-1.us.uncletopia.com","port":27035,"enabled":true,"region":"us-central","cc":"us","latitude":41.881832,"longitude":-87.62318,"reserved":0,"last_update":"0001-01-01T00:00:00Z","name_a2s":"Uncletopia | Chicago | 3 | All Maps","protocol":17,"map":"pl_barnblitz","folder":"tf","game":"Team Fortress","app_id":440,"player_count":0,"max_players":24,"Bots":0,"server_type":"Dedicated","server_os":"Linux","password":true,"vac":true,"version":"7757534","steam_id":85568392924515191,"keywords":["nocrits","nodmgspread","payload","uncletopia"],"game_id":440,"stv_port":27036,"stv_name":"Uncletopia | Chicago | 3 | All Maps | STV","players":null},{"server_id":403,"name":"Uncletopia | Chicago | 4 | All Maps","name_short":"chi-4","host":"chi-1.us.uncletopia.com","port":27045,"enabled":true,"region":"us-central","cc":"us","latitude":41.881832,"longitude":-87.62318,"reserved":0,"last_update":"0001-01-01T00:00:00Z","name_a2s":"Uncletopia | Chicago | 4 | All Maps","protocol":17,"map":"pl_borneo","folder":"tf","game":"Team Fortress","app_id":440,"player_count":0,"max_players":24,"Bots":0,"server_type":"Dedicated","server_os":"Linux","password":true,"vac":true,"version":"7757534","steam_id":85568392924515193,"keywords":["nocrits","nodmgspread","payload","uncletopia"],"game_id":440,"stv_port":27046,"stv_name":"Uncletopia | Chicago | 4 | All Maps | STV","players":null},{"server_id":36,"name":"Uncletopia | Chicago | 5 | All Maps","name_short":"chi-5","host":"chi-2.us.uncletopia.com","port":27015,"enabled":true,"region":"us-central","cc":"us","latitude":41.881832,"longitude":-87.62318,"reserved":0,"last_update":"0001-01-01T00:00:00Z","name_a2s":"Uncletopia | Chicago | 5 | All Maps","protocol":17,"map":"cp_process_final","folder":"tf","game":"Team Fortress","app_id":440,"player_count":0,"max_players":24,"Bots":0,"server_type":"Dedicated","server_os":"Linux","password":true,"vac":true,"version":"7757534","steam_id":85568392924866362,"keywords":["cp","nocrits","nodmgspread","uncletopia"],"game_id":440,"stv_port":27016,"stv_name":"Uncletopia | Chicago | 5 | All Maps | STV","players":null},{"server_id":37,"name":"Uncletopia | Chicago | 6 | All Maps","name_short":"chi-6","host":"chi-2.us.uncletopia.com","port":27025,"enabled":true,"region":"us-central","cc":"us","latitude":41.881832,"longitude":-87.62318,"reserved":0,"last_update":"0001-01-01T00:00:00Z","name_a2s":"Uncletopia | Chicago | 6 | All Maps","protocol":17,"map":"koth_viaduct","folder":"tf","game":"Team Fortress","app_id":440,"player_count":11,"max_players":24,"Bots":0,"server_type":"Dedicated","server_os":"Linux","password":true,"vac":true,"version":"7757534","steam_id":85568392924866363,"keywords":["cp","nocrits","nodmgspread","uncletopia"],"game_id":440,"stv_port":27026,"stv_name":"Uncletopia | Chicago | 6 | All Maps | STV","players":[{"user_id":815,"name":"Scroobles","steam_id":76561199197646696,"connected_time":1427000000000,"state":"active","ping":92},{"user_id":825,"name":"girlslovejeff","steam_id":76561198043089251,"connected_time":40000000000,"state":"active","ping":97},{"user_id":817,"name":"Bob Margarine","steam_id":76561197974107198,"connected_time":1045000000000,"state":"active","ping":76},{"user_id":807,"name":"Cynicalrage #TF2center","steam_id":76561198085805532,"connected_time":2190000000000,"state":"active","ping":39},{"user_id":823,"name":"LilDreamer","steam_id":76561198804054102,"connected_time":274000000000,"state":"active","ping":46},{"user_id":819,"name":"Phil Collins","steam_id":76561198068868644,"connected_time":913000000000,"state":"active","ping":104},{"user_id":658,"name":"Rick Beato","steam_id":76561199080451611,"connected_time":14381000000000,"state":"active","ping":80},{"user_id":824,"name":"Hot Pink Millie","steam_id":76561198006259725,"connected_time":155000000000,"state":"active","ping":76},{"user_id":821,"name":"alpharuby","steam_id":76561198051638462,"connected_time":483000000000,"state":"active","ping":99},{"user_id":804,"name":"playername","steam_id":76561198121955432,"connected_time":2952000000000,"state":"active","ping":47},{"user_id":779,"name":"Chrisscar","steam_id":76561198086298130,"connected_time":5092000000000,"state":"active","ping":100}]},{"server_id":38,"name":"Uncletopia | Chicago | 7 | Stopwatch Beta","name_short":"chi-7","host":"chi-2.us.uncletopia.com","port":27035,"enabled":true,"region":"us-central","cc":"us","latitude":41.881832,"longitude":-87.62318,"reserved":0,"last_update":"0001-01-01T00:00:00Z","name_a2s":"Uncletopia | Chicago | 7 | Stopwatch Beta","protocol":17,"map":"cp_snakewater_final1","folder":"tf","game":"Team Fortress","app_id":440,"player_count":0,"max_players":24,"Bots":0,"server_type":"Dedicated","server_os":"Linux","password":true,"vac":true,"version":"7757534","steam_id":85568392924866364,"keywords":["cp","nocrits","nodmgspread","uncletopia"],"game_id":440,"stv_port":27036,"stv_name":"Uncletopia | Chicago | 7 | Stopwatch Beta | STV","players":null},{"server_id":39,"name":"Uncletopia | Chicago | 8 | Community","name_short":"chi-8","host":"chi-2.us.uncletopia.com","port":27045,"enabled":true,"region":"us-central","cc":"us","latitude":41.881832,"longitude":-87.62318,"reserved":0,"last_update":"0001-01-01T00:00:00Z","name_a2s":"Uncletopia | Chicago | 8 | Community","protocol":17,"map":"workshop/cp_propaganda_b18.ugc1603743849","folder":"tf","game":"Team Fortress","app_id":440,"player_count":2,"max_players":24,"Bots":0,"server_type":"Dedicated","server_os":"Linux","password":true,"vac":true,"version":"7757534","steam_id":85568392924866365,"keywords":["cp","nocrits","nodmgspread","uncletopia"],"game_id":440,"stv_port":27046,"stv_name":"Uncletopia | Chicago | 8 | Community | STV","players":[{"user_id":242,"name":"Hovg9000.TV","steam_id":76561199191556710,"connected_time":849000000000,"state":"active","ping":83},{"user_id":243,"name":"Jumkin","steam_id":76561198136887468,"connected_time":153000000000,"state":"active","ping":100}]},{"server_id":8,"name":"Uncletopia | Dallas | 1 | All Maps","name_short":"dal-1","host":"dal-1.us.uncletopia.com","port":27015,"enabled":true,"region":"us-central","cc":"us","latitude":32.779167,"longitude":-96.80889,"reserved":0,"last_update":"0001-01-01T00:00:00Z","name_a2s":"Uncletopia | Dallas | 1 | All Maps","protocol":17,"map":"cp_snakewater_final1","folder":"tf","game":"Team Fortress","app_id":440,"player_count":22,"max_players":24,"Bots":0,"server_type":"Dedicated","server_os":"Linux","password":true,"vac":true,"version":"7757534","steam_id":85568392924469986,"keywords":["cp","nocrits","nodmgspread","uncletopia"],"game_id":440,"stv_port":27016,"stv_name":"Uncletopia | Dallas | 1 | All Maps | STV","players":[{"user_id":595,"name":"errant","steam_id":76561197961758410,"connected_time":288000000000,"state":"active","ping":44},{"user_id":600,"name":"strctfsh","steam_id":76561198083619784,"connected_time":113000000000,"state":"active","ping":75},{"user_id":545,"name":"Anxious Nerd Bird","steam_id":76561198112178602,"connected_time":4747000000000,"state":"active","ping":76},{"user_id":596,"name":"Zelumie","steam_id":76561198147335801,"connected_time":242000000000,"state":"active","ping":82},{"user_id":541,"name":"p4lly","steam_id":76561198078400787,"connected_time":4982000000000,"state":"active","ping":101},{"user_id":597,"name":"shawarma.lord007","steam_id":76561198115458307,"connected_time":237000000000,"state":"active","ping":76},{"user_id":598,"name":"Noodle","steam_id":76561199156137868,"connected_time":237000000000,"state":"active","ping":122},{"user_id":599,"name":"Vespen","steam_id":76561198259984019,"connected_time":221000000000,"state":"active","ping":75},{"user_id":574,"name":"punaise","steam_id":76561198095105411,"connected_time":3074000000000,"state":"active","ping":87},{"user_id":584,"name":"Lezabel","steam_id":76561198970753261,"connected_time":2099000000000,"state":"active","ping":72},{"user_id":601,"name":"Mikidy","steam_id":76561197972958970,"connected_time":89000000000,"state":"active","ping":61},{"user_id":537,"name":"bolainassr0","steam_id":76561199079078845,"connected_time":5138000000000,"state":"active","ping":92},{"user_id":602,"name":"Dragonova","steam_id":76561198080583119,"connected_time":86000000000,"state":"active","ping":95},{"user_id":588,"name":"bladees saddest, realest verse","steam_id":76561198098099826,"connected_time":2052000000000,"state":"active","ping":61},{"user_id":603,"name":"spider","steam_id":76561198307060128,"connected_time":56000000000,"state":"active","ping":75},{"user_id":564,"name":"KyleBlack","steam_id":76561198139932550,"connected_time":3528000000000,"state":"active","ping":45},{"user_id":577,"name":"oaty","steam_id":76561198165011303,"connected_time":3053000000000,"state":"active","ping":128},{"user_id":529,"name":"Yummy Kabobz","steam_id":76561198067661705,"connected_time":5745000000000,"state":"active","ping":90},{"user_id":604,"name":"moopmop","steam_id":76561198065224965,"connected_time":55000000000,"state":"active","ping":81},{"user_id":543,"name":"Shamrock Shake Oct.10.2020 @8pm","steam_id":76561198833313201,"connected_time":4954000000000,"state":"active","ping":86},{"user_id":605,"name":"Thunderchief","steam_id":76561198022802780,"connected_time":15000000000,"state":"active","ping":158},{"user_id":579,"name":"Pope","steam_id":76561198053768137,"connected_time":2711000000000,"state":"active","ping":39}]},{"server_id":108,"name":"Uncletopia | Dallas | 2 | All Maps","name_short":"dal-2","host":"dal-1.us.uncletopia.com","port":27025,"enabled":true,"region":"us-central","cc":"us","latitude":32.779167,"longitude":-96.80889,"reserved":0,"last_update":"0001-01-01T00:00:00Z","name_a2s":"Uncletopia | Dallas | 2 | All Maps","protocol":17,"map":"pl_frontier_final","folder":"tf","game":"Team Fortress","app_id":440,"player_count":24,"max_players":24,"Bots":0,"server_type":"Dedicated","server_os":"Linux","password":true,"vac":true,"version":"7757534","steam_id":85568392924469988,"keywords":["nocrits","nodmgspread","payload","uncletopia"],"game_id":440,"stv_port":27026,"stv_name":"Uncletopia | Dallas | 2 | All Maps | STV","players":[{"user_id":792,"name":"https://en.wikipedia.org/","steam_id":76561198261326806,"connected_time":2637000000000,"state":"active","ping":125},{"user_id":839,"name":"DragonHeart","steam_id":76561198013245625,"connected_time":584000000000,"state":"active","ping":70},{"user_id":793,"name":"manicgecco","steam_id":76561198795657236,"connected_time":2633000000000,"state":"active","ping":86},{"user_id":841,"name":"Rex The Mouse","steam_id":76561197995569428,"connected_time":549000000000,"state":"active","ping":86},{"user_id":816,"name":"Knight","steam_id":76561198154529952,"connected_time":2064000000000,"state":"active","ping":108},{"user_id":838,"name":"white woman","steam_id":76561199116679777,"connected_time":598000000000,"state":"active","ping":72},{"user_id":759,"name":"Yo Mama's Phat Nuts","steam_id":76561199080135821,"connected_time":4113000000000,"state":"active","ping":78},{"user_id":800,"name":"fake gamer","steam_id":76561198049784197,"connected_time":2578000000000,"state":"active","ping":84},{"user_id":840,"name":"fish","steam_id":76561198059510391,"connected_time":579000000000,"state":"active","ping":84},{"user_id":797,"name":"Foof","steam_id":76561198068996707,"connected_time":2604000000000,"state":"active","ping":53},{"user_id":824,"name":"LilJonny","steam_id":76561198185250439,"connected_time":1575000000000,"state":"active","ping":154},{"user_id":837,"name":"dume","steam_id":76561199317173561,"connected_time":631000000000,"state":"active","ping":116},{"user_id":817,"name":"sentry up there","steam_id":76561198301598124,"connected_time":1955000000000,"state":"active","ping":116},{"user_id":842,"name":"seve","steam_id":76561197974470963,"connected_time":485000000000,"state":"active","ping":82},{"user_id":814,"name":"Bloom","steam_id":76561199065581662,"connected_time":2289000000000,"state":"active","ping":115},{"user_id":790,"name":"TTV/YT Hunter","steam_id":76561198115812405,"connected_time":2790000000000,"state":"active","ping":100},{"user_id":846,"name":"lokm","steam_id":76561198030374238,"connected_time":403000000000,"state":"active","ping":90},{"user_id":835,"name":"DelŒªyed (FamOuZ)üòª","steam_id":76561198290147935,"connected_time":781000000000,"state":"active","ping":64},{"user_id":844,"name":"redsquirrel0249","steam_id":76561198053426764,"connected_time":454000000000,"state":"active","ping":90},{"user_id":836,"name":"UnkownGamerLOL","steam_id":76561198225902368,"connected_time":771000000000,"state":"active","ping":71},{"user_id":801,"name":"Faplord","steam_id":76561198036843182,"connected_time":2562000000000,"state":"active","ping":73},{"user_id":833,"name":"Red Man","steam_id":76561198293333566,"connected_time":940000000000,"state":"active","ping":46},{"user_id":845,"name":"deathstar0611","steam_id":76561198120476410,"connected_time":435000000000,"state":"active","ping":89},{"user_id":806,"name":"shart","steam_id":76561198039002838,"connected_time":2446000000000,"state":"active","ping":103}]},{"server_id":5,"name":"Uncletopia | Frankfurt | 1 | All Maps","name_short":"frk-1","host":"frk-1.de.uncletopia.com","port":27015,"enabled":true,"region":"eu","cc":"de","latitude":50.110924,"longitude":8.682127,"reserved":0,"last_update":"0001-01-01T00:00:00Z","name_a2s":"Uncletopia | Frankfurt | 1 | All Maps","protocol":17,"map":"pl_snowycoast","folder":"tf","game":"Team Fortress","app_id":440,"player_count":0,"max_players":24,"Bots":0,"server_type":"Dedicated","server_os":"Linux","password":true,"vac":true,"version":"7757534","steam_id":85568392924469989,"keywords":["nocrits","nodmgspread","payload","uncletopia"],"game_id":440,"stv_port":27016,"stv_name":"Uncletopia | Frankfurt | 1 | All Maps | STV","players":null},{"server_id":110,"name":"Uncletopia | Frankfurt | 2 | All Maps","name_short":"frk-2","host":"frk-1.de.uncletopia.com","port":27025,"enabled":true,"region":"eu","cc":"de","latitude":50.110924,"longitude":8.682127,"reserved":0,"last_update":"0001-01-01T00:00:00Z","name_a2s":"Uncletopia | Frankfurt | 2 | All Maps","protocol":17,"map":"cp_snakewater_final1","folder":"tf","game":"Team Fortress","app_id":440,"player_count":0,"max_players":24,"Bots":0,"server_type":"Dedicated","server_os":"Linux","password":true,"vac":true,"version":"7757534","steam_id":85568392924469990,"keywords":["cp","nocrits","nodmgspread","uncletopia"],"game_id":440,"stv_port":27026,"stv_name":"Uncletopia | Frankfurt | 2 | All Maps | STV","players":null},{"server_id":308,"name":"Uncletopia | Frankfurt | 3 | All Maps","name_short":"frk-3","host":"frk-1.de.uncletopia.com","port":27035,"enabled":true,"region":"eu","cc":"de","latitude":50.110924,"longitude":8.682127,"reserved":0,"last_update":"0001-01-01T00:00:00Z","name_a2s":"Uncletopia | Frankfurt | 3 | All Maps","protocol":17,"map":"pl_swiftwater_final1","folder":"tf","game":"Team Fortress","app_id":440,"player_count":0,"max_players":24,"Bots":0,"server_type":"Dedicated","server_os":"Linux","password":true,"vac":true,"version":"7757534","steam_id":85568392924504274,"keywords":["nocrits","nodmgspread","payload","uncletopia"],"game_id":440,"stv_port":27036,"stv_name":"Uncletopia | Frankfurt | 3 | All Maps | STV","players":null},{"server_id":309,"name":"Uncletopia | Frankfurt | 4 | All Maps","name_short":"frk-4","host":"frk-1.de.uncletopia.com","port":27045,"enabled":true,"region":"eu","cc":"de","latitude":50.110924,"longitude":8.682127,"reserved":0,"last_update":"0001-01-01T00:00:00Z","name_a2s":"Uncletopia | Frankfurt | 4 | All Maps","protocol":17,"map":"koth_viaduct","folder":"tf","game":"Team Fortress","app_id":440,"player_count":0,"max_players":24,"Bots":0,"server_type":"Dedicated","server_os":"Linux","password":true,"vac":true,"version":"7757534","steam_id":85568392924504275,"keywords":["cp","nocrits","nodmgspread","uncletopia"],"game_id":440,"stv_port":27046,"stv_name":"Uncletopia | Frankfurt | 4 | All Maps | STV","players":null},{"server_id":310,"name":"Uncletopia | Frankfurt | 5 | All Maps","name_short":"frk-5","host":"frk-1.de.uncletopia.com","port":27055,"enabled":true,"region":"eu","cc":"de","latitude":50.110924,"longitude":8.682127,"reserved":0,"last_update":"0001-01-01T00:00:00Z","name_a2s":"Uncletopia | Frankfurt | 5 | All Maps","protocol":17,"map":"koth_lakeside_final","folder":"tf","game":"Team Fortress","app_id":440,"player_count":0,"max_players":24,"Bots":0,"server_type":"Dedicated","server_os":"Linux","password":true,"vac":true,"version":"7757534","steam_id":85568392924504277,"keywords":["cp","nocrits","nodmgspread","uncletopia"],"game_id":440,"stv_port":27056,"stv_name":"Uncletopia | Frankfurt | 5 | All Maps | STV","players":null},{"server_id":311,"name":"Uncletopia | Frankfurt | 6 | All Maps","name_short":"frk-6","host":"frk-1.de.uncletopia.com","port":27065,"enabled":true,"region":"eu","cc":"de","latitude":50.110924,"longitude":8.682127,"reserved":0,"last_update":"0001-01-01T00:00:00Z","name_a2s":"Uncletopia | Frankfurt | 6 | All Maps","protocol":17,"map":"pl_frontier_final","folder":"tf","game":"Team Fortress","app_id":440,"player_count":0,"max_players":24,"Bots":0,"server_type":"Dedicated","server_os":"Linux","password":true,"vac":true,"version":"7757534","steam_id":85568392924504278,"keywords":["nocrits","nodmgspread","payload","uncletopia"],"game_id":440,"stv_port":27066,"stv_name":"Uncletopia | Frankfurt | 6 | All Maps | STV","players":null},{"server_id":23,"name":"Uncletopia | Frankfurt | 7 | Stopwatch Beta","name_short":"frk-7","host":"frk-1.de.uncletopia.com","port":27075,"enabled":true,"region":"eu","cc":"de","latitude":50.110924,"longitude":8.682127,"reserved":0,"last_update":"0001-01-01T00:00:00Z","name_a2s":"Uncletopia | Frankfurt | 7 | Stopwatch Beta","protocol":17,"map":"cp_sunshine","folder":"tf","game":"Team Fortress","app_id":440,"player_count":0,"max_players":24,"Bots":0,"server_type":"Dedicated","server_os":"Linux","password":true,"vac":true,"version":"7757534","steam_id":85568392924742827,"keywords":["cp","nocrits","nodmgspread","uncletopia"],"game_id":440,"stv_port":27076,"stv_name":"Uncletopia | Frankfurt | 7 | Stopwatch Beta | STV","players":null},{"server_id":24,"name":"Uncletopia | Frankfurt | 8 | Community","name_short":"frk-8","host":"frk-1.de.uncletopia.com","port":27085,"enabled":true,"region":"eu","cc":"de","latitude":50.110924,"longitude":8.682127,"reserved":0,"last_update":"0001-01-01T00:00:00Z","name_a2s":"Uncletopia | Frankfurt | 8 | Community","protocol":17,"map":"koth_lakeside_final","folder":"tf","game":"Team Fortress","app_id":440,"player_count":0,"max_players":24,"Bots":0,"server_type":"Dedicated","server_os":"Linux","password":true,"vac":true,"version":"7757534","steam_id":85568392924742828,"keywords":["cp","nocrits","nodmgspread","uncletopia"],"game_id":440,"stv_port":27086,"stv_name":"Uncletopia | Frankfurt | 8 | Community | STV","players":null},{"server_id":202,"name":"Uncletopia | Hong Kong | 1 | All Maps","name_short":"hgk-1","host":"hgk-1.hk.uncletopia.com","port":27015,"enabled":true,"region":"asia","cc":"hk","latitude":22.302711,"longitude":114.177216,"reserved":0,"last_update":"0001-01-01T00:00:00Z","name_a2s":"Uncletopia | Hong Kong | 1 | All Maps","protocol":17,"map":"plr_hightower","folder":"tf","game":"Team Fortress","app_id":440,"player_count":0,"max_players":24,"Bots":0,"server_type":"Dedicated","server_os":"Linux","password":true,"vac":true,"version":"7757534","steam_id":85568392924494504,"keywords":["nocrits","nodmgspread","payload","uncletopia"],"game_id":440,"stv_port":27016,"stv_name":"Uncletopia | Hong Kong | 1 | All Maps | STV","players":null},{"server_id":1,"name":"Uncletopia | Los Angeles | 1 | All Maps","name_short":"lax-1","host":"lax-1.us.uncletopia.com","port":27015,"enabled":true,"region":"us-west","cc":"us","latitude":33.94279,"longitude":-118.41004,"reserved":0,"last_update":"0001-01-01T00:00:00Z","name_a2s":"Uncletopia | Los Angeles | 1 | All Maps","protocol":17,"map":"pl_upward","folder":"tf","game":"Team Fortress","app_id":440,"player_count":22,"max_players":24,"Bots":0,"server_type":"Dedicated","server_os":"Linux","password":true,"vac":true,"version":"7757534","steam_id":85568392924469991,"keywords":["nocrits","nodmgspread","payload","uncletopia"],"game_id":440,"stv_port":27016,"stv_name":"Uncletopia | Los Angeles | 1 | All Maps | STV","players":[{"user_id":331,"name":"soap","steam_id":76561198445689515,"connected_time":48000000000,"state":"active","ping":92},{"user_id":332,"name":"Sierra Foxtrot","steam_id":76561197996667382,"connected_time":41000000000,"state":"active","ping":90},{"user_id":329,"name":"Baconotham","steam_id":76561198064245285,"connected_time":163000000000,"state":"active","ping":88},{"user_id":305,"name":"Vlad","steam_id":76561198072334604,"connected_time":1508000000000,"state":"active","ping":93},{"user_id":333,"name":"aerolar connective tissue","steam_id":76561198057138795,"connected_time":40000000000,"state":"spawning","ping":88},{"user_id":267,"name":"Lucaaa","steam_id":76561198076700516,"connected_time":4316000000000,"state":"active","ping":112},{"user_id":314,"name":"TeCon","steam_id":76561198049127236,"connected_time":758000000000,"state":"active","ping":81},{"user_id":330,"name":"dash23‚Ñ¢","steam_id":76561198314951185,"connected_time":160000000000,"state":"active","ping":80},{"user_id":334,"name":"ferby","steam_id":76561198028229594,"connected_time":28000000000,"state":"active","ping":53},{"user_id":316,"name":"Scoron","steam_id":76561198062099305,"connected_time":710000000000,"state":"active","ping":71},{"user_id":335,"name":"RapidXenophage","steam_id":76561198175149973,"connected_time":25000000000,"state":"active","ping":90},{"user_id":317,"name":"Thndr_","steam_id":76561198113242036,"connected_time":697000000000,"state":"active","ping":85},{"user_id":296,"name":"Whisper!","steam_id":76561198119609795,"connected_time":2269000000000,"state":"active","ping":53},{"user_id":336,"name":"ZAZA Enjoyer","steam_id":76561198094426099,"connected_time":22000000000,"state":"spawning","ping":61},{"user_id":338,"name":"Lope","steam_id":76561198169381232,"connected_time":1000000000,"state":"spawning","ping":76},{"user_id":319,"name":"TheDogeIsReal","steam_id":76561199331300024,"connected_time":604000000000,"state":"active","ping":89},{"user_id":208,"name":"Cosmic Visor","steam_id":76561197990817172,"connected_time":9480000000000,"state":"active","ping":73},{"user_id":320,"name":"Dr. B Busta","steam_id":76561198206387303,"connected_time":571000000000,"state":"active","ping":34},{"user_id":337,"name":"i said no pickles","steam_id":76561198149179519,"connected_time":16000000000,"state":"active","ping":113},{"user_id":325,"name":"I Twitch Lego Star Wars...","steam_id":76561198130280060,"connected_time":316000000000,"state":"active","ping":103},{"user_id":324,"name":"wizard","steam_id":76561197974871380,"connected_time":337000000000,"state":"active","ping":75},{"user_id":326,"name":"Delilah-fluff","steam_id":76561198977968066,"connected_time":275000000000,"state":"active","ping":124}]},{"server_id":112,"name":"Uncletopia | Los Angeles | 2 | All Maps","name_short":"lax-2","host":"lax-1.us.uncletopia.com","port":27025,"enabled":true,"region":"us-west","cc":"us","latitude":33.94279,"longitude":-118.41004,"reserved":0,"last_update":"0001-01-01T00:00:00Z","name_a2s":"Uncletopia | Los Angeles | 2 | All Maps","protocol":17,"map":"pl_borneo","folder":"tf","game":"Team Fortress","app_id":440,"player_count":24,"max_players":24,"Bots":0,"server_type":"Dedicated","server_os":"Linux","password":true,"vac":true,"version":"7757534","steam_id":85568392924469992,"keywords":["nocrits","nodmgspread","payload","uncletopia"],"game_id":440,"stv_port":27026,"stv_name":"Uncletopia | Los Angeles | 2 | All Maps | STV","players":[{"user_id":102,"name":"why do i play video games","steam_id":76561199476816590,"connected_time":1480000000000,"state":"active","ping":110},{"user_id":103,"name":"LeTonzy","steam_id":76561198005806699,"connected_time":1307000000000,"state":"active","ping":64},{"user_id":104,"name":"Bryguy","steam_id":76561198092096120,"connected_time":1066000000000,"state":"active","ping":92},{"user_id":109,"name":"Grand Piano Tuna","steam_id":76561198135137213,"connected_time":736000000000,"state":"active","ping":121},{"user_id":106,"name":"beefaroni","steam_id":76561198126489501,"connected_time":784000000000,"state":"active","ping":95},{"user_id":107,"name":"Lizard Veterinarian","steam_id":76561198066274397,"connected_time":768000000000,"state":"active","ping":116},{"user_id":108,"name":"professor coke","steam_id":76561198108165531,"connected_time":761000000000,"state":"active","ping":91},{"user_id":43,"name":"Arbiter Soul [Piss Gaming]","steam_id":76561198067798973,"connected_time":6510000000000,"state":"active","ping":70},{"user_id":85,"name":"noelle","steam_id":76561198842577534,"connected_time":3534000000000,"state":"active","ping":93},{"user_id":110,"name":"Clump","steam_id":76561198049690860,"connected_time":619000000000,"state":"active","ping":84},{"user_id":111,"name":"WillieMakit","steam_id":76561197985391684,"connected_time":603000000000,"state":"active","ping":65},{"user_id":47,"name":"weedmaster","steam_id":76561199012869095,"connected_time":6233000000000,"state":"active","ping":109},{"user_id":112,"name":"Dirt Mammal","steam_id":76561198040781653,"connected_time":562000000000,"state":"active","ping":85},{"user_id":52,"name":"The Assistant Regional Manager","steam_id":76561199221484936,"connected_time":6020000000000,"state":"active","ping":63},{"user_id":113,"name":"Fist God Monke","steam_id":76561198070201790,"connected_time":534000000000,"state":"active","ping":64},{"user_id":114,"name":"Peter, what are you doing?","steam_id":76561198066452726,"connected_time":413000000000,"state":"active","ping":45},{"user_id":115,"name":"Vektson","steam_id":76561197965654471,"connected_time":391000000000,"state":"active","ping":97},{"user_id":63,"name":"noellehound","steam_id":76561198108844158,"connected_time":5702000000000,"state":"active","ping":59},{"user_id":116,"name":"The Righteous Myke","steam_id":76561197980008648,"connected_time":389000000000,"state":"active","ping":57},{"user_id":101,"name":"Nya! ( \u003eœâ\u003c)‚ô°","steam_id":76561198146580482,"connected_time":2266000000000,"state":"active","ping":44},{"user_id":92,"name":"motion","steam_id":76561198935158462,"connected_time":3302000000000,"state":"active","ping":54},{"user_id":117,"name":"RadiantRyan","steam_id":76561198027872645,"connected_time":359000000000,"state":"active","ping":55},{"user_id":118,"name":"The Drunk Rat Bastard","steam_id":76561198994667208,"connected_time":309000000000,"state":"active","ping":92},{"user_id":78,"name":"KingOfFrance","steam_id":76561199342148309,"connected_time":4811000000000,"state":"active","ping":50}]},{"server_id":324,"name":"Uncletopia | Los Angeles | 3 | All Maps","name_short":"lax-3","host":"lax-1.us.uncletopia.com","port":27035,"enabled":true,"region":"us-west","cc":"us","latitude":33.94279,"longitude":-118.41004,"reserved":0,"last_update":"0001-01-01T00:00:00Z","name_a2s":"Uncletopia | Los Angeles | 3 | All Maps","protocol":17,"map":"pl_swiftwater_final1","folder":"tf","game":"Team Fortress","app_id":440,"player_count":0,"max_players":24,"Bots":0,"server_type":"Dedicated","server_os":"Linux","password":true,"vac":true,"version":"7757534","steam_id":85568392924510198,"keywords":["nocrits","nodmgspread","payload","uncletopia"],"game_id":440,"stv_port":27036,"stv_name":"Uncletopia | Los Angeles | 3 | All Maps | STV","players":null},{"server_id":25,"name":"Uncletopia | Los Angeles | 4 | Stopwatch Beta","name_short":"lax-4","host":"lax-1.us.uncletopia.com","port":27045,"enabled":true,"region":"us-west","cc":"us","latitude":33.94279,"longitude":-118.41004,"reserved":0,"last_update":"0001-01-01T00:00:00Z","name_a2s":"Uncletopia | Los Angeles | 4 | Stopwatch Beta","protocol":17,"map":"pl_swiftwater_final1","folder":"tf","game":"Team Fortress","app_id":440,"player_count":0,"max_players":24,"Bots":0,"server_type":"Dedicated","server_os":"Linux","password":true,"vac":true,"version":"7757534","steam_id":85568392924510199,"keywords":["nocrits","nodmgspread","payload","uncletopia"],"game_id":440,"stv_port":27046,"stv_name":"Uncletopia | Los Angeles | 4 | Stopwatch Beta | STV","players":null},{"server_id":11,"name":"Uncletopia | London | 1 | All Maps","name_short":"lon-1","host":"lon-1.uk.uncletopia.com","port":27015,"enabled":true,"region":"eu","cc":"gb","latitude":51.509865,"longitude":-0.118092,"reserved":0,"last_update":"0001-01-01T00:00:00Z","name_a2s":"Uncletopia | London | 1 | All Maps","protocol":17,"map":"cp_dustbowl","folder":"tf","game":"Team Fortress","app_id":440,"player_count":12,"max_players":24,"Bots":0,"server_type":"Dedicated","server_os":"Linux","password":true,"vac":true,"version":"7757534","steam_id":85568392924367362,"keywords":["cp","nocrits","nodmgspread","uncletopia"],"game_id":440,"stv_port":27016,"stv_name":"Uncletopia | London | 1 | All Maps | STV","players":[{"user_id":48,"name":"Chitiko","steam_id":76561198820065696,"connected_time":906000000000,"state":"active","ping":113},{"user_id":41,"name":"funny yakuza man","steam_id":76561198800685443,"connected_time":2190000000000,"state":"active","ping":57},{"user_id":52,"name":"BLDM","steam_id":76561199208430021,"connected_time":723000000000,"state":"active","ping":105},{"user_id":35,"name":"PP_master69420","steam_id":76561199019913910,"connected_time":3171000000000,"state":"active","ping":78},{"user_id":49,"name":"NOVA","steam_id":76561198825836070,"connected_time":901000000000,"state":"active","ping":95},{"user_id":53,"name":"ginger cunt","steam_id":76561198334528186,"connected_time":596000000000,"state":"active","ping":40},{"user_id":39,"name":"BONK-TEC!","steam_id":76561198272667029,"connected_time":2540000000000,"state":"active","ping":50},{"user_id":47,"name":"Shi Ê≠ª","steam_id":76561199214163032,"connected_time":1177000000000,"state":"active","ping":98},{"user_id":50,"name":"Lewoncy","steam_id":76561199361395083,"connected_time":901000000000,"state":"active","ping":93},{"user_id":55,"name":"programer","steam_id":76561198448579559,"connected_time":505000000000,"state":"active","ping":118},{"user_id":56,"name":"trans werewolf","steam_id":76561198107235989,"connected_time":498000000000,"state":"active","ping":66},{"user_id":57,"name":"Rex","steam_id":76561199474556920,"connected_time":270000000000,"state":"active","ping":92}]},{"server_id":114,"name":"Uncletopia | London | 2 | All Maps","name_short":"lon-2","host":"lon-1.uk.uncletopia.com","port":27025,"enabled":true,"region":"eu","cc":"gb","latitude":51.509865,"longitude":-0.118092,"reserved":0,"last_update":"0001-01-01T00:00:00Z","name_a2s":"Uncletopia | London | 2 | All Maps","protocol":17,"map":"koth_viaduct","folder":"tf","game":"Team Fortress","app_id":440,"player_count":0,"max_players":24,"Bots":0,"server_type":"Dedicated","server_os":"Linux","password":true,"vac":true,"version":"7757534","steam_id":85568392924470941,"keywords":["cp","nocrits","nodmgspread","uncletopia"],"game_id":440,"stv_port":27026,"stv_name":"Uncletopia | London | 2 | All Maps | STV","players":null},{"server_id":320,"name":"Uncletopia | London | 3 | All Maps","name_short":"lon-3","host":"lon-1.uk.uncletopia.com","port":27035,"enabled":true,"region":"eu","cc":"gb","latitude":51.509865,"longitude":-0.118092,"reserved":0,"last_update":"0001-01-01T00:00:00Z","name_a2s":"Uncletopia | London | 3 | All Maps","protocol":17,"map":"cp_dustbowl","folder":"tf","game":"Team Fortress","app_id":440,"player_count":0,"max_players":24,"Bots":0,"server_type":"Dedicated","server_os":"Linux","password":true,"vac":true,"version":"7757534","steam_id":85568392924510192,"keywords":["cp","nocrits","nodmgspread","uncletopia"],"game_id":440,"stv_port":27036,"stv_name":"Uncletopia | London | 3 | All Maps | STV","players":null},{"server_id":321,"name":"Uncletopia | London | 4 | All Maps","name_short":"lon-4","host":"lon-1.uk.uncletopia.com","port":27045,"enabled":true,"region":"eu","cc":"gb","latitude":51.509865,"longitude":-0.118092,"reserved":0,"last_update":"0001-01-01T00:00:00Z","name_a2s":"Uncletopia | London | 4 | All Maps","protocol":17,"map":"cp_dustbowl","folder":"tf","game":"Team Fortress","app_id":440,"player_count":0,"max_players":24,"Bots":0,"server_type":"Dedicated","server_os":"Linux","password":true,"vac":true,"version":"7757534","steam_id":85568392924510193,"keywords":["cp","nocrits","nodmgspread","uncletopia"],"game_id":440,"stv_port":27046,"stv_name":"Uncletopia | London | 4 | All Maps | STV","players":null},{"server_id":21,"name":"Uncletopia | London | 5 | All Maps","name_short":"lon-5","host":"lon-1.uk.uncletopia.com","port":27055,"enabled":true,"region":"eu","cc":"gb","latitude":51.509865,"longitude":-0.118092,"reserved":0,"last_update":"0001-01-01T00:00:00Z","name_a2s":"Uncletopia | London | 5 | All Maps","protocol":17,"map":"cp_altitude","folder":"tf","game":"Team Fortress","app_id":440,"player_count":0,"max_players":24,"Bots":0,"server_type":"Dedicated","server_os":"Linux","password":true,"vac":true,"version":"7757534","steam_id":85568392924742829,"keywords":["cp","nocrits","nodmgspread","uncletopia"],"game_id":440,"stv_port":27056,"stv_name":"Uncletopia | London | 5 | All Maps | STV","players":null},{"server_id":22,"name":"Uncletopia | London | 6 | All Maps","name_short":"lon-6","host":"lon-1.uk.uncletopia.com","port":27065,"enabled":true,"region":"eu","cc":"gb","latitude":51.509865,"longitude":-0.118092,"reserved":0,"last_update":"0001-01-01T00:00:00Z","name_a2s":"Uncletopia | London | 6 | All Maps","protocol":17,"map":"cp_mountainlab","folder":"tf","game":"Team Fortress","app_id":440,"player_count":0,"max_players":24,"Bots":0,"server_type":"Dedicated","server_os":"Linux","password":true,"vac":true,"version":"7757534","steam_id":85568392924742830,"keywords":["cp","nocrits","nodmgspread","uncletopia"],"game_id":440,"stv_port":27066,"stv_name":"Uncletopia | London | 6 | All Maps | STV","players":null},{"server_id":40,"name":"Uncletopia | London | 7 | No Payload","name_short":"lon-7","host":"lon-1.uk.uncletopia.com","port":27075,"enabled":true,"region":"eu","cc":"gb","latitude":51.509865,"longitude":-0.118092,"reserved":0,"last_update":"0001-01-01T00:00:00Z","name_a2s":"Uncletopia | London | 7 | No Payload","protocol":17,"map":"pl_badwater","folder":"tf","game":"Team Fortress","app_id":440,"player_count":0,"max_players":24,"Bots":0,"server_type":"Dedicated","server_os":"Linux","password":true,"vac":true,"version":"7757534","steam_id":85568392924964314,"keywords":["nocrits","nodmgspread","payload","uncletopia"],"game_id":440,"stv_port":27076,"stv_name":"Uncletopia | London | 7 | No Payload | STV","players":null},{"server_id":41,"name":"Uncletopia | London | 8 | Community","name_short":"lon-8","host":"lon-1.uk.uncletopia.com","port":27085,"enabled":true,"region":"eu","cc":"gb","latitude":51.509865,"longitude":-0.118092,"reserved":0,"last_update":"0001-01-01T00:00:00Z","name_a2s":"Uncletopia | London | 8 | Community","protocol":17,"map":"pl_barnblitz","folder":"tf","game":"Team Fortress","app_id":440,"player_count":0,"max_players":24,"Bots":0,"server_type":"Dedicated","server_os":"Linux","password":true,"vac":true,"version":"7757534","steam_id":85568392924964315,"keywords":["nocrits","nodmgspread","payload","uncletopia"],"game_id":440,"stv_port":27086,"stv_name":"Uncletopia | London | 8 | Community | STV","players":null},{"server_id":300,"name":"Uncletopia | Montr√©al | 1 | All Maps","name_short":"mtl-1","host":"mtl-1.ca.uncletopia.com","port":27015,"enabled":true,"region":"us-east","cc":"ca","latitude":45.50889,"longitude":-73.56167,"reserved":0,"last_update":"0001-01-01T00:00:00Z","name_a2s":"Uncletopia | Montr√©al | 1 | All Maps","protocol":17,"map":"pl_frontier_final","folder":"tf","game":"Team Fortress","app_id":440,"player_count":0,"max_players":24,"Bots":0,"server_type":"Dedicated","server_os":"Linux","password":true,"vac":true,"version":"7757534","steam_id":85568392924500087,"keywords":["nocrits","nodmgspread","payload","uncletopia"],"game_id":440,"stv_port":27016,"stv_name":"Uncletopia | Montr√©al | 1 | All Maps | STV","players":null},{"server_id":301,"name":"Uncletopia | Montr√©al | 2 | All Maps","name_short":"mtl-2","host":"mtl-1.ca.uncletopia.com","port":27025,"enabled":true,"region":"us-east","cc":"ca","latitude":45.50889,"longitude":-73.56167,"reserved":0,"last_update":"0001-01-01T00:00:00Z","name_a2s":"Uncletopia | Montr√©al | 2 | All Maps","protocol":17,"map":"koth_lakeside_final","folder":"tf","game":"Team Fortress","app_id":440,"player_count":0,"max_players":24,"Bots":0,"server_type":"Dedicated","server_os":"Linux","password":true,"vac":true,"version":"7757534","steam_id":85568392924500088,"keywords":["cp","nocrits","nodmgspread","uncletopia"],"game_id":440,"stv_port":27026,"stv_name":"Uncletopia | Montr√©al | 2 | All Maps | STV","players":null},{"server_id":302,"name":"Uncletopia | Montr√©al | 3 | All Maps","name_short":"mtl-3","host":"mtl-1.ca.uncletopia.com","port":27035,"enabled":true,"region":"us-east","cc":"ca","latitude":45.50889,"longitude":-73.56167,"reserved":0,"last_update":"0001-01-01T00:00:00Z","name_a2s":"Uncletopia | Montr√©al | 3 | All Maps","protocol":17,"map":"koth_cascade","folder":"tf","game":"Team Fortress","app_id":440,"player_count":0,"max_players":24,"Bots":0,"server_type":"Dedicated","server_os":"Linux","password":true,"vac":true,"version":"7757534","steam_id":85568392924500089,"keywords":["cp","nocrits","nodmgspread","uncletopia"],"game_id":440,"stv_port":27036,"stv_name":"Uncletopia | Montr√©al | 3 | All Maps | STV","players":null},{"server_id":303,"name":"Uncletopia | Montr√©al | 4 | No Payload","name_short":"mtl-4","host":"mtl-1.ca.uncletopia.com","port":27045,"enabled":true,"region":"us-east","cc":"ca","latitude":45.50889,"longitude":-73.56167,"reserved":0,"last_update":"0001-01-01T00:00:00Z","name_a2s":"Uncletopia | Montr√©al | 4 | No Payload","protocol":17,"map":"cp_mercenarypark","folder":"tf","game":"Team Fortress","app_id":440,"player_count":0,"max_players":24,"Bots":0,"server_type":"Dedicated","server_os":"Linux","password":true,"vac":true,"version":"7757534","steam_id":85568392924500090,"keywords":["cp","nocrits","nodmgspread","uncletopia"],"game_id":440,"stv_port":27046,"stv_name":"Uncletopia | Montr√©al | 4 | No Payload | STV","players":null},{"server_id":13,"name":"Uncletopia | New York City | 1 | All Maps","name_short":"nyc-1","host":"nyc-1.us.uncletopia.com","port":27015,"enabled":true,"region":"us-east","cc":"us","latitude":40.73061,"longitude":-73.93524,"reserved":0,"last_update":"0001-01-01T00:00:00Z","name_a2s":"Uncletopia | New York City | 1 | All Maps","protocol":17,"map":"koth_lakeside_final","folder":"tf","game":"Team Fortress","app_id":440,"player_count":24,"max_players":24,"Bots":0,"server_type":"Dedicated","server_os":"Linux","password":true,"vac":true,"version":"7757534","steam_id":85568392924469993,"keywords":["cp","nocrits","nodmgspread","uncletopia"],"game_id":440,"stv_port":27016,"stv_name":"Uncletopia | New York City | 1 | All Maps | STV","players":[{"user_id":242,"name":"Jin","steam_id":76561198119873148,"connected_time":17374000000000,"state":"active","ping":45},{"user_id":437,"name":"Windy Writer","steam_id":76561198048217633,"connected_time":710000000000,"state":"active","ping":73},{"user_id":365,"name":"ShadBad","steam_id":76561198248287390,"connected_time":5565000000000,"state":"active","ping":133},{"user_id":400,"name":"no thoughts, head empty snake","steam_id":76561198872396820,"connected_time":2901000000000,"state":"active","ping":77},{"user_id":423,"name":"Ozirion","steam_id":76561198108901767,"connected_time":1623000000000,"state":"active","ping":83},{"user_id":401,"name":"storepilled grocerycel","steam_id":76561198097588802,"connected_time":2744000000000,"state":"active","ping":70},{"user_id":425,"name":"sonic1394","steam_id":76561198054636788,"connected_time":1566000000000,"state":"active","ping":70},{"user_id":426,"name":"Krellah","steam_id":76561198287045069,"connected_time":1558000000000,"state":"active","ping":59},{"user_id":427,"name":"whats fizzin","steam_id":76561198230670996,"connected_time":1557000000000,"state":"active","ping":72},{"user_id":428,"name":"commanderkuni11103","steam_id":76561199122761643,"connected_time":1481000000000,"state":"active","ping":89},{"user_id":415,"name":"Emizip","steam_id":76561198162532286,"connected_time":1873000000000,"state":"active","ping":94},{"user_id":429,"name":"Sabaman55","steam_id":76561198212267979,"connected_time":1463000000000,"state":"active","ping":64},{"user_id":406,"name":"Osteo-Oligarch","steam_id":76561198164731896,"connected_time":2207000000000,"state":"active","ping":70},{"user_id":431,"name":"Zoom009","steam_id":76561198081565076,"connected_time":1153000000000,"state":"active","ping":49},{"user_id":438,"name":"god doesnt here me","steam_id":76561198125328737,"connected_time":706000000000,"state":"active","ping":55},{"user_id":439,"name":"big ol' buford","steam_id":76561198290675957,"connected_time":704000000000,"state":"active","ping":77},{"user_id":343,"name":"Ôº≥Ôº¨Ôº∂Ôº¥Ôº£Ôº®Ôº°Ôº≠Ôº∞","steam_id":76561198883157736,"connected_time":8252000000000,"state":"active","ping":123},{"user_id":416,"name":"Sw00dP00dle","steam_id":76561198095124750,"connected_time":1873000000000,"state":"active","ping":84},{"user_id":417,"name":"john.","steam_id":76561198157718401,"connected_time":1870000000000,"state":"active","ping":103},{"user_id":414,"name":"ghurt","steam_id":76561198110161551,"connected_time":1983000000000,"state":"active","ping":64},{"user_id":393,"name":"evdoke","steam_id":76561198044555219,"connected_time":4180000000000,"state":"active","ping":45},{"user_id":442,"name":"thundah!","steam_id":76561199159928133,"connected_time":207000000000,"state":"active","ping":63},{"user_id":441,"name":"Goofy Goober","steam_id":76561198941700660,"connected_time":470000000000,"state":"active","ping":75},{"user_id":440,"name":"HeavenHearst","steam_id":76561198066083947,"connected_time":696000000000,"state":"active","ping":58}]},{"server_id":14,"name":"Uncletopia | New York City | 2 | All Maps","name_short":"nyc-2","host":"nyc-1.us.uncletopia.com","port":27025,"enabled":true,"region":"us-east","cc":"us","latitude":40.73061,"longitude":-73.93524,"reserved":0,"last_update":"0001-01-01T00:00:00Z","name_a2s":"Uncletopia | New York City | 2 | All Maps","protocol":17,"map":"pl_upward","folder":"tf","game":"Team Fortress","app_id":440,"player_count":24,"max_players":24,"Bots":0,"server_type":"Dedicated","server_os":"Linux","password":true,"vac":true,"version":"7757534","steam_id":85568392924469994,"keywords":["nocrits","nodmgspread","payload","uncletopia"],"game_id":440,"stv_port":27026,"stv_name":"Uncletopia | New York City | 2 | All Maps | STV","players":[{"user_id":378,"name":"aidoge","steam_id":76561198191326126,"connected_time":1722000000000,"state":"active","ping":44},{"user_id":376,"name":"Skrungly","steam_id":76561198072550443,"connected_time":1792000000000,"state":"active","ping":39},{"user_id":345,"name":"time has run out","steam_id":76561198066450438,"connected_time":4084000000000,"state":"active","ping":68},{"user_id":361,"name":"Bread Makes you Fat","steam_id":76561198985126532,"connected_time":3157000000000,"state":"active","ping":75},{"user_id":377,"name":"Cave Rat","steam_id":76561198214003663,"connected_time":1782000000000,"state":"active","ping":65},{"user_id":387,"name":"Sentient Sandvich","steam_id":76561197995714103,"connected_time":1065000000000,"state":"active","ping":87},{"user_id":379,"name":"Bee","steam_id":76561198074681324,"connected_time":1714000000000,"state":"active","ping":46},{"user_id":390,"name":"Toonice","steam_id":76561198402994885,"connected_time":453000000000,"state":"active","ping":64},{"user_id":391,"name":"gromit","steam_id":76561198037746805,"connected_time":407000000000,"state":"active","ping":68},{"user_id":342,"name":"Spiralimp","steam_id":76561198275979182,"connected_time":4153000000000,"state":"active","ping":104},{"user_id":389,"name":"Phoenix Wright's Gay Thoughts","steam_id":76561198072562591,"connected_time":561000000000,"state":"active","ping":109},{"user_id":366,"name":"blank","steam_id":76561198105529673,"connected_time":2731000000000,"state":"active","ping":106},{"user_id":374,"name":"WuTangJuan","steam_id":76561198053050135,"connected_time":1878000000000,"state":"active","ping":109},{"user_id":380,"name":"ElectronX","steam_id":76561198116034988,"connected_time":1702000000000,"state":"active","ping":116},{"user_id":335,"name":"chroma","steam_id":76561198050188632,"connected_time":4419000000000,"state":"active","ping":50},{"user_id":392,"name":"The Announcer's Feet","steam_id":76561199443456893,"connected_time":323000000000,"state":"active","ping":97},{"user_id":351,"name":"DiscoTraveler","steam_id":76561199240168088,"connected_time":3921000000000,"state":"active","ping":56},{"user_id":336,"name":"great1photo","steam_id":76561198085481933,"connected_time":4418000000000,"state":"active","ping":78},{"user_id":337,"name":"Ivy","steam_id":76561198047758442,"connected_time":4409000000000,"state":"active","ping":113},{"user_id":338,"name":"THEY LET YOU PUT ANYTHING HERE","steam_id":76561198056214875,"connected_time":4385000000000,"state":"active","ping":73},{"user_id":357,"name":"the girl gamer with IBS","steam_id":76561198029274581,"connected_time":3518000000000,"state":"active","ping":72},{"user_id":340,"name":"P1uc","steam_id":76561198140919454,"connected_time":4356000000000,"state":"active","ping":104},{"user_id":384,"name":"sweaterfan","steam_id":76561199389567214,"connected_time":1291000000000,"state":"active","ping":69},{"user_id":385,"name":"roxases","steam_id":76561198119759490,"connected_time":1270000000000,"state":"active","ping":68}]},{"server_id":15,"name":"Uncletopia | New York City | 3 | Stopwatch Beta","name_short":"nyc-3","host":"nyc-1.us.uncletopia.com","port":27035,"enabled":true,"region":"us-east","cc":"us","latitude":40.73061,"longitude":-73.93524,"reserved":0,"last_update":"0001-01-01T00:00:00Z","name_a2s":"Uncletopia | New York City | 3 | Stopwatch Beta","protocol":17,"map":"pl_upward","folder":"tf","game":"Team Fortress","app_id":440,"player_count":0,"max_players":24,"Bots":0,"server_type":"Dedicated","server_os":"Linux","password":true,"vac":true,"version":"7757534","steam_id":85568392924742820,"keywords":["nocrits","nodmgspread","payload","uncletopia"],"game_id":440,"stv_port":27036,"stv_name":"Uncletopia | New York City | 3 | Stopwatch Beta | STV","players":null},{"server_id":16,"name":"Uncletopia | New York City | 4 | Community","name_short":"nyc-4","host":"nyc-1.us.uncletopia.com","port":27045,"enabled":true,"region":"us-east","cc":"us","latitude":40.73061,"longitude":-73.93524,"reserved":0,"last_update":"0001-01-01T00:00:00Z","name_a2s":"Uncletopia | New York City | 4 | Community","protocol":17,"map":"workshop/cp_sulfur_rc2.ugc619869471","folder":"tf","game":"Team Fortress","app_id":440,"player_count":0,"max_players":24,"Bots":0,"server_type":"Dedicated","server_os":"Linux","password":true,"vac":true,"version":"7757534","steam_id":85568392924742821,"keywords":["cp","nocrits","nodmgspread","uncletopia"],"game_id":440,"stv_port":27046,"stv_name":"Uncletopia | New York City | 4 | Community | STV","players":null},{"server_id":142,"name":"Uncletopia | S√£o Paulo | 1 | All Maps","name_short":"sao-1","host":"sao-1.br.uncletopia.com","port":27015,"enabled":true,"region":"sa","cc":"br","latitude":-23.533773,"longitude":-46.62529,"reserved":0,"last_update":"0001-01-01T00:00:00Z","name_a2s":"Uncletopia | S√£o Paulo | 1 | All Maps","protocol":17,"map":"koth_harvest_final","folder":"tf","game":"Team Fortress","app_id":440,"player_count":0,"max_players":24,"Bots":0,"server_type":"Dedicated","server_os":"Linux","password":true,"vac":true,"version":"7757534","steam_id":85568392924469996,"keywords":["cp","nocrits","nodmgspread","uncletopia"],"game_id":440,"stv_port":27016,"stv_name":"Uncletopia | S√£o Paulo | 1 | All Maps | STV","players":null},{"server_id":143,"name":"Uncletopia | S√£o Paulo | 2 | All Maps","name_short":"sao-2","host":"sao-2.br.uncletopia.com","port":27015,"enabled":true,"region":"sa","cc":"br","latitude":-23.533773,"longitude":-46.62529,"reserved":0,"last_update":"0001-01-01T00:00:00Z","name_a2s":"Uncletopia | S√£o Paulo | 2 | All Maps","protocol":17,"map":"koth_viaduct","folder":"tf","game":"Team Fortress","app_id":440,"player_count":0,"max_players":24,"Bots":0,"server_type":"Dedicated","server_os":"Linux","password":true,"vac":true,"version":"7757534","steam_id":85568392924485349,"keywords":["cp","nocrits","nodmgspread","uncletopia"],"game_id":440,"stv_port":27016,"stv_name":"Uncletopia | S√£o Paulo | 2 | All Maps | STV","players":null},{"server_id":7,"name":"Uncletopia | Seattle | 1 | All Maps","name_short":"sea-1","host":"sea-1.us.uncletopia.com","port":27015,"enabled":true,"region":"us-west","cc":"us","latitude":47.608013,"longitude":-122.33517,"reserved":0,"last_update":"0001-01-01T00:00:00Z","name_a2s":"Uncletopia | Seattle | 1 | All Maps","protocol":17,"map":"pl_pier","folder":"tf","game":"Team Fortress","app_id":440,"player_count":24,"max_players":24,"Bots":0,"server_type":"Dedicated","server_os":"Linux","password":true,"vac":true,"version":"7757534","steam_id":85568392924469997,"keywords":["nocrits","nodmgspread","payload","uncletopia"],"game_id":440,"stv_port":27016,"stv_name":"Uncletopia | Seattle | 1 | All Maps | STV","players":[{"user_id":887,"name":"spiderland","steam_id":76561198335992132,"connected_time":3664000000000,"state":"active","ping":51},{"user_id":919,"name":"cracky","steam_id":76561197971365444,"connected_time":883000000000,"state":"active","ping":51},{"user_id":921,"name":"gorlab","steam_id":76561198025089694,"connected_time":132000000000,"state":"active","ping":60},{"user_id":878,"name":"ITSPICE","steam_id":76561198173274042,"connected_time":4334000000000,"state":"active","ping":61},{"user_id":909,"name":"heats","steam_id":76561198029719720,"connected_time":2061000000000,"state":"active","ping":138},{"user_id":900,"name":"PerKnuckleChuckle","steam_id":76561198023221596,"connected_time":2859000000000,"state":"active","ping":87},{"user_id":885,"name":"p9 Doctor‚Ñ¢ (drunk)","steam_id":76561198134309750,"connected_time":3679000000000,"state":"active","ping":103},{"user_id":884,"name":"RING DONG DORINGOS","steam_id":76561198043558709,"connected_time":3873000000000,"state":"active","ping":46},{"user_id":910,"name":"lug nut larry","steam_id":76561198170643378,"connected_time":2043000000000,"state":"active","ping":101},{"user_id":894,"name":"Shields","steam_id":76561198043216746,"connected_time":3525000000000,"state":"active","ping":60},{"user_id":897,"name":"SpencerthePumpkin","steam_id":76561198016755611,"connected_time":3035000000000,"state":"active","ping":65},{"user_id":911,"name":"SwiftVines","steam_id":76561198083682421,"connected_time":2035000000000,"state":"active","ping":45},{"user_id":915,"name":"Erin Emerald","steam_id":76561197991111312,"connected_time":1157000000000,"state":"active","ping":61},{"user_id":853,"name":"M4L1C3","steam_id":76561198282839695,"connected_time":7021000000000,"state":"active","ping":71},{"user_id":913,"name":"stinky fresh","steam_id":76561198004022947,"connected_time":1552000000000,"state":"active","ping":49},{"user_id":916,"name":"squash","steam_id":76561198150281353,"connected_time":1136000000000,"state":"active","ping":56},{"user_id":905,"name":"NEBULA","steam_id":76561198086878595,"connected_time":2281000000000,"state":"active","ping":74},{"user_id":917,"name":"wet animal","steam_id":76561198041983633,"connected_time":1134000000000,"state":"active","ping":49},{"user_id":906,"name":"reiidaya","steam_id":76561198325306660,"connected_time":2113000000000,"state":"active","ping":51},{"user_id":922,"name":"Dobledas","steam_id":76561198026849315,"connected_time":117000000000,"state":"active","ping":135},{"user_id":907,"name":"p9 delight","steam_id":76561197980280272,"connected_time":2091000000000,"state":"active","ping":47},{"user_id":912,"name":"jorts (not sober(","steam_id":76561199041179985,"connected_time":1993000000000,"state":"active","ping":65},{"user_id":859,"name":"PheebsyDeebsy","steam_id":76561198101509436,"connected_time":6877000000000,"state":"active","ping":74},{"user_id":877,"name":"rat gets the cheese","steam_id":76561198031234032,"connected_time":4544000000000,"state":"active","ping":94}]},{"server_id":119,"name":"Uncletopia | Seattle | 2 | All Maps","name_short":"sea-2","host":"sea-1.us.uncletopia.com","port":27025,"enabled":true,"region":"us-west","cc":"us","latitude":47.608013,"longitude":-122.33517,"reserved":0,"last_update":"0001-01-01T00:00:00Z","name_a2s":"Uncletopia | Seattle | 2 | All Maps","protocol":17,"map":"koth_sawmill","folder":"tf","game":"Team Fortress","app_id":440,"player_count":24,"max_players":24,"Bots":0,"server_type":"Dedicated","server_os":"Linux","password":true,"vac":true,"version":"7757534","steam_id":85568392924469998,"keywords":["cp","nocrits","nodmgspread","uncletopia"],"game_id":440,"stv_port":27026,"stv_name":"Uncletopia | Seattle | 2 | All Maps | STV","players":[{"user_id":514,"name":"NOT FRIENDLY","steam_id":76561198041327231,"connected_time":5082000000000,"state":"active","ping":54},{"user_id":544,"name":"Sweatpants","steam_id":76561198097188001,"connected_time":1656000000000,"state":"active","ping":55},{"user_id":554,"name":"Spaceman","steam_id":76561198349305249,"connected_time":765000000000,"state":"active","ping":93},{"user_id":551,"name":"Sky","steam_id":76561198853245153,"connected_time":844000000000,"state":"active","ping":44},{"user_id":521,"name":"General Fisticuffs","steam_id":76561198255721392,"connected_time":3704000000000,"state":"active","ping":115},{"user_id":527,"name":"The_Pacific_gamer","steam_id":76561198089491446,"connected_time":3238000000000,"state":"active","ping":45},{"user_id":525,"name":"Rise for the National Spamton","steam_id":76561198138468982,"connected_time":3350000000000,"state":"active","ping":50},{"user_id":529,"name":"Octo","steam_id":76561198024056355,"connected_time":3212000000000,"state":"active","ping":87},{"user_id":540,"name":"remilia","steam_id":76561198069180543,"connected_time":2072000000000,"state":"active","ping":57},{"user_id":558,"name":"EeveeBurrito","steam_id":76561198333552095,"connected_time":586000000000,"state":"active","ping":68},{"user_id":541,"name":"El Duderino","steam_id":76561199427900685,"connected_time":1850000000000,"state":"active","ping":96},{"user_id":447,"name":"Re-Crix","steam_id":76561198351895601,"connected_time":9455000000000,"state":"active","ping":85},{"user_id":545,"name":"uufyfuu","steam_id":76561198142787212,"connected_time":1593000000000,"state":"active","ping":68},{"user_id":487,"name":"FluffyNinjaRobatech","steam_id":76561197981072423,"connected_time":6553000000000,"state":"active","ping":103},{"user_id":539,"name":"Schlostic","steam_id":76561198081961642,"connected_time":2094000000000,"state":"active","ping":47},{"user_id":555,"name":"Chicken Joe","steam_id":76561198095143020,"connected_time":756000000000,"state":"active","ping":94},{"user_id":542,"name":"Hakn","steam_id":76561198051068084,"connected_time":1796000000000,"state":"active","ping":114},{"user_id":552,"name":"Wattussy Inspector","steam_id":76561198134068826,"connected_time":797000000000,"state":"active","ping":138},{"user_id":553,"name":"Mires","steam_id":76561198379712964,"connected_time":784000000000,"state":"active","ping":53},{"user_id":556,"name":"Scout Gaming","steam_id":76561198349052266,"connected_time":738000000000,"state":"active","ping":89},{"user_id":543,"name":"Grunt","steam_id":76561198200758903,"connected_time":1788000000000,"state":"active","ping":82},{"user_id":503,"name":"Sniff","steam_id":76561198010270922,"connected_time":5975000000000,"state":"active","ping":44},{"user_id":548,"name":"Nalyk","steam_id":76561198043886843,"connected_time":1336000000000,"state":"active","ping":59},{"user_id":531,"name":"Joshzu","steam_id":76561198200521137,"connected_time":3100000000000,"state":"active","ping":55}]},{"server_id":406,"name":"Uncletopia | Seattle | 3 | Stopwatch Beta","name_short":"sea-3","host":"sea-1.us.uncletopia.com","port":27035,"enabled":true,"region":"us-west","cc":"us","latitude":47.608013,"longitude":-122.33517,"reserved":0,"last_update":"0001-01-01T00:00:00Z","name_a2s":"Uncletopia | Seattle | 3 | Stopwatch Beta","protocol":17,"map":"workshop/koth_clearcut_b15.ugc2107050255","folder":"tf","game":"Team Fortress","app_id":440,"player_count":0,"max_players":24,"Bots":0,"server_type":"Dedicated","server_os":"Linux","password":true,"vac":true,"version":"7757534","steam_id":85568392924515217,"keywords":["cp","nocrits","nodmgspread","uncletopia"],"game_id":440,"stv_port":27036,"stv_name":"Uncletopia | Seattle | 3 | Stopwatch Beta | STV","players":null},{"server_id":17,"name":"Uncletopia | San Francisco | 1 | All Maps","name_short":"sfo-1","host":"sfo-1.us.uncletopia.com","port":27015,"enabled":true,"region":"us-west","cc":"us","latitude":37.77397,"longitude":-122.4313,"reserved":0,"last_update":"0001-01-01T00:00:00Z","name_a2s":"Uncletopia | San Francisco | 1 | All Maps","protocol":17,"map":"pl_upward","folder":"tf","game":"Team Fortress","app_id":440,"player_count":24,"max_players":24,"Bots":0,"server_type":"Dedicated","server_os":"Linux","password":true,"vac":true,"version":"7757534","steam_id":85568392924469999,"keywords":["nocrits","nodmgspread","payload","uncletopia"],"game_id":440,"stv_port":27016,"stv_name":"Uncletopia | San Francisco | 1 | All Maps | STV","players":[{"user_id":322,"name":"Dylanxp300","steam_id":76561198271974937,"connected_time":2549000000000,"state":"active","ping":133},{"user_id":298,"name":"Xi Jinping BodyPillow","steam_id":76561198864599452,"connected_time":3554000000000,"state":"active","ping":126},{"user_id":334,"name":"CCNikova","steam_id":76561198398190933,"connected_time":1541000000000,"state":"active","ping":67},{"user_id":345,"name":"mr.edderkopper","steam_id":76561198152614478,"connected_time":650000000000,"state":"active","ping":98},{"user_id":297,"name":"Shnitzel \"Sex Offender\" Rock Gu","steam_id":76561198056638070,"connected_time":3578000000000,"state":"active","ping":66},{"user_id":328,"name":"what da dog doin","steam_id":76561198090573639,"connected_time":2044000000000,"state":"active","ping":57},{"user_id":347,"name":"Some Dood on the Internet","steam_id":76561198054657687,"connected_time":268000000000,"state":"active","ping":75},{"user_id":300,"name":"Bobby","steam_id":76561198265253992,"connected_time":3540000000000,"state":"active","ping":65},{"user_id":348,"name":"pigswill","steam_id":76561197999081865,"connected_time":265000000000,"state":"active","ping":135},{"user_id":315,"name":"knatspray","steam_id":76561198832507482,"connected_time":2762000000000,"state":"active","ping":85},{"user_id":326,"name":"Danny Fentanyl","steam_id":76561197970791798,"connected_time":2117000000000,"state":"active","ping":59},{"user_id":340,"name":"LopaSplopa","steam_id":76561199388464086,"connected_time":926000000000,"state":"active","ping":91},{"user_id":303,"name":"rmbl","steam_id":76561198150137369,"connected_time":3492000000000,"state":"active","ping":56},{"user_id":321,"name":"Berry Festive Vlad","steam_id":76561198149616270,"connected_time":2579000000000,"state":"active","ping":73},{"user_id":304,"name":"Tiatan","steam_id":76561198091778741,"connected_time":3484000000000,"state":"active","ping":62},{"user_id":336,"name":"golia","steam_id":76561198000264266,"connected_time":1394000000000,"state":"active","ping":55},{"user_id":305,"name":"I punch babies","steam_id":76561198110843978,"connected_time":3472000000000,"state":"active","ping":62},{"user_id":349,"name":"Kidjays","steam_id":76561198124941901,"connected_time":221000000000,"state":"active","ping":91},{"user_id":341,"name":"The Great Eagle Scourge of 1822","steam_id":76561198325086209,"connected_time":912000000000,"state":"active","ping":68},{"user_id":342,"name":"SvicidalBug","steam_id":76561198221390504,"connected_time":872000000000,"state":"active","ping":86},{"user_id":343,"name":"moe","steam_id":76561198929586245,"connected_time":809000000000,"state":"active","ping":73},{"user_id":346,"name":"Big Oz","steam_id":76561198970897660,"connected_time":597000000000,"state":"active","ping":86},{"user_id":344,"name":"GrumpyGrampaKoala","steam_id":76561198020441036,"connected_time":788000000000,"state":"active","ping":61},{"user_id":350,"name":"The #MeToo Movement","steam_id":76561198012708953,"connected_time":181000000000,"state":"active","ping":128}]},{"server_id":18,"name":"Uncletopia | San Francisco | 2 | All Maps","name_short":"sfo-2","host":"sfo-1.us.uncletopia.com","port":27025,"enabled":true,"region":"us-west","cc":"us","latitude":37.77397,"longitude":-122.4313,"reserved":0,"last_update":"0001-01-01T00:00:00Z","name_a2s":"Uncletopia | San Francisco | 2 | All Maps","protocol":17,"map":"pl_badwater","folder":"tf","game":"Team Fortress","app_id":440,"player_count":17,"max_players":24,"Bots":0,"server_type":"Dedicated","server_os":"Linux","password":true,"vac":true,"version":"7757534","steam_id":85568392924470000,"keywords":["nocrits","nodmgspread","payload","uncletopia"],"game_id":440,"stv_port":27026,"stv_name":"Uncletopia | San Francisco | 2 | All Maps | STV","players":[{"user_id":409,"name":"Fargo","steam_id":76561198044703931,"connected_time":17000000000,"state":"active","ping":61},{"user_id":410,"name":"Runic","steam_id":76561198442272533,"connected_time":1000000000,"state":"spawning","ping":37},{"user_id":403,"name":"canarchist","steam_id":76561199192415166,"connected_time":394000000000,"state":"active","ping":83},{"user_id":366,"name":"An Unhappy Clown","steam_id":76561198175516514,"connected_time":3559000000000,"state":"active","ping":75},{"user_id":388,"name":"ü§®","steam_id":76561199365672047,"connected_time":1257000000000,"state":"spawning","ping":122},{"user_id":407,"name":"Dravenation","steam_id":76561198012411483,"connected_time":213000000000,"state":"active","ping":170},{"user_id":380,"name":"parmesan","steam_id":76561198118304061,"connected_time":2363000000000,"state":"active","ping":55},{"user_id":404,"name":"McDoreson McFloreson","steam_id":76561198272049926,"connected_time":389000000000,"state":"active","ping":72},{"user_id":195,"name":"Drakon","steam_id":76561198078210822,"connected_time":15699000000000,"state":"active","ping":72},{"user_id":408,"name":"Cheff cook","steam_id":76561198451203268,"connected_time":45000000000,"state":"active","ping":49},{"user_id":400,"name":"Five","steam_id":76561198026640473,"connected_time":816000000000,"state":"active","ping":60},{"user_id":405,"name":"Vellose","steam_id":76561199245707922,"connected_time":356000000000,"state":"active","ping":91},{"user_id":406,"name":"hjnette_","steam_id":76561199380514924,"connected_time":322000000000,"state":"active","ping":60},{"user_id":383,"name":"Burgie","steam_id":76561198066425198,"connected_time":2236000000000,"state":"active","ping":64},{"user_id":396,"name":"PunishedCrab","steam_id":76561198079650017,"connected_time":1063000000000,"state":"active","ping":65},{"user_id":385,"name":"Magnus","steam_id":76561198061634483,"connected_time":1552000000000,"state":"active","ping":75},{"user_id":344,"name":"Wavelengths (they/it)","steam_id":76561197997621320,"connected_time":6168000000000,"state":"active","ping":91}]},{"server_id":19,"name":"Uncletopia | San Francisco | 3 | Stopwatch Beta","name_short":"sfo-3","host":"sfo-1.us.uncletopia.com","port":27035,"enabled":true,"region":"us-west","cc":"us","latitude":37.77397,"longitude":-122.4313,"reserved":0,"last_update":"0001-01-01T00:00:00Z","name_a2s":"Uncletopia | San Francisco | 3 | Stopwatch Beta","protocol":17,"map":"pl_swiftwater_final1","folder":"tf","game":"Team Fortress","app_id":440,"player_count":0,"max_players":24,"Bots":0,"server_type":"Dedicated","server_os":"Linux","password":true,"vac":true,"version":"7757534","steam_id":85568392924742824,"keywords":["nocrits","nodmgspread","payload","uncletopia"],"game_id":440,"stv_port":27036,"stv_name":"Uncletopia | San Francisco | 3 | Stopwatch Beta | STV","players":null},{"server_id":20,"name":"Uncletopia | San Francisco | 4 | Community","name_short":"sfo-4","host":"sfo-1.us.uncletopia.com","port":27045,"enabled":true,"region":"us-west","cc":"us","latitude":37.77397,"longitude":-122.4313,"reserved":0,"last_update":"0001-01-01T00:00:00Z","name_a2s":"Uncletopia | San Francisco | 4 | Community","protocol":17,"map":"workshop/cp_overgrown_rc7b.ugc503939302","folder":"tf","game":"Team Fortress","app_id":440,"player_count":0,"max_players":24,"Bots":0,"server_type":"Dedicated","server_os":"Linux","password":true,"vac":true,"version":"7757534","steam_id":85568392924742826,"keywords":["cp","nocrits","nodmgspread","uncletopia"],"game_id":440,"stv_port":27046,"stv_name":"Uncletopia | San Francisco | 4 | Community | STV","players":null},{"server_id":141,"name":"Uncletopia | Sydney | 1 | All Maps","name_short":"syd-1","host":"syd-1.au.uncletopia.com","port":27015,"enabled":true,"region":"au","cc":"au","latitude":-33.865143,"longitude":151.2099,"reserved":0,"last_update":"0001-01-01T00:00:00Z","name_a2s":"Uncletopia | Sydney | 1 | All Maps","protocol":17,"map":"plr_pipeline","folder":"tf","game":"Team Fortress","app_id":440,"player_count":16,"max_players":24,"Bots":0,"server_type":"Dedicated","server_os":"Linux","password":true,"vac":true,"version":"7757534","steam_id":85568392924470001,"keywords":["nocrits","nodmgspread","payload","uncletopia"],"game_id":440,"stv_port":27016,"stv_name":"Uncletopia | Sydney | 1 | All Maps | STV","players":[{"user_id":58,"name":"Worst Sniper","steam_id":76561198025733081,"connected_time":2767000000000,"state":"active","ping":71},{"user_id":34,"name":"Daniel Chong","steam_id":76561199009189725,"connected_time":5431000000000,"state":"active","ping":69},{"user_id":73,"name":"D J","steam_id":76561198337506106,"connected_time":1154000000000,"state":"active","ping":44},{"user_id":56,"name":"mase chong(not a snitch)","steam_id":76561199205171109,"connected_time":3181000000000,"state":"active","ping":61},{"user_id":59,"name":"KeeperOfBalance","steam_id":76561198028070089,"connected_time":2711000000000,"state":"active","ping":89},{"user_id":66,"name":"Nenguu","steam_id":76561198243952386,"connected_time":1689000000000,"state":"active","ping":57},{"user_id":67,"name":"Mase","steam_id":76561198797093795,"connected_time":1502000000000,"state":"active","ping":46},{"user_id":86,"name":"Arpazha","steam_id":76561199072257230,"connected_time":370000000000,"state":"active","ping":142},{"user_id":74,"name":"I was attacked by a pit bull","steam_id":76561198371274370,"connected_time":893000000000,"state":"active","ping":49},{"user_id":68,"name":"Tees","steam_id":76561199174602317,"connected_time":1445000000000,"state":"active","ping":54},{"user_id":90,"name":"DVUS Fresh","steam_id":76561198168212712,"connected_time":184000000000,"state":"active","ping":180},{"user_id":75,"name":"‚òÖ max ‚òÖ","steam_id":76561199121312942,"connected_time":880000000000,"state":"active","ping":74},{"user_id":81,"name":"Wack","steam_id":76561199127790933,"connected_time":640000000000,"state":"active","ping":48},{"user_id":84,"name":"freddydog711","steam_id":76561199475821017,"connected_time":496000000000,"state":"active","ping":61},{"user_id":87,"name":"BamBoozled","steam_id":76561199065491364,"connected_time":316000000000,"state":"active","ping":70},{"user_id":89,"name":"Phoish","steam_id":76561198442526296,"connected_time":246000000000,"state":"active","ping":32}]},{"server_id":123,"name":"Uncletopia | Sydney | 2 | All Maps","name_short":"syd-2","host":"syd-1.au.uncletopia.com","port":27025,"enabled":true,"region":"au","cc":"au","latitude":-33.865143,"longitude":151.2099,"reserved":0,"last_update":"0001-01-01T00:00:00Z","name_a2s":"Uncletopia | Sydney | 2 | All Maps","protocol":17,"map":"pl_frontier_final","folder":"tf","game":"Team Fortress","app_id":440,"player_count":19,"max_players":24,"Bots":0,"server_type":"Dedicated","server_os":"Linux","password":true,"vac":true,"version":"7757534","steam_id":85568392924470002,"keywords":["nocrits","nodmgspread","payload","uncletopia"],"game_id":440,"stv_port":27026,"stv_name":"Uncletopia | Sydney | 2 | All Maps | STV","players":[{"user_id":234,"name":"ttv/tfwnocatgirlgf :)","steam_id":76561198127508905,"connected_time":757000000000,"state":"active","ping":32},{"user_id":241,"name":"Jauntyweb","steam_id":76561198814458512,"connected_time":189000000000,"state":"active","ping":89},{"user_id":159,"name":"Brooklyn","steam_id":76561198160577231,"connected_time":6576000000000,"state":"active","ping":60},{"user_id":202,"name":"Oysenberry","steam_id":76561198125443335,"connected_time":2511000000000,"state":"active","ping":30},{"user_id":242,"name":"KindredGarlic","steam_id":76561198862857120,"connected_time":133000000000,"state":"active","ping":45},{"user_id":243,"name":"Bateman","steam_id":76561198071905445,"connected_time":95000000000,"state":"active","ping":57},{"user_id":228,"name":"darqek","steam_id":76561199409473703,"connected_time":965000000000,"state":"active","ping":63},{"user_id":244,"name":"ShortDxvilLlama","steam_id":76561198808554336,"connected_time":35000000000,"state":"active","ping":134},{"user_id":221,"name":"Tofu","steam_id":76561198025637573,"connected_time":1326000000000,"state":"active","ping":44},{"user_id":239,"name":"MrMist","steam_id":76561199382679347,"connected_time":479000000000,"state":"active","ping":66},{"user_id":225,"name":"Rumoshiji","steam_id":76561199174449723,"connected_time":1082000000000,"state":"active","ping":151},{"user_id":226,"name":"Flint Lockwood","steam_id":76561198830920173,"connected_time":1077000000000,"state":"active","ping":51},{"user_id":200,"name":"Shadow Puppeteer","steam_id":76561198151121997,"connected_time":2628000000000,"state":"active","ping":72},{"user_id":223,"name":"Flakey","steam_id":76561198021618682,"connected_time":1134000000000,"state":"active","ping":66},{"user_id":185,"name":"Blash","steam_id":76561198833483297,"connected_time":3522000000000,"state":"active","ping":64},{"user_id":167,"name":"Khonshu","steam_id":76561198386345535,"connected_time":5778000000000,"state":"active","ping":62},{"user_id":240,"name":"Cart Pusher 5000","steam_id":76561198150917840,"connected_time":476000000000,"state":"active","ping":87},{"user_id":179,"name":"Genuline","steam_id":76561198126426787,"connected_time":4074000000000,"state":"active","ping":45},{"user_id":219,"name":"Hike munt","steam_id":76561198063690508,"connected_time":1496000000000,"state":"active","ping":55}]},{"server_id":395,"name":"Uncletopia | Sydney | 3 | All Maps","name_short":"syd-3","host":"syd-1.au.uncletopia.com","port":27035,"enabled":true,"region":"au","cc":"au","latitude":-33.865143,"longitude":151.2099,"reserved":0,"last_update":"0001-01-01T00:00:00Z","name_a2s":"Uncletopia | Sydney | 3 | All Maps","protocol":17,"map":"pl_badwater","folder":"tf","game":"Team Fortress","app_id":440,"player_count":6,"max_players":24,"Bots":0,"server_type":"Dedicated","server_os":"Linux","password":true,"vac":true,"version":"7757534","steam_id":85568392925194467,"keywords":["nocrits","nodmgspread","payload","uncletopia"],"game_id":440,"stv_port":27036,"stv_name":"Uncletopia | Sydney | 3 | All Maps | STV","players":[{"user_id":3,"name":"Passance","steam_id":76561198156058724,"connected_time":3064000000000,"state":"active","ping":75},{"user_id":13,"name":"agony","steam_id":76561198241303512,"connected_time":105000000000,"state":"active","ping":58},{"user_id":5,"name":"K41","steam_id":76561198146207192,"connected_time":2979000000000,"state":"active","ping":45},{"user_id":14,"name":"frostproto","steam_id":76561198911697195,"connected_time":6000000000,"state":"spawning","ping":80},{"user_id":7,"name":"bluebonkbloop","steam_id":76561198998430585,"connected_time":2598000000000,"state":"active","ping":90},{"user_id":9,"name":"pan_sergey02","steam_id":76561198294535667,"connected_time":713000000000,"state":"active","ping":264}]},{"server_id":396,"name":"Uncletopia | Sydney | 4 | All Maps","name_short":"syd-4","host":"syd-1.au.uncletopia.com","port":27045,"enabled":true,"region":"au","cc":"au","latitude":-33.865143,"longitude":151.2099,"reserved":0,"last_update":"0001-01-01T00:00:00Z","name_a2s":"Uncletopia | Sydney | 4 | All Maps","protocol":17,"map":"koth_highpass","folder":"tf","game":"Team Fortress","app_id":440,"player_count":0,"max_players":24,"Bots":0,"server_type":"Dedicated","server_os":"Linux","password":true,"vac":true,"version":"7757534","steam_id":85568392925397958,"keywords":["cp","nocrits","nodmgspread","uncletopia"],"game_id":440,"stv_port":27046,"stv_name":"Uncletopia | Sydney | 4 | All Maps | STV","players":null},{"server_id":58,"name":"Uncletopia | Sydney | 5 | Stopwatch Beta","name_short":"syd-5","host":"syd-1.au.uncletopia.com","port":27055,"enabled":true,"region":"au","cc":"au","latitude":-33.865143,"longitude":151.2099,"reserved":0,"last_update":"0001-01-01T00:00:00Z","name_a2s":"Uncletopia | Sydney | 5 | Stopwatch Beta","protocol":17,"map":"koth_cascade","folder":"tf","game":"Team Fortress","app_id":440,"player_count":0,"max_players":24,"Bots":0,"server_type":"Dedicated","server_os":"Linux","password":true,"vac":true,"version":"7757534","steam_id":85568392925397959,"keywords":["cp","nocrits","nodmgspread","uncletopia"],"game_id":440,"stv_port":27056,"stv_name":"Uncletopia | Sydney | 5 | Stopwatch Beta | STV","players":null},{"server_id":59,"name":"Uncletopia | Sydney | 6 | Community","name_short":"syd-6","host":"syd-1.au.uncletopia.com","port":27065,"enabled":true,"region":"au","cc":"au","latitude":-33.865143,"longitude":151.2099,"reserved":0,"last_update":"0001-01-01T00:00:00Z","name_a2s":"Uncletopia | Sydney | 6 | Community","protocol":17,"map":"workshop/koth_ramjam_rc1.ugc459778887","folder":"tf","game":"Team Fortress","app_id":440,"player_count":0,"max_players":24,"Bots":0,"server_type":"Dedicated","server_os":"Linux","password":true,"vac":true,"version":"7757534","steam_id":85568392925397960,"keywords":["cp","nocrits","nodmgspread","uncletopia"],"game_id":440,"stv_port":27066,"stv_name":"Uncletopia | Sydney | 6 | Community | STV","players":null},{"server_id":49,"name":"Uncletopia | Warsaw | 1 | All Maps","name_short":"waw-1","host":"waw-1.pl.uncletopia.com","port":27015,"enabled":true,"region":"eu","cc":"pl","latitude":52.2297,"longitude":21.017532,"reserved":0,"last_update":"0001-01-01T00:00:00Z","name_a2s":"","protocol":0,"map":"","folder":"","game":"","app_id":0,"player_count":0,"max_players":0,"Bots":0,"server_type":"","server_os":"","password":false,"vac":false,"version":"","steam_id":0,"keywords":null,"game_id":0,"stv_port":0,"stv_name":"","players":null},{"server_id":50,"name":"Uncletopia | Warsaw | 2 | All Maps","name_short":"waw-2","host":"waw-1.pl.uncletopia.com","port":27025,"enabled":true,"region":"eu","cc":"pl","latitude":52.2297,"longitude":21.017532,"reserved":0,"last_update":"0001-01-01T00:00:00Z","name_a2s":"Uncletopia | Warsaw | 2 | All Maps","protocol":17,"map":"koth_viaduct","folder":"tf","game":"Team Fortress","app_id":440,"player_count":0,"max_players":24,"Bots":0,"server_type":"Dedicated","server_os":"Linux","password":true,"vac":true,"version":"7757534","steam_id":85568392925397851,"keywords":["cp","nocrits","nodmgspread","uncletopia"],"game_id":440,"stv_port":27026,"stv_name":"Uncletopia | Warsaw | 2 | All Maps | STV","players":null},{"server_id":51,"name":"Uncletopia | Warsaw | 3 | All Maps","name_short":"waw-3","host":"waw-1.pl.uncletopia.com","port":27035,"enabled":true,"region":"eu","cc":"pl","latitude":52.2297,"longitude":21.017532,"reserved":0,"last_update":"0001-01-01T00:00:00Z","name_a2s":"Uncletopia | Warsaw | 3 | All Maps","protocol":17,"map":"pl_badwater","folder":"tf","game":"Team Fortress","app_id":440,"player_count":0,"max_players":24,"Bots":0,"server_type":"Dedicated","server_os":"Linux","password":true,"vac":true,"version":"7757534","steam_id":85568392925397852,"keywords":["nocrits","nodmgspread","payload","uncletopia"],"game_id":440,"stv_port":27036,"stv_name":"Uncletopia | Warsaw | 3 | All Maps | STV","players":null},{"server_id":52,"name":"Uncletopia | Warsaw | 4 | All Maps","name_short":"waw-4","host":"waw-1.pl.uncletopia.com","port":27045,"enabled":true,"region":"eu","cc":"pl","latitude":52.2297,"longitude":21.017532,"reserved":0,"last_update":"0001-01-01T00:00:00Z","name_a2s":"Uncletopia | Warsaw | 4 | All Maps","protocol":17,"map":"koth_lakeside_final","folder":"tf","game":"Team Fortress","app_id":440,"player_count":0,"max_players":24,"Bots":0,"server_type":"Dedicated","server_os":"Linux","password":true,"vac":true,"version":"7757534","steam_id":85568392925397853,"keywords":["cp","nocrits","nodmgspread","uncletopia"],"game_id":440,"stv_port":27046,"stv_name":"Uncletopia | Warsaw | 4 | All Maps | STV","players":null},{"server_id":53,"name":"Uncletopia | Warsaw | 5 | Stopwatch Beta","name_short":"waw-5","host":"waw-1.pl.uncletopia.com","port":27055,"enabled":true,"region":"eu","cc":"pl","latitude":52.2297,"longitude":21.017532,"reserved":0,"last_update":"0001-01-01T00:00:00Z","name_a2s":"Uncletopia | Warsaw | 5 | Stopwatch Beta","protocol":17,"map":"pl_borneo","folder":"tf","game":"Team Fortress","app_id":440,"player_count":0,"max_players":24,"Bots":0,"server_type":"Dedicated","server_os":"Linux","password":true,"vac":true,"version":"7757534","steam_id":85568392925397854,"keywords":["nocrits","nodmgspread","payload","uncletopia"],"game_id":440,"stv_port":27056,"stv_name":"Uncletopia | Warsaw | 5 | Stopwatch Beta | STV","players":null},{"server_id":54,"name":"Uncletopia | Warsaw | 6 | Community","name_short":"waw-6","host":"waw-1.pl.uncletopia.com","port":27065,"enabled":true,"region":"eu","cc":"pl","latitude":52.2297,"longitude":21.017532,"reserved":0,"last_update":"0001-01-01T00:00:00Z","name_a2s":"Uncletopia | Warsaw | 6 | Community","protocol":17,"map":"koth_lakeside_final","folder":"tf","game":"Team Fortress","app_id":440,"player_count":0,"max_players":24,"Bots":0,"server_type":"Dedicated","server_os":"Linux","password":true,"vac":true,"version":"7757534","steam_id":85568392925397856,"keywords":["cp","nocrits","nodmgspread","uncletopia"],"game_id":440,"stv_port":27066,"stv_name":"Uncletopia | Warsaw | 6 | Community | STV","players":null}]}