{"status":true,"message":"","result":[{"server_id":9,"name":"Uncletopia | Atlanta | 1 | All Maps","name_short":"atl-1","host":"atl-1.us.uncletopia.com","port":27015,"enabled":true,"region":"us-east","cc":"us","latitude":33.753746,"longitude":-84.38633,"reserved":0,"last_update":"0001-01-01T00:00:00Z","name_a2s":"Uncletopia | Atlanta | 1 | All Maps","protocol":17,"map":"koth_cascade","folder":"tf","game":"Team Fortress","app_id":440,"player_count":24,"max_players":24,"Bots":0,"server_type":"Dedicated","server_os":"Linux","password":true,"vac":true,"version":"7961495","steam_id":85568392924469982,"keywords":["cp","nocrits","nodmgspread","uncletopia"],"game_id":440,"stv_port":27016,"stv_name":"Uncletopia | Atlanta | 1 | All Maps | STV","players":[{"user_id":226,"name":"The Sydney Sleeper Itself","steam_id":76561198180251763,"connected_time":134000000000,"state":"active","ping":73},{"user_id":219,"name":"lil hog","steam_id":76561199230929836,"connected_time":947000000000,"state":"active","ping":86},{"user_id":58,"name":"Xavibite","steam_id":76561198209380493,"connected_time":13048000000000,"state":"active","ping":66},{"user_id":198,"name":"damn I must be a genius","steam_id":76561198285026879,"connected_time":2198000000000,"state":"active","ping":87},{"user_id":195,"name":"shaderoses","steam_id":76561198070800500,"connected_time":2288000000000,"state":"active","ping":62},{"user_id":211,"name":"Cosmic Torgue","steam_id":76561198828724945,"connected_time":1491000000000,"state":"active","ping":88},{"user_id":220,"name":"lu","steam_id":76561198080731872,"connected_time":553000000000,"state":"active","ping":74},{"user_id":208,"name":"Voids","steam_id":76561198128386726,"connected_time":1532000000000,"state":"active","ping":64},{"user_id":215,"name":"rice white","steam_id":76561198320732910,"connected_time":1025000000000,"state":"active","ping":75},{"user_id":149,"name":"Intro Bonito","steam_id":76561198119478838,"connected_time":6910000000000,"state":"active","ping":48},{"user_id":216,"name":"El Jefe","steam_id":76561199105783188,"connected_time":1002000000000,"state":"active","ping":79},{"user_id":177,"name":"OdysseyTen","steam_id":76561198133082665,"connected_time":3340000000000,"state":"active","ping":74},{"user_id":165,"name":"b4nny_stepson","steam_id":76561198069954956,"connected_time":4996000000000,"state":"active","ping":55},{"user_id":156,"name":"lynt","steam_id":76561198988333976,"connected_time":6380000000000,"state":"active","ping":45},{"user_id":204,"name":"Motorol¬™","steam_id":76561198358119669,"connected_time":1849000000000,"state":"active","ping":107},{"user_id":224,"name":"Tomato","steam_id":76561197996472649,"connected_time":200000000000,"state":"active","ping":73},{"user_id":221,"name":"raccocooon","steam_id":76561199138602425,"connected_time":368000000000,"state":"active","ping":71},{"user_id":173,"name":"DeezNoodlez","steam_id":76561198246700372,"connected_time":4282000000000,"state":"active","ping":60},{"user_id":227,"name":"mr nice guy","steam_id":76561198209333517,"connected_time":111000000000,"state":"active","ping":80},{"user_id":167,"name":"marguerite","steam_id":76561198170873495,"connected_time":4802000000000,"state":"active","ping":55},{"user_id":223,"name":"Erchius (she/her)","steam_id":76561198256892300,"connected_time":304000000000,"state":"active","ping":64},{"user_id":205,"name":"BRONY POWER","steam_id":76561198075510786,"connected_time":1632000000000,"state":"active","ping":94},{"user_id":213,"name":"A_Malebolgia","steam_id":76561198097722818,"connected_time":1332000000000,"state":"active","ping":89},{"user_id":225,"name":"olivia","steam_id":76561198288130849,"connected_time":169000000000,"state":"active","ping":78}]},{"server_id":104,"name":"Uncletopia | Atlanta | 2 | All Maps","name_short":"atl-2","host":"atl-1.us.uncletopia.com","port":27025,"enabled":true,"region":"us-east","cc":"us","latitude":33.753746,"longitude":-84.38633,"reserved":0,"last_update":"0001-01-01T00:00:00Z","name_a2s":"Uncletopia | Atlanta | 2 | All Maps","protocol":17,"map":"pl_enclosure_final","folder":"tf","game":"Team Fortress","app_id":440,"player_count":25,"max_players":24,"Bots":0,"server_type":"Dedicated","server_os":"Linux","password":true,"vac":true,"version":"7961495","steam_id":85568392924469983,"keywords":["nocrits","nodmgspread","payload","uncletopia"],"game_id":440,"stv_port":27026,"stv_name":"Uncletopia | Atlanta | 2 | All Maps | STV","players":[{"user_id":209,"name":"TheLonliestThelonius","steam_id":76561198097657243,"connected_time":527000000000,"state":"active","ping":90},{"user_id":214,"name":"Û†Å≥ ‚Åßfortnite56K(Nick/Ger)","steam_id":76561198404564240,"connected_time":217000000000,"state":"connecting","ping":0},{"user_id":220,"name":"you","steam_id":76561198017228729,"connected_time":5000000000,"state":"spawning","ping":73},{"user_id":192,"name":"bdkaine1","steam_id":76561198133545467,"connected_time":1124000000000,"state":"active","ping":46},{"user_id":178,"name":"dogerich404","steam_id":76561199124102546,"connected_time":2129000000000,"state":"active","ping":100},{"user_id":195,"name":"tabascomilk","steam_id":76561198355094896,"connected_time":1084000000000,"state":"active","ping":60},{"user_id":174,"name":"Luci‚òÖFer","steam_id":76561199030343810,"connected_time":2461000000000,"state":"active","ping":42},{"user_id":208,"name":"Hamlindigo Blue‚Ñ¢","steam_id":76561198116337540,"connected_time":640000000000,"state":"active","ping":96},{"user_id":210,"name":"the grunch","steam_id":76561199013160273,"connected_time":463000000000,"state":"active","ping":52},{"user_id":139,"name":"Pablogonzalez2009","steam_id":76561198967318127,"connected_time":4060000000000,"state":"active","ping":69},{"user_id":205,"name":"CheetoSmoke7","steam_id":76561198095217273,"connected_time":886000000000,"state":"active","ping":67},{"user_id":215,"name":"Jaflampe","steam_id":76561198175827647,"connected_time":189000000000,"state":"active","ping":67},{"user_id":196,"name":"Chet Dingus","steam_id":76561198205181788,"connected_time":1084000000000,"state":"active","ping":106},{"user_id":212,"name":"bikerkid207","steam_id":76561198390782783,"connected_time":435000000000,"state":"active","ping":69},{"user_id":176,"name":"kazoodles","steam_id":76561198044969343,"connected_time":2285000000000,"state":"active","ping":65},{"user_id":217,"name":"carly","steam_id":76561198094118479,"connected_time":108000000000,"state":"active","ping":102},{"user_id":198,"name":"Greenlit","steam_id":76561198412907835,"connected_time":1074000000000,"state":"active","ping":52},{"user_id":186,"name":"StarDoc2222","steam_id":76561199389114520,"connected_time":1829000000000,"state":"active","ping":95},{"user_id":206,"name":"Alpha","steam_id":76561199482290132,"connected_time":714000000000,"state":"active","ping":71},{"user_id":211,"name":"Grillanous","steam_id":76561198084040844,"connected_time":441000000000,"state":"active","ping":74},{"user_id":204,"name":"pan","steam_id":76561198093968095,"connected_time":904000000000,"state":"active","ping":100},{"user_id":199,"name":"Jerich","steam_id":76561198394593386,"connected_time":1044000000000,"state":"active","ping":102},{"user_id":201,"name":"Nonplayableotaku","steam_id":76561199067358875,"connected_time":964000000000,"state":"active","ping":56},{"user_id":218,"name":"Training Bot [Easy]","steam_id":76561199119473164,"connected_time":107000000000,"state":"active","ping":94},{"user_id":219,"name":"Notorious H.R.T.","steam_id":76561198069008085,"connected_time":105000000000,"state":"active","ping":79}]},{"server_id":400,"name":"Uncletopia | Atlanta | 3 | Stopwatch","name_short":"atl-3","host":"atl-1.us.uncletopia.com","port":27035,"enabled":true,"region":"us-east","cc":"us","latitude":33.753746,"longitude":-84.38633,"reserved":0,"last_update":"0001-01-01T00:00:00Z","name_a2s":"Uncletopia | Atlanta | 3 | Stopwatch","protocol":17,"map":"workshop/cp_reckoner_rc6.ugc674719999","folder":"tf","game":"Team Fortress","app_id":440,"player_count":0,"max_players":24,"Bots":0,"server_type":"Dedicated","server_os":"Linux","password":true,"vac":true,"version":"7961495","steam_id":85568392924515187,"keywords":["cp","nocrits","nodmgspread","uncletopia"],"game_id":440,"stv_port":27036,"stv_name":"Uncletopia | Atlanta | 3 | Stopwatch | STV","players":null},{"server_id":401,"name":"Uncletopia | Atlanta | 4 | Community","name_short":"atl-4","host":"atl-1.us.uncletopia.com","port":27045,"enabled":true,"region":"us-east","cc":"us","latitude":33.753746,"longitude":-84.38633,"reserved":0,"last_update":"0001-01-01T00:00:00Z","name_a2s":"Uncletopia | Atlanta | 4 | Community","protocol":17,"map":"workshop/pl_barnblitz_pro7.ugc582280235","folder":"tf","game":"Team Fortress","app_id":440,"player_count":0,"max_players":24,"Bots":0,"server_type":"Dedicated","server_os":"Linux","password":true,"vac":true,"version":"7961495","steam_id":85568392924515188,"keywords":["cp","nocrits","nodmgspread","uncletopia"],"game_id":440,"stv_port":27046,"stv_name":"Uncletopia | Atlanta | 4 | Community | STV","players":null},{"server_id":2,"name":"Uncletopia | Chicago | 1 | All Maps","name_short":"chi-1","host":"chi-1.us.uncletopia.com","port":27015,"enabled":true,"region":"us-central","cc":"us","latitude":41.881832,"longitude":-87.62318,"reserved":0,"last_update":"0001-01-01T00:00:00Z","name_a2s":"Uncletopia | Chicago | 1 | All Maps","protocol":17,"map":"pl_snowycoast","folder":"tf","game":"Team Fortress","app_id":440,"player_count":24,"max_players":24,"Bots":0,"server_type":"Dedicated","server_os":"Linux","password":true,"vac":true,"version":"7961495","steam_id":85568392924469984,"keywords":["nocrits","nodmgspread","payload","uncletopia"],"game_id":440,"stv_port":27016,"stv_name":"Uncletopia | Chicago | 1 | All Maps | STV","players":[{"user_id":355,"name":"Yarn","steam_id":76561199227148369,"connected_time":3499000000000,"state":"active","ping":89},{"user_id":329,"name":"Swiftmend","steam_id":76561197995595692,"connected_time":4263000000000,"state":"active","ping":76},{"user_id":215,"name":"bro looked down in the trop","steam_id":76561198142756572,"connected_time":7158000000000,"state":"active","ping":60},{"user_id":339,"name":"ark","steam_id":76561198041066271,"connected_time":4123000000000,"state":"active","ping":81},{"user_id":364,"name":"GamingJuice42","steam_id":76561198110469437,"connected_time":2999000000000,"state":"active","ping":59},{"user_id":309,"name":"Dr.StrangeGlove","steam_id":76561198286114229,"connected_time":4651000000000,"state":"active","ping":66},{"user_id":180,"name":"jerma985.ttv","steam_id":76561198020322241,"connected_time":10044000000000,"state":"active","ping":65},{"user_id":381,"name":"Limitless","steam_id":76561198057139998,"connected_time":1330000000000,"state":"active","ping":76},{"user_id":383,"name":"subdromeda","steam_id":76561198884351860,"connected_time":866000000000,"state":"active","ping":66},{"user_id":184,"name":"normal rockwell","steam_id":76561197967761806,"connected_time":9871000000000,"state":"active","ping":151},{"user_id":377,"name":"GuyGoom","steam_id":76561198254522178,"connected_time":1662000000000,"state":"active","ping":64},{"user_id":319,"name":"·πΩ‚ßâ Lojack Porscheman","steam_id":76561198000173889,"connected_time":4454000000000,"state":"active","ping":70},{"user_id":384,"name":"Stacks63bs","steam_id":76561198067797130,"connected_time":734000000000,"state":"active","ping":83},{"user_id":157,"name":"Pixler544","steam_id":76561198240575132,"connected_time":12482000000000,"state":"active","ping":72},{"user_id":333,"name":"Uncle Majic the Hip Hop Magicia","steam_id":76561198107924303,"connected_time":4177000000000,"state":"active","ping":68},{"user_id":371,"name":"Uwu Micster","steam_id":76561198843890616,"connected_time":2223000000000,"state":"active","ping":88},{"user_id":386,"name":"tsun.","steam_id":76561198079488962,"connected_time":409000000000,"state":"active","ping":105},{"user_id":388,"name":"Bungus","steam_id":76561197984426574,"connected_time":75000000000,"state":"active","ping":84},{"user_id":385,"name":"him/her","steam_id":76561198122238340,"connected_time":730000000000,"state":"active","ping":75},{"user_id":349,"name":"jordanfer111","steam_id":76561198044993097,"connected_time":3572000000000,"state":"active","ping":106},{"user_id":382,"name":"Teamfortressfunnymomments#5","steam_id":76561198971629959,"connected_time":1327000000000,"state":"active","ping":139},{"user_id":372,"name":"Fobby #Savetf2","steam_id":76561198047681469,"connected_time":2090000000000,"state":"active","ping":80},{"user_id":375,"name":"dantheman","steam_id":76561199486390813,"connected_time":1789000000000,"state":"active","ping":90},{"user_id":369,"name":"‚ú® Rarity ‚ú®","steam_id":76561199172206856,"connected_time":2813000000000,"state":"active","ping":84}]},{"server_id":106,"name":"Uncletopia | Chicago | 2 | All Maps","name_short":"chi-2","host":"chi-1.us.uncletopia.com","port":27025,"enabled":true,"region":"us-central","cc":"us","latitude":41.881832,"longitude":-87.62318,"reserved":0,"last_update":"0001-01-01T00:00:00Z","name_a2s":"Uncletopia | Chicago | 2 | All Maps","protocol":17,"map":"cp_process_final","folder":"tf","game":"Team Fortress","app_id":440,"player_count":24,"max_players":24,"Bots":0,"server_type":"Dedicated","server_os":"Linux","password":true,"vac":true,"version":"7961495","steam_id":85568392924469985,"keywords":["cp","nocrits","nodmgspread","uncletopia"],"game_id":440,"stv_port":27026,"stv_name":"Uncletopia | Chicago | 2 | All Maps | STV","players":[{"user_id":160,"name":"TheoLynwood","steam_id":76561198079596878,"connected_time":1916000000000,"state":"active","ping":78},{"user_id":140,"name":"Lennu","steam_id":76561198060730154,"connected_time":3833000000000,"state":"active","ping":72},{"user_id":172,"name":"Rornir","steam_id":76561198081829615,"connected_time":1094000000000,"state":"active","ping":39},{"user_id":108,"name":"Sylvain","steam_id":76561198113385271,"connected_time":5895000000000,"state":"active","ping":75},{"user_id":178,"name":"goonhooren","steam_id":76561198101840527,"connected_time":658000000000,"state":"active","ping":97},{"user_id":161,"name":"brisky","steam_id":76561198869675719,"connected_time":1898000000000,"state":"active","ping":66},{"user_id":162,"name":"Masotan","steam_id":76561199047187302,"connected_time":1870000000000,"state":"active","ping":48},{"user_id":151,"name":"Tom","steam_id":76561198070630154,"connected_time":2813000000000,"state":"active","ping":81},{"user_id":179,"name":"Fish","steam_id":76561198872926297,"connected_time":395000000000,"state":"active","ping":75},{"user_id":155,"name":"TheSquidz_","steam_id":76561199496786652,"connected_time":2644000000000,"state":"active","ping":113},{"user_id":141,"name":"CheekiBreeki","steam_id":76561198008596138,"connected_time":3644000000000,"state":"active","ping":74},{"user_id":170,"name":"EnergyBolt30","steam_id":76561198925178957,"connected_time":1173000000000,"state":"active","ping":85},{"user_id":157,"name":"whirlybird","steam_id":76561198353887173,"connected_time":2313000000000,"state":"active","ping":57},{"user_id":174,"name":"HAT-WEARING‚Ñ¢ Maggot Gamer Cat","steam_id":76561197973992705,"connected_time":1053000000000,"state":"active","ping":115},{"user_id":158,"name":"Saggy","steam_id":76561198166706479,"connected_time":2167000000000,"state":"active","ping":72},{"user_id":91,"name":"Smashy","steam_id":76561198030704307,"connected_time":7173000000000,"state":"active","ping":77},{"user_id":130,"name":"Scarecrow","steam_id":76561198045870511,"connected_time":4385000000000,"state":"active","ping":65},{"user_id":168,"name":"Matches_                       ","steam_id":76561198048925904,"connected_time":1399000000000,"state":"active","ping":119},{"user_id":159,"name":"sickomode123","steam_id":76561198975511346,"connected_time":2018000000000,"state":"active","ping":88},{"user_id":142,"name":"GreekGoat_Coffee","steam_id":76561198129331088,"connected_time":3471000000000,"state":"active","ping":45},{"user_id":153,"name":"draining to stay happy","steam_id":76561198797823116,"connected_time":2722000000000,"state":"active","ping":62},{"user_id":105,"name":"Jeremiah Finch","steam_id":76561198046899113,"connected_time":6018000000000,"state":"active","ping":129},{"user_id":180,"name":"vibes","steam_id":76561198050561115,"connected_time":285000000000,"state":"active","ping":104},{"user_id":176,"name":"Brastion","steam_id":76561198257707303,"connected_time":884000000000,"state":"active","ping":83}]},{"server_id":402,"name":"Uncletopia | Chicago | 3 | All Maps","name_short":"chi-3","host":"chi-1.us.uncletopia.com","port":27035,"enabled":true,"region":"us-central","cc":"us","latitude":41.881832,"longitude":-87.62318,"reserved":0,"last_update":"0001-01-01T00:00:00Z","name_a2s":"Uncletopia | Chicago | 3 | All Maps","protocol":17,"map":"pl_borneo","folder":"tf","game":"Team Fortress","app_id":440,"player_count":2,"max_players":24,"Bots":0,"server_type":"Dedicated","server_os":"Linux","password":true,"vac":true,"version":"7961495","steam_id":85568392924515191,"keywords":["nocrits","nodmgspread","payload","uncletopia"],"game_id":440,"stv_port":27036,"stv_name":"Uncletopia | Chicago | 3 | All Maps | STV","players":[{"user_id":16,"name":"Whar?","steam_id":76561198886450180,"connected_time":192000000000,"state":"connecting","ping":0},{"user_id":17,"name":"Mix","steam_id":76561198835593895,"connected_time":112000000000,"state":"active","ping":79}]},{"server_id":403,"name":"Uncletopia | Chicago | 4 | All Maps","name_short":"chi-4","host":"chi-1.us.uncletopia.com","port":27045,"enabled":true,"region":"us-central","cc":"us","latitude":41.881832,"longitude":-87.62318,"reserved":0,"last_update":"0001-01-01T00:00:00Z","name_a2s":"Uncletopia | Chicago | 4 | All Maps","protocol":17,"map":"pl_thundermountain","folder":"tf","game":"Team Fortress","app_id":440,"player_count":24,"max_players":24,"Bots":0,"server_type":"Dedicated","server_os":"Linux","password":true,"vac":true,"version":"7961495","steam_id":85568392924515193,"keywords":["nocrits","nodmgspread","payload","uncletopia"],"game_id":440,"stv_port":27046,"stv_name":"Uncletopia | Chicago | 4 | All Maps | STV","players":[{"user_id":138,"name":"MillerWhite","steam_id":76561198076060357,"connected_time":5418000000000,"state":"active","ping":79},{"user_id":33,"name":"Jimbo Jones","steam_id":76561198031493107,"connected_time":13194000000000,"state":"active","ping":96},{"user_id":192,"name":"Admiral Angry","steam_id":76561198058199206,"connected_time":489000000000,"state":"active","ping":57},{"user_id":182,"name":"earthDF","steam_id":76561198026084025,"connected_time":1504000000000,"state":"active","ping":115},{"user_id":178,"name":"royal hooters","steam_id":76561198068022595,"connected_time":1532000000000,"state":"active","ping":67},{"user_id":139,"name":"Chadmander","steam_id":76561197974136337,"connected_time":5404000000000,"state":"active","ping":38},{"user_id":194,"name":"swagerman90020 from oblock","steam_id":76561199196918355,"connected_time":295000000000,"state":"active","ping":55},{"user_id":183,"name":"uhProphet","steam_id":76561198185986917,"connected_time":1490000000000,"state":"active","ping":87},{"user_id":153,"name":"Aztea","steam_id":76561198982089893,"connected_time":3774000000000,"state":"active","ping":90},{"user_id":191,"name":"Blaze","steam_id":76561198043797702,"connected_time":509000000000,"state":"active","ping":62},{"user_id":175,"name":"det ringme","steam_id":76561198170859755,"connected_time":1719000000000,"state":"active","ping":74},{"user_id":136,"name":"chen","steam_id":76561198064872330,"connected_time":5443000000000,"state":"active","ping":69},{"user_id":187,"name":"LincolnShio_","steam_id":76561198831123552,"connected_time":1174000000000,"state":"active","ping":62},{"user_id":198,"name":"Keymaster","steam_id":76561198881514228,"connected_time":14000000000,"state":"spawning","ping":65},{"user_id":193,"name":"solstice","steam_id":76561198958504809,"connected_time":478000000000,"state":"active","ping":101},{"user_id":195,"name":"the","steam_id":76561199140679685,"connected_time":176000000000,"state":"active","ping":60},{"user_id":171,"name":"Turtlin'","steam_id":76561198885096042,"connected_time":1861000000000,"state":"active","ping":64},{"user_id":186,"name":"sagekiss","steam_id":76561198038831240,"connected_time":1379000000000,"state":"active","ping":114},{"user_id":174,"name":"nhbiker","steam_id":76561198081277675,"connected_time":1792000000000,"state":"active","ping":58},{"user_id":196,"name":"Sideways Whoopi Goldberg","steam_id":76561198003736560,"connected_time":138000000000,"state":"active","ping":60},{"user_id":197,"name":"brotalium","steam_id":76561198055439054,"connected_time":51000000000,"state":"active","ping":70},{"user_id":145,"name":"ThatGamingKiwi","steam_id":76561199170522237,"connected_time":5086000000000,"state":"active","ping":81},{"user_id":134,"name":"Plinko","steam_id":76561197968530638,"connected_time":5627000000000,"state":"active","ping":58},{"user_id":159,"name":"mousejumper","steam_id":76561198220181353,"connected_time":3091000000000,"state":"active","ping":85}]},{"server_id":36,"name":"Uncletopia | Chicago | 5 | All Maps","name_short":"chi-5","host":"chi-2.us.uncletopia.com","port":27015,"enabled":true,"region":"us-central","cc":"us","latitude":41.881832,"longitude":-87.62318,"reserved":0,"last_update":"0001-01-01T00:00:00Z","name_a2s":"Uncletopia | Chicago | 5 | All Maps","protocol":17,"map":"koth_highpass","folder":"tf","game":"Team Fortress","app_id":440,"player_count":24,"max_players":24,"Bots":0,"server_type":"Dedicated","server_os":"Linux","password":true,"vac":true,"version":"7961495","steam_id":85568392924866362,"keywords":["cp","nocrits","nodmgspread","uncletopia"],"game_id":440,"stv_port":27016,"stv_name":"Uncletopia | Chicago | 5 | All Maps | STV","players":[{"user_id":75,"name":"argabargian","steam_id":76561198889600853,"connected_time":776000000000,"state":"active","ping":90},{"user_id":90,"name":"spaces","steam_id":76561199467168236,"connected_time":91000000000,"state":"active","ping":118},{"user_id":45,"name":"Retro","steam_id":76561198414744723,"connected_time":3693000000000,"state":"active","ping":68},{"user_id":76,"name":"Amari","steam_id":76561198272446730,"connected_time":732000000000,"state":"active","ping":53},{"user_id":77,"name":"MMAD","steam_id":76561198026446420,"connected_time":723000000000,"state":"active","ping":82},{"user_id":79,"name":"Dick to ball ratio","steam_id":76561198072205512,"connected_time":705000000000,"state":"active","ping":69},{"user_id":87,"name":"DaMultiversalist","steam_id":76561198239552412,"connected_time":417000000000,"state":"active","ping":70},{"user_id":73,"name":"truffle","steam_id":76561199401513937,"connected_time":1288000000000,"state":"active","ping":103},{"user_id":80,"name":"Zeora","steam_id":76561198799145251,"connected_time":703000000000,"state":"active","ping":72},{"user_id":89,"name":"Adnapeht","steam_id":76561198395949213,"connected_time":383000000000,"state":"active","ping":111},{"user_id":81,"name":"raldite","steam_id":76561198074152931,"connected_time":684000000000,"state":"active","ping":180},{"user_id":88,"name":"Candy Sparkles","steam_id":76561198126871264,"connected_time":415000000000,"state":"active","ping":84},{"user_id":74,"name":"Tony Pizza","steam_id":76561198276513608,"connected_time":900000000000,"state":"active","ping":171},{"user_id":26,"name":"quatelhelix","steam_id":76561198066708113,"connected_time":4248000000000,"state":"active","ping":69},{"user_id":86,"name":"Person","steam_id":76561198093244204,"connected_time":478000000000,"state":"active","ping":73},{"user_id":92,"name":"heck","steam_id":76561198308547958,"connected_time":68000000000,"state":"active","ping":61},{"user_id":54,"name":"ndvr (femboy (REAL))","steam_id":76561199379200102,"connected_time":2894000000000,"state":"active","ping":75},{"user_id":53,"name":"matchstick","steam_id":76561198190100027,"connected_time":2936000000000,"state":"active","ping":61},{"user_id":83,"name":"you forgot the sauce","steam_id":76561198387016713,"connected_time":612000000000,"state":"active","ping":76},{"user_id":84,"name":"the lack of juice","steam_id":76561198378764531,"connected_time":612000000000,"state":"active","ping":75},{"user_id":91,"name":"Scarab Lord Brook","steam_id":76561198185126222,"connected_time":85000000000,"state":"active","ping":106},{"user_id":85,"name":"Van Tastic","steam_id":76561198063855523,"connected_time":584000000000,"state":"active","ping":64},{"user_id":93,"name":"melon soda","steam_id":76561198066748230,"connected_time":65000000000,"state":"active","ping":65},{"user_id":48,"name":"DRACO$","steam_id":76561198389198223,"connected_time":3534000000000,"state":"active","ping":99}]},{"server_id":37,"name":"Uncletopia | Chicago | 6 | All Maps","name_short":"chi-6","host":"chi-2.us.uncletopia.com","port":27025,"enabled":true,"region":"us-central","cc":"us","latitude":41.881832,"longitude":-87.62318,"reserved":0,"last_update":"0001-01-01T00:00:00Z","name_a2s":"Uncletopia | Chicago | 6 | All Maps","protocol":17,"map":"pl_borneo","folder":"tf","game":"Team Fortress","app_id":440,"player_count":0,"max_players":24,"Bots":0,"server_type":"Dedicated","server_os":"Linux","password":true,"vac":true,"version":"7961495","steam_id":85568392924866363,"keywords":["nocrits","nodmgspread","payload","uncletopia"],"game_id":440,"stv_port":27026,"stv_name":"Uncletopia | Chicago | 6 | All Maps | STV","players":null},{"server_id":38,"name":"Uncletopia | Chicago | 7 | Stopwatch","name_short":"chi-7","host":"chi-2.us.uncletopia.com","port":27035,"enabled":true,"region":"us-central","cc":"us","latitude":41.881832,"longitude":-87.62318,"reserved":0,"last_update":"0001-01-01T00:00:00Z","name_a2s":"Uncletopia | Chicago | 7 | Stopwatch","protocol":17,"map":"cp_granary","folder":"tf","game":"Team Fortress","app_id":440,"player_count":0,"max_players":24,"Bots":0,"server_type":"Dedicated","server_os":"Linux","password":true,"vac":true,"version":"7961495","steam_id":85568392924866364,"keywords":["cp","nocrits","nodmgspread","uncletopia"],"game_id":440,"stv_port":27036,"stv_name":"Uncletopia | Chicago | 7 | Stopwatch | STV","players":null},{"server_id":39,"name":"Uncletopia | Chicago | 8 | Community","name_short":"chi-8","host":"chi-2.us.uncletopia.com","port":27045,"enabled":true,"region":"us-central","cc":"us","latitude":41.881832,"longitude":-87.62318,"reserved":0,"last_update":"0001-01-01T00:00:00Z","name_a2s":"Uncletopia | Chicago | 8 | Community","protocol":17,"map":"workshop/cp_caldera_rc3.ugc2834196889","folder":"tf","game":"Team Fortress","app_id":440,"player_count":0,"max_players":24,"Bots":0,"server_type":"Dedicated","server_os":"Linux","password":true,"vac":true,"version":"7961495","steam_id":85568392924866365,"keywords":["cp","nocrits","nodmgspread","uncletopia"],"game_id":440,"stv_port":27046,"stv_name":"Uncletopia | Chicago | 8 | Community | STV","players":null},{"server_id":8,"name":"Uncletopia | Dallas | 1 | All Maps","name_short":"dal-1","host":"dal-1.us.uncletopia.com","port":27015,"enabled":true,"region":"us-central","cc":"us","latitude":32.779167,"longitude":-96.80889,"reserved":0,"last_update":"0001-01-01T00:00:00Z","name_a2s":"Uncletopia | Dallas | 1 | All Maps","protocol":17,"map":"ctf_2fort","folder":"tf","game":"Team Fortress","app_id":440,"player_count":24,"max_players":24,"Bots":0,"server_type":"Dedicated","server_os":"Linux","password":true,"vac":true,"version":"7961495","steam_id":85568392924469986,"keywords":["ctf","nocrits","nodmgspread","uncletopia"],"game_id":440,"stv_port":27016,"stv_name":"Uncletopia | Dallas | 1 | All Maps | STV","players":[{"user_id":97,"name":"Toastered","steam_id":76561198178459042,"connected_time":621000000000,"state":"active","ping":94},{"user_id":39,"name":"Hankel Tom (The Hankeler)","steam_id":76561199446367874,"connected_time":3418000000000,"state":"active","ping":50},{"user_id":80,"name":"AXELORDX","steam_id":76561198136639581,"connected_time":1317000000000,"state":"active","ping":69},{"user_id":13,"name":"Kk","steam_id":76561198197211135,"connected_time":5765000000000,"state":"active","ping":47},{"user_id":93,"name":"Untermensch","steam_id":76561198149634242,"connected_time":1015000000000,"state":"active","ping":103},{"user_id":95,"name":"muhammed2010","steam_id":76561198969143876,"connected_time":891000000000,"state":"active","ping":46},{"user_id":71,"name":"Dr. Robotnik","steam_id":76561199403133621,"connected_time":1536000000000,"state":"active","ping":104},{"user_id":98,"name":"dolpin 2.0","steam_id":76561198299123353,"connected_time":619000000000,"state":"active","ping":91},{"user_id":102,"name":"Dreszerg","steam_id":76561198838757422,"connected_time":471000000000,"state":"active","ping":89},{"user_id":106,"name":"APOTATO","steam_id":76561198118199858,"connected_time":160000000000,"state":"active","ping":61},{"user_id":25,"name":"Derblitz","steam_id":76561198040953176,"connected_time":4061000000000,"state":"active","ping":90},{"user_id":99,"name":"Caught a Thundah","steam_id":76561198054495572,"connected_time":561000000000,"state":"active","ping":59},{"user_id":107,"name":"Howl","steam_id":76561198887354079,"connected_time":153000000000,"state":"active","ping":189},{"user_id":108,"name":"Û†Å≥ ‚Åßfortnite56K(Nick/Ger)","steam_id":76561198404564240,"connected_time":139000000000,"state":"active","ping":79},{"user_id":105,"name":"Fake21","steam_id":76561198282065071,"connected_time":221000000000,"state":"active","ping":54},{"user_id":109,"name":"carrot cake","steam_id":76561198055174915,"connected_time":20000000000,"state":"active","ping":90},{"user_id":32,"name":"Killerfish360","steam_id":76561198115029584,"connected_time":3551000000000,"state":"active","ping":73},{"user_id":76,"name":"lancer","steam_id":76561199124468228,"connected_time":1416000000000,"state":"active","ping":59},{"user_id":103,"name":"Hans","steam_id":76561199153433318,"connected_time":348000000000,"state":"active","ping":49},{"user_id":36,"name":"ZestyTrev","steam_id":76561198253391039,"connected_time":3479000000000,"state":"active","ping":58},{"user_id":104,"name":"Agalychnis Callidryas","steam_id":76561198844434119,"connected_time":280000000000,"state":"active","ping":109},{"user_id":85,"name":"Celestial_Hat","steam_id":76561198390436653,"connected_time":1198000000000,"state":"active","ping":78},{"user_id":94,"name":"soup can eater","steam_id":76561199056555841,"connected_time":952000000000,"state":"active","ping":1110},{"user_id":88,"name":"Valen","steam_id":76561198142031999,"connected_time":1126000000000,"state":"active","ping":62}]},{"server_id":108,"name":"Uncletopia | Dallas | 2 | All Maps","name_short":"dal-2","host":"dal-1.us.uncletopia.com","port":27025,"enabled":true,"region":"us-central","cc":"us","latitude":32.779167,"longitude":-96.80889,"reserved":0,"last_update":"0001-01-01T00:00:00Z","name_a2s":"Uncletopia | Dallas | 2 | All Maps","protocol":17,"map":"pl_frontier_final","folder":"tf","game":"Team Fortress","app_id":440,"player_count":25,"max_players":24,"Bots":0,"server_type":"Dedicated","server_os":"Linux","password":true,"vac":true,"version":"7961495","steam_id":85568392924469988,"keywords":["nocrits","nodmgspread","payload","uncletopia"],"game_id":440,"stv_port":27026,"stv_name":"Uncletopia | Dallas | 2 | All Maps | STV","players":[{"user_id":94,"name":"BreakfastTacos","steam_id":76561198847620442,"connected_time":2199000000000,"state":"active","ping":53},{"user_id":92,"name":"raph.","steam_id":76561199074852635,"connected_time":2212000000000,"state":"active","ping":83},{"user_id":89,"name":"Tcmano","steam_id":76561198057233847,"connected_time":2261000000000,"state":"active","ping":75},{"user_id":96,"name":"owlman owl","steam_id":76561199167996712,"connected_time":761000000000,"state":"active","ping":72},{"user_id":41,"name":"SmiggleGiggle","steam_id":76561198171810677,"connected_time":6277000000000,"state":"active","ping":131},{"user_id":83,"name":"Ginsai","steam_id":76561198107797443,"connected_time":3177000000000,"state":"active","ping":91},{"user_id":90,"name":"beyonder","steam_id":76561198045844070,"connected_time":2223000000000,"state":"active","ping":48},{"user_id":108,"name":"Scorpianswag","steam_id":76561198260651036,"connected_time":319000000000,"state":"active","ping":67},{"user_id":33,"name":"i poop my pants","steam_id":76561199488347875,"connected_time":6644000000000,"state":"active","ping":61},{"user_id":81,"name":"Deoxis110","steam_id":76561198997269000,"connected_time":3335000000000,"state":"active","ping":172},{"user_id":65,"name":"room temp IQ","steam_id":76561198018724712,"connected_time":4478000000000,"state":"active","ping":45},{"user_id":86,"name":"boboguguz","steam_id":76561198334924459,"connected_time":2790000000000,"state":"active","ping":184},{"user_id":73,"name":"corg","steam_id":76561198338740292,"connected_time":3996000000000,"state":"active","ping":86},{"user_id":102,"name":"Menacing","steam_id":76561198009093788,"connected_time":491000000000,"state":"active","ping":45},{"user_id":58,"name":"Genius Meme","steam_id":76561198162911254,"connected_time":5003000000000,"state":"active","ping":87},{"user_id":70,"name":"iluvtoust","steam_id":76561198869269207,"connected_time":4348000000000,"state":"active","ping":53},{"user_id":78,"name":"F2P","steam_id":76561199509106728,"connected_time":3622000000000,"state":"active","ping":64},{"user_id":59,"name":"IronicallyMe","steam_id":76561198882111337,"connected_time":4934000000000,"state":"active","ping":99},{"user_id":85,"name":"spacetoven","steam_id":76561198115821131,"connected_time":2960000000000,"state":"active","ping":88},{"user_id":38,"name":"Tony","steam_id":76561198169799653,"connected_time":6499000000000,"state":"active","ping":63},{"user_id":99,"name":"LudicrousRed","steam_id":76561199047437703,"connected_time":659000000000,"state":"active","ping":55},{"user_id":101,"name":"Always Here for You","steam_id":76561198219252313,"connected_time":625000000000,"state":"active","ping":90},{"user_id":84,"name":"Pupcubus","steam_id":76561198057986869,"connected_time":2993000000000,"state":"active","ping":76},{"user_id":122,"name":"AFunkyPigeon","steam_id":76561199350099870,"connected_time":57000000000,"state":"spawning","ping":76},{"user_id":93,"name":"lorient","steam_id":76561198150831438,"connected_time":2208000000000,"state":"active","ping":76}]},{"server_id":404,"name":"Uncletopia | Dallas | 3 | All Maps","name_short":"dal-3","host":"dal-1.us.uncletopia.com","port":27035,"enabled":true,"region":"us-central","cc":"us","latitude":32.779167,"longitude":-96.80889,"reserved":0,"last_update":"0001-01-01T00:00:00Z","name_a2s":"Uncletopia | Dallas | 3 | All Maps","protocol":17,"map":"cp_gorge","folder":"tf","game":"Team Fortress","app_id":440,"player_count":24,"max_players":24,"Bots":0,"server_type":"Dedicated","server_os":"Linux","password":true,"vac":true,"version":"7961495","steam_id":85568392924515219,"keywords":["cp","nocrits","nodmgspread","uncletopia"],"game_id":440,"stv_port":27036,"stv_name":"Uncletopia | Dallas | 3 | All Maps | STV","players":[{"user_id":228,"name":"CoziestGlobe","steam_id":76561198199237735,"connected_time":333000000000,"state":"active","ping":86},{"user_id":168,"name":"Fortune","steam_id":76561198346118738,"connected_time":6210000000000,"state":"active","ping":57},{"user_id":206,"name":"Goblin64","steam_id":76561198969156830,"connected_time":2414000000000,"state":"active","ping":89},{"user_id":219,"name":"GarbageBin","steam_id":76561199067367646,"connected_time":1318000000000,"state":"active","ping":86},{"user_id":217,"name":"Whompert","steam_id":76561198042939624,"connected_time":1389000000000,"state":"active","ping":87},{"user_id":220,"name":"Skip Hop Doo Bop","steam_id":76561199161571849,"connected_time":1308000000000,"state":"active","ping":77},{"user_id":204,"name":"Fresh Lychee","steam_id":76561198045399559,"connected_time":2599000000000,"state":"active","ping":75},{"user_id":229,"name":"Mike Bean Burritos","steam_id":76561198173430607,"connected_time":186000000000,"state":"active","ping":102},{"user_id":226,"name":"huntertabony","steam_id":76561198241622264,"connected_time":899000000000,"state":"active","ping":88},{"user_id":200,"name":"Gamebun üêá","steam_id":76561197998855425,"connected_time":3028000000000,"state":"active","ping":52},{"user_id":230,"name":"Rukks","steam_id":76561197993918954,"connected_time":182000000000,"state":"active","ping":86},{"user_id":227,"name":"Tlaloc","steam_id":76561198375215983,"connected_time":399000000000,"state":"active","ping":125},{"user_id":232,"name":"Snitzman","steam_id":76561198068303272,"connected_time":129000000000,"state":"active","ping":66},{"user_id":208,"name":"TerracottaP","steam_id":76561199402983168,"connected_time":2360000000000,"state":"active","ping":86},{"user_id":155,"name":"Da Policia","steam_id":76561198012762789,"connected_time":7329000000000,"state":"active","ping":45},{"user_id":202,"name":"THICC","steam_id":76561198128841537,"connected_time":2999000000000,"state":"active","ping":82},{"user_id":224,"name":"IPlayGamez","steam_id":76561198041387508,"connected_time":1233000000000,"state":"active","ping":82},{"user_id":233,"name":"MenInHatz","steam_id":76561198825094263,"connected_time":85000000000,"state":"active","ping":68},{"user_id":225,"name":"smartphOWNED.com","steam_id":76561198114107570,"connected_time":1153000000000,"state":"active","ping":90},{"user_id":172,"name":"A Gamer [F2P]","steam_id":76561198138712892,"connected_time":5597000000000,"state":"active","ping":44},{"user_id":216,"name":"denzell05","steam_id":76561198086987061,"connected_time":1814000000000,"state":"active","ping":83},{"user_id":191,"name":"cumgoblin","steam_id":76561198113270138,"connected_time":3748000000000,"state":"active","ping":49},{"user_id":211,"name":"SÃ¥ÕëÕéyÃµÃèÕìdÃ¥Õ†ÕánÃ∑eÃ¥ÃΩÕï","steam_id":76561198154268346,"connected_time":2327000000000,"state":"active","ping":50},{"user_id":178,"name":"Jayne Cobb","steam_id":76561198080585050,"connected_time":5110000000000,"state":"active","ping":87}]},{"server_id":405,"name":"Uncletopia | Dallas | 4 | Community","name_short":"dal-4","host":"dal-1.us.uncletopia.com","port":27045,"enabled":true,"region":"us-central","cc":"us","latitude":32.779167,"longitude":-96.80889,"reserved":0,"last_update":"0001-01-01T00:00:00Z","name_a2s":"Uncletopia | Dallas | 4 | Community","protocol":17,"map":"workshop/cp_hazyfort_rc6.ugc1365963729","folder":"tf","game":"Team Fortress","app_id":440,"player_count":0,"max_players":24,"Bots":0,"server_type":"Dedicated","server_os":"Linux","password":true,"vac":true,"version":"7961495","steam_id":85568392924515220,"keywords":["cp","nocrits","nodmgspread","uncletopia"],"game_id":440,"stv_port":27046,"stv_name":"Uncletopia | Dallas | 4 | Community | STV","players":null},{"server_id":5,"name":"Uncletopia | Frankfurt | 1 | All Maps","name_short":"frk-1","host":"frk-1.de.uncletopia.com","port":27015,"enabled":true,"region":"eu","cc":"de","latitude":50.110924,"longitude":8.682127,"reserved":0,"last_update":"0001-01-01T00:00:00Z","name_a2s":"Uncletopia | Frankfurt | 1 | All Maps","protocol":17,"map":"pl_thundermountain","folder":"tf","game":"Team Fortress","app_id":440,"player_count":24,"max_players":24,"Bots":0,"server_type":"Dedicated","server_os":"Linux","password":true,"vac":true,"version":"7961495","steam_id":85568392924469989,"keywords":["nocrits","nodmgspread","payload","uncletopia"],"game_id":440,"stv_port":27016,"stv_name":"Uncletopia | Frankfurt | 1 | All Maps | STV","players":[{"user_id":421,"name":"socaramel","steam_id":76561197984480336,"connected_time":2024000000000,"state":"active","ping":78},{"user_id":385,"name":"Carl","steam_id":76561198045638738,"connected_time":4296000000000,"state":"active","ping":68},{"user_id":430,"name":"Fromage de ch√®vre","steam_id":76561198111617179,"connected_time":1681000000000,"state":"active","ping":59},{"user_id":429,"name":"tallen","steam_id":76561198061708595,"connected_time":1737000000000,"state":"active","ping":83},{"user_id":445,"name":"Struix","steam_id":76561199413463591,"connected_time":540000000000,"state":"active","ping":78},{"user_id":423,"name":"Dictatorial Karelian","steam_id":76561198196736457,"connected_time":1989000000000,"state":"active","ping":75},{"user_id":417,"name":"keygenhannah","steam_id":76561198334730750,"connected_time":2363000000000,"state":"active","ping":141},{"user_id":446,"name":"wee nut","steam_id":76561198083288197,"connected_time":274000000000,"state":"active","ping":79},{"user_id":387,"name":"cheriberry","steam_id":76561198093577036,"connected_time":4103000000000,"state":"active","ping":53},{"user_id":436,"name":"Mr.Shpee","steam_id":76561198158701474,"connected_time":1241000000000,"state":"active","ping":75},{"user_id":413,"name":"Molty","steam_id":76561198004360335,"connected_time":2502000000000,"state":"active","ping":74},{"user_id":438,"name":"Gaxkang","steam_id":76561198125768571,"connected_time":1196000000000,"state":"active","ping":73},{"user_id":437,"name":"AzureTestament","steam_id":76561198147007440,"connected_time":1231000000000,"state":"active","ping":86},{"user_id":359,"name":"Sham!","steam_id":76561198050434275,"connected_time":5562000000000,"state":"active","ping":53},{"user_id":424,"name":"BELADIT","steam_id":76561198011911501,"connected_time":1979000000000,"state":"active","ping":73},{"user_id":441,"name":"usuikui","steam_id":76561198093304268,"connected_time":1037000000000,"state":"active","ping":77},{"user_id":425,"name":"emeradik","steam_id":76561199195558370,"connected_time":1978000000000,"state":"active","ping":119},{"user_id":444,"name":"=OKB= P4NTH3R","steam_id":76561197999204603,"connected_time":580000000000,"state":"active","ping":61},{"user_id":439,"name":"Rejdory","steam_id":76561198416604100,"connected_time":1125000000000,"state":"active","ping":54},{"user_id":434,"name":"Hollownick","steam_id":76561198449261973,"connected_time":1430000000000,"state":"active","ping":72},{"user_id":447,"name":"Marukuso","steam_id":76561198154229845,"connected_time":115000000000,"state":"active","ping":58},{"user_id":440,"name":"Andr√°s","steam_id":76561198096947288,"connected_time":1092000000000,"state":"active","ping":62},{"user_id":443,"name":"Umme","steam_id":76561198053809566,"connected_time":692000000000,"state":"active","ping":79},{"user_id":365,"name":"El_Kommadante","steam_id":76561198079551685,"connected_time":5470000000000,"state":"active","ping":63}]},{"server_id":110,"name":"Uncletopia | Frankfurt | 2 | All Maps","name_short":"frk-2","host":"frk-1.de.uncletopia.com","port":27025,"enabled":true,"region":"eu","cc":"de","latitude":50.110924,"longitude":8.682127,"reserved":0,"last_update":"0001-01-01T00:00:00Z","name_a2s":"Uncletopia | Frankfurt | 2 | All Maps","protocol":17,"map":"pl_badwater","folder":"tf","game":"Team Fortress","app_id":440,"player_count":24,"max_players":24,"Bots":0,"server_type":"Dedicated","server_os":"Linux","password":true,"vac":true,"version":"7961495","steam_id":85568392924469990,"keywords":["nocrits","nodmgspread","payload","uncletopia"],"game_id":440,"stv_port":27026,"stv_name":"Uncletopia | Frankfurt | 2 | All Maps | STV","players":[{"user_id":320,"name":"wasto-/-‚Ñ¢","steam_id":76561198102888038,"connected_time":373000000000,"state":"active","ping":46},{"user_id":317,"name":"Egor Pomidor","steam_id":76561199175688390,"connected_time":457000000000,"state":"active","ping":75},{"user_id":329,"name":"warforge3","steam_id":76561199276024310,"connected_time":243000000000,"state":"active","ping":84},{"user_id":331,"name":"snowball","steam_id":76561198026525289,"connected_time":96000000000,"state":"active","ping":83},{"user_id":312,"name":"Miss Steelheart","steam_id":76561198132562365,"connected_time":559000000000,"state":"active","ping":62},{"user_id":318,"name":"Oki (Bon)","steam_id":76561199047748534,"connected_time":428000000000,"state":"active","ping":67},{"user_id":303,"name":"squashed","steam_id":76561198062615920,"connected_time":858000000000,"state":"active","ping":61},{"user_id":319,"name":"Paydi","steam_id":76561198419193670,"connected_time":413000000000,"state":"active","ping":73},{"user_id":280,"name":"Vidrox","steam_id":76561199217854983,"connected_time":2045000000000,"state":"active","ping":85},{"user_id":322,"name":"LEGEND FUMO.","steam_id":76561198061033903,"connected_time":347000000000,"state":"active","ping":45},{"user_id":278,"name":"Loudladdy","steam_id":76561198095271834,"connected_time":2328000000000,"state":"active","ping":48},{"user_id":287,"name":"Omni","steam_id":76561197964320557,"connected_time":1545000000000,"state":"active","ping":70},{"user_id":263,"name":"pxppetrot","steam_id":76561198058159692,"connected_time":3462000000000,"state":"active","ping":57},{"user_id":308,"name":"Jeff (‚ôÄ)","steam_id":76561198280101970,"connected_time":639000000000,"state":"active","ping":70},{"user_id":327,"name":"Orion","steam_id":76561198348830586,"connected_time":284000000000,"state":"active","ping":51},{"user_id":324,"name":"Modmelon","steam_id":76561198813630650,"connected_time":326000000000,"state":"active","ping":62},{"user_id":328,"name":"Rodak","steam_id":76561199135986344,"connected_time":278000000000,"state":"active","ping":47},{"user_id":255,"name":"Finnish Farmer","steam_id":76561198205366043,"connected_time":4001000000000,"state":"active","ping":85},{"user_id":310,"name":"Warrior555MainsGanon","steam_id":76561198388627786,"connected_time":608000000000,"state":"active","ping":64},{"user_id":304,"name":"Gun","steam_id":76561198082457496,"connected_time":810000000000,"state":"active","ping":74},{"user_id":295,"name":"crajk70","steam_id":76561198836814077,"connected_time":1372000000000,"state":"active","ping":66},{"user_id":262,"name":"Average Water Fan","steam_id":76561199415989636,"connected_time":3528000000000,"state":"active","ping":95},{"user_id":297,"name":"HayLeX","steam_id":76561198130997343,"connected_time":1284000000000,"state":"active","ping":91},{"user_id":326,"name":"steck","steam_id":76561197973948113,"connected_time":302000000000,"state":"active","ping":59}]},{"server_id":308,"name":"Uncletopia | Frankfurt | 3 | All Maps","name_short":"frk-3","host":"frk-1.de.uncletopia.com","port":27035,"enabled":true,"region":"eu","cc":"de","latitude":50.110924,"longitude":8.682127,"reserved":0,"last_update":"0001-01-01T00:00:00Z","name_a2s":"Uncletopia | Frankfurt | 3 | All Maps","protocol":17,"map":"cp_sunshine","folder":"tf","game":"Team Fortress","app_id":440,"player_count":24,"max_players":24,"Bots":0,"server_type":"Dedicated","server_os":"Linux","password":true,"vac":true,"version":"7961495","steam_id":85568392924504274,"keywords":["cp","nocrits","nodmgspread","uncletopia"],"game_id":440,"stv_port":27036,"stv_name":"Uncletopia | Frankfurt | 3 | All Maps | STV","players":[{"user_id":206,"name":"Saucisse","steam_id":76561198119955969,"connected_time":1686000000000,"state":"active","ping":57},{"user_id":207,"name":"_3tHeR_","steam_id":76561199109870743,"connected_time":1644000000000,"state":"active","ping":53},{"user_id":199,"name":"Lewylow","steam_id":76561198005425686,"connected_time":2021000000000,"state":"active","ping":70},{"user_id":194,"name":"monocle chicken","steam_id":76561199020106029,"connected_time":2350000000000,"state":"active","ping":77},{"user_id":189,"name":"American Fumo","steam_id":76561198143751259,"connected_time":2855000000000,"state":"active","ping":84},{"user_id":154,"name":"Estyle","steam_id":76561198157804700,"connected_time":4351000000000,"state":"active","ping":79},{"user_id":208,"name":"shapeshifter","steam_id":76561198052898368,"connected_time":1626000000000,"state":"active","ping":73},{"user_id":217,"name":"southwest florida","steam_id":76561198049639319,"connected_time":689000000000,"state":"active","ping":69},{"user_id":197,"name":"capitaine","steam_id":76561198401900582,"connected_time":2163000000000,"state":"active","ping":60},{"user_id":218,"name":"GermanBoy","steam_id":76561199230176650,"connected_time":686000000000,"state":"active","ping":68},{"user_id":136,"name":"abra-kablam","steam_id":76561198195857751,"connected_time":5546000000000,"state":"active","ping":62},{"user_id":220,"name":"Woody","steam_id":76561198179465197,"connected_time":629000000000,"state":"active","ping":64},{"user_id":209,"name":"orange","steam_id":76561198153181940,"connected_time":1585000000000,"state":"active","ping":68},{"user_id":225,"name":"fl1p","steam_id":76561198148565659,"connected_time":183000000000,"state":"active","ping":76},{"user_id":213,"name":"Sniper's Kangaroo Ex","steam_id":76561198334042273,"connected_time":962000000000,"state":"active","ping":63},{"user_id":222,"name":"TidB","steam_id":76561198055342304,"connected_time":361000000000,"state":"active","ping":51},{"user_id":205,"name":"comic_sans","steam_id":76561198845309519,"connected_time":1767000000000,"state":"active","ping":93},{"user_id":226,"name":"Drojdier","steam_id":76561198080789836,"connected_time":174000000000,"state":"active","ping":82},{"user_id":227,"name":"¬Ø\\_(„ÉÑ)_/¬Ø","steam_id":76561199343646729,"connected_time":152000000000,"state":"active","ping":75},{"user_id":219,"name":"TheBeardedM1G","steam_id":76561198040208946,"connected_time":686000000000,"state":"active","ping":49},{"user_id":177,"name":"Spooky Pumpkin","steam_id":76561198044060723,"connected_time":3352000000000,"state":"active","ping":172},{"user_id":185,"name":"RA1234526","steam_id":76561199245954610,"connected_time":2995000000000,"state":"active","ping":94},{"user_id":210,"name":"quickfast","steam_id":76561199438900919,"connected_time":1581000000000,"state":"active","ping":57},{"user_id":212,"name":"salmonander","steam_id":76561198104577052,"connected_time":1001000000000,"state":"active","ping":99}]},{"server_id":309,"name":"Uncletopia | Frankfurt | 4 | All Maps","name_short":"frk-4","host":"frk-1.de.uncletopia.com","port":27045,"enabled":true,"region":"eu","cc":"de","latitude":50.110924,"longitude":8.682127,"reserved":0,"last_update":"0001-01-01T00:00:00Z","name_a2s":"Uncletopia | Frankfurt | 4 | All Maps","protocol":17,"map":"pl_thundermountain","folder":"tf","game":"Team Fortress","app_id":440,"player_count":24,"max_players":24,"Bots":0,"server_type":"Dedicated","server_os":"Linux","password":true,"vac":true,"version":"7961495","steam_id":85568392924504275,"keywords":["nocrits","nodmgspread","payload","uncletopia"],"game_id":440,"stv_port":27046,"stv_name":"Uncletopia | Frankfurt | 4 | All Maps | STV","players":[{"user_id":276,"name":"RAT BASTARD","steam_id":76561199195985387,"connected_time":2083000000000,"state":"active","ping":83},{"user_id":304,"name":"heddwch","steam_id":76561198076097983,"connected_time":925000000000,"state":"active","ping":84},{"user_id":275,"name":"Sicronici","steam_id":76561199054534566,"connected_time":2117000000000,"state":"active","ping":71},{"user_id":277,"name":"breadbear \u003c3","steam_id":76561198036895007,"connected_time":2062000000000,"state":"active","ping":99},{"user_id":208,"name":"alice","steam_id":76561198269200388,"connected_time":7222000000000,"state":"active","ping":78},{"user_id":278,"name":"sheep","steam_id":76561199220109827,"connected_time":2023000000000,"state":"active","ping":73},{"user_id":280,"name":"Tekor","steam_id":76561198088542862,"connected_time":1930000000000,"state":"active","ping":68},{"user_id":312,"name":"ddchdrn","steam_id":76561198024358566,"connected_time":50000000000,"state":"active","ping":61},{"user_id":305,"name":"giclure :;","steam_id":76561197986362828,"connected_time":572000000000,"state":"active","ping":89},{"user_id":270,"name":"jill sandwich","steam_id":76561198075068529,"connected_time":2426000000000,"state":"active","ping":60},{"user_id":308,"name":"‚®Ç","steam_id":76561198087800030,"connected_time":469000000000,"state":"active","ping":49},{"user_id":288,"name":"tapeworms!","steam_id":76561198069649097,"connected_time":1659000000000,"state":"active","ping":60},{"user_id":309,"name":"Richard_HUN","steam_id":76561198299050967,"connected_time":239000000000,"state":"active","ping":159},{"user_id":236,"name":"PlasticVoid","steam_id":76561197997870306,"connected_time":5359000000000,"state":"active","ping":47},{"user_id":303,"name":"spy","steam_id":76561199402711007,"connected_time":964000000000,"state":"active","ping":132},{"user_id":310,"name":"Dolcelatte","steam_id":76561198038501770,"connected_time":188000000000,"state":"active","ping":51},{"user_id":302,"name":"kelm","steam_id":76561198027166144,"connected_time":1188000000000,"state":"active","ping":83},{"user_id":306,"name":"gosi","steam_id":76561198084111532,"connected_time":563000000000,"state":"active","ping":60},{"user_id":293,"name":"shr1mple","steam_id":76561198173537027,"connected_time":1524000000000,"state":"active","ping":73},{"user_id":313,"name":"Prawo Jazdy","steam_id":76561198121589024,"connected_time":47000000000,"state":"active","ping":99},{"user_id":316,"name":"TKN_Paps997","steam_id":76561198419868465,"connected_time":16000000000,"state":"spawning","ping":74},{"user_id":299,"name":"SomethingDeveloper","steam_id":76561198369567080,"connected_time":1419000000000,"state":"active","ping":61},{"user_id":300,"name":"E¬≤ FTH","steam_id":76561198066287815,"connected_time":1402000000000,"state":"active","ping":112},{"user_id":307,"name":"Shift","steam_id":76561198028296732,"connected_time":514000000000,"state":"active","ping":58}]},{"server_id":310,"name":"Uncletopia | Frankfurt | 5 | All Maps","name_short":"frk-5","host":"frk-1.de.uncletopia.com","port":27055,"enabled":true,"region":"eu","cc":"de","latitude":50.110924,"longitude":8.682127,"reserved":0,"last_update":"0001-01-01T00:00:00Z","name_a2s":"Uncletopia | Frankfurt | 5 | All Maps","protocol":17,"map":"pl_badwater","folder":"tf","game":"Team Fortress","app_id":440,"player_count":24,"max_players":24,"Bots":0,"server_type":"Dedicated","server_os":"Linux","password":true,"vac":true,"version":"7961495","steam_id":85568392924504277,"keywords":["nocrits","nodmgspread","payload","uncletopia"],"game_id":440,"stv_port":27056,"stv_name":"Uncletopia | Frankfurt | 5 | All Maps | STV","players":[{"user_id":478,"name":"LMAO","steam_id":76561198339723822,"connected_time":321000000000,"state":"active","ping":68},{"user_id":466,"name":"llancelott2nd","steam_id":76561199220510748,"connected_time":1429000000000,"state":"active","ping":72},{"user_id":484,"name":"bady_3","steam_id":76561199030975778,"connected_time":52000000000,"state":"active","ping":594},{"user_id":440,"name":"Nice Shot","steam_id":76561198267313008,"connected_time":2301000000000,"state":"active","ping":103},{"user_id":395,"name":"Rezzy","steam_id":76561198410598772,"connected_time":4079000000000,"state":"active","ping":49},{"user_id":471,"name":"Pybro-san","steam_id":76561199217893562,"connected_time":1203000000000,"state":"active","ping":59},{"user_id":399,"name":"ggwp","steam_id":76561199141037141,"connected_time":3978000000000,"state":"active","ping":68},{"user_id":474,"name":"BL4Z3RU22ER","steam_id":76561199495737715,"connected_time":869000000000,"state":"active","ping":138},{"user_id":439,"name":"Finnez","steam_id":76561198027166251,"connected_time":2313000000000,"state":"active","ping":77},{"user_id":441,"name":"aofi the flat tgirl","steam_id":76561199172110503,"connected_time":2299000000000,"state":"active","ping":160},{"user_id":470,"name":"Chromatic","steam_id":76561198355976286,"connected_time":1239000000000,"state":"active","ping":62},{"user_id":477,"name":"–°–∫—Ä—è–≥–∞ –ú–∞–∫ –î–∞–∫","steam_id":76561198274366137,"connected_time":338000000000,"state":"active","ping":99},{"user_id":479,"name":"Dakeyras","steam_id":76561198057069564,"connected_time":273000000000,"state":"active","ping":113},{"user_id":453,"name":"DeCypher \u003c3","steam_id":76561198171992619,"connected_time":2103000000000,"state":"active","ping":66},{"user_id":454,"name":"Siegmeyer","steam_id":76561198328543549,"connected_time":2087000000000,"state":"active","ping":76},{"user_id":469,"name":"unnam3d","steam_id":76561198286257338,"connected_time":1356000000000,"state":"active","ping":59},{"user_id":468,"name":"acskama","steam_id":76561198136743845,"connected_time":1393000000000,"state":"active","ping":73},{"user_id":472,"name":"Welder","steam_id":76561198355300561,"connected_time":1078000000000,"state":"active","ping":64},{"user_id":456,"name":"Dimi","steam_id":76561198070894569,"connected_time":2022000000000,"state":"active","ping":134},{"user_id":475,"name":"Istor","steam_id":76561198016340468,"connected_time":796000000000,"state":"active","ping":57},{"user_id":481,"name":"bart","steam_id":76561198025395216,"connected_time":246000000000,"state":"active","ping":61},{"user_id":452,"name":"Moth","steam_id":76561198405910705,"connected_time":2129000000000,"state":"active","ping":74},{"user_id":482,"name":"dog?","steam_id":76561199232839385,"connected_time":197000000000,"state":"active","ping":92},{"user_id":483,"name":"Spinach Loving Elkman Steve","steam_id":76561198861519418,"connected_time":138000000000,"state":"active","ping":69}]},{"server_id":311,"name":"Uncletopia | Frankfurt | 6 | All Maps","name_short":"frk-6","host":"frk-1.de.uncletopia.com","port":27065,"enabled":true,"region":"eu","cc":"de","latitude":50.110924,"longitude":8.682127,"reserved":0,"last_update":"0001-01-01T00:00:00Z","name_a2s":"Uncletopia | Frankfurt | 6 | All Maps","protocol":17,"map":"koth_viaduct","folder":"tf","game":"Team Fortress","app_id":440,"player_count":0,"max_players":24,"Bots":0,"server_type":"Dedicated","server_os":"Linux","password":true,"vac":true,"version":"7961495","steam_id":85568392924504278,"keywords":["cp","nocrits","nodmgspread","uncletopia"],"game_id":440,"stv_port":27066,"stv_name":"Uncletopia | Frankfurt | 6 | All Maps | STV","players":null},{"server_id":23,"name":"Uncletopia | Frankfurt | 7 | Stopwatch","name_short":"frk-7","host":"frk-1.de.uncletopia.com","port":27075,"enabled":true,"region":"eu","cc":"de","latitude":50.110924,"longitude":8.682127,"reserved":0,"last_update":"0001-01-01T00:00:00Z","name_a2s":"Uncletopia | Frankfurt | 7 | Stopwatch","protocol":17,"map":"workshop/pl_badwater_pro_v12.ugc2142942074","folder":"tf","game":"Team Fortress","app_id":440,"player_count":4,"max_players":24,"Bots":0,"server_type":"Dedicated","server_os":"Linux","password":true,"vac":true,"version":"7961495","steam_id":85568392924742827,"keywords":["nocrits","nodmgspread","payload","uncletopia"],"game_id":440,"stv_port":27076,"stv_name":"Uncletopia | Frankfurt | 7 | Stopwatch | STV","players":[{"user_id":7,"name":"ArghBeef","steam_id":76561199142148041,"connected_time":241000000000,"state":"active","ping":118},{"user_id":8,"name":"N","steam_id":76561199094237497,"connected_time":102000000000,"state":"active","ping":57},{"user_id":9,"name":"Edioss[UA]","steam_id":76561198015796625,"connected_time":92000000000,"state":"active","ping":74},{"user_id":10,"name":"roblan11","steam_id":76561198066839258,"connected_time":30000000000,"state":"active","ping":31}]},{"server_id":24,"name":"Uncletopia | Frankfurt | 8 | Community","name_short":"frk-8","host":"frk-1.de.uncletopia.com","port":27085,"enabled":true,"region":"eu","cc":"de","latitude":50.110924,"longitude":8.682127,"reserved":0,"last_update":"0001-01-01T00:00:00Z","name_a2s":"Uncletopia | Frankfurt | 8 | Community","protocol":17,"map":"workshop/rd_asteroid_redux_b1.ugc2154902912","folder":"tf","game":"Team Fortress","app_id":440,"player_count":0,"max_players":24,"Bots":0,"server_type":"Dedicated","server_os":"Linux","password":true,"vac":true,"version":"7961495","steam_id":85568392924742828,"keywords":["beta","nocrits","nodmgspread","rd","uncletopia"],"game_id":440,"stv_port":27086,"stv_name":"Uncletopia | Frankfurt | 8 | Community | STV","players":null},{"server_id":202,"name":"Uncletopia | Hong Kong | 1 | All Maps","name_short":"hgk-1","host":"hgk-1.hk.uncletopia.com","port":27015,"enabled":true,"region":"asia","cc":"hk","latitude":22.302711,"longitude":114.177216,"reserved":0,"last_update":"0001-01-01T00:00:00Z","name_a2s":"Uncletopia | Hong Kong | 1 | All Maps","protocol":17,"map":"pl_pier","folder":"tf","game":"Team Fortress","app_id":440,"player_count":0,"max_players":24,"Bots":0,"server_type":"Dedicated","server_os":"Linux","password":true,"vac":true,"version":"7961495","steam_id":85568392924494504,"keywords":["nocrits","nodmgspread","payload","uncletopia"],"game_id":440,"stv_port":27016,"stv_name":"Uncletopia | Hong Kong | 1 | All Maps | STV","players":null},{"server_id":1,"name":"Uncletopia | Los Angeles | 1 | All Maps","name_short":"lax-1","host":"lax-1.us.uncletopia.com","port":27015,"enabled":true,"region":"us-west","cc":"us","latitude":33.94279,"longitude":-118.41004,"reserved":0,"last_update":"0001-01-01T00:00:00Z","name_a2s":"Uncletopia | Los Angeles | 1 | All Maps","protocol":17,"map":"koth_lakeside_final","folder":"tf","game":"Team Fortress","app_id":440,"player_count":0,"max_players":24,"Bots":0,"server_type":"Dedicated","server_os":"Linux","password":true,"vac":true,"version":"7961495","steam_id":85568392924469991,"keywords":["cp","nocrits","nodmgspread","uncletopia"],"game_id":440,"stv_port":27016,"stv_name":"Uncletopia | Los Angeles | 1 | All Maps | STV","players":null},{"server_id":112,"name":"Uncletopia | Los Angeles | 2 | All Maps","name_short":"lax-2","host":"lax-1.us.uncletopia.com","port":27025,"enabled":true,"region":"us-west","cc":"us","latitude":33.94279,"longitude":-118.41004,"reserved":0,"last_update":"0001-01-01T00:00:00Z","name_a2s":"Uncletopia | Los Angeles | 2 | All Maps","protocol":17,"map":"koth_lazarus","folder":"tf","game":"Team Fortress","app_id":440,"player_count":0,"max_players":24,"Bots":0,"server_type":"Dedicated","server_os":"Linux","password":true,"vac":true,"version":"7961495","steam_id":85568392924469992,"keywords":["cp","nocrits","nodmgspread","uncletopia"],"game_id":440,"stv_port":27026,"stv_name":"Uncletopia | Los Angeles | 2 | All Maps | STV","players":null},{"server_id":324,"name":"Uncletopia | Los Angeles | 3 | All Maps","name_short":"lax-3","host":"lax-1.us.uncletopia.com","port":27035,"enabled":true,"region":"us-west","cc":"us","latitude":33.94279,"longitude":-118.41004,"reserved":0,"last_update":"0001-01-01T00:00:00Z","name_a2s":"Uncletopia | Los Angeles | 3 | All Maps","protocol":17,"map":"pl_frontier_final","folder":"tf","game":"Team Fortress","app_id":440,"player_count":0,"max_players":24,"Bots":0,"server_type":"Dedicated","server_os":"Linux","password":true,"vac":true,"version":"7961495","steam_id":85568392924510198,"keywords":["nocrits","nodmgspread","payload","uncletopia"],"game_id":440,"stv_port":27036,"stv_name":"Uncletopia | Los Angeles | 3 | All Maps | STV","players":null},{"server_id":25,"name":"Uncletopia | Los Angeles | 4 | Stopwatch","name_short":"lax-4","host":"lax-1.us.uncletopia.com","port":27045,"enabled":true,"region":"us-west","cc":"us","latitude":33.94279,"longitude":-118.41004,"reserved":0,"last_update":"0001-01-01T00:00:00Z","name_a2s":"Uncletopia | Los Angeles | 4 | Stopwatch","protocol":17,"map":"workshop/koth_bagel_rc6.ugc2514036946","folder":"tf","game":"Team Fortress","app_id":440,"player_count":0,"max_players":24,"Bots":0,"server_type":"Dedicated","server_os":"Linux","password":true,"vac":true,"version":"7961495","steam_id":85568392924510199,"keywords":["cp","nocrits","nodmgspread","uncletopia"],"game_id":440,"stv_port":27046,"stv_name":"Uncletopia | Los Angeles | 4 | Stopwatch | STV","players":null},{"server_id":11,"name":"Uncletopia | London | 1 | All Maps","name_short":"lon-1","host":"lon-1.uk.uncletopia.com","port":27015,"enabled":true,"region":"eu","cc":"gb","latitude":51.509865,"longitude":-0.118092,"reserved":0,"last_update":"0001-01-01T00:00:00Z","name_a2s":"Uncletopia | London | 1 | All Maps","protocol":17,"map":"pl_borneo","folder":"tf","game":"Team Fortress","app_id":440,"player_count":24,"max_players":24,"Bots":0,"server_type":"Dedicated","server_os":"Linux","password":true,"vac":true,"version":"7961495","steam_id":85568392924367362,"keywords":["nocrits","nodmgspread","payload","uncletopia"],"game_id":440,"stv_port":27016,"stv_name":"Uncletopia | London | 1 | All Maps | STV","players":[{"user_id":366,"name":"Spike","steam_id":76561197994537515,"connected_time":3977000000000,"state":"active","ping":67},{"user_id":253,"name":"Pride moth","steam_id":76561198799133372,"connected_time":11747000000000,"state":"active","ping":91},{"user_id":396,"name":"ashley","steam_id":76561198448551449,"connected_time":1388000000000,"state":"active","ping":37},{"user_id":373,"name":"teddy","steam_id":76561198007436837,"connected_time":2894000000000,"state":"active","ping":40},{"user_id":368,"name":"Purple Soup :D","steam_id":76561198985100366,"connected_time":3474000000000,"state":"active","ping":87},{"user_id":389,"name":"emmy","steam_id":76561198066298422,"connected_time":1923000000000,"state":"active","ping":89},{"user_id":337,"name":"nudjura","steam_id":76561198281986139,"connected_time":5424000000000,"state":"active","ping":43},{"user_id":385,"name":"de_nuke","steam_id":76561198005342133,"connected_time":1931000000000,"state":"active","ping":62},{"user_id":326,"name":"Slifer","steam_id":76561198062255803,"connected_time":7579000000000,"state":"active","ping":104},{"user_id":395,"name":"Hendriks","steam_id":76561198446347617,"connected_time":1561000000000,"state":"active","ping":53},{"user_id":386,"name":"trite","steam_id":76561197983765323,"connected_time":1929000000000,"state":"active","ping":43},{"user_id":370,"name":"getpost","steam_id":76561198260064876,"connected_time":3460000000000,"state":"active","ping":88},{"user_id":392,"name":"dec","steam_id":76561198009660168,"connected_time":1916000000000,"state":"active","ping":52},{"user_id":340,"name":"MarioThePlumber","steam_id":76561198314229530,"connected_time":5034000000000,"state":"active","ping":80},{"user_id":394,"name":"whimsy.","steam_id":76561198878171763,"connected_time":1869000000000,"state":"active","ping":68},{"user_id":341,"name":"katten","steam_id":76561198163615254,"connected_time":5031000000000,"state":"active","ping":60},{"user_id":381,"name":"eve has trolled you","steam_id":76561197973182789,"connected_time":2256000000000,"state":"active","ping":53},{"user_id":391,"name":"Kahvi","steam_id":76561198723244199,"connected_time":1917000000000,"state":"active","ping":82},{"user_id":393,"name":"Anri Okita's Massive Milkers","steam_id":76561199186352720,"connected_time":1904000000000,"state":"active","ping":53},{"user_id":390,"name":"vi","steam_id":76561198303147966,"connected_time":1923000000000,"state":"active","ping":47},{"user_id":342,"name":"Laru","steam_id":76561197998838438,"connected_time":5030000000000,"state":"active","ping":85},{"user_id":384,"name":"Bobo","steam_id":76561198052308399,"connected_time":1937000000000,"state":"active","ping":71},{"user_id":345,"name":"‚∏∏aura‚∏∏","steam_id":76561198066258544,"connected_time":5006000000000,"state":"active","ping":60},{"user_id":379,"name":"ein","steam_id":76561198152162834,"connected_time":2357000000000,"state":"active","ping":103}]},{"server_id":114,"name":"Uncletopia | London | 2 | All Maps","name_short":"lon-2","host":"lon-1.uk.uncletopia.com","port":27025,"enabled":true,"region":"eu","cc":"gb","latitude":51.509865,"longitude":-0.118092,"reserved":0,"last_update":"0001-01-01T00:00:00Z","name_a2s":"Uncletopia | London | 2 | All Maps","protocol":17,"map":"cp_gorge","folder":"tf","game":"Team Fortress","app_id":440,"player_count":0,"max_players":24,"Bots":0,"server_type":"Dedicated","server_os":"Linux","password":true,"vac":true,"version":"7961495","steam_id":85568392924470941,"keywords":["cp","nocrits","nodmgspread","uncletopia"],"game_id":440,"stv_port":27026,"stv_name":"Uncletopia | London | 2 | All Maps | STV","players":null},{"server_id":320,"name":"Uncletopia | London | 3 | All Maps","name_short":"lon-3","host":"lon-1.uk.uncletopia.com","port":27035,"enabled":true,"region":"eu","cc":"gb","latitude":51.509865,"longitude":-0.118092,"reserved":0,"last_update":"0001-01-01T00:00:00Z","name_a2s":"Uncletopia | London | 3 | All Maps","protocol":17,"map":"pl_swiftwater_final1","folder":"tf","game":"Team Fortress","app_id":440,"player_count":24,"max_players":24,"Bots":0,"server_type":"Dedicated","server_os":"Linux","password":true,"vac":true,"version":"7961495","steam_id":85568392924510192,"keywords":["nocrits","nodmgspread","payload","uncletopia"],"game_id":440,"stv_port":27036,"stv_name":"Uncletopia | London | 3 | All Maps | STV","players":[{"user_id":433,"name":"Axord","steam_id":76561199289652176,"connected_time":23000000000,"state":"active","ping":55},{"user_id":426,"name":"generic alias","steam_id":76561198271607226,"connected_time":337000000000,"state":"active","ping":92},{"user_id":358,"name":"IHaveConsumed50KmofMeth","steam_id":76561199221172552,"connected_time":4551000000000,"state":"active","ping":58},{"user_id":333,"name":"Assassin+","steam_id":76561197994310420,"connected_time":6251000000000,"state":"active","ping":68},{"user_id":399,"name":"ramedlaV^^","steam_id":76561198074352339,"connected_time":1359000000000,"state":"active","ping":71},{"user_id":427,"name":"lord-carlos","steam_id":76561198025150761,"connected_time":159000000000,"state":"active","ping":64},{"user_id":417,"name":"bean","steam_id":76561198161013815,"connected_time":865000000000,"state":"active","ping":49},{"user_id":400,"name":"Random Bagel","steam_id":76561198047213821,"connected_time":1354000000000,"state":"active","ping":67},{"user_id":419,"name":"Carrot (real)","steam_id":76561198139404261,"connected_time":832000000000,"state":"active","ping":39},{"user_id":346,"name":"The Spookster","steam_id":76561198122072252,"connected_time":5342000000000,"state":"active","ping":60},{"user_id":422,"name":"Kekeke","steam_id":76561198063672270,"connected_time":607000000000,"state":"active","ping":97},{"user_id":335,"name":"marvi444","steam_id":76561198431534139,"connected_time":6131000000000,"state":"active","ping":57},{"user_id":420,"name":"Maximilian1359","steam_id":76561198152439608,"connected_time":798000000000,"state":"active","ping":61},{"user_id":428,"name":"zvekan","steam_id":76561198381101196,"connected_time":139000000000,"state":"active","ping":73},{"user_id":429,"name":"aga scar","steam_id":76561198150060767,"connected_time":116000000000,"state":"active","ping":60},{"user_id":416,"name":"SuntanPikachu","steam_id":76561198121242476,"connected_time":1070000000000,"state":"active","ping":55},{"user_id":384,"name":"dumo dumo","steam_id":76561198346638308,"connected_time":2716000000000,"state":"active","ping":46},{"user_id":432,"name":"MUN^SA","steam_id":76561198389852292,"connected_time":41000000000,"state":"active","ping":119},{"user_id":407,"name":"Centip√©ter","steam_id":76561198060375088,"connected_time":1297000000000,"state":"active","ping":72},{"user_id":423,"name":"Balling","steam_id":76561198240320806,"connected_time":446000000000,"state":"active","ping":75},{"user_id":430,"name":"jeff","steam_id":76561198272815746,"connected_time":103000000000,"state":"active","ping":56},{"user_id":411,"name":"CaptainMac","steam_id":76561198273156139,"connected_time":1259000000000,"state":"active","ping":50},{"user_id":431,"name":"(1) TSM Garp","steam_id":76561198261795972,"connected_time":79000000000,"state":"active","ping":66},{"user_id":425,"name":"LiterallyRyanGosling","steam_id":76561199017856691,"connected_time":360000000000,"state":"active","ping":51}]},{"server_id":321,"name":"Uncletopia | London | 4 | All Maps","name_short":"lon-4","host":"lon-1.uk.uncletopia.com","port":27045,"enabled":true,"region":"eu","cc":"gb","latitude":51.509865,"longitude":-0.118092,"reserved":0,"last_update":"0001-01-01T00:00:00Z","name_a2s":"Uncletopia | London | 4 | All Maps","protocol":17,"map":"pl_frontier_final","folder":"tf","game":"Team Fortress","app_id":440,"player_count":24,"max_players":24,"Bots":0,"server_type":"Dedicated","server_os":"Linux","password":true,"vac":true,"version":"7961495","steam_id":85568392924510193,"keywords":["nocrits","nodmgspread","payload","uncletopia"],"game_id":440,"stv_port":27046,"stv_name":"Uncletopia | London | 4 | All Maps | STV","players":[{"user_id":414,"name":"SirClyan","steam_id":76561199196651938,"connected_time":1566000000000,"state":"active","ping":67},{"user_id":418,"name":"Tusho","steam_id":76561198115447383,"connected_time":1000000000000,"state":"active","ping":83},{"user_id":375,"name":"Largo","steam_id":76561198844368927,"connected_time":4655000000000,"state":"active","ping":57},{"user_id":423,"name":"H-say","steam_id":76561198177400362,"connected_time":810000000000,"state":"active","ping":90},{"user_id":428,"name":"KnugenIV","steam_id":76561198127091993,"connected_time":62000000000,"state":"active","ping":60},{"user_id":360,"name":"Bonca","steam_id":76561198137503531,"connected_time":5374000000000,"state":"active","ping":319},{"user_id":349,"name":"nafaszom","steam_id":76561198091175167,"connected_time":5999000000000,"state":"active","ping":74},{"user_id":417,"name":"syms","steam_id":76561198066679812,"connected_time":1016000000000,"state":"active","ping":71},{"user_id":343,"name":"Femto","steam_id":76561198044307112,"connected_time":6192000000000,"state":"active","ping":70},{"user_id":377,"name":"lulu","steam_id":76561199147764133,"connected_time":4614000000000,"state":"active","ping":68},{"user_id":430,"name":"RedCo","steam_id":76561198335366889,"connected_time":26000000000,"state":"active","ping":152},{"user_id":416,"name":"System","steam_id":76561199442503973,"connected_time":1185000000000,"state":"active","ping":57},{"user_id":386,"name":"ducks","steam_id":76561198166148685,"connected_time":3937000000000,"state":"active","ping":33},{"user_id":368,"name":"Dont Rely on me, im very bad","steam_id":76561198362116755,"connected_time":4971000000000,"state":"active","ping":180},{"user_id":413,"name":"Pimpin' \u0026 Blimpin'","steam_id":76561198326776107,"connected_time":1698000000000,"state":"active","ping":99},{"user_id":426,"name":"lunaire","steam_id":76561198163344452,"connected_time":314000000000,"state":"active","ping":104},{"user_id":427,"name":"dopamine overdose","steam_id":76561199032511302,"connected_time":285000000000,"state":"active","ping":105},{"user_id":383,"name":"flick","steam_id":76561198083505031,"connected_time":4074000000000,"state":"active","ping":37},{"user_id":384,"name":"Big Mean Muther Hubbard","steam_id":76561199223016965,"connected_time":4042000000000,"state":"active","ping":49},{"user_id":419,"name":"This And Gauge","steam_id":76561198051852765,"connected_time":993000000000,"state":"active","ping":75},{"user_id":420,"name":"night.s","steam_id":76561198326287823,"connected_time":983000000000,"state":"active","ping":75},{"user_id":388,"name":"Tort","steam_id":76561198329646769,"connected_time":3883000000000,"state":"active","ping":58},{"user_id":421,"name":"kurd","steam_id":76561198116530769,"connected_time":888000000000,"state":"active","ping":94},{"user_id":382,"name":"Xx_Piss_xX","steam_id":76561199368762224,"connected_time":4220000000000,"state":"active","ping":112}]},{"server_id":21,"name":"Uncletopia | London | 5 | All Maps","name_short":"lon-5","host":"lon-1.uk.uncletopia.com","port":27055,"enabled":true,"region":"eu","cc":"gb","latitude":51.509865,"longitude":-0.118092,"reserved":0,"last_update":"0001-01-01T00:00:00Z","name_a2s":"Uncletopia | London | 5 | All Maps","protocol":17,"map":"pl_frontier_final","folder":"tf","game":"Team Fortress","app_id":440,"player_count":24,"max_players":24,"Bots":0,"server_type":"Dedicated","server_os":"Linux","password":true,"vac":true,"version":"7961495","steam_id":85568392924742829,"keywords":["nocrits","nodmgspread","payload","uncletopia"],"game_id":440,"stv_port":27056,"stv_name":"Uncletopia | London | 5 | All Maps | STV","players":[{"user_id":196,"name":"CL! Meterora","steam_id":76561198092422131,"connected_time":571000000000,"state":"active","ping":54},{"user_id":206,"name":"Supercoxylac","steam_id":76561198376300138,"connected_time":292000000000,"state":"active","ping":67},{"user_id":139,"name":"Summer ‚ô•","steam_id":76561198047723907,"connected_time":3974000000000,"state":"active","ping":43},{"user_id":174,"name":"zinzyk","steam_id":76561198128011822,"connected_time":2678000000000,"state":"active","ping":67},{"user_id":198,"name":"Collet-Gaming69","steam_id":76561198335486000,"connected_time":544000000000,"state":"active","ping":60},{"user_id":199,"name":"‚ô° Cursed ‚ô°","steam_id":76561199161458959,"connected_time":541000000000,"state":"active","ping":153},{"user_id":88,"name":"Grillem Dafoe","steam_id":76561198306874574,"connected_time":7496000000000,"state":"active","ping":63},{"user_id":207,"name":"mesŒª","steam_id":76561198324582918,"connected_time":12000000000,"state":"spawning","ping":101},{"user_id":202,"name":"Sir Cauterize","steam_id":76561198047079422,"connected_time":513000000000,"state":"active","ping":48},{"user_id":203,"name":"rajAs","steam_id":76561198035928111,"connected_time":496000000000,"state":"active","ping":83},{"user_id":92,"name":"Ullr","steam_id":76561198140547483,"connected_time":7402000000000,"state":"active","ping":42},{"user_id":197,"name":"sir.weeb","steam_id":76561198090351858,"connected_time":567000000000,"state":"active","ping":49},{"user_id":169,"name":"Snd","steam_id":76561198010816408,"connected_time":2789000000000,"state":"active","ping":105},{"user_id":129,"name":"gamerkiddo","steam_id":76561198047380360,"connected_time":5640000000000,"state":"active","ping":54},{"user_id":181,"name":"dafydd","steam_id":76561198052200325,"connected_time":2140000000000,"state":"active","ping":88},{"user_id":204,"name":"Butt","steam_id":76561198115496457,"connected_time":485000000000,"state":"active","ping":40},{"user_id":205,"name":"Oak","steam_id":76561198067315672,"connected_time":468000000000,"state":"active","ping":45},{"user_id":164,"name":"Dankstein","steam_id":76561198122662378,"connected_time":3018000000000,"state":"active","ping":93},{"user_id":166,"name":"RIBS GROW BACK","steam_id":76561198123659806,"connected_time":2912000000000,"state":"active","ping":94},{"user_id":185,"name":"laker brady","steam_id":76561198890409949,"connected_time":2131000000000,"state":"active","ping":96},{"user_id":187,"name":"doctor sex","steam_id":76561198029044617,"connected_time":1583000000000,"state":"active","ping":50},{"user_id":195,"name":"Fallen_Scholar","steam_id":76561198055468709,"connected_time":700000000000,"state":"active","ping":59},{"user_id":188,"name":"joosssh","steam_id":76561198072130805,"connected_time":1579000000000,"state":"active","ping":59},{"user_id":155,"name":"gaming gamer","steam_id":76561198212488780,"connected_time":3688000000000,"state":"active","ping":67}]},{"server_id":22,"name":"Uncletopia | London | 6 | All Maps","name_short":"lon-6","host":"lon-1.uk.uncletopia.com","port":27065,"enabled":true,"region":"eu","cc":"gb","latitude":51.509865,"longitude":-0.118092,"reserved":0,"last_update":"0001-01-01T00:00:00Z","name_a2s":"Uncletopia | London | 6 | All Maps","protocol":17,"map":"pl_upward","folder":"tf","game":"Team Fortress","app_id":440,"player_count":0,"max_players":24,"Bots":0,"server_type":"Dedicated","server_os":"Linux","password":true,"vac":true,"version":"7961495","steam_id":85568392924742830,"keywords":["nocrits","nodmgspread","payload","uncletopia"],"game_id":440,"stv_port":27066,"stv_name":"Uncletopia | London | 6 | All Maps | STV","players":null},{"server_id":40,"name":"Uncletopia | London | 7 | Stopwatch","name_short":"lon-7","host":"lon-1.uk.uncletopia.com","port":27075,"enabled":true,"region":"eu","cc":"gb","latitude":51.509865,"longitude":-0.118092,"reserved":0,"last_update":"0001-01-01T00:00:00Z","name_a2s":"Uncletopia | London | 7 | Stopwatch","protocol":17,"map":"cp_gullywash_final1","folder":"tf","game":"Team Fortress","app_id":440,"player_count":0,"max_players":24,"Bots":0,"server_type":"Dedicated","server_os":"Linux","password":true,"vac":true,"version":"7961495","steam_id":85568392924964314,"keywords":["cp","nocrits","nodmgspread","uncletopia"],"game_id":440,"stv_port":27076,"stv_name":"Uncletopia | London | 7 | Stopwatch | STV","players":null},{"server_id":41,"name":"Uncletopia | London | 8 | Community","name_short":"lon-8","host":"lon-1.uk.uncletopia.com","port":27085,"enabled":true,"region":"eu","cc":"gb","latitude":51.509865,"longitude":-0.118092,"reserved":0,"last_update":"0001-01-01T00:00:00Z","name_a2s":"Uncletopia | London | 8 | Community","protocol":17,"map":"workshop/cp_brew_b4.ugc2962755338","folder":"tf","game":"Team Fortress","app_id":440,"player_count":0,"max_players":24,"Bots":0,"server_type":"Dedicated","server_os":"Linux","password":true,"vac":true,"version":"7961495","steam_id":85568392924964315,"keywords":["cp","nocrits","nodmgspread","uncletopia"],"game_id":440,"stv_port":27086,"stv_name":"Uncletopia | London | 8 | Community | STV","players":null},{"server_id":300,"name":"Uncletopia | Montr√©al | 1 | One Thousand Uncles","name_short":"mtl-1","host":"mtl-1.ca.uncletopia.com","port":27015,"enabled":true,"region":"us-east","cc":"ca","latitude":45.50889,"longitude":-73.56167,"reserved":0,"last_update":"0001-01-01T00:00:00Z","name_a2s":"Uncletopia | Montr√©al | 1 | One Thousand Uncles","protocol":17,"map":"cp_mossrock","folder":"tf","game":"Team Fortress","app_id":440,"player_count":30,"max_players":32,"Bots":20,"server_type":"Dedicated","server_os":"Linux","password":true,"vac":true,"version":"7961495","steam_id":85568392924500087,"keywords":["alltalk","bots","cp","danepve","increased_maxplayers","norespawntime","uncletopia"],"game_id":440,"stv_port":0,"stv_name":"","players":[{"user_id":135,"name":"Bo","steam_id":76561198163606422,"connected_time":742000000000,"state":"active","ping":121},{"user_id":137,"name":"Roberbo","steam_id":76561198188158589,"connected_time":704000000000,"state":"active","ping":85},{"user_id":136,"name":"hammythegreat #SaveTF2","steam_id":76561198079526946,"connected_time":740000000000,"state":"active","ping":93},{"user_id":131,"name":"AlbinoRhino ‚òÆ","steam_id":76561198005894818,"connected_time":1242000000000,"state":"active","ping":116},{"user_id":116,"name":"The Last Thing","steam_id":76561198047192080,"connected_time":3229000000000,"state":"active","ping":97},{"user_id":132,"name":"auto accident","steam_id":76561198353460257,"connected_time":1187000000000,"state":"active","ping":139},{"user_id":138,"name":"Hills","steam_id":76561198905885421,"connected_time":347000000000,"state":"active","ping":64},{"user_id":120,"name":"Boy Killer","steam_id":76561198083265858,"connected_time":3003000000000,"state":"active","ping":151},{"user_id":123,"name":"TUROK","steam_id":76561199231065766,"connected_time":2929000000000,"state":"active","ping":140},{"user_id":124,"name":"Baby Killer","steam_id":76561197977822608,"connected_time":2661000000000,"state":"active","ping":140}]},{"server_id":301,"name":"Uncletopia | Montr√©al | 2 | One Thousand Uncles","name_short":"mtl-2","host":"mtl-1.ca.uncletopia.com","port":27025,"enabled":true,"region":"us-east","cc":"ca","latitude":45.50889,"longitude":-73.56167,"reserved":0,"last_update":"0001-01-01T00:00:00Z","name_a2s":"Uncletopia | Montr√©al | 2 | One Thousand Uncles","protocol":17,"map":"cp_mossrock","folder":"tf","game":"Team Fortress","app_id":440,"player_count":0,"max_players":32,"Bots":0,"server_type":"Dedicated","server_os":"Linux","password":true,"vac":true,"version":"7961495","steam_id":85568392924500088,"keywords":["alltalk","cp","danepve","increased_maxplayers","norespawntime","uncletopia"],"game_id":440,"stv_port":0,"stv_name":"","players":null},{"server_id":302,"name":"Uncletopia | Montr√©al | 3 | One Thousand Uncles","name_short":"mtl-3","host":"mtl-1.ca.uncletopia.com","port":27035,"enabled":true,"region":"us-east","cc":"ca","latitude":45.50889,"longitude":-73.56167,"reserved":0,"last_update":"0001-01-01T00:00:00Z","name_a2s":"Uncletopia | Montr√©al | 3 | One Thousand Uncles","protocol":17,"map":"cp_dustbowl","folder":"tf","game":"Team Fortress","app_id":440,"player_count":0,"max_players":32,"Bots":0,"server_type":"Dedicated","server_os":"Linux","password":true,"vac":true,"version":"7961495","steam_id":85568392924500089,"keywords":["alltalk","cp","danepve","increased_maxplayers","norespawntime","uncletopia"],"game_id":440,"stv_port":0,"stv_name":"","players":null},{"server_id":13,"name":"Uncletopia | New York City | 1 | All Maps","name_short":"nyc-1","host":"nyc-1.us.uncletopia.com","port":27015,"enabled":true,"region":"us-east","cc":"us","latitude":40.73061,"longitude":-73.93524,"reserved":0,"last_update":"0001-01-01T00:00:00Z","name_a2s":"Uncletopia | New York City | 1 | All Maps","protocol":17,"map":"cp_granary","folder":"tf","game":"Team Fortress","app_id":440,"player_count":24,"max_players":24,"Bots":0,"server_type":"Dedicated","server_os":"Linux","password":true,"vac":true,"version":"7961495","steam_id":85568392924469993,"keywords":["cp","nocrits","nodmgspread","uncletopia"],"game_id":440,"stv_port":27016,"stv_name":"Uncletopia | New York City | 1 | All Maps | STV","players":[{"user_id":380,"name":"opps fucked up his do","steam_id":76561198803704016,"connected_time":906000000000,"state":"active","ping":78},{"user_id":356,"name":"BaguetteThief","steam_id":76561197962257656,"connected_time":2061000000000,"state":"active","ping":62},{"user_id":308,"name":"GummybearKillr","steam_id":76561198031235750,"connected_time":5790000000000,"state":"active","ping":54},{"user_id":385,"name":"Top Frog","steam_id":76561198072793446,"connected_time":498000000000,"state":"active","ping":89},{"user_id":387,"name":"The Nikocado Enjoyer","steam_id":76561198263154374,"connected_time":464000000000,"state":"active","ping":49},{"user_id":389,"name":"stormfoam","steam_id":76561198936871387,"connected_time":341000000000,"state":"active","ping":69},{"user_id":379,"name":"bhurd","steam_id":76561198119405640,"connected_time":974000000000,"state":"active","ping":46},{"user_id":343,"name":"Bigsumoslammer","steam_id":76561198044505076,"connected_time":3003000000000,"state":"active","ping":37},{"user_id":390,"name":"Ramen","steam_id":76561198152762458,"connected_time":303000000000,"state":"active","ping":69},{"user_id":388,"name":"MR.JOHNSONDIKCOOMINGS","steam_id":76561199127498304,"connected_time":458000000000,"state":"active","ping":98},{"user_id":359,"name":"Toast","steam_id":76561199207957224,"connected_time":2008000000000,"state":"active","ping":86},{"user_id":352,"name":"‚ô©Karmism‚ô©","steam_id":76561199453410299,"connected_time":2310000000000,"state":"active","ping":88},{"user_id":396,"name":"EPICAlbert777","steam_id":76561198093718909,"connected_time":208000000000,"state":"active","ping":63},{"user_id":363,"name":"Beepleton The 3rd","steam_id":76561198081466207,"connected_time":1953000000000,"state":"active","ping":100},{"user_id":391,"name":"Ash‡∂û","steam_id":76561198845436145,"connected_time":271000000000,"state":"active","ping":54},{"user_id":341,"name":"Jasmine Rice","steam_id":76561198163163590,"connected_time":3503000000000,"state":"active","ping":85},{"user_id":392,"name":"SlowBisbalito","steam_id":76561199027366888,"connected_time":255000000000,"state":"active","ping":123},{"user_id":393,"name":"Miner2495","steam_id":76561198445904523,"connected_time":230000000000,"state":"active","ping":63},{"user_id":382,"name":"Ace Attorney","steam_id":76561198133011705,"connected_time":729000000000,"state":"active","ping":41},{"user_id":383,"name":"Mexican Batman","steam_id":76561198121641399,"connected_time":511000000000,"state":"active","ping":48},{"user_id":394,"name":"deez nut (s)","steam_id":76561198105668970,"connected_time":227000000000,"state":"active","ping":104},{"user_id":384,"name":":o","steam_id":76561198964101426,"connected_time":511000000000,"state":"active","ping":37},{"user_id":397,"name":"Kduck","steam_id":76561198092171095,"connected_time":104000000000,"state":"active","ping":45},{"user_id":307,"name":"Sinister Sandwich","steam_id":76561198142327400,"connected_time":5845000000000,"state":"active","ping":54}]},{"server_id":14,"name":"Uncletopia | New York City | 2 | All Maps","name_short":"nyc-2","host":"nyc-1.us.uncletopia.com","port":27025,"enabled":true,"region":"us-east","cc":"us","latitude":40.73061,"longitude":-73.93524,"reserved":0,"last_update":"0001-01-01T00:00:00Z","name_a2s":"Uncletopia | New York City | 2 | All Maps","protocol":17,"map":"cp_snakewater_final1","folder":"tf","game":"Team Fortress","app_id":440,"player_count":3,"max_players":24,"Bots":0,"server_type":"Dedicated","server_os":"Linux","password":true,"vac":true,"version":"7961495","steam_id":85568392924469994,"keywords":["cp","nocrits","nodmgspread","uncletopia"],"game_id":440,"stv_port":27026,"stv_name":"Uncletopia | New York City | 2 | All Maps | STV","players":[{"user_id":50,"name":"Queen Roxanne","steam_id":76561199013256903,"connected_time":454000000000,"state":"active","ping":48},{"user_id":51,"name":"Goofy Goober","steam_id":76561199393410619,"connected_time":405000000000,"state":"active","ping":53},{"user_id":52,"name":"menonamed","steam_id":76561198199564382,"connected_time":6000000000,"state":"spawning","ping":56}]},{"server_id":15,"name":"Uncletopia | New York City | 3 | Stopwatch","name_short":"nyc-3","host":"nyc-1.us.uncletopia.com","port":27035,"enabled":true,"region":"us-east","cc":"us","latitude":40.73061,"longitude":-73.93524,"reserved":0,"last_update":"0001-01-01T00:00:00Z","name_a2s":"Uncletopia | New York City | 3 | Stopwatch","protocol":17,"map":"workshop/cp_reckoner_rc6.ugc674719999","folder":"tf","game":"Team Fortress","app_id":440,"player_count":0,"max_players":24,"Bots":0,"server_type":"Dedicated","server_os":"Linux","password":true,"vac":true,"version":"7961495","steam_id":85568392924742820,"keywords":["cp","nocrits","nodmgspread","uncletopia"],"game_id":440,"stv_port":27036,"stv_name":"Uncletopia | New York City | 3 | Stopwatch | STV","players":null},{"server_id":16,"name":"Uncletopia | New York City | 4 | Community","name_short":"nyc-4","host":"nyc-1.us.uncletopia.com","port":27045,"enabled":true,"region":"us-east","cc":"us","latitude":40.73061,"longitude":-73.93524,"reserved":0,"last_update":"0001-01-01T00:00:00Z","name_a2s":"Uncletopia | New York City | 4 | Community","protocol":17,"map":"workshop/koth_kemptown_rc1.ugc767410655","folder":"tf","game":"Team Fortress","app_id":440,"player_count":0,"max_players":24,"Bots":0,"server_type":"Dedicated","server_os":"Linux","password":true,"vac":true,"version":"7961495","steam_id":85568392924742821,"keywords":["cp","nocrits","nodmgspread","uncletopia"],"game_id":440,"stv_port":27046,"stv_name":"Uncletopia | New York City | 4 | Community | STV","players":null},{"server_id":142,"name":"Uncletopia | S√£o Paulo | 1 | All Maps","name_short":"sao-1","host":"sao-1.br.uncletopia.com","port":27015,"enabled":true,"region":"sa","cc":"br","latitude":-23.533773,"longitude":-46.62529,"reserved":0,"last_update":"0001-01-01T00:00:00Z","name_a2s":"Uncletopia | S√£o Paulo | 1 | All Maps","protocol":17,"map":"pl_barnblitz","folder":"tf","game":"Team Fortress","app_id":440,"player_count":0,"max_players":24,"Bots":0,"server_type":"Dedicated","server_os":"Linux","password":true,"vac":true,"version":"7961495","steam_id":85568392924469996,"keywords":["nocrits","nodmgspread","payload","uncletopia"],"game_id":440,"stv_port":27016,"stv_name":"Uncletopia | S√£o Paulo | 1 | All Maps | STV","players":null},{"server_id":143,"name":"Uncletopia | S√£o Paulo | 2 | Community","name_short":"sao-2","host":"sao-2.br.uncletopia.com","port":27015,"enabled":true,"region":"sa","cc":"br","latitude":-23.533773,"longitude":-46.62529,"reserved":0,"last_update":"0001-01-01T00:00:00Z","name_a2s":"Uncletopia | S√£o Paulo | 2 | Community","protocol":17,"map":"workshop/koth_slaughter_rc1.ugc1712845210","folder":"tf","game":"Team Fortress","app_id":440,"player_count":0,"max_players":24,"Bots":0,"server_type":"Dedicated","server_os":"Linux","password":true,"vac":true,"version":"7961495","steam_id":85568392924485349,"keywords":["cp","nocrits","nodmgspread","uncletopia"],"game_id":440,"stv_port":27016,"stv_name":"Uncletopia | S√£o Paulo | 2 | Community | STV","players":null},{"server_id":7,"name":"Uncletopia | Seattle | 1 | All Maps","name_short":"sea-1","host":"sea-1.us.uncletopia.com","port":27015,"enabled":true,"region":"us-west","cc":"us","latitude":47.608013,"longitude":-122.33517,"reserved":0,"last_update":"0001-01-01T00:00:00Z","name_a2s":"Uncletopia | Seattle | 1 | All Maps","protocol":17,"map":"cp_dustbowl","folder":"tf","game":"Team Fortress","app_id":440,"player_count":24,"max_players":24,"Bots":0,"server_type":"Dedicated","server_os":"Linux","password":true,"vac":true,"version":"7961495","steam_id":85568392924469997,"keywords":["cp","nocrits","nodmgspread","uncletopia"],"game_id":440,"stv_port":27016,"stv_name":"Uncletopia | Seattle | 1 | All Maps | STV","players":[{"user_id":305,"name":"Grill Skills","steam_id":76561198053575147,"connected_time":229000000000,"state":"active","ping":62},{"user_id":287,"name":"Daddy Topps","steam_id":76561198203594332,"connected_time":2891000000000,"state":"active","ping":41},{"user_id":306,"name":"yeah hes cheating...","steam_id":76561197991632493,"connected_time":228000000000,"state":"active","ping":51},{"user_id":294,"name":"SoCal Kaizer","steam_id":76561198334361081,"connected_time":1769000000000,"state":"active","ping":94},{"user_id":258,"name":"felon","steam_id":76561199100342013,"connected_time":5331000000000,"state":"active","ping":75},{"user_id":293,"name":"Moonlighter","steam_id":76561198325526945,"connected_time":1987000000000,"state":"active","ping":102},{"user_id":311,"name":"Engynier Gaimeang (F2P)","steam_id":76561199013888779,"connected_time":49000000000,"state":"active","ping":75},{"user_id":272,"name":"Fh","steam_id":76561198000903511,"connected_time":4197000000000,"state":"active","ping":60},{"user_id":290,"name":"rad killl raccoon","steam_id":76561198980975595,"connected_time":2181000000000,"state":"active","ping":55},{"user_id":270,"name":"Preston","steam_id":76561198255721392,"connected_time":4281000000000,"state":"active","ping":109},{"user_id":291,"name":"Cloud","steam_id":76561198272454184,"connected_time":2025000000000,"state":"active","ping":168},{"user_id":238,"name":"jer","steam_id":76561198148235230,"connected_time":6135000000000,"state":"active","ping":77},{"user_id":300,"name":"Whimsy!","steam_id":76561197989578836,"connected_time":787000000000,"state":"active","ping":70},{"user_id":308,"name":"Raccoon","steam_id":76561199189494190,"connected_time":183000000000,"state":"active","ping":140},{"user_id":296,"name":"Shah","steam_id":76561198047508851,"connected_time":1304000000000,"state":"active","ping":53},{"user_id":253,"name":"Mr8bittripper","steam_id":76561198133894229,"connected_time":5595000000000,"state":"active","ping":44},{"user_id":279,"name":"RiceFarmer","steam_id":76561198869180993,"connected_time":3596000000000,"state":"active","ping":45},{"user_id":234,"name":"Dongus","steam_id":76561197979056451,"connected_time":6380000000000,"state":"active","ping":47},{"user_id":303,"name":"depleted uranium snorter","steam_id":76561198844273999,"connected_time":239000000000,"state":"active","ping":44},{"user_id":302,"name":"Hazel :3","steam_id":76561199247095754,"connected_time":344000000000,"state":"active","ping":75},{"user_id":309,"name":"Soviet Potato","steam_id":76561198068546113,"connected_time":182000000000,"state":"active","ping":88},{"user_id":299,"name":"\u003c blank \u003e","steam_id":76561198097188001,"connected_time":1237000000000,"state":"active","ping":45},{"user_id":310,"name":"Campus 80 Crop","steam_id":76561198068672882,"connected_time":159000000000,"state":"active","ping":62},{"user_id":268,"name":"SanitysEdge","steam_id":76561198130732813,"connected_time":4507000000000,"state":"active","ping":72}]},{"server_id":119,"name":"Uncletopia | Seattle | 2 | All Maps","name_short":"sea-2","host":"sea-1.us.uncletopia.com","port":27025,"enabled":true,"region":"us-west","cc":"us","latitude":47.608013,"longitude":-122.33517,"reserved":0,"last_update":"0001-01-01T00:00:00Z","name_a2s":"Uncletopia | Seattle | 2 | All Maps","protocol":17,"map":"pl_pier","folder":"tf","game":"Team Fortress","app_id":440,"player_count":12,"max_players":24,"Bots":0,"server_type":"Dedicated","server_os":"Linux","password":true,"vac":true,"version":"7961495","steam_id":85568392924469998,"keywords":["nocrits","nodmgspread","payload","uncletopia"],"game_id":440,"stv_port":27026,"stv_name":"Uncletopia | Seattle | 2 | All Maps | STV","players":[{"user_id":18,"name":"DeadLemm","steam_id":76561198107380040,"connected_time":1825000000000,"state":"active","ping":57},{"user_id":15,"name":"Bobletoob","steam_id":76561199184464900,"connected_time":2071000000000,"state":"active","ping":76},{"user_id":32,"name":"Imitation Caucasian","steam_id":76561198320536166,"connected_time":175000000000,"state":"active","ping":90},{"user_id":20,"name":"CaptainMidnight002","steam_id":76561198394463812,"connected_time":914000000000,"state":"active","ping":75},{"user_id":21,"name":"miguelrodriguez2013","steam_id":76561198269253587,"connected_time":854000000000,"state":"active","ping":60},{"user_id":22,"name":"dearender the burger fan","steam_id":76561199427644498,"connected_time":807000000000,"state":"active","ping":64},{"user_id":33,"name":"too many fives","steam_id":76561198128465482,"connected_time":105000000000,"state":"active","ping":59},{"user_id":34,"name":"üÖúüÖîüÖîüÖöüÖ¢üÖ£üÖî\ufffd\ufffd\ufffd","steam_id":76561197999748343,"connected_time":56000000000,"state":"active","ping":84},{"user_id":25,"name":"vacachimuela","steam_id":76561198297332421,"connected_time":668000000000,"state":"active","ping":64},{"user_id":35,"name":"Jade Greenleaf","steam_id":76561198304845413,"connected_time":52000000000,"state":"active","ping":112},{"user_id":28,"name":"DJpocalypse","steam_id":76561199230125964,"connected_time":519000000000,"state":"active","ping":136},{"user_id":36,"name":"jdm","steam_id":76561199497603020,"connected_time":29000000000,"state":"spawning","ping":78}]},{"server_id":406,"name":"Uncletopia | Seattle | 3 | Stopwatch","name_short":"sea-3","host":"sea-1.us.uncletopia.com","port":27035,"enabled":true,"region":"us-west","cc":"us","latitude":47.608013,"longitude":-122.33517,"reserved":0,"last_update":"0001-01-01T00:00:00Z","name_a2s":"Uncletopia | Seattle | 3 | Stopwatch","protocol":17,"map":"workshop/pl_vigil_rc10.ugc1266210012","folder":"tf","game":"Team Fortress","app_id":440,"player_count":0,"max_players":24,"Bots":0,"server_type":"Dedicated","server_os":"Linux","password":true,"vac":true,"version":"7961495","steam_id":85568392924515217,"keywords":["nocrits","nodmgspread","payload","uncletopia"],"game_id":440,"stv_port":27036,"stv_name":"Uncletopia | Seattle | 3 | Stopwatch | STV","players":null},{"server_id":17,"name":"Uncletopia | San Francisco | 1 | All Maps","name_short":"sfo-1","host":"sfo-1.us.uncletopia.com","port":27015,"enabled":true,"region":"us-west","cc":"us","latitude":37.77397,"longitude":-122.4313,"reserved":0,"last_update":"0001-01-01T00:00:00Z","name_a2s":"Uncletopia | San Francisco | 1 | All Maps","protocol":17,"map":"pl_swiftwater_final1","folder":"tf","game":"Team Fortress","app_id":440,"player_count":1,"max_players":24,"Bots":0,"server_type":"Dedicated","server_os":"Linux","password":true,"vac":true,"version":"7961495","steam_id":85568392924469999,"keywords":["nocrits","nodmgspread","payload","uncletopia"],"game_id":440,"stv_port":27016,"stv_name":"Uncletopia | San Francisco | 1 | All Maps | STV","players":[{"user_id":6,"name":"spicywaffles","steam_id":76561199251752693,"connected_time":108000000000,"state":"active","ping":53}]},{"server_id":18,"name":"Uncletopia | San Francisco | 2 | All Maps","name_short":"sfo-2","host":"sfo-1.us.uncletopia.com","port":27025,"enabled":true,"region":"us-west","cc":"us","latitude":37.77397,"longitude":-122.4313,"reserved":0,"last_update":"0001-01-01T00:00:00Z","name_a2s":"Uncletopia | San Francisco | 2 | All Maps","protocol":17,"map":"pl_swiftwater_final1","folder":"tf","game":"Team Fortress","app_id":440,"player_count":0,"max_players":24,"Bots":0,"server_type":"Dedicated","server_os":"Linux","password":true,"vac":true,"version":"7961495","steam_id":85568392924470000,"keywords":["nocrits","nodmgspread","payload","uncletopia"],"game_id":440,"stv_port":27026,"stv_name":"Uncletopia | San Francisco | 2 | All Maps | STV","players":null},{"server_id":19,"name":"Uncletopia | San Francisco | 3 | Stopwatch","name_short":"sfo-3","host":"sfo-1.us.uncletopia.com","port":27035,"enabled":true,"region":"us-west","cc":"us","latitude":37.77397,"longitude":-122.4313,"reserved":0,"last_update":"0001-01-01T00:00:00Z","name_a2s":"Uncletopia | San Francisco | 3 | Stopwatch","protocol":17,"map":"workshop/koth_clearcut_b15.ugc2107050255","folder":"tf","game":"Team Fortress","app_id":440,"player_count":0,"max_players":24,"Bots":0,"server_type":"Dedicated","server_os":"Linux","password":true,"vac":true,"version":"7961495","steam_id":85568392924742824,"keywords":["cp","nocrits","nodmgspread","uncletopia"],"game_id":440,"stv_port":27036,"stv_name":"Uncletopia | San Francisco | 3 | Stopwatch | STV","players":null},{"server_id":20,"name":"Uncletopia | San Francisco | 4 | Community","name_short":"sfo-4","host":"sfo-1.us.uncletopia.com","port":27045,"enabled":true,"region":"us-west","cc":"us","latitude":37.77397,"longitude":-122.4313,"reserved":0,"last_update":"0001-01-01T00:00:00Z","name_a2s":"Uncletopia | San Francisco | 4 | Community","protocol":17,"map":"workshop/koth_product_final.ugc454272353","folder":"tf","game":"Team Fortress","app_id":440,"player_count":1,"max_players":24,"Bots":0,"server_type":"Dedicated","server_os":"Linux","password":true,"vac":true,"version":"7961495","steam_id":85568392924742826,"keywords":["cp","nocrits","nodmgspread","uncletopia"],"game_id":440,"stv_port":27046,"stv_name":"Uncletopia | San Francisco | 4 | Community | STV","players":[{"user_id":5,"name":"nanoboosts","steam_id":76561199500861337,"connected_time":35000000000,"state":"spawning","ping":213}]},{"server_id":141,"name":"Uncletopia | Sydney | 1 | All Maps","name_short":"syd-1","host":"syd-1.au.uncletopia.com","port":27015,"enabled":true,"region":"au","cc":"au","latitude":-33.865143,"longitude":151.2099,"reserved":0,"last_update":"0001-01-01T00:00:00Z","name_a2s":"Uncletopia | Sydney | 1 | All Maps","protocol":17,"map":"cp_5gorge","folder":"tf","game":"Team Fortress","app_id":440,"player_count":0,"max_players":24,"Bots":0,"server_type":"Dedicated","server_os":"Linux","password":true,"vac":true,"version":"7961495","steam_id":85568392924470001,"keywords":["cp","nocrits","nodmgspread","uncletopia"],"game_id":440,"stv_port":27016,"stv_name":"Uncletopia | Sydney | 1 | All Maps | STV","players":null},{"server_id":123,"name":"Uncletopia | Sydney | 2 | All Maps","name_short":"syd-2","host":"syd-1.au.uncletopia.com","port":27025,"enabled":true,"region":"au","cc":"au","latitude":-33.865143,"longitude":151.2099,"reserved":0,"last_update":"0001-01-01T00:00:00Z","name_a2s":"Uncletopia | Sydney | 2 | All Maps","protocol":17,"map":"cp_gorge","folder":"tf","game":"Team Fortress","app_id":440,"player_count":0,"max_players":24,"Bots":0,"server_type":"Dedicated","server_os":"Linux","password":true,"vac":true,"version":"7961495","steam_id":85568392924470002,"keywords":["cp","nocrits","nodmgspread","uncletopia"],"game_id":440,"stv_port":27026,"stv_name":"Uncletopia | Sydney | 2 | All Maps | STV","players":null},{"server_id":395,"name":"Uncletopia | Sydney | 3 | All Maps","name_short":"syd-3","host":"syd-1.au.uncletopia.com","port":27035,"enabled":true,"region":"au","cc":"au","latitude":-33.865143,"longitude":151.2099,"reserved":0,"last_update":"0001-01-01T00:00:00Z","name_a2s":"Uncletopia | Sydney | 3 | All Maps","protocol":17,"map":"koth_viaduct","folder":"tf","game":"Team Fortress","app_id":440,"player_count":0,"max_players":24,"Bots":0,"server_type":"Dedicated","server_os":"Linux","password":true,"vac":true,"version":"7961495","steam_id":85568392925194467,"keywords":["cp","nocrits","nodmgspread","uncletopia"],"game_id":440,"stv_port":27036,"stv_name":"Uncletopia | Sydney | 3 | All Maps | STV","players":null},{"server_id":396,"name":"Uncletopia | Sydney | 4 | All Maps","name_short":"syd-4","host":"syd-1.au.uncletopia.com","port":27045,"enabled":true,"region":"au","cc":"au","latitude":-33.865143,"longitude":151.2099,"reserved":0,"last_update":"0001-01-01T00:00:00Z","name_a2s":"Uncletopia | Sydney | 4 | All Maps","protocol":17,"map":"pl_badwater","folder":"tf","game":"Team Fortress","app_id":440,"player_count":0,"max_players":24,"Bots":0,"server_type":"Dedicated","server_os":"Linux","password":true,"vac":true,"version":"7961495","steam_id":85568392925397958,"keywords":["nocrits","nodmgspread","payload","uncletopia"],"game_id":440,"stv_port":27046,"stv_name":"Uncletopia | Sydney | 4 | All Maps | STV","players":null},{"server_id":58,"name":"Uncletopia | Sydney | 5 | Stopwatch","name_short":"syd-5","host":"syd-1.au.uncletopia.com","port":27055,"enabled":true,"region":"au","cc":"au","latitude":-33.865143,"longitude":151.2099,"reserved":0,"last_update":"0001-01-01T00:00:00Z","name_a2s":"Uncletopia | Sydney | 5 | Stopwatch","protocol":17,"map":"koth_highpass","folder":"tf","game":"Team Fortress","app_id":440,"player_count":0,"max_players":24,"Bots":0,"server_type":"Dedicated","server_os":"Linux","password":true,"vac":true,"version":"7961495","steam_id":85568392925397959,"keywords":["cp","nocrits","nodmgspread","uncletopia"],"game_id":440,"stv_port":27056,"stv_name":"Uncletopia | Sydney | 5 | Stopwatch | STV","players":null},{"server_id":59,"name":"Uncletopia | Sydney | 6 | Community","name_short":"syd-6","host":"syd-1.au.uncletopia.com","port":27065,"enabled":true,"region":"au","cc":"au","latitude":-33.865143,"longitude":151.2099,"reserved":0,"last_update":"0001-01-01T00:00:00Z","name_a2s":"Uncletopia | Sydney | 6 | Community","protocol":17,"map":"workshop/koth_soot_final1.ugc2969540689","folder":"tf","game":"Team Fortress","app_id":440,"player_count":0,"max_players":24,"Bots":0,"server_type":"Dedicated","server_os":"Linux","password":true,"vac":true,"version":"7961495","steam_id":85568392925397960,"keywords":["cp","nocrits","nodmgspread","uncletopia"],"game_id":440,"stv_port":27066,"stv_name":"Uncletopia | Sydney | 6 | Community | STV","players":null},{"server_id":49,"name":"Uncletopia | Warsaw | 1 | One Thousand Uncles","name_short":"waw-1","host":"waw-1.pl.uncletopia.com","port":27015,"enabled":true,"region":"eu","cc":"pl","latitude":52.2297,"longitude":21.017532,"reserved":0,"last_update":"0001-01-01T00:00:00Z","name_a2s":"Uncletopia | Warsaw | 1 | One Thousand Uncles","protocol":17,"map":"pl_badwater","folder":"tf","game":"Team Fortress","app_id":440,"player_count":0,"max_players":32,"Bots":0,"server_type":"Dedicated","server_os":"Linux","password":true,"vac":true,"version":"7961495","steam_id":85568392925397850,"keywords":["alltalk","danepve","increased_maxplayers","norespawntime","payload","uncletopia"],"game_id":440,"stv_port":0,"stv_name":"","players":null},{"server_id":50,"name":"Uncletopia | Warsaw | 2 | One Thousand Uncles","name_short":"waw-2","host":"waw-1.pl.uncletopia.com","port":27025,"enabled":true,"region":"eu","cc":"pl","latitude":52.2297,"longitude":21.017532,"reserved":0,"last_update":"0001-01-01T00:00:00Z","name_a2s":"Uncletopia | Warsaw | 2 | One Thousand Uncles","protocol":17,"map":"pl_snowycoast","folder":"tf","game":"Team Fortress","app_id":440,"player_count":32,"max_players":32,"Bots":20,"server_type":"Dedicated","server_os":"Linux","password":true,"vac":true,"version":"7961495","steam_id":85568392925397851,"keywords":["alltalk","bots","danepve","increased_maxplayers","norespawntime","payload","uncletopia"],"game_id":440,"stv_port":0,"stv_name":"","players":[{"user_id":159,"name":"MC_Void_0","steam_id":76561199148827012,"connected_time":2254000000000,"state":"active","ping":221},{"user_id":149,"name":"Little Spy","steam_id":76561199238736286,"connected_time":3928000000000,"state":"active","ping":65},{"user_id":186,"name":"pozyoof","steam_id":76561199261997325,"connected_time":1491000000000,"state":"active","ping":69},{"user_id":190,"name":"Sanitarium","steam_id":76561198261438782,"connected_time":902000000000,"state":"active","ping":48},{"user_id":192,"name":"Doctor Medic","steam_id":76561198100957443,"connected_time":887000000000,"state":"active","ping":88},{"user_id":193,"name":"random gaming","steam_id":76561198087970118,"connected_time":863000000000,"state":"active","ping":61},{"user_id":189,"name":"barman4you","steam_id":76561198315922012,"connected_time":1043000000000,"state":"active","ping":57},{"user_id":156,"name":"mekintoch","steam_id":76561198122525383,"connected_time":3028000000000,"state":"active","ping":49},{"user_id":195,"name":"Max Headroom","steam_id":76561198844446726,"connected_time":838000000000,"state":"active","ping":96},{"user_id":201,"name":"Combine Soldier 9816 (Jason)","steam_id":76561199504955833,"connected_time":52000000000,"state":"active","ping":118},{"user_id":197,"name":"–ü—Ä–∏–≥–æ–∂–∏–Ω","steam_id":76561198358431840,"connected_time":803000000000,"state":"active","ping":79},{"user_id":202,"name":"Carpetspill","steam_id":76561198240023406,"connected_time":14000000000,"state":"spawning","ping":184}]},{"server_id":51,"name":"Uncletopia | Warsaw | 3 | All Maps","name_short":"waw-3","host":"waw-1.pl.uncletopia.com","port":27035,"enabled":true,"region":"eu","cc":"pl","latitude":52.2297,"longitude":21.017532,"reserved":0,"last_update":"0001-01-01T00:00:00Z","name_a2s":"Uncletopia | Warsaw | 3 | All Maps","protocol":17,"map":"koth_highpass","folder":"tf","game":"Team Fortress","app_id":440,"player_count":0,"max_players":24,"Bots":0,"server_type":"Dedicated","server_os":"Linux","password":true,"vac":true,"version":"7961495","steam_id":85568392925397852,"keywords":["cp","nocrits","nodmgspread","uncletopia"],"game_id":440,"stv_port":27036,"stv_name":"Uncletopia | Warsaw | 3 | All Maps | STV","players":null},{"server_id":52,"name":"Uncletopia | Warsaw | 4 | All Maps","name_short":"waw-4","host":"waw-1.pl.uncletopia.com","port":27045,"enabled":true,"region":"eu","cc":"pl","latitude":52.2297,"longitude":21.017532,"reserved":0,"last_update":"0001-01-01T00:00:00Z","name_a2s":"Uncletopia | Warsaw | 4 | All Maps","protocol":17,"map":"koth_highpass","folder":"tf","game":"Team Fortress","app_id":440,"player_count":0,"max_players":24,"Bots":0,"server_type":"Dedicated","server_os":"Linux","password":true,"vac":true,"version":"7961495","steam_id":85568392925397853,"keywords":["cp","nocrits","nodmgspread","uncletopia"],"game_id":440,"stv_port":27046,"stv_name":"Uncletopia | Warsaw | 4 | All Maps | STV","players":null},{"server_id":53,"name":"Uncletopia | Warsaw | 5 | Stopwatch","name_short":"waw-5","host":"waw-1.pl.uncletopia.com","port":27055,"enabled":true,"region":"eu","cc":"pl","latitude":52.2297,"longitude":21.017532,"reserved":0,"last_update":"0001-01-01T00:00:00Z","name_a2s":"Uncletopia | Warsaw | 5 | Stopwatch","protocol":17,"map":"pl_borneo","folder":"tf","game":"Team Fortress","app_id":440,"player_count":4,"max_players":24,"Bots":0,"server_type":"Dedicated","server_os":"Linux","password":true,"vac":true,"version":"7961495","steam_id":85568392925397854,"keywords":["nocrits","nodmgspread","payload","uncletopia"],"game_id":440,"stv_port":27056,"stv_name":"Uncletopia | Warsaw | 5 | Stopwatch | STV","players":[{"user_id":5,"name":"Rubert132","steam_id":76561199074944676,"connected_time":570000000000,"state":"active","ping":174},{"user_id":7,"name":"dabas1","steam_id":76561198934540274,"connected_time":510000000000,"state":"active","ping":88},{"user_id":8,"name":"Kitek","steam_id":76561199379479168,"connected_time":503000000000,"state":"active","ping":55},{"user_id":9,"name":"W0ol","steam_id":76561199122318279,"connected_time":467000000000,"state":"active","ping":55}]},{"server_id":54,"name":"Uncletopia | Warsaw | 6 | Community","name_short":"waw-6","host":"waw-1.pl.uncletopia.com","port":27065,"enabled":true,"region":"eu","cc":"pl","latitude":52.2297,"longitude":21.017532,"reserved":0,"last_update":"0001-01-01T00:00:00Z","name_a2s":"Uncletopia | Warsaw | 6 | Community","protocol":17,"map":"workshop/cp_brew_b4.ugc2962755338","folder":"tf","game":"Team Fortress","app_id":440,"player_count":2,"max_players":24,"Bots":0,"server_type":"Dedicated","server_os":"Linux","password":true,"vac":true,"version":"7961495","steam_id":85568392925397856,"keywords":["cp","nocrits","nodmgspread","uncletopia"],"game_id":440,"stv_port":27066,"stv_name":"Uncletopia | Warsaw | 6 | Community | STV","players":[{"user_id":9,"name":"Mono","steam_id":76561198312174585,"connected_time":387000000000,"state":"active","ping":51},{"user_id":10,"name":"Ruru","steam_id":76561198976170510,"connected_time":230000000000,"state":"active","ping":73}]}]}