{"status":true,"message":"","result":[{"server_id":9,"name":"Uncletopia | Atlanta | 1 | All Maps","name_short":"atl-1","host":"atl-1.us.uncletopia.com","port":27015,"enabled":true,"region":"us-east","cc":"us","latitude":33.753746,"longitude":-84.38633,"reserved":0,"last_update":"0001-01-01T00:00:00Z","name_a2s":"Uncletopia | Atlanta | 1 | All Maps","protocol":17,"map":"pl_barnblitz","folder":"tf","game":"Team Fortress","app_id":440,"player_count":24,"max_players":24,"Bots":0,"server_type":"Dedicated","server_os":"Linux","password":true,"vac":true,"version":"7961495","steam_id":85568392924469982,"keywords":["nocrits","nodmgspread","payload","uncletopia"],"game_id":440,"stv_port":27016,"stv_name":"Uncletopia | Atlanta | 1 | All Maps | STV","players":[{"user_id":144,"name":"lu","steam_id":76561198080731872,"connected_time":1166000000000,"state":"active","ping":75},{"user_id":134,"name":"sigma_turbine","steam_id":76561198243286196,"connected_time":1680000000000,"state":"active","ping":89},{"user_id":132,"name":"HarryjusttHarry","steam_id":76561198982810452,"connected_time":1717000000000,"state":"active","ping":80},{"user_id":150,"name":"MERS","steam_id":76561198059303718,"connected_time":520000000000,"state":"active","ping":129},{"user_id":146,"name":"Jared","steam_id":76561198027210228,"connected_time":906000000000,"state":"active","ping":83},{"user_id":88,"name":"Night time Dan","steam_id":76561199022178492,"connected_time":3487000000000,"state":"active","ping":57},{"user_id":111,"name":"TheLonliestThelonius","steam_id":76561198097657243,"connected_time":2645000000000,"state":"active","ping":89},{"user_id":136,"name":"frank","steam_id":76561198137777483,"connected_time":1632000000000,"state":"active","ping":80},{"user_id":128,"name":"DEPUTY PISS","steam_id":76561198174167381,"connected_time":2032000000000,"state":"active","ping":66},{"user_id":140,"name":"Ashes!","steam_id":76561197998475441,"connected_time":1512000000000,"state":"active","ping":74},{"user_id":145,"name":"ATL1 | on my hunting trip","steam_id":76561198315341646,"connected_time":1149000000000,"state":"active","ping":74},{"user_id":115,"name":"KhorneBread ︻デ 一","steam_id":76561198097069958,"connected_time":2528000000000,"state":"active","ping":78},{"user_id":108,"name":"blonkHead","steam_id":76561198280874836,"connected_time":2741000000000,"state":"active","ping":54},{"user_id":121,"name":"Bigworldguy","steam_id":76561198998378933,"connected_time":2331000000000,"state":"active","ping":152},{"user_id":112,"name":"Vlad","steam_id":76561198150626637,"connected_time":2626000000000,"state":"active","ping":56},{"user_id":122,"name":"tony","steam_id":76561199085242309,"connected_time":2267000000000,"state":"active","ping":120},{"user_id":148,"name":"Lost CS2 player","steam_id":76561198892387723,"connected_time":683000000000,"state":"active","ping":66},{"user_id":119,"name":"marguerite","steam_id":76561198170873495,"connected_time":2443000000000,"state":"active","ping":51},{"user_id":151,"name":"epiczlolz","steam_id":76561198208369443,"connected_time":473000000000,"state":"active","ping":43},{"user_id":149,"name":"Motorolª","steam_id":76561198358119669,"connected_time":533000000000,"state":"active","ping":112},{"user_id":143,"name":"double stack biggie bag","steam_id":76561198188967430,"connected_time":1205000000000,"state":"active","ping":85},{"user_id":139,"name":"icecxld","steam_id":76561198079018805,"connected_time":1543000000000,"state":"active","ping":92},{"user_id":129,"name":"thomasdee725???","steam_id":76561199189526173,"connected_time":1732000000000,"state":"active","ping":77},{"user_id":155,"name":"lil hog","steam_id":76561199230929836,"connected_time":26000000000,"state":"active","ping":92}]},{"server_id":104,"name":"Uncletopia | Atlanta | 2 | All Maps","name_short":"atl-2","host":"atl-1.us.uncletopia.com","port":27025,"enabled":true,"region":"us-east","cc":"us","latitude":33.753746,"longitude":-84.38633,"reserved":0,"last_update":"0001-01-01T00:00:00Z","name_a2s":"Uncletopia | Atlanta | 2 | All Maps","protocol":17,"map":"koth_viaduct","folder":"tf","game":"Team Fortress","app_id":440,"player_count":2,"max_players":24,"Bots":0,"server_type":"Dedicated","server_os":"Linux","password":true,"vac":true,"version":"7961495","steam_id":85568392924469983,"keywords":["cp","nocrits","nodmgspread","uncletopia"],"game_id":440,"stv_port":27026,"stv_name":"Uncletopia | Atlanta | 2 | All Maps | STV","players":[{"user_id":20,"name":"Pixelshoten","steam_id":76561199390447774,"connected_time":57000000000,"state":"active","ping":157},{"user_id":21,"name":"Oligamer3690","steam_id":76561198827869629,"connected_time":8000000000,"state":"spawning","ping":148}]},{"server_id":400,"name":"Uncletopia | Atlanta | 3 | Stopwatch","name_short":"atl-3","host":"atl-1.us.uncletopia.com","port":27035,"enabled":true,"region":"us-east","cc":"us","latitude":33.753746,"longitude":-84.38633,"reserved":0,"last_update":"0001-01-01T00:00:00Z","name_a2s":"Uncletopia | Atlanta | 3 | Stopwatch","protocol":17,"map":"cp_process_final","folder":"tf","game":"Team Fortress","app_id":440,"player_count":0,"max_players":24,"Bots":0,"server_type":"Dedicated","server_os":"Linux","password":true,"vac":true,"version":"7961495","steam_id":85568392924515187,"keywords":["cp","nocrits","nodmgspread","uncletopia"],"game_id":440,"stv_port":27036,"stv_name":"Uncletopia | Atlanta | 3 | Stopwatch | STV","players":null},{"server_id":401,"name":"Uncletopia | Atlanta | 4 | Community","name_short":"atl-4","host":"atl-1.us.uncletopia.com","port":27045,"enabled":true,"region":"us-east","cc":"us","latitude":33.753746,"longitude":-84.38633,"reserved":0,"last_update":"0001-01-01T00:00:00Z","name_a2s":"Uncletopia | Atlanta | 4 | Community","protocol":17,"map":"workshop/pl_phoenix_b4a.ugc2969509359","folder":"tf","game":"Team Fortress","app_id":440,"player_count":0,"max_players":24,"Bots":0,"server_type":"Dedicated","server_os":"Linux","password":true,"vac":true,"version":"7961495","steam_id":85568392924515188,"keywords":["nocrits","nodmgspread","payload","uncletopia"],"game_id":440,"stv_port":27046,"stv_name":"Uncletopia | Atlanta | 4 | Community | STV","players":null},{"server_id":2,"name":"Uncletopia | Chicago | 1 | All Maps","name_short":"chi-1","host":"chi-1.us.uncletopia.com","port":27015,"enabled":true,"region":"us-central","cc":"us","latitude":41.881832,"longitude":-87.62318,"reserved":0,"last_update":"0001-01-01T00:00:00Z","name_a2s":"Uncletopia | Chicago | 1 | All Maps","protocol":17,"map":"pl_badwater","folder":"tf","game":"Team Fortress","app_id":440,"player_count":24,"max_players":24,"Bots":0,"server_type":"Dedicated","server_os":"Linux","password":true,"vac":true,"version":"7961495","steam_id":85568392924469984,"keywords":["nocrits","nodmgspread","payload","uncletopia"],"game_id":440,"stv_port":27016,"stv_name":"Uncletopia | Chicago | 1 | All Maps | STV","players":[{"user_id":205,"name":"Eugene Porter","steam_id":76561198834556559,"connected_time":692000000000,"state":"active","ping":74},{"user_id":204,"name":"Window Licker #pride","steam_id":76561198386717007,"connected_time":738000000000,"state":"active","ping":59},{"user_id":201,"name":"Julius \"Handles\" Randle","steam_id":76561198122501920,"connected_time":892000000000,"state":"active","ping":65},{"user_id":134,"name":"Battalion's Backup","steam_id":76561198066153777,"connected_time":6734000000000,"state":"active","ping":44},{"user_id":161,"name":"cookies","steam_id":76561198280864779,"connected_time":3924000000000,"state":"active","ping":66},{"user_id":180,"name":"Shady Businessman","steam_id":76561198143855968,"connected_time":2586000000000,"state":"active","ping":80},{"user_id":171,"name":"Steven","steam_id":76561198075526342,"connected_time":2982000000000,"state":"active","ping":69},{"user_id":188,"name":"Venom_Yankee","steam_id":76561198078146145,"connected_time":2379000000000,"state":"active","ping":75},{"user_id":192,"name":"vladimir.bezdek","steam_id":76561199475291614,"connected_time":1660000000000,"state":"active","ping":178},{"user_id":190,"name":"carly","steam_id":76561198094118479,"connected_time":2083000000000,"state":"active","ping":100},{"user_id":206,"name":"Mr. Fluffy Penguins","steam_id":76561198172538149,"connected_time":676000000000,"state":"active","ping":82},{"user_id":177,"name":"Black_chestnut","steam_id":76561198155524915,"connected_time":2740000000000,"state":"active","ping":79},{"user_id":200,"name":"sheep","steam_id":76561199220109827,"connected_time":974000000000,"state":"active","ping":153},{"user_id":209,"name":"rat eater","steam_id":76561199216874750,"connected_time":51000000000,"state":"active","ping":55},{"user_id":160,"name":"triangleman","steam_id":76561198972733542,"connected_time":3952000000000,"state":"active","ping":58},{"user_id":149,"name":"hearthian","steam_id":76561198113235260,"connected_time":5494000000000,"state":"active","ping":90},{"user_id":207,"name":"iCarly Lore Expert","steam_id":76561198111902910,"connected_time":615000000000,"state":"active","ping":74},{"user_id":193,"name":"momlovie","steam_id":76561198843933742,"connected_time":1571000000000,"state":"active","ping":69},{"user_id":178,"name":"you","steam_id":76561198017228729,"connected_time":2738000000000,"state":"active","ping":60},{"user_id":197,"name":"Jimbo","steam_id":76561198136560547,"connected_time":1140000000000,"state":"active","ping":63},{"user_id":191,"name":"NeoN","steam_id":76561198117608366,"connected_time":1893000000000,"state":"active","ping":56},{"user_id":144,"name":"Enemy goblin","steam_id":76561198045793516,"connected_time":6315000000000,"state":"active","ping":59},{"user_id":179,"name":"astrobob911","steam_id":76561199099110654,"connected_time":2725000000000,"state":"active","ping":73},{"user_id":208,"name":"Spy Gaming","steam_id":76561198453295613,"connected_time":219000000000,"state":"active","ping":108}]},{"server_id":106,"name":"Uncletopia | Chicago | 2 | All Maps","name_short":"chi-2","host":"chi-1.us.uncletopia.com","port":27025,"enabled":true,"region":"us-central","cc":"us","latitude":41.881832,"longitude":-87.62318,"reserved":0,"last_update":"0001-01-01T00:00:00Z","name_a2s":"Uncletopia | Chicago | 2 | All Maps","protocol":17,"map":"ctf_turbine","folder":"tf","game":"Team Fortress","app_id":440,"player_count":24,"max_players":24,"Bots":0,"server_type":"Dedicated","server_os":"Linux","password":true,"vac":true,"version":"7961495","steam_id":85568392924469985,"keywords":["ctf","nocrits","nodmgspread","uncletopia"],"game_id":440,"stv_port":27026,"stv_name":"Uncletopia | Chicago | 2 | All Maps | STV","players":[{"user_id":241,"name":"corntent","steam_id":76561198824847948,"connected_time":6434000000000,"state":"active","ping":58},{"user_id":318,"name":"MillerWhite","steam_id":76561198076060357,"connected_time":1584000000000,"state":"active","ping":66},{"user_id":350,"name":"Bliztank | RGL.gg","steam_id":76561198019252798,"connected_time":645000000000,"state":"active","ping":54},{"user_id":291,"name":"0","steam_id":76561198178638591,"connected_time":2501000000000,"state":"active","ping":60},{"user_id":288,"name":"kiwiichie ₍ᐢᐢ₎","steam_id":76561198315449521,"connected_time":3148000000000,"state":"active","ping":93},{"user_id":285,"name":"SubZeroDestruction","steam_id":76561198145082209,"connected_time":3323000000000,"state":"active","ping":61},{"user_id":292,"name":"daemon","steam_id":76561198001541433,"connected_time":2406000000000,"state":"active","ping":47},{"user_id":351,"name":"doop","steam_id":76561198370487545,"connected_time":613000000000,"state":"active","ping":82},{"user_id":352,"name":"SonofaBishop","steam_id":76561198121118762,"connected_time":569000000000,"state":"active","ping":82},{"user_id":256,"name":"t.tv/ibbKitty  ∑:3","steam_id":76561198110858518,"connected_time":5306000000000,"state":"active","ping":62},{"user_id":274,"name":"Gheeotine","steam_id":76561198010181698,"connected_time":4607000000000,"state":"active","ping":83},{"user_id":320,"name":"Rat Cycle","steam_id":76561198113364714,"connected_time":1563000000000,"state":"active","ping":55},{"user_id":349,"name":"Yeti™","steam_id":76561199151545966,"connected_time":703000000000,"state":"active","ping":60},{"user_id":353,"name":"Krissy","steam_id":76561197960848174,"connected_time":563000000000,"state":"active","ping":74},{"user_id":345,"name":"its ok to be mad or sad","steam_id":76561199488108712,"connected_time":883000000000,"state":"active","ping":60},{"user_id":313,"name":"chen","steam_id":76561198064872330,"connected_time":1646000000000,"state":"active","ping":68},{"user_id":304,"name":"MoiMoi","steam_id":76561198873850038,"connected_time":1722000000000,"state":"active","ping":72},{"user_id":287,"name":"Carson","steam_id":76561198076771071,"connected_time":3204000000000,"state":"active","ping":49},{"user_id":275,"name":"Nathan","steam_id":76561198127924646,"connected_time":4452000000000,"state":"active","ping":90},{"user_id":228,"name":"crab","steam_id":76561199094011002,"connected_time":7420000000000,"state":"active","ping":54},{"user_id":355,"name":"Carl Brutananadilewski","steam_id":76561198004884267,"connected_time":124000000000,"state":"active","ping":55},{"user_id":305,"name":"KIKI CURBSTOMP","steam_id":76561198262064871,"connected_time":1717000000000,"state":"active","ping":55},{"user_id":289,"name":"broomstick","steam_id":76561198302171600,"connected_time":3035000000000,"state":"active","ping":99},{"user_id":354,"name":"Lmnop","steam_id":76561198038458838,"connected_time":474000000000,"state":"active","ping":45}]},{"server_id":402,"name":"Uncletopia | Chicago | 3 | All Maps","name_short":"chi-3","host":"chi-1.us.uncletopia.com","port":27035,"enabled":true,"region":"us-central","cc":"us","latitude":41.881832,"longitude":-87.62318,"reserved":0,"last_update":"0001-01-01T00:00:00Z","name_a2s":"Uncletopia | Chicago | 3 | All Maps","protocol":17,"map":"pl_upward","folder":"tf","game":"Team Fortress","app_id":440,"player_count":24,"max_players":24,"Bots":0,"server_type":"Dedicated","server_os":"Linux","password":true,"vac":true,"version":"7961495","steam_id":85568392924515191,"keywords":["nocrits","nodmgspread","payload","uncletopia"],"game_id":440,"stv_port":27036,"stv_name":"Uncletopia | Chicago | 3 | All Maps | STV","players":[{"user_id":55,"name":"Quansen","steam_id":76561198151594550,"connected_time":4278000000000,"state":"active","ping":49},{"user_id":103,"name":"Ignalis","steam_id":76561198025662927,"connected_time":883000000000,"state":"active","ping":60},{"user_id":87,"name":"TÖZI","steam_id":76561198045268695,"connected_time":2316000000000,"state":"active","ping":88},{"user_id":101,"name":"Xavibite","steam_id":76561198209380493,"connected_time":1058000000000,"state":"active","ping":61},{"user_id":14,"name":"Fresh Lychee","steam_id":76561198045399559,"connected_time":6010000000000,"state":"active","ping":55},{"user_id":13,"name":"The World's Softest Sandwich","steam_id":76561198015577707,"connected_time":6251000000000,"state":"active","ping":84},{"user_id":104,"name":"The High Sorcerer","steam_id":76561198381214177,"connected_time":878000000000,"state":"active","ping":59},{"user_id":109,"name":"whirlybird","steam_id":76561198353887173,"connected_time":254000000000,"state":"active","ping":64},{"user_id":58,"name":"Kartyac","steam_id":76561197991069005,"connected_time":4052000000000,"state":"active","ping":76},{"user_id":67,"name":"biden cart 15 dollars","steam_id":76561198253731826,"connected_time":3888000000000,"state":"active","ping":66},{"user_id":59,"name":"inshallah","steam_id":76561198165212575,"connected_time":4016000000000,"state":"active","ping":62},{"user_id":100,"name":"❤ Ashleyyy ❤","steam_id":76561198056428303,"connected_time":1275000000000,"state":"active","ping":100},{"user_id":102,"name":"Harpua","steam_id":76561197988020228,"connected_time":919000000000,"state":"active","ping":70},{"user_id":79,"name":"Deltaco","steam_id":76561198094572694,"connected_time":3228000000000,"state":"active","ping":118},{"user_id":83,"name":"Oopsie Daisy ❋","steam_id":76561198042144492,"connected_time":3088000000000,"state":"active","ping":76},{"user_id":98,"name":"glade","steam_id":76561198077787480,"connected_time":1347000000000,"state":"active","ping":81},{"user_id":110,"name":"Sappho of Lesbos","steam_id":76561198115931381,"connected_time":107000000000,"state":"active","ping":75},{"user_id":96,"name":"[UNFAIR] H1gh0nSt34m","steam_id":76561198839068126,"connected_time":1527000000000,"state":"active","ping":77},{"user_id":97,"name":"Pannington","steam_id":76561198138707710,"connected_time":1366000000000,"state":"active","ping":66},{"user_id":90,"name":"Wounded","steam_id":76561199440954924,"connected_time":2057000000000,"state":"active","ping":149},{"user_id":107,"name":"Duncan","steam_id":76561198042148095,"connected_time":413000000000,"state":"active","ping":40},{"user_id":105,"name":"VixianUwU","steam_id":76561198948815060,"connected_time":658000000000,"state":"active","ping":85},{"user_id":85,"name":"MausWaffles","steam_id":76561198193160991,"connected_time":2850000000000,"state":"active","ping":84},{"user_id":43,"name":"menonamed","steam_id":76561198199564382,"connected_time":5318000000000,"state":"active","ping":69}]},{"server_id":403,"name":"Uncletopia | Chicago | 4 | All Maps","name_short":"chi-4","host":"chi-1.us.uncletopia.com","port":27045,"enabled":true,"region":"us-central","cc":"us","latitude":41.881832,"longitude":-87.62318,"reserved":0,"last_update":"0001-01-01T00:00:00Z","name_a2s":"Uncletopia | Chicago | 4 | All Maps","protocol":17,"map":"cp_mountainlab","folder":"tf","game":"Team Fortress","app_id":440,"player_count":24,"max_players":24,"Bots":0,"server_type":"Dedicated","server_os":"Linux","password":true,"vac":true,"version":"7961495","steam_id":85568392924515193,"keywords":["cp","nocrits","nodmgspread","uncletopia"],"game_id":440,"stv_port":27046,"stv_name":"Uncletopia | Chicago | 4 | All Maps | STV","players":[{"user_id":145,"name":"nines","steam_id":76561198078992548,"connected_time":1012000000000,"state":"active","ping":70},{"user_id":166,"name":"And her name is","steam_id":76561198136789464,"connected_time":122000000000,"state":"active","ping":60},{"user_id":144,"name":"GIANT ISOPOD","steam_id":76561198073113902,"connected_time":1049000000000,"state":"active","ping":57},{"user_id":146,"name":"Kindagoodplayer","steam_id":76561198814625843,"connected_time":1009000000000,"state":"active","ping":66},{"user_id":143,"name":"777","steam_id":76561198277163301,"connected_time":1083000000000,"state":"active","ping":70},{"user_id":170,"name":"Gordon Ramsay","steam_id":76561198123893900,"connected_time":93000000000,"state":"active","ping":76},{"user_id":154,"name":"Karrot","steam_id":76561198058970903,"connected_time":812000000000,"state":"active","ping":67},{"user_id":159,"name":"atlas","steam_id":76561198398383076,"connected_time":554000000000,"state":"active","ping":75},{"user_id":152,"name":"spud monkey","steam_id":76561198310369404,"connected_time":861000000000,"state":"active","ping":76},{"user_id":132,"name":"Wife Enjoyer","steam_id":76561198044109761,"connected_time":2574000000000,"state":"active","ping":74},{"user_id":171,"name":"Scuba Steve","steam_id":76561198313018251,"connected_time":84000000000,"state":"active","ping":76},{"user_id":174,"name":"Uh Oh!","steam_id":76561197981137624,"connected_time":37000000000,"state":"active","ping":88},{"user_id":168,"name":"WHITE TEETH TEENS","steam_id":76561198072179483,"connected_time":105000000000,"state":"active","ping":93},{"user_id":167,"name":"guy","steam_id":76561198163306561,"connected_time":111000000000,"state":"active","ping":73},{"user_id":142,"name":"lil' Wayne","steam_id":76561198050136796,"connected_time":1277000000000,"state":"active","ping":76},{"user_id":42,"name":"Chelo Jengo","steam_id":76561198426191363,"connected_time":7889000000000,"state":"active","ping":68},{"user_id":172,"name":"Johnatello","steam_id":76561198138170333,"connected_time":78000000000,"state":"active","ping":160},{"user_id":135,"name":"DaddyGalaxy","steam_id":76561198139697796,"connected_time":2516000000000,"state":"active","ping":85},{"user_id":86,"name":"ManicDepressionInATrenchCoat","steam_id":76561198131567365,"connected_time":4938000000000,"state":"active","ping":67},{"user_id":173,"name":"Cherry Juice","steam_id":76561198366570108,"connected_time":43000000000,"state":"spawning","ping":59},{"user_id":165,"name":"com lag","steam_id":76561198019019392,"connected_time":317000000000,"state":"active","ping":46},{"user_id":156,"name":"Aztea","steam_id":76561198982089893,"connected_time":806000000000,"state":"active","ping":100},{"user_id":83,"name":"ThatGamingKiwi","steam_id":76561199170522237,"connected_time":5290000000000,"state":"active","ping":70},{"user_id":164,"name":"perterjlatimer23","steam_id":76561199501728560,"connected_time":416000000000,"state":"active","ping":75}]},{"server_id":36,"name":"Uncletopia | Chicago | 5 | All Maps","name_short":"chi-5","host":"chi-2.us.uncletopia.com","port":27015,"enabled":true,"region":"us-central","cc":"us","latitude":41.881832,"longitude":-87.62318,"reserved":0,"last_update":"0001-01-01T00:00:00Z","name_a2s":"Uncletopia | Chicago | 5 | All Maps","protocol":17,"map":"pl_swiftwater_final1","folder":"tf","game":"Team Fortress","app_id":440,"player_count":9,"max_players":24,"Bots":0,"server_type":"Dedicated","server_os":"Linux","password":true,"vac":true,"version":"7961495","steam_id":85568392924866362,"keywords":["nocrits","nodmgspread","payload","uncletopia"],"game_id":440,"stv_port":27016,"stv_name":"Uncletopia | Chicago | 5 | All Maps | STV","players":[{"user_id":8,"name":"GrunerJunge","steam_id":76561199492836198,"connected_time":3465000000000,"state":"active","ping":70},{"user_id":17,"name":"gillmore.samuel","steam_id":76561198109742336,"connected_time":1071000000000,"state":"active","ping":61},{"user_id":23,"name":"Professional Pansexual","steam_id":76561199106429954,"connected_time":137000000000,"state":"active","ping":83},{"user_id":18,"name":"ninepappel","steam_id":76561198842091244,"connected_time":952000000000,"state":"active","ping":87},{"user_id":15,"name":"Herman Bavinck","steam_id":76561197993190216,"connected_time":1797000000000,"state":"active","ping":60},{"user_id":19,"name":"pingman9000","steam_id":76561199081715802,"connected_time":895000000000,"state":"active","ping":67},{"user_id":20,"name":"Scarecrow","steam_id":76561198045870511,"connected_time":798000000000,"state":"active","ping":50},{"user_id":21,"name":"Toast","steam_id":76561198401995265,"connected_time":574000000000,"state":"active","ping":53},{"user_id":24,"name":"t.tv/IanTheAwsm","steam_id":76561198093031738,"connected_time":114000000000,"state":"active","ping":46}]},{"server_id":37,"name":"Uncletopia | Chicago | 6 | All Maps","name_short":"chi-6","host":"chi-2.us.uncletopia.com","port":27025,"enabled":true,"region":"us-central","cc":"us","latitude":41.881832,"longitude":-87.62318,"reserved":0,"last_update":"0001-01-01T00:00:00Z","name_a2s":"Uncletopia | Chicago | 6 | All Maps","protocol":17,"map":"koth_highpass","folder":"tf","game":"Team Fortress","app_id":440,"player_count":1,"max_players":24,"Bots":0,"server_type":"Dedicated","server_os":"Linux","password":true,"vac":true,"version":"7961495","steam_id":85568392924866363,"keywords":["cp","nocrits","nodmgspread","uncletopia"],"game_id":440,"stv_port":27026,"stv_name":"Uncletopia | Chicago | 6 | All Maps | STV","players":[{"user_id":11,"name":"minecraft_2.0","steam_id":76561198391819120,"connected_time":55000000000,"state":"active","ping":91}]},{"server_id":38,"name":"Uncletopia | Chicago | 7 | Stopwatch","name_short":"chi-7","host":"chi-2.us.uncletopia.com","port":27035,"enabled":true,"region":"us-central","cc":"us","latitude":41.881832,"longitude":-87.62318,"reserved":0,"last_update":"0001-01-01T00:00:00Z","name_a2s":"Uncletopia | Chicago | 7 | Stopwatch","protocol":17,"map":"workshop/koth_ashville_final.ugc2130459942","folder":"tf","game":"Team Fortress","app_id":440,"player_count":0,"max_players":24,"Bots":0,"server_type":"Dedicated","server_os":"Linux","password":true,"vac":true,"version":"7961495","steam_id":85568392924866364,"keywords":["cp","nocrits","nodmgspread","uncletopia"],"game_id":440,"stv_port":27036,"stv_name":"Uncletopia | Chicago | 7 | Stopwatch | STV","players":null},{"server_id":39,"name":"Uncletopia | Chicago | 8 | Community","name_short":"chi-8","host":"chi-2.us.uncletopia.com","port":27045,"enabled":true,"region":"us-central","cc":"us","latitude":41.881832,"longitude":-87.62318,"reserved":0,"last_update":"0001-01-01T00:00:00Z","name_a2s":"Uncletopia | Chicago | 8 | Community","protocol":17,"map":"workshop/cp_caldera_rc3.ugc2834196889","folder":"tf","game":"Team Fortress","app_id":440,"player_count":0,"max_players":24,"Bots":0,"server_type":"Dedicated","server_os":"Linux","password":true,"vac":true,"version":"7961495","steam_id":85568392924866365,"keywords":["cp","nocrits","nodmgspread","uncletopia"],"game_id":440,"stv_port":27046,"stv_name":"Uncletopia | Chicago | 8 | Community | STV","players":null},{"server_id":8,"name":"Uncletopia | Dallas | 1 | All Maps","name_short":"dal-1","host":"dal-1.us.uncletopia.com","port":27015,"enabled":true,"region":"us-central","cc":"us","latitude":32.779167,"longitude":-96.80889,"reserved":0,"last_update":"0001-01-01T00:00:00Z","name_a2s":"Uncletopia | Dallas | 1 | All Maps","protocol":17,"map":"cp_egypt_final","folder":"tf","game":"Team Fortress","app_id":440,"player_count":16,"max_players":24,"Bots":0,"server_type":"Dedicated","server_os":"Linux","password":true,"vac":true,"version":"7961495","steam_id":85568392924469986,"keywords":["cp","nocrits","nodmgspread","uncletopia"],"game_id":440,"stv_port":27016,"stv_name":"Uncletopia | Dallas | 1 | All Maps | STV","players":[{"user_id":244,"name":"Mum","steam_id":76561198059209643,"connected_time":510000000000,"state":"active","ping":74},{"user_id":234,"name":"King","steam_id":76561198039763676,"connected_time":1763000000000,"state":"active","ping":75},{"user_id":251,"name":"Live Young, Cum Hard","steam_id":76561198040881326,"connected_time":1000000000,"state":"spawning","ping":99},{"user_id":246,"name":"wizorb","steam_id":76561198002172674,"connected_time":389000000000,"state":"active","ping":72},{"user_id":248,"name":"Rock Kickass","steam_id":76561198450510841,"connected_time":269000000000,"state":"active","ping":88},{"user_id":219,"name":"Holden Caulfield","steam_id":76561198372579548,"connected_time":2389000000000,"state":"active","ping":96},{"user_id":249,"name":"dak","steam_id":76561198076596506,"connected_time":200000000000,"state":"active","ping":60},{"user_id":250,"name":"Lt.Torch ☂","steam_id":76561197970656195,"connected_time":99000000000,"state":"active","ping":87},{"user_id":239,"name":"canakblasteran","steam_id":76561199472518822,"connected_time":1283000000000,"state":"active","ping":78},{"user_id":220,"name":"PREMIUM BART","steam_id":76561198173255559,"connected_time":2337000000000,"state":"active","ping":72},{"user_id":228,"name":"Harlow's Revolver","steam_id":76561198893285805,"connected_time":2163000000000,"state":"active","ping":78},{"user_id":236,"name":"ZILICON","steam_id":76561199044705592,"connected_time":1660000000000,"state":"active","ping":105},{"user_id":211,"name":"turdLdestroyer64","steam_id":76561198070854627,"connected_time":3430000000000,"state":"active","ping":84},{"user_id":238,"name":"kaimann_25","steam_id":76561198867926098,"connected_time":1370000000000,"state":"active","ping":73},{"user_id":242,"name":"SPYCHECK ME","steam_id":76561198980994364,"connected_time":1078000000000,"state":"active","ping":95},{"user_id":215,"name":"pafijohn","steam_id":76561198002535190,"connected_time":2978000000000,"state":"active","ping":71}]},{"server_id":108,"name":"Uncletopia | Dallas | 2 | All Maps","name_short":"dal-2","host":"dal-1.us.uncletopia.com","port":27025,"enabled":true,"region":"us-central","cc":"us","latitude":32.779167,"longitude":-96.80889,"reserved":0,"last_update":"0001-01-01T00:00:00Z","name_a2s":"Uncletopia | Dallas | 2 | All Maps","protocol":17,"map":"pl_snowycoast","folder":"tf","game":"Team Fortress","app_id":440,"player_count":3,"max_players":24,"Bots":0,"server_type":"Dedicated","server_os":"Linux","password":true,"vac":true,"version":"7961495","steam_id":85568392924469988,"keywords":["nocrits","nodmgspread","payload","uncletopia"],"game_id":440,"stv_port":27026,"stv_name":"Uncletopia | Dallas | 2 | All Maps | STV","players":[{"user_id":8,"name":"purplerosie334","steam_id":76561199491020174,"connected_time":1951000000000,"state":"active","ping":67},{"user_id":14,"name":"Willow Afton","steam_id":76561198281017587,"connected_time":49000000000,"state":"active","ping":129},{"user_id":12,"name":"i poop my pants","steam_id":76561199488347875,"connected_time":1182000000000,"state":"active","ping":56}]},{"server_id":404,"name":"Uncletopia | Dallas | 3 | All Maps","name_short":"dal-3","host":"dal-1.us.uncletopia.com","port":27035,"enabled":true,"region":"us-central","cc":"us","latitude":32.779167,"longitude":-96.80889,"reserved":0,"last_update":"0001-01-01T00:00:00Z","name_a2s":"Uncletopia | Dallas | 3 | All Maps","protocol":17,"map":"cp_sunshine","folder":"tf","game":"Team Fortress","app_id":440,"player_count":24,"max_players":24,"Bots":0,"server_type":"Dedicated","server_os":"Linux","password":true,"vac":true,"version":"7961495","steam_id":85568392924515219,"keywords":["cp","nocrits","nodmgspread","uncletopia"],"game_id":440,"stv_port":27036,"stv_name":"Uncletopia | Dallas | 3 | All Maps | STV","players":[{"user_id":9,"name":"♥ Tomboy ♥","steam_id":76561198069881436,"connected_time":12125000000000,"state":"active","ping":75},{"user_id":157,"name":"mendokusai","steam_id":76561197965022076,"connected_time":107000000000,"state":"active","ping":84},{"user_id":134,"name":"Lil B (Tha Based/God)","steam_id":76561198133195238,"connected_time":1433000000000,"state":"active","ping":92},{"user_id":154,"name":"hey! lighten up buddy! :3","steam_id":76561198333985626,"connected_time":305000000000,"state":"active","ping":43},{"user_id":158,"name":"lover is my jean billie not","steam_id":76561198054070811,"connected_time":100000000000,"state":"active","ping":81},{"user_id":135,"name":"Degree","steam_id":76561198059812393,"connected_time":1372000000000,"state":"active","ping":89},{"user_id":149,"name":"skullface","steam_id":76561198353704776,"connected_time":774000000000,"state":"active","ping":43},{"user_id":160,"name":"ChiMaTa","steam_id":76561198067166198,"connected_time":80000000000,"state":"active","ping":72},{"user_id":156,"name":"choi","steam_id":76561198053669887,"connected_time":240000000000,"state":"active","ping":90},{"user_id":133,"name":"Peace Sells.....","steam_id":76561199013271968,"connected_time":1478000000000,"state":"active","ping":57},{"user_id":131,"name":"La()VaJ()86","steam_id":76561198247547042,"connected_time":1557000000000,"state":"active","ping":84},{"user_id":161,"name":"mjstickboxer","steam_id":76561198046958176,"connected_time":45000000000,"state":"active","ping":72},{"user_id":141,"name":"Versuski","steam_id":76561198085193084,"connected_time":1301000000000,"state":"active","ping":84},{"user_id":66,"name":"Certified Hood Classic","steam_id":76561199086159354,"connected_time":7025000000000,"state":"active","ping":53},{"user_id":147,"name":"poop","steam_id":76561198297795681,"connected_time":929000000000,"state":"active","ping":57},{"user_id":101,"name":"Birby","steam_id":76561198884009768,"connected_time":4391000000000,"state":"active","ping":106},{"user_id":162,"name":"Spare(8)Ball","steam_id":76561197982432995,"connected_time":34000000000,"state":"spawning","ping":88},{"user_id":118,"name":"Whompert","steam_id":76561198042939624,"connected_time":2591000000000,"state":"active","ping":83},{"user_id":128,"name":"nicholas","steam_id":76561198058211873,"connected_time":1875000000000,"state":"active","ping":61},{"user_id":146,"name":"ｐｒｏｆｅ ｉｓａ","steam_id":76561198106966849,"connected_time":1095000000000,"state":"active","ping":125},{"user_id":151,"name":"BurningBelgian","steam_id":76561199049184080,"connected_time":493000000000,"state":"active","ping":75},{"user_id":144,"name":"uzr_n3m","steam_id":76561198799343084,"connected_time":1250000000000,"state":"active","ping":88},{"user_id":163,"name":"Cambonieboo","steam_id":76561198139174433,"connected_time":29000000000,"state":"active","ping":76},{"user_id":155,"name":"selvhat","steam_id":76561198114225509,"connected_time":277000000000,"state":"active","ping":83}]},{"server_id":405,"name":"Uncletopia | Dallas | 4 | Community","name_short":"dal-4","host":"dal-1.us.uncletopia.com","port":27045,"enabled":true,"region":"us-central","cc":"us","latitude":32.779167,"longitude":-96.80889,"reserved":0,"last_update":"0001-01-01T00:00:00Z","name_a2s":"Uncletopia | Dallas | 4 | Community","protocol":17,"map":"workshop/pl_shoreleave_rc2.ugc1238849347","folder":"tf","game":"Team Fortress","app_id":440,"player_count":0,"max_players":24,"Bots":0,"server_type":"Dedicated","server_os":"Linux","password":true,"vac":true,"version":"7961495","steam_id":85568392924515220,"keywords":["nocrits","nodmgspread","payload","uncletopia"],"game_id":440,"stv_port":27046,"stv_name":"Uncletopia | Dallas | 4 | Community | STV","players":null},{"server_id":5,"name":"Uncletopia | Frankfurt | 1 | All Maps","name_short":"frk-1","host":"frk-1.de.uncletopia.com","port":27015,"enabled":true,"region":"eu","cc":"de","latitude":50.110924,"longitude":8.682127,"reserved":0,"last_update":"0001-01-01T00:00:00Z","name_a2s":"Uncletopia | Frankfurt | 1 | All Maps","protocol":17,"map":"cp_sunshine","folder":"tf","game":"Team Fortress","app_id":440,"player_count":24,"max_players":24,"Bots":0,"server_type":"Dedicated","server_os":"Linux","password":true,"vac":true,"version":"7961495","steam_id":85568392924469989,"keywords":["cp","nocrits","nodmgspread","uncletopia"],"game_id":440,"stv_port":27016,"stv_name":"Uncletopia | Frankfurt | 1 | All Maps | STV","players":[{"user_id":561,"name":"cheriberry","steam_id":76561198093577036,"connected_time":1512000000000,"state":"active","ping":52},{"user_id":574,"name":"Felixc11_yt","steam_id":76561198382875078,"connected_time":907000000000,"state":"active","ping":69},{"user_id":582,"name":"Juno","steam_id":76561198960480730,"connected_time":173000000000,"state":"active","ping":60},{"user_id":536,"name":"РеДаНоВеЦ ^_^","steam_id":76561199032612973,"connected_time":3205000000000,"state":"active","ping":73},{"user_id":590,"name":"noot","steam_id":76561198148074472,"connected_time":14000000000,"state":"spawning","ping":44},{"user_id":543,"name":"Piox","steam_id":76561198125689157,"connected_time":3041000000000,"state":"active","ping":79},{"user_id":575,"name":"Doctor Mobius","steam_id":76561197971281806,"connected_time":768000000000,"state":"active","ping":60},{"user_id":584,"name":"Flank","steam_id":76561198098731156,"connected_time":119000000000,"state":"active","ping":72},{"user_id":585,"name":"BurningJoke","steam_id":76561199014358707,"connected_time":109000000000,"state":"active","ping":48},{"user_id":493,"name":"bottomest g","steam_id":76561198138928548,"connected_time":5165000000000,"state":"active","ping":51},{"user_id":552,"name":"..","steam_id":76561198380752444,"connected_time":2223000000000,"state":"active","ping":68},{"user_id":589,"name":"Frostlight","steam_id":76561198016360449,"connected_time":34000000000,"state":"active","ping":77},{"user_id":568,"name":"LiterallyRyanGosling","steam_id":76561199017856691,"connected_time":1395000000000,"state":"active","ping":69},{"user_id":588,"name":"SirClyan","steam_id":76561199196651938,"connected_time":64000000000,"state":"active","ping":66},{"user_id":551,"name":"Struix","steam_id":76561199413463591,"connected_time":2367000000000,"state":"active","ping":77},{"user_id":538,"name":"[DEU]zlx","steam_id":76561198197171519,"connected_time":3135000000000,"state":"active","ping":58},{"user_id":587,"name":"wee nut","steam_id":76561198083288197,"connected_time":100000000000,"state":"active","ping":76},{"user_id":572,"name":"Garfailed The Dumbass","steam_id":76561198979140645,"connected_time":1160000000000,"state":"active","ping":60},{"user_id":539,"name":"theVad333","steam_id":76561199273469746,"connected_time":3118000000000,"state":"active","ping":68},{"user_id":559,"name":"Carl","steam_id":76561198045638738,"connected_time":1526000000000,"state":"active","ping":72},{"user_id":578,"name":"aapeli","steam_id":76561198800149689,"connected_time":667000000000,"state":"active","ping":82},{"user_id":579,"name":"MR BUBBLES","steam_id":76561198019005259,"connected_time":650000000000,"state":"active","ping":103},{"user_id":480,"name":"VolcanicArts","steam_id":76561198063453246,"connected_time":5954000000000,"state":"active","ping":62},{"user_id":580,"name":"w","steam_id":76561198037136870,"connected_time":604000000000,"state":"active","ping":60}]},{"server_id":110,"name":"Uncletopia | Frankfurt | 2 | All Maps","name_short":"frk-2","host":"frk-1.de.uncletopia.com","port":27025,"enabled":true,"region":"eu","cc":"de","latitude":50.110924,"longitude":8.682127,"reserved":0,"last_update":"0001-01-01T00:00:00Z","name_a2s":"Uncletopia | Frankfurt | 2 | All Maps","protocol":17,"map":"pl_thundermountain","folder":"tf","game":"Team Fortress","app_id":440,"player_count":24,"max_players":24,"Bots":0,"server_type":"Dedicated","server_os":"Linux","password":true,"vac":true,"version":"7961495","steam_id":85568392924469990,"keywords":["nocrits","nodmgspread","payload","uncletopia"],"game_id":440,"stv_port":27026,"stv_name":"Uncletopia | Frankfurt | 2 | All Maps | STV","players":[{"user_id":357,"name":"Lazor","steam_id":76561198310376869,"connected_time":3125000000000,"state":"active","ping":110},{"user_id":381,"name":"EtoGeek","steam_id":76561198020304242,"connected_time":1868000000000,"state":"active","ping":62},{"user_id":390,"name":"Rexzuz_","steam_id":76561198106148347,"connected_time":719000000000,"state":"active","ping":87},{"user_id":385,"name":"Sunduchek","steam_id":76561198067934157,"connected_time":1571000000000,"state":"active","ping":127},{"user_id":371,"name":"Laitse","steam_id":76561198073247480,"connected_time":2172000000000,"state":"active","ping":96},{"user_id":362,"name":"TheBeardedM1G","steam_id":76561198040208946,"connected_time":2578000000000,"state":"active","ping":60},{"user_id":318,"name":"Leviticus Cornwall","steam_id":76561197993702685,"connected_time":5592000000000,"state":"active","ping":90},{"user_id":360,"name":"UltimateAura","steam_id":76561198338361324,"connected_time":2670000000000,"state":"active","ping":42},{"user_id":334,"name":"[P-roc] Cmm Bert","steam_id":76561198016658674,"connected_time":3760000000000,"state":"active","ping":68},{"user_id":389,"name":"Borlor","steam_id":76561198206059604,"connected_time":952000000000,"state":"active","ping":61},{"user_id":363,"name":"Storm's Foreshadow","steam_id":76561198098462526,"connected_time":2570000000000,"state":"active","ping":56},{"user_id":340,"name":"[P-roc] Lovely","steam_id":76561198074361075,"connected_time":3663000000000,"state":"active","ping":60},{"user_id":314,"name":"Miku.Hatsune.2007","steam_id":76561198199687607,"connected_time":5789000000000,"state":"active","ping":69},{"user_id":369,"name":"Smebiulack","steam_id":76561197982409664,"connected_time":2185000000000,"state":"active","ping":73},{"user_id":364,"name":"Yoshikage Kira","steam_id":76561198326041272,"connected_time":2551000000000,"state":"active","ping":73},{"user_id":392,"name":"LuckyDiAmond1432","steam_id":76561199072107371,"connected_time":438000000000,"state":"active","ping":52},{"user_id":342,"name":"Jotun","steam_id":76561199015161498,"connected_time":3651000000000,"state":"active","ping":91},{"user_id":394,"name":"hoho","steam_id":76561198237378014,"connected_time":319000000000,"state":"active","ping":61},{"user_id":382,"name":"NESS","steam_id":76561197995225318,"connected_time":1855000000000,"state":"active","ping":59},{"user_id":387,"name":"2(-)13 lft","steam_id":76561198068108772,"connected_time":1291000000000,"state":"active","ping":60},{"user_id":386,"name":"KALACH","steam_id":76561198028664460,"connected_time":1502000000000,"state":"active","ping":75},{"user_id":377,"name":"camperboy","steam_id":76561198138410890,"connected_time":2089000000000,"state":"active","ping":67},{"user_id":384,"name":"monsterISfun","steam_id":76561198121734867,"connected_time":1629000000000,"state":"active","ping":64},{"user_id":353,"name":"kelm","steam_id":76561198027166144,"connected_time":3435000000000,"state":"active","ping":81}]},{"server_id":308,"name":"Uncletopia | Frankfurt | 3 | All Maps","name_short":"frk-3","host":"frk-1.de.uncletopia.com","port":27035,"enabled":true,"region":"eu","cc":"de","latitude":50.110924,"longitude":8.682127,"reserved":0,"last_update":"0001-01-01T00:00:00Z","name_a2s":"Uncletopia | Frankfurt | 3 | All Maps","protocol":17,"map":"pl_barnblitz","folder":"tf","game":"Team Fortress","app_id":440,"player_count":24,"max_players":24,"Bots":0,"server_type":"Dedicated","server_os":"Linux","password":true,"vac":true,"version":"7961495","steam_id":85568392924504274,"keywords":["nocrits","nodmgspread","payload","uncletopia"],"game_id":440,"stv_port":27036,"stv_name":"Uncletopia | Frankfurt | 3 | All Maps | STV","players":[{"user_id":285,"name":"Cyberspace Angel","steam_id":76561198060307235,"connected_time":336000000000,"state":"active","ping":75},{"user_id":249,"name":"Schwerer Panzerspähwagen","steam_id":76561199062437546,"connected_time":2176000000000,"state":"active","ping":51},{"user_id":260,"name":"deflox","steam_id":76561198087450635,"connected_time":1843000000000,"state":"active","ping":49},{"user_id":204,"name":"Monkey","steam_id":76561199008411791,"connected_time":4812000000000,"state":"active","ping":61},{"user_id":279,"name":"Lammet","steam_id":76561198149409729,"connected_time":663000000000,"state":"active","ping":72},{"user_id":261,"name":"BTU_GiperNinja","steam_id":76561198888074280,"connected_time":1808000000000,"state":"active","ping":78},{"user_id":242,"name":"Piss Man","steam_id":76561199079493666,"connected_time":2580000000000,"state":"active","ping":77},{"user_id":267,"name":"VW Golf MK2 GTI","steam_id":76561199250808808,"connected_time":1581000000000,"state":"active","ping":75},{"user_id":287,"name":"cirrem","steam_id":76561198265192382,"connected_time":234000000000,"state":"active","ping":60},{"user_id":282,"name":"кекс","steam_id":76561199203525443,"connected_time":583000000000,"state":"active","ping":76},{"user_id":243,"name":"bid","steam_id":76561198083863043,"connected_time":2576000000000,"state":"active","ping":56},{"user_id":255,"name":"FoOzTV","steam_id":76561197998636728,"connected_time":2017000000000,"state":"active","ping":61},{"user_id":283,"name":"Rayco","steam_id":76561198048013129,"connected_time":519000000000,"state":"active","ping":62},{"user_id":277,"name":"Krabiukas","steam_id":76561198190664759,"connected_time":721000000000,"state":"active","ping":63},{"user_id":259,"name":"DVS","steam_id":76561198062909843,"connected_time":1945000000000,"state":"active","ping":49},{"user_id":263,"name":"PlasticVoid","steam_id":76561197997870306,"connected_time":1799000000000,"state":"active","ping":47},{"user_id":270,"name":"Soerlssoelssöen","steam_id":76561197993060585,"connected_time":1540000000000,"state":"active","ping":66},{"user_id":245,"name":"ok","steam_id":76561198044451693,"connected_time":2547000000000,"state":"active","ping":128},{"user_id":284,"name":"gamerkiddo","steam_id":76561198047380360,"connected_time":367000000000,"state":"active","ping":59},{"user_id":275,"name":"Young Sheldon","steam_id":76561199013233409,"connected_time":1081000000000,"state":"active","ping":83},{"user_id":274,"name":"meriones","steam_id":76561198034234373,"connected_time":1213000000000,"state":"active","ping":59},{"user_id":238,"name":"walter","steam_id":76561198021950957,"connected_time":3185000000000,"state":"active","ping":72},{"user_id":286,"name":"chidory41","steam_id":76561199404844130,"connected_time":247000000000,"state":"active","ping":82},{"user_id":190,"name":"jeff","steam_id":76561198272815746,"connected_time":5517000000000,"state":"active","ping":56}]},{"server_id":309,"name":"Uncletopia | Frankfurt | 4 | All Maps","name_short":"frk-4","host":"frk-1.de.uncletopia.com","port":27045,"enabled":true,"region":"eu","cc":"de","latitude":50.110924,"longitude":8.682127,"reserved":0,"last_update":"0001-01-01T00:00:00Z","name_a2s":"Uncletopia | Frankfurt | 4 | All Maps","protocol":17,"map":"pl_swiftwater_final1","folder":"tf","game":"Team Fortress","app_id":440,"player_count":24,"max_players":24,"Bots":0,"server_type":"Dedicated","server_os":"Linux","password":true,"vac":true,"version":"7961495","steam_id":85568392924504275,"keywords":["nocrits","nodmgspread","payload","uncletopia"],"game_id":440,"stv_port":27046,"stv_name":"Uncletopia | Frankfurt | 4 | All Maps | STV","players":[{"user_id":324,"name":"MrFixit","steam_id":76561198398922048,"connected_time":208000000000,"state":"active","ping":77},{"user_id":246,"name":"Natsuki","steam_id":76561198986191491,"connected_time":5724000000000,"state":"active","ping":61},{"user_id":307,"name":"HayLeX","steam_id":76561198130997343,"connected_time":1141000000000,"state":"active","ping":78},{"user_id":233,"name":"The spit taster","steam_id":76561198338129578,"connected_time":7090000000000,"state":"active","ping":59},{"user_id":299,"name":"xSamyaza","steam_id":76561198058447257,"connected_time":1491000000000,"state":"active","ping":53},{"user_id":240,"name":"Finnish Farmer","steam_id":76561198205366043,"connected_time":5854000000000,"state":"active","ping":82},{"user_id":320,"name":"Silver","steam_id":76561198175238807,"connected_time":322000000000,"state":"active","ping":61},{"user_id":325,"name":"That hamster has been dead for ","steam_id":76561198346638308,"connected_time":170000000000,"state":"active","ping":60},{"user_id":321,"name":"Hubert","steam_id":76561198057722639,"connected_time":321000000000,"state":"active","ping":72},{"user_id":313,"name":"Mr.killer","steam_id":76561198290584189,"connected_time":696000000000,"state":"active","ping":104},{"user_id":322,"name":"rob","steam_id":76561198122211848,"connected_time":251000000000,"state":"active","ping":107},{"user_id":289,"name":"ChesseKnight","steam_id":76561198102476339,"connected_time":3104000000000,"state":"active","ping":77},{"user_id":277,"name":"♂ Necronomico ♂","steam_id":76561198079272212,"connected_time":4224000000000,"state":"active","ping":71},{"user_id":326,"name":"Anti-Capitalist Weapon","steam_id":76561198143526071,"connected_time":99000000000,"state":"active","ping":67},{"user_id":309,"name":"kavun","steam_id":76561198023461869,"connected_time":986000000000,"state":"active","ping":75},{"user_id":282,"name":"luma","steam_id":76561198081649669,"connected_time":3558000000000,"state":"active","ping":60},{"user_id":303,"name":"typomen","steam_id":76561198405351951,"connected_time":1445000000000,"state":"active","ping":80},{"user_id":312,"name":"insanitY","steam_id":76561198055666742,"connected_time":714000000000,"state":"active","ping":106},{"user_id":275,"name":"_3tHeR_","steam_id":76561199109870743,"connected_time":4278000000000,"state":"active","ping":60},{"user_id":317,"name":"Estamie","steam_id":76561198058527691,"connected_time":528000000000,"state":"active","ping":60},{"user_id":273,"name":"pyrofightermag","steam_id":76561198089228732,"connected_time":4726000000000,"state":"active","ping":60},{"user_id":323,"name":"Venwood","steam_id":76561198126973175,"connected_time":242000000000,"state":"active","ping":65},{"user_id":261,"name":"Thundercracker__","steam_id":76561199163505476,"connected_time":5226000000000,"state":"active","ping":74},{"user_id":316,"name":"panda","steam_id":76561199042470246,"connected_time":614000000000,"state":"active","ping":45}]},{"server_id":310,"name":"Uncletopia | Frankfurt | 5 | All Maps","name_short":"frk-5","host":"frk-1.de.uncletopia.com","port":27055,"enabled":true,"region":"eu","cc":"de","latitude":50.110924,"longitude":8.682127,"reserved":0,"last_update":"0001-01-01T00:00:00Z","name_a2s":"Uncletopia | Frankfurt | 5 | All Maps","protocol":17,"map":"pl_barnblitz","folder":"tf","game":"Team Fortress","app_id":440,"player_count":24,"max_players":24,"Bots":0,"server_type":"Dedicated","server_os":"Linux","password":true,"vac":true,"version":"7961495","steam_id":85568392924504277,"keywords":["nocrits","nodmgspread","payload","uncletopia"],"game_id":440,"stv_port":27056,"stv_name":"Uncletopia | Frankfurt | 5 | All Maps | STV","players":[{"user_id":569,"name":"Cepakas","steam_id":76561198878369698,"connected_time":805000000000,"state":"active","ping":84},{"user_id":587,"name":"heddwch","steam_id":76561198076097983,"connected_time":43000000000,"state":"active","ping":97},{"user_id":565,"name":"Lucky Number 13","steam_id":76561198043951279,"connected_time":1110000000000,"state":"active","ping":80},{"user_id":574,"name":"below average medic player","steam_id":76561199095822539,"connected_time":330000000000,"state":"active","ping":86},{"user_id":566,"name":"Arc","steam_id":76561198805049375,"connected_time":1106000000000,"state":"active","ping":58},{"user_id":522,"name":"VIN WEASEL","steam_id":76561198014387066,"connected_time":3995000000000,"state":"active","ping":38},{"user_id":572,"name":"Dr.Time_Consuming","steam_id":76561199238207915,"connected_time":494000000000,"state":"active","ping":99},{"user_id":571,"name":"Kremit ツ","steam_id":76561199475272463,"connected_time":703000000000,"state":"active","ping":71},{"user_id":573,"name":"SirNeeco \u003c3","steam_id":76561198103014203,"connected_time":472000000000,"state":"active","ping":57},{"user_id":561,"name":"The flying Drunksman","steam_id":76561198966358094,"connected_time":1316000000000,"state":"active","ping":45},{"user_id":575,"name":"oGod","steam_id":76561198971536843,"connected_time":324000000000,"state":"active","ping":70},{"user_id":578,"name":"olegv11","steam_id":76561197989139964,"connected_time":268000000000,"state":"active","ping":104},{"user_id":577,"name":"Haldor","steam_id":76561198296285173,"connected_time":303000000000,"state":"active","ping":119},{"user_id":579,"name":"Average Chinese Man","steam_id":76561199076883472,"connected_time":255000000000,"state":"active","ping":81},{"user_id":553,"name":"Saucisse","steam_id":76561198119955969,"connected_time":2144000000000,"state":"active","ping":60},{"user_id":580,"name":"A literal heavy","steam_id":76561199219233587,"connected_time":252000000000,"state":"active","ping":90},{"user_id":581,"name":"GunGuy","steam_id":76561198124510978,"connected_time":233000000000,"state":"active","ping":54},{"user_id":556,"name":"Fuvuk","steam_id":76561198044458593,"connected_time":1987000000000,"state":"active","ping":87},{"user_id":546,"name":"Vlad","steam_id":76561198048605526,"connected_time":2237000000000,"state":"active","ping":68},{"user_id":582,"name":"ramedlaV^^","steam_id":76561198074352339,"connected_time":229000000000,"state":"active","ping":74},{"user_id":583,"name":"tamz","steam_id":76561198146873972,"connected_time":180000000000,"state":"active","ping":50},{"user_id":584,"name":"jkr","steam_id":76561198091135475,"connected_time":173000000000,"state":"active","ping":89},{"user_id":585,"name":"ChPerette 🎮","steam_id":76561198060004887,"connected_time":159000000000,"state":"active","ping":46},{"user_id":525,"name":"Labracababrador","steam_id":76561198255280285,"connected_time":3961000000000,"state":"active","ping":79}]},{"server_id":311,"name":"Uncletopia | Frankfurt | 6 | All Maps","name_short":"frk-6","host":"frk-1.de.uncletopia.com","port":27065,"enabled":true,"region":"eu","cc":"de","latitude":50.110924,"longitude":8.682127,"reserved":0,"last_update":"0001-01-01T00:00:00Z","name_a2s":"Uncletopia | Frankfurt | 6 | All Maps","protocol":17,"map":"pl_pier","folder":"tf","game":"Team Fortress","app_id":440,"player_count":18,"max_players":24,"Bots":0,"server_type":"Dedicated","server_os":"Linux","password":true,"vac":true,"version":"7961495","steam_id":85568392924504278,"keywords":["nocrits","nodmgspread","payload","uncletopia"],"game_id":440,"stv_port":27066,"stv_name":"Uncletopia | Frankfurt | 6 | All Maps | STV","players":[{"user_id":396,"name":"The Captain","steam_id":76561198136877350,"connected_time":346000000000,"state":"active","ping":77},{"user_id":404,"name":"Reaper1543","steam_id":76561198013279384,"connected_time":128000000000,"state":"active","ping":64},{"user_id":379,"name":"khhhhg","steam_id":76561198882704996,"connected_time":1637000000000,"state":"active","ping":80},{"user_id":399,"name":"skull issue","steam_id":76561198343328308,"connected_time":262000000000,"state":"active","ping":74},{"user_id":409,"name":"Dora","steam_id":76561198072207649,"connected_time":35000000000,"state":"active","ping":70},{"user_id":402,"name":"Karabast","steam_id":76561198041208332,"connected_time":146000000000,"state":"active","ping":62},{"user_id":403,"name":"MASKINER","steam_id":76561198011854314,"connected_time":141000000000,"state":"active","ping":70},{"user_id":330,"name":"K.V. #RemoveRandomCrits","steam_id":76561197994832993,"connected_time":3424000000000,"state":"active","ping":74},{"user_id":335,"name":"Hlinkaaaaa | G6G [⇄]","steam_id":76561198848779070,"connected_time":3337000000000,"state":"active","ping":134},{"user_id":371,"name":"iforwood.if","steam_id":76561198314347332,"connected_time":1809000000000,"state":"active","ping":67},{"user_id":405,"name":"Dom","steam_id":76561198000657288,"connected_time":112000000000,"state":"active","ping":67},{"user_id":406,"name":"netWauzi","steam_id":76561198007229483,"connected_time":87000000000,"state":"active","ping":48},{"user_id":407,"name":"don't forget the h","steam_id":76561198101292843,"connected_time":80000000000,"state":"active","ping":50},{"user_id":408,"name":"Kuickfire","steam_id":76561198066476639,"connected_time":75000000000,"state":"active","ping":91},{"user_id":410,"name":"aaaaaa","steam_id":76561198086304421,"connected_time":23000000000,"state":"active","ping":82},{"user_id":411,"name":"silicon based life form","steam_id":76561199127121346,"connected_time":19000000000,"state":"active","ping":55},{"user_id":415,"name":"MatesThePlayer","steam_id":76561198066156449,"connected_time":1000000000,"state":"spawning","ping":46},{"user_id":356,"name":"0iO","steam_id":76561198093526408,"connected_time":2577000000000,"state":"active","ping":72}]},{"server_id":23,"name":"Uncletopia | Frankfurt | 7 | Stopwatch","name_short":"frk-7","host":"frk-1.de.uncletopia.com","port":27075,"enabled":true,"region":"eu","cc":"de","latitude":50.110924,"longitude":8.682127,"reserved":0,"last_update":"0001-01-01T00:00:00Z","name_a2s":"Uncletopia | Frankfurt | 7 | Stopwatch","protocol":17,"map":"workshop/koth_clearcut_b15.ugc2107050255","folder":"tf","game":"Team Fortress","app_id":440,"player_count":0,"max_players":24,"Bots":0,"server_type":"Dedicated","server_os":"Linux","password":true,"vac":true,"version":"7961495","steam_id":85568392924742827,"keywords":["cp","nocrits","nodmgspread","uncletopia"],"game_id":440,"stv_port":27076,"stv_name":"Uncletopia | Frankfurt | 7 | Stopwatch | STV","players":null},{"server_id":24,"name":"Uncletopia | Frankfurt | 8 | Community","name_short":"frk-8","host":"frk-1.de.uncletopia.com","port":27085,"enabled":true,"region":"eu","cc":"de","latitude":50.110924,"longitude":8.682127,"reserved":0,"last_update":"0001-01-01T00:00:00Z","name_a2s":"Uncletopia | Frankfurt | 8 | Community","protocol":17,"map":"workshop/pl_barnblitz_pro7.ugc582280235","folder":"tf","game":"Team Fortress","app_id":440,"player_count":0,"max_players":24,"Bots":0,"server_type":"Dedicated","server_os":"Linux","password":true,"vac":true,"version":"7961495","steam_id":85568392924742828,"keywords":["nocrits","nodmgspread","payload","uncletopia"],"game_id":440,"stv_port":27086,"stv_name":"Uncletopia | Frankfurt | 8 | Community | STV","players":null},{"server_id":202,"name":"Uncletopia | Hong Kong | 1 | All Maps","name_short":"hgk-1","host":"hgk-1.hk.uncletopia.com","port":27015,"enabled":true,"region":"asia","cc":"hk","latitude":22.302711,"longitude":114.177216,"reserved":0,"last_update":"0001-01-01T00:00:00Z","name_a2s":"Uncletopia | Hong Kong | 1 | All Maps","protocol":17,"map":"koth_cascade","folder":"tf","game":"Team Fortress","app_id":440,"player_count":0,"max_players":24,"Bots":0,"server_type":"Dedicated","server_os":"Linux","password":true,"vac":true,"version":"7961495","steam_id":85568392924494504,"keywords":["cp","nocrits","nodmgspread","uncletopia"],"game_id":440,"stv_port":27016,"stv_name":"Uncletopia | Hong Kong | 1 | All Maps | STV","players":null},{"server_id":1,"name":"Uncletopia | Los Angeles | 1 | All Maps","name_short":"lax-1","host":"lax-1.us.uncletopia.com","port":27015,"enabled":true,"region":"us-west","cc":"us","latitude":33.94279,"longitude":-118.41004,"reserved":0,"last_update":"0001-01-01T00:00:00Z","name_a2s":"Uncletopia | Los Angeles | 1 | All Maps","protocol":17,"map":"koth_lakeside_final","folder":"tf","game":"Team Fortress","app_id":440,"player_count":0,"max_players":24,"Bots":0,"server_type":"Dedicated","server_os":"Linux","password":true,"vac":true,"version":"7961495","steam_id":85568392924469991,"keywords":["cp","nocrits","nodmgspread","uncletopia"],"game_id":440,"stv_port":27016,"stv_name":"Uncletopia | Los Angeles | 1 | All Maps | STV","players":null},{"server_id":112,"name":"Uncletopia | Los Angeles | 2 | All Maps","name_short":"lax-2","host":"lax-1.us.uncletopia.com","port":27025,"enabled":true,"region":"us-west","cc":"us","latitude":33.94279,"longitude":-118.41004,"reserved":0,"last_update":"0001-01-01T00:00:00Z","name_a2s":"Uncletopia | Los Angeles | 2 | All Maps","protocol":17,"map":"koth_lazarus","folder":"tf","game":"Team Fortress","app_id":440,"player_count":0,"max_players":24,"Bots":0,"server_type":"Dedicated","server_os":"Linux","password":true,"vac":true,"version":"7961495","steam_id":85568392924469992,"keywords":["cp","nocrits","nodmgspread","uncletopia"],"game_id":440,"stv_port":27026,"stv_name":"Uncletopia | Los Angeles | 2 | All Maps | STV","players":null},{"server_id":324,"name":"Uncletopia | Los Angeles | 3 | All Maps","name_short":"lax-3","host":"lax-1.us.uncletopia.com","port":27035,"enabled":true,"region":"us-west","cc":"us","latitude":33.94279,"longitude":-118.41004,"reserved":0,"last_update":"0001-01-01T00:00:00Z","name_a2s":"Uncletopia | Los Angeles | 3 | All Maps","protocol":17,"map":"cp_dustbowl","folder":"tf","game":"Team Fortress","app_id":440,"player_count":24,"max_players":24,"Bots":0,"server_type":"Dedicated","server_os":"Linux","password":true,"vac":true,"version":"7961495","steam_id":85568392924510198,"keywords":["cp","nocrits","nodmgspread","uncletopia"],"game_id":440,"stv_port":27036,"stv_name":"Uncletopia | Los Angeles | 3 | All Maps | STV","players":[{"user_id":215,"name":"An00bis","steam_id":76561198044084508,"connected_time":252000000000,"state":"active","ping":47},{"user_id":208,"name":"Call me the sleeps","steam_id":76561198121245586,"connected_time":475000000000,"state":"active","ping":88},{"user_id":207,"name":"TheMysteriousCrusader","steam_id":76561199222808833,"connected_time":562000000000,"state":"active","ping":61},{"user_id":212,"name":"Scumbudy","steam_id":76561198033824351,"connected_time":313000000000,"state":"active","ping":49},{"user_id":223,"name":"WHAM!","steam_id":76561198103088318,"connected_time":38000000000,"state":"active","ping":76},{"user_id":210,"name":"zeel107","steam_id":76561198063892990,"connected_time":367000000000,"state":"active","ping":90},{"user_id":200,"name":"reverie","steam_id":76561198168158637,"connected_time":905000000000,"state":"active","ping":67},{"user_id":173,"name":"I just did a \"Gaming\"","steam_id":76561198153836761,"connected_time":1846000000000,"state":"active","ping":60},{"user_id":165,"name":"Why Me...","steam_id":76561199124019937,"connected_time":1999000000000,"state":"active","ping":67},{"user_id":211,"name":"Celeritas","steam_id":76561198133414847,"connected_time":365000000000,"state":"active","ping":60},{"user_id":213,"name":"[ibb™]Shadow20X6-ENGI","steam_id":76561198019292755,"connected_time":297000000000,"state":"active","ping":48},{"user_id":224,"name":"Boongadoonga","steam_id":76561198058525763,"connected_time":16000000000,"state":"spawning","ping":104},{"user_id":216,"name":"Mr. Mesa Black","steam_id":76561199115274103,"connected_time":247000000000,"state":"active","ping":54},{"user_id":203,"name":"Sheev Palpatine","steam_id":76561198252332430,"connected_time":798000000000,"state":"active","ping":87},{"user_id":217,"name":"gobber","steam_id":76561198985538190,"connected_time":235000000000,"state":"active","ping":44},{"user_id":188,"name":"Krispy","steam_id":76561198127005410,"connected_time":1562000000000,"state":"active","ping":49},{"user_id":219,"name":"Admiral Angry","steam_id":76561198058199206,"connected_time":187000000000,"state":"active","ping":112},{"user_id":177,"name":"Rowmaster","steam_id":76561198271659574,"connected_time":1813000000000,"state":"active","ping":69},{"user_id":178,"name":"airbudetc","steam_id":76561199125415611,"connected_time":1797000000000,"state":"active","ping":65},{"user_id":220,"name":"noel","steam_id":76561198128280883,"connected_time":176000000000,"state":"active","ping":123},{"user_id":221,"name":"d1nero","steam_id":76561198295578318,"connected_time":170000000000,"state":"active","ping":58},{"user_id":191,"name":"tomandjerry085","steam_id":76561198800789071,"connected_time":1365000000000,"state":"active","ping":63},{"user_id":222,"name":"Orange Mann Bad","steam_id":76561198021126964,"connected_time":158000000000,"state":"active","ping":55}]},{"server_id":25,"name":"Uncletopia | Los Angeles | 4 | Stopwatch","name_short":"lax-4","host":"lax-1.us.uncletopia.com","port":27045,"enabled":true,"region":"us-west","cc":"us","latitude":33.94279,"longitude":-118.41004,"reserved":0,"last_update":"0001-01-01T00:00:00Z","name_a2s":"Uncletopia | Los Angeles | 4 | Stopwatch","protocol":17,"map":"workshop/koth_product_final.ugc454272353","folder":"tf","game":"Team Fortress","app_id":440,"player_count":0,"max_players":24,"Bots":0,"server_type":"Dedicated","server_os":"Linux","password":true,"vac":true,"version":"7961495","steam_id":85568392924510199,"keywords":["cp","nocrits","nodmgspread","uncletopia"],"game_id":440,"stv_port":27046,"stv_name":"Uncletopia | Los Angeles | 4 | Stopwatch | STV","players":null},{"server_id":11,"name":"Uncletopia | London | 1 | All Maps","name_short":"lon-1","host":"lon-1.uk.uncletopia.com","port":27015,"enabled":true,"region":"eu","cc":"gb","latitude":51.509865,"longitude":-0.118092,"reserved":0,"last_update":"0001-01-01T00:00:00Z","name_a2s":"Uncletopia | London | 1 | All Maps","protocol":17,"map":"cp_steel","folder":"tf","game":"Team Fortress","app_id":440,"player_count":24,"max_players":24,"Bots":0,"server_type":"Dedicated","server_os":"Linux","password":true,"vac":true,"version":"7961495","steam_id":85568392924367362,"keywords":["cp","nocrits","nodmgspread","uncletopia"],"game_id":440,"stv_port":27016,"stv_name":"Uncletopia | London | 1 | All Maps | STV","players":[{"user_id":543,"name":"⸸aura⸸","steam_id":76561198066258544,"connected_time":525000000000,"state":"active","ping":60},{"user_id":517,"name":"(MAC) [BN] Crazyking","steam_id":76561198001668616,"connected_time":3554000000000,"state":"active","ping":56},{"user_id":541,"name":"I.C. Wiener","steam_id":76561197999912254,"connected_time":658000000000,"state":"active","ping":91},{"user_id":544,"name":"katten","steam_id":76561198163615254,"connected_time":211000000000,"state":"active","ping":60},{"user_id":518,"name":"The_Jaystone","steam_id":76561198126280691,"connected_time":3521000000000,"state":"active","ping":45},{"user_id":542,"name":"hqdefault.png","steam_id":76561198106049954,"connected_time":530000000000,"state":"active","ping":77},{"user_id":492,"name":"t.tv/whimsybun","steam_id":76561198878171763,"connected_time":5471000000000,"state":"active","ping":53},{"user_id":539,"name":"Lyra","steam_id":76561198190583242,"connected_time":1331000000000,"state":"active","ping":88},{"user_id":465,"name":"hmscole09","steam_id":76561198811362788,"connected_time":7156000000000,"state":"active","ping":54},{"user_id":467,"name":"simpleaspossible","steam_id":76561198044827000,"connected_time":7110000000000,"state":"active","ping":45},{"user_id":527,"name":"flappi","steam_id":76561198072892783,"connected_time":2588000000000,"state":"active","ping":60},{"user_id":526,"name":"nudjura","steam_id":76561198281986139,"connected_time":2873000000000,"state":"active","ping":42},{"user_id":507,"name":"Laru","steam_id":76561197998838438,"connected_time":4254000000000,"state":"active","ping":89},{"user_id":530,"name":"Smokio","steam_id":76561198069650580,"connected_time":2469000000000,"state":"active","ping":90},{"user_id":515,"name":"Jam","steam_id":76561198090409013,"connected_time":3571000000000,"state":"active","ping":85},{"user_id":510,"name":"Purple Soup :D","steam_id":76561198985100366,"connected_time":3598000000000,"state":"active","ping":85},{"user_id":532,"name":"MEDiUM","steam_id":76561198112328561,"connected_time":2137000000000,"state":"active","ping":81},{"user_id":537,"name":"Hardlight","steam_id":76561198128064834,"connected_time":1361000000000,"state":"active","ping":71},{"user_id":513,"name":"Son Goku","steam_id":76561199383437138,"connected_time":3582000000000,"state":"active","ping":130},{"user_id":523,"name":"Demicore","steam_id":76561197976922136,"connected_time":3227000000000,"state":"active","ping":68},{"user_id":540,"name":"mertefe","steam_id":76561199237126613,"connected_time":1279000000000,"state":"active","ping":110},{"user_id":475,"name":"slippin jimmy","steam_id":76561198090788590,"connected_time":6977000000000,"state":"active","ping":45},{"user_id":536,"name":"sm0ke","steam_id":76561198198977226,"connected_time":1732000000000,"state":"active","ping":88},{"user_id":514,"name":"teddy","steam_id":76561198007436837,"connected_time":3582000000000,"state":"active","ping":45}]},{"server_id":114,"name":"Uncletopia | London | 2 | All Maps","name_short":"lon-2","host":"lon-1.uk.uncletopia.com","port":27025,"enabled":true,"region":"eu","cc":"gb","latitude":51.509865,"longitude":-0.118092,"reserved":0,"last_update":"0001-01-01T00:00:00Z","name_a2s":"Uncletopia | London | 2 | All Maps","protocol":17,"map":"koth_sawmill","folder":"tf","game":"Team Fortress","app_id":440,"player_count":24,"max_players":24,"Bots":0,"server_type":"Dedicated","server_os":"Linux","password":true,"vac":true,"version":"7961495","steam_id":85568392924470941,"keywords":["cp","nocrits","nodmgspread","uncletopia"],"game_id":440,"stv_port":27026,"stv_name":"Uncletopia | London | 2 | All Maps | STV","players":[{"user_id":248,"name":"m.morhac123","steam_id":76561199202883261,"connected_time":1495000000000,"state":"active","ping":68},{"user_id":227,"name":"TSx* Osa__PL","steam_id":76561198027016799,"connected_time":2877000000000,"state":"active","ping":74},{"user_id":249,"name":"Inky (She)","steam_id":76561198334042273,"connected_time":1493000000000,"state":"active","ping":46},{"user_id":250,"name":"kornetov.vitalya","steam_id":76561199286034833,"connected_time":1366000000000,"state":"active","ping":98},{"user_id":254,"name":"everywhere at the end of tf2","steam_id":76561198136163720,"connected_time":1050000000000,"state":"active","ping":61},{"user_id":207,"name":"The legendery balls","steam_id":76561199139344747,"connected_time":4434000000000,"state":"active","ping":103},{"user_id":199,"name":"Artakir","steam_id":76561198291746440,"connected_time":4844000000000,"state":"active","ping":86},{"user_id":208,"name":"lordd2647","steam_id":76561199433534405,"connected_time":4434000000000,"state":"active","ping":75},{"user_id":264,"name":"TeZ","steam_id":76561198151910084,"connected_time":302000000000,"state":"active","ping":64},{"user_id":256,"name":"soil.dirt.earth","steam_id":76561198014377623,"connected_time":1029000000000,"state":"active","ping":32},{"user_id":257,"name":"Cool Beans","steam_id":76561197995130085,"connected_time":981000000000,"state":"active","ping":43},{"user_id":228,"name":"TSx* {Demon-Angel}","steam_id":76561198151486463,"connected_time":2859000000000,"state":"active","ping":84},{"user_id":229,"name":"Balls","steam_id":76561198086400484,"connected_time":2839000000000,"state":"active","ping":69},{"user_id":252,"name":"Taska","steam_id":76561198807325888,"connected_time":1216000000000,"state":"active","ping":88},{"user_id":268,"name":"SendBob","steam_id":76561198151981614,"connected_time":0,"state":"spawning","ping":45},{"user_id":260,"name":"Just washed","steam_id":76561199030160932,"connected_time":835000000000,"state":"active","ping":156},{"user_id":261,"name":"Bombilla","steam_id":76561198084281798,"connected_time":828000000000,"state":"active","ping":72},{"user_id":244,"name":"orange","steam_id":76561198153181940,"connected_time":2186000000000,"state":"active","ping":50},{"user_id":265,"name":"Nuuskis","steam_id":76561198084042012,"connected_time":277000000000,"state":"active","ping":103},{"user_id":233,"name":"TSx* Bargal","steam_id":76561198040266872,"connected_time":2737000000000,"state":"active","ping":86},{"user_id":262,"name":"TSx* Dante","steam_id":76561198139309331,"connected_time":636000000000,"state":"active","ping":65},{"user_id":259,"name":"Prince Flip","steam_id":76561198023462157,"connected_time":917000000000,"state":"active","ping":51},{"user_id":201,"name":"LILY-CHAN","steam_id":76561198035085893,"connected_time":4817000000000,"state":"active","ping":104},{"user_id":246,"name":"stickurr","steam_id":76561198089536805,"connected_time":1786000000000,"state":"active","ping":38}]},{"server_id":320,"name":"Uncletopia | London | 3 | All Maps","name_short":"lon-3","host":"lon-1.uk.uncletopia.com","port":27035,"enabled":true,"region":"eu","cc":"gb","latitude":51.509865,"longitude":-0.118092,"reserved":0,"last_update":"0001-01-01T00:00:00Z","name_a2s":"Uncletopia | London | 3 | All Maps","protocol":17,"map":"pl_borneo","folder":"tf","game":"Team Fortress","app_id":440,"player_count":24,"max_players":24,"Bots":0,"server_type":"Dedicated","server_os":"Linux","password":true,"vac":true,"version":"7961495","steam_id":85568392924510192,"keywords":["nocrits","nodmgspread","payload","uncletopia"],"game_id":440,"stv_port":27036,"stv_name":"Uncletopia | London | 3 | All Maps | STV","players":[{"user_id":621,"name":"snayke","steam_id":76561198077822932,"connected_time":1547000000000,"state":"active","ping":61},{"user_id":620,"name":"Titty Tickling Bandit","steam_id":76561199192434258,"connected_time":1573000000000,"state":"active","ping":90},{"user_id":624,"name":"Dispenser(Dispenser)","steam_id":76561199211831658,"connected_time":1493000000000,"state":"active","ping":56},{"user_id":597,"name":"Hotdogs","steam_id":76561199112737347,"connected_time":3016000000000,"state":"active","ping":66},{"user_id":631,"name":"Sir Crust","steam_id":76561199122077146,"connected_time":670000000000,"state":"active","ping":65},{"user_id":632,"name":"www.ESYACARSISI.COM","steam_id":76561198378280844,"connected_time":360000000000,"state":"active","ping":116},{"user_id":630,"name":"etc","steam_id":76561197998394797,"connected_time":750000000000,"state":"active","ping":53},{"user_id":615,"name":"Bronchius Bonehead","steam_id":76561198133961416,"connected_time":2453000000000,"state":"active","ping":58},{"user_id":613,"name":"sin","steam_id":76561198193416785,"connected_time":2498000000000,"state":"active","ping":53},{"user_id":562,"name":"cheese_man_","steam_id":76561198086617728,"connected_time":5073000000000,"state":"active","ping":56},{"user_id":629,"name":"murderwow","steam_id":76561198024566944,"connected_time":773000000000,"state":"active","ping":106},{"user_id":570,"name":"night.s","steam_id":76561198326287823,"connected_time":4812000000000,"state":"active","ping":75},{"user_id":627,"name":"Bill Nye","steam_id":76561198168589809,"connected_time":864000000000,"state":"active","ping":55},{"user_id":582,"name":"Indomitable Truck-sama","steam_id":76561198826861582,"connected_time":4112000000000,"state":"active","ping":62},{"user_id":611,"name":"Falafel","steam_id":76561198043344845,"connected_time":2734000000000,"state":"active","ping":54},{"user_id":543,"name":"Personano","steam_id":76561198994355577,"connected_time":5834000000000,"state":"active","ping":48},{"user_id":605,"name":"Weeb exterminator","steam_id":76561198078964973,"connected_time":2904000000000,"state":"active","ping":68},{"user_id":606,"name":"Gbus","steam_id":76561198072335838,"connected_time":2904000000000,"state":"active","ping":55},{"user_id":574,"name":"giclure :;","steam_id":76561197986362828,"connected_time":4437000000000,"state":"active","ping":77},{"user_id":607,"name":"BadFemboy","steam_id":76561198072320671,"connected_time":2877000000000,"state":"active","ping":38},{"user_id":608,"name":"bigger chungus","steam_id":76561198122814249,"connected_time":2873000000000,"state":"active","ping":45},{"user_id":619,"name":"Ling-Ling","steam_id":76561197989253579,"connected_time":1868000000000,"state":"active","ping":71},{"user_id":626,"name":"Snowingle","steam_id":76561199222526482,"connected_time":1162000000000,"state":"active","ping":92},{"user_id":628,"name":"Fuck it (unhandicaps)","steam_id":76561197983095579,"connected_time":864000000000,"state":"active","ping":83}]},{"server_id":321,"name":"Uncletopia | London | 4 | All Maps","name_short":"lon-4","host":"lon-1.uk.uncletopia.com","port":27045,"enabled":true,"region":"eu","cc":"gb","latitude":51.509865,"longitude":-0.118092,"reserved":0,"last_update":"0001-01-01T00:00:00Z","name_a2s":"Uncletopia | London | 4 | All Maps","protocol":17,"map":"pl_barnblitz","folder":"tf","game":"Team Fortress","app_id":440,"player_count":2,"max_players":24,"Bots":0,"server_type":"Dedicated","server_os":"Linux","password":true,"vac":true,"version":"7961495","steam_id":85568392924510193,"keywords":["nocrits","nodmgspread","payload","uncletopia"],"game_id":440,"stv_port":27046,"stv_name":"Uncletopia | London | 4 | All Maps | STV","players":[{"user_id":20,"name":"MentalHellscape","steam_id":76561199138578162,"connected_time":640000000000,"state":"active","ping":132},{"user_id":21,"name":"DeterminedXD[HUN]","steam_id":76561199469006453,"connected_time":93000000000,"state":"active","ping":96}]},{"server_id":21,"name":"Uncletopia | London | 5 | All Maps","name_short":"lon-5","host":"lon-1.uk.uncletopia.com","port":27055,"enabled":true,"region":"eu","cc":"gb","latitude":51.509865,"longitude":-0.118092,"reserved":0,"last_update":"0001-01-01T00:00:00Z","name_a2s":"Uncletopia | London | 5 | All Maps","protocol":17,"map":"cp_sunshine","folder":"tf","game":"Team Fortress","app_id":440,"player_count":24,"max_players":24,"Bots":0,"server_type":"Dedicated","server_os":"Linux","password":true,"vac":true,"version":"7961495","steam_id":85568392924742829,"keywords":["cp","nocrits","nodmgspread","uncletopia"],"game_id":440,"stv_port":27056,"stv_name":"Uncletopia | London | 5 | All Maps | STV","players":[{"user_id":433,"name":"Bobirulez","steam_id":76561198009125458,"connected_time":5563000000000,"state":"active","ping":75},{"user_id":475,"name":"ddchdrn","steam_id":76561198024358566,"connected_time":748000000000,"state":"active","ping":69},{"user_id":476,"name":"Loitsu","steam_id":76561198098177012,"connected_time":708000000000,"state":"active","ping":92},{"user_id":477,"name":"Ozzie","steam_id":76561197992915315,"connected_time":669000000000,"state":"active","ping":60},{"user_id":391,"name":"Edsuedi","steam_id":76561198074722832,"connected_time":8933000000000,"state":"active","ping":61},{"user_id":480,"name":"Xtis","steam_id":76561198043837480,"connected_time":585000000000,"state":"active","ping":61},{"user_id":473,"name":"I-I","steam_id":76561198267969436,"connected_time":861000000000,"state":"active","ping":65},{"user_id":469,"name":"niandits","steam_id":76561198419798900,"connected_time":1112000000000,"state":"active","ping":118},{"user_id":478,"name":"Blar","steam_id":76561198042438229,"connected_time":646000000000,"state":"active","ping":58},{"user_id":494,"name":"Dr. Phil","steam_id":76561198047254219,"connected_time":65000000000,"state":"active","ping":54},{"user_id":479,"name":"A Monkey?","steam_id":76561198047600058,"connected_time":623000000000,"state":"active","ping":65},{"user_id":481,"name":"Waltism","steam_id":76561199447676489,"connected_time":569000000000,"state":"active","ping":93},{"user_id":471,"name":"Wandering Thyme","steam_id":76561198289245081,"connected_time":1052000000000,"state":"active","ping":74},{"user_id":466,"name":"Nithle","steam_id":76561198025372740,"connected_time":1956000000000,"state":"active","ping":31},{"user_id":484,"name":"Rock..","steam_id":76561198004641963,"connected_time":473000000000,"state":"active","ping":87},{"user_id":493,"name":"Cowboy_yehaw","steam_id":76561199000852449,"connected_time":82000000000,"state":"active","ping":64},{"user_id":486,"name":"novo:DDD","steam_id":76561198051096323,"connected_time":335000000000,"state":"active","ping":30},{"user_id":373,"name":"TranvesTito","steam_id":76561198140034262,"connected_time":9976000000000,"state":"active","ping":79},{"user_id":491,"name":"static","steam_id":76561198836825741,"connected_time":188000000000,"state":"active","ping":43},{"user_id":488,"name":"OnionReaper","steam_id":76561198024358403,"connected_time":274000000000,"state":"active","ping":76},{"user_id":436,"name":"Solymr ibn Wali Barad","steam_id":76561198044008976,"connected_time":5500000000000,"state":"active","ping":62},{"user_id":489,"name":"AHHEUS","steam_id":76561198859835182,"connected_time":271000000000,"state":"active","ping":97},{"user_id":450,"name":"Fat Pigeon","steam_id":76561198817940142,"connected_time":4061000000000,"state":"active","ping":46},{"user_id":490,"name":"Mr_Pulse_","steam_id":76561198095001602,"connected_time":262000000000,"state":"active","ping":100}]},{"server_id":22,"name":"Uncletopia | London | 6 | All Maps","name_short":"lon-6","host":"lon-1.uk.uncletopia.com","port":27065,"enabled":true,"region":"eu","cc":"gb","latitude":51.509865,"longitude":-0.118092,"reserved":0,"last_update":"0001-01-01T00:00:00Z","name_a2s":"Uncletopia | London | 6 | All Maps","protocol":17,"map":"pl_pier","folder":"tf","game":"Team Fortress","app_id":440,"player_count":24,"max_players":24,"Bots":0,"server_type":"Dedicated","server_os":"Linux","password":true,"vac":true,"version":"7961495","steam_id":85568392924742830,"keywords":["nocrits","nodmgspread","payload","uncletopia"],"game_id":440,"stv_port":27066,"stv_name":"Uncletopia | London | 6 | All Maps | STV","players":[{"user_id":192,"name":"Toca","steam_id":76561198039582547,"connected_time":1233000000000,"state":"active","ping":53},{"user_id":193,"name":"Gillusion","steam_id":76561198138818087,"connected_time":1215000000000,"state":"active","ping":45},{"user_id":169,"name":"gitlitwitit","steam_id":76561197980019054,"connected_time":2258000000000,"state":"active","ping":63},{"user_id":156,"name":"Mizobau","steam_id":76561198965211894,"connected_time":2596000000000,"state":"active","ping":56},{"user_id":202,"name":"Pabs :D","steam_id":76561198000016962,"connected_time":689000000000,"state":"active","ping":62},{"user_id":159,"name":"KEYMASTER","steam_id":76561199053214638,"connected_time":2505000000000,"state":"active","ping":55},{"user_id":166,"name":"armadillo","steam_id":76561198324656652,"connected_time":2434000000000,"state":"active","ping":51},{"user_id":160,"name":"GG riser","steam_id":76561198279621400,"connected_time":2505000000000,"state":"active","ping":96},{"user_id":161,"name":"kluri","steam_id":76561198084518962,"connected_time":2501000000000,"state":"active","ping":75},{"user_id":208,"name":"IndianKoolKid","steam_id":76561198259386987,"connected_time":307000000000,"state":"active","ping":53},{"user_id":163,"name":"Warrior555MainsGanon","steam_id":76561198388627786,"connected_time":2496000000000,"state":"active","ping":58},{"user_id":203,"name":"⨂","steam_id":76561198087800030,"connected_time":659000000000,"state":"active","ping":36},{"user_id":198,"name":"Akisян","steam_id":76561198078706435,"connected_time":1152000000000,"state":"active","ping":75},{"user_id":189,"name":"SissifiedBlackGuy","steam_id":76561199509261527,"connected_time":1346000000000,"state":"active","ping":113},{"user_id":207,"name":"monikka","steam_id":76561198297003397,"connected_time":469000000000,"state":"active","ping":69},{"user_id":170,"name":"Thehold","steam_id":76561198246776640,"connected_time":2246000000000,"state":"active","ping":111},{"user_id":184,"name":"Mr. Hunts","steam_id":76561197981910397,"connected_time":1655000000000,"state":"active","ping":61},{"user_id":197,"name":"femboy swaggot","steam_id":76561199509191236,"connected_time":1157000000000,"state":"active","ping":158},{"user_id":201,"name":"Dr. Funkenstein","steam_id":76561197977816210,"connected_time":984000000000,"state":"active","ping":55},{"user_id":195,"name":"fl1p","steam_id":76561198148565659,"connected_time":1194000000000,"state":"active","ping":75},{"user_id":206,"name":"Woman (Real)","steam_id":76561199151823932,"connected_time":473000000000,"state":"active","ping":82},{"user_id":186,"name":"Hero + Rico","steam_id":76561198023844754,"connected_time":1595000000000,"state":"active","ping":62},{"user_id":199,"name":"vurtun","steam_id":76561198857395274,"connected_time":1148000000000,"state":"active","ping":58},{"user_id":180,"name":"wavelength","steam_id":76561198154677956,"connected_time":1827000000000,"state":"active","ping":84}]},{"server_id":40,"name":"Uncletopia | London | 7 | Stopwatch","name_short":"lon-7","host":"lon-1.uk.uncletopia.com","port":27075,"enabled":true,"region":"eu","cc":"gb","latitude":51.509865,"longitude":-0.118092,"reserved":0,"last_update":"0001-01-01T00:00:00Z","name_a2s":"Uncletopia | London | 7 | Stopwatch","protocol":17,"map":"cp_granary","folder":"tf","game":"Team Fortress","app_id":440,"player_count":0,"max_players":24,"Bots":0,"server_type":"Dedicated","server_os":"Linux","password":true,"vac":true,"version":"7961495","steam_id":85568392924964314,"keywords":["cp","nocrits","nodmgspread","uncletopia"],"game_id":440,"stv_port":27076,"stv_name":"Uncletopia | London | 7 | Stopwatch | STV","players":null},{"server_id":41,"name":"Uncletopia | London | 8 | Community","name_short":"lon-8","host":"lon-1.uk.uncletopia.com","port":27085,"enabled":true,"region":"eu","cc":"gb","latitude":51.509865,"longitude":-0.118092,"reserved":0,"last_update":"0001-01-01T00:00:00Z","name_a2s":"Uncletopia | London | 8 | Community","protocol":17,"map":"workshop/rd_asteroid_redux_b1.ugc2154902912","folder":"tf","game":"Team Fortress","app_id":440,"player_count":0,"max_players":24,"Bots":0,"server_type":"Dedicated","server_os":"Linux","password":true,"vac":true,"version":"7961495","steam_id":85568392924964315,"keywords":["beta","nocrits","nodmgspread","rd","uncletopia"],"game_id":440,"stv_port":27086,"stv_name":"Uncletopia | London | 8 | Community | STV","players":null},{"server_id":300,"name":"Uncletopia | Montréal | 1 | One Thousand Uncles","name_short":"mtl-1","host":"mtl-1.ca.uncletopia.com","port":27015,"enabled":true,"region":"us-east","cc":"ca","latitude":45.50889,"longitude":-73.56167,"reserved":0,"last_update":"0001-01-01T00:00:00Z","name_a2s":"Uncletopia | Montréal | 1 | One Thousand Uncles","protocol":17,"map":"pl_thundermountain","folder":"tf","game":"Team Fortress","app_id":440,"player_count":25,"max_players":32,"Bots":20,"server_type":"Dedicated","server_os":"Linux","password":true,"vac":true,"version":"7961495","steam_id":85568392924500087,"keywords":["alltalk","bots","danepve","increased_maxplayers","norespawntime","payload","uncletopia"],"game_id":440,"stv_port":0,"stv_name":"","players":[{"user_id":156,"name":"puffy","steam_id":76561198411347037,"connected_time":6610000000000,"state":"active","ping":60},{"user_id":169,"name":"Femboy Gaming","steam_id":76561199382783363,"connected_time":3634000000000,"state":"active","ping":95},{"user_id":170,"name":"Ak","steam_id":76561199333659458,"connected_time":3629000000000,"state":"active","ping":57},{"user_id":177,"name":"🌸O L I V I A🌸","steam_id":76561198321854032,"connected_time":1789000000000,"state":"active","ping":89},{"user_id":178,"name":"LeFunnyMan","steam_id":76561199081645289,"connected_time":1665000000000,"state":"active","ping":90}]},{"server_id":301,"name":"Uncletopia | Montréal | 2 | One Thousand Uncles","name_short":"mtl-2","host":"mtl-1.ca.uncletopia.com","port":27025,"enabled":true,"region":"us-east","cc":"ca","latitude":45.50889,"longitude":-73.56167,"reserved":0,"last_update":"0001-01-01T00:00:00Z","name_a2s":"Uncletopia | Montréal | 2 | One Thousand Uncles","protocol":17,"map":"cp_mossrock","folder":"tf","game":"Team Fortress","app_id":440,"player_count":0,"max_players":32,"Bots":0,"server_type":"Dedicated","server_os":"Linux","password":true,"vac":true,"version":"7961495","steam_id":85568392924500088,"keywords":["alltalk","cp","danepve","increased_maxplayers","norespawntime","uncletopia"],"game_id":440,"stv_port":0,"stv_name":"","players":null},{"server_id":302,"name":"Uncletopia | Montréal | 3 | One Thousand Uncles","name_short":"mtl-3","host":"mtl-1.ca.uncletopia.com","port":27035,"enabled":true,"region":"us-east","cc":"ca","latitude":45.50889,"longitude":-73.56167,"reserved":0,"last_update":"0001-01-01T00:00:00Z","name_a2s":"Uncletopia | Montréal | 3 | One Thousand Uncles","protocol":17,"map":"pl_pier","folder":"tf","game":"Team Fortress","app_id":440,"player_count":21,"max_players":32,"Bots":20,"server_type":"Dedicated","server_os":"Linux","password":true,"vac":true,"version":"7961495","steam_id":85568392924500089,"keywords":["alltalk","bots","danepve","increased_maxplayers","norespawntime","payload","uncletopia"],"game_id":440,"stv_port":0,"stv_name":"","players":[{"user_id":67,"name":"eggmed","steam_id":76561198798511564,"connected_time":549000000000,"state":"active","ping":89}]},{"server_id":13,"name":"Uncletopia | New York City | 1 | All Maps","name_short":"nyc-1","host":"nyc-1.us.uncletopia.com","port":27015,"enabled":true,"region":"us-east","cc":"us","latitude":40.73061,"longitude":-73.93524,"reserved":0,"last_update":"0001-01-01T00:00:00Z","name_a2s":"Uncletopia | New York City | 1 | All Maps","protocol":17,"map":"pl_upward","folder":"tf","game":"Team Fortress","app_id":440,"player_count":17,"max_players":24,"Bots":0,"server_type":"Dedicated","server_os":"Linux","password":true,"vac":true,"version":"7961495","steam_id":85568392924469993,"keywords":["nocrits","nodmgspread","payload","uncletopia"],"game_id":440,"stv_port":27016,"stv_name":"Uncletopia | New York City | 1 | All Maps | STV","players":[{"user_id":313,"name":"hayes","steam_id":76561198057101042,"connected_time":61000000000,"state":"active","ping":88},{"user_id":314,"name":"samingames1234","steam_id":76561198394112052,"connected_time":15000000000,"state":"active","ping":53},{"user_id":287,"name":"melon soda","steam_id":76561198066748230,"connected_time":1678000000000,"state":"active","ping":46},{"user_id":280,"name":"Mikael_01","steam_id":76561199080253129,"connected_time":1847000000000,"state":"active","ping":162},{"user_id":269,"name":"King","steam_id":76561198444100295,"connected_time":2956000000000,"state":"active","ping":174},{"user_id":315,"name":"G4BHUB","steam_id":76561199151564991,"connected_time":2000000000,"state":"spawning","ping":45},{"user_id":309,"name":"delta","steam_id":76561198288966901,"connected_time":701000000000,"state":"active","ping":165},{"user_id":295,"name":"Dr. Silk","steam_id":76561198331488181,"connected_time":1326000000000,"state":"active","ping":72},{"user_id":275,"name":"non professional nouns.","steam_id":76561198294013916,"connected_time":2371000000000,"state":"active","ping":43},{"user_id":302,"name":"HI_THERE","steam_id":76561198436389409,"connected_time":1106000000000,"state":"active","ping":65},{"user_id":289,"name":"vvichael","steam_id":76561198238148528,"connected_time":1605000000000,"state":"active","ping":46},{"user_id":292,"name":"comet sooicidy","steam_id":76561198025173479,"connected_time":1493000000000,"state":"active","ping":70},{"user_id":304,"name":"Helmet Hands","steam_id":76561197961141994,"connected_time":998000000000,"state":"active","ping":112},{"user_id":310,"name":"morty","steam_id":76561199230137467,"connected_time":695000000000,"state":"active","ping":56},{"user_id":300,"name":"Klitz Penischmidt(DRUNK)","steam_id":76561198050582941,"connected_time":1202000000000,"state":"active","ping":60},{"user_id":311,"name":"Kronk","steam_id":76561198063092125,"connected_time":540000000000,"state":"active","ping":65},{"user_id":272,"name":"Flare rust mode","steam_id":76561198048291891,"connected_time":2920000000000,"state":"active","ping":52}]},{"server_id":14,"name":"Uncletopia | New York City | 2 | All Maps","name_short":"nyc-2","host":"nyc-1.us.uncletopia.com","port":27025,"enabled":true,"region":"us-east","cc":"us","latitude":40.73061,"longitude":-73.93524,"reserved":0,"last_update":"0001-01-01T00:00:00Z","name_a2s":"Uncletopia | New York City | 2 | All Maps","protocol":17,"map":"pl_thundermountain","folder":"tf","game":"Team Fortress","app_id":440,"player_count":24,"max_players":24,"Bots":0,"server_type":"Dedicated","server_os":"Linux","password":true,"vac":true,"version":"7961495","steam_id":85568392924469994,"keywords":["nocrits","nodmgspread","payload","uncletopia"],"game_id":440,"stv_port":27026,"stv_name":"Uncletopia | New York City | 2 | All Maps | STV","players":[{"user_id":288,"name":"Soy King","steam_id":76561198263025614,"connected_time":797000000000,"state":"active","ping":148},{"user_id":245,"name":"emotional suppport e-cigarette","steam_id":76561198172120615,"connected_time":3748000000000,"state":"active","ping":35},{"user_id":204,"name":"Pixeled","steam_id":76561198088917077,"connected_time":5615000000000,"state":"active","ping":68},{"user_id":295,"name":"Pydro","steam_id":76561197995995820,"connected_time":354000000000,"state":"active","ping":81},{"user_id":262,"name":"Nick","steam_id":76561198056346810,"connected_time":2546000000000,"state":"active","ping":65},{"user_id":296,"name":"That's So Raven! [Dexgod]","steam_id":76561198017130786,"connected_time":253000000000,"state":"active","ping":70},{"user_id":292,"name":"your very own pocket medic","steam_id":76561199489320369,"connected_time":494000000000,"state":"active","ping":59},{"user_id":258,"name":"Officer_Party","steam_id":76561199013077337,"connected_time":3044000000000,"state":"active","ping":119},{"user_id":278,"name":"TheTankerofCaptins","steam_id":76561198276150712,"connected_time":1239000000000,"state":"active","ping":81},{"user_id":225,"name":"..!","steam_id":76561198882483441,"connected_time":4734000000000,"state":"active","ping":72},{"user_id":286,"name":"ShadowBolt","steam_id":76561198061610985,"connected_time":895000000000,"state":"active","ping":86},{"user_id":223,"name":"Chord","steam_id":76561198110874021,"connected_time":4876000000000,"state":"active","ping":78},{"user_id":293,"name":"Paulktw1","steam_id":76561198362380245,"connected_time":483000000000,"state":"active","ping":162},{"user_id":299,"name":"Surin","steam_id":76561198008953177,"connected_time":74000000000,"state":"active","ping":71},{"user_id":289,"name":"Jesus","steam_id":76561198018890911,"connected_time":727000000000,"state":"active","ping":84},{"user_id":294,"name":"Xx_gam3rberg_xX","steam_id":76561199035781025,"connected_time":458000000000,"state":"active","ping":67},{"user_id":287,"name":"cake","steam_id":76561198321802800,"connected_time":889000000000,"state":"active","ping":61},{"user_id":267,"name":"dadgummit","steam_id":76561198005806915,"connected_time":2229000000000,"state":"active","ping":69},{"user_id":264,"name":"YOU WHAT?!","steam_id":76561198418679471,"connected_time":2524000000000,"state":"active","ping":60},{"user_id":297,"name":"Abyssal with Guns","steam_id":76561198060746895,"connected_time":235000000000,"state":"active","ping":100},{"user_id":298,"name":"rob1028","steam_id":76561198055429931,"connected_time":92000000000,"state":"active","ping":61},{"user_id":290,"name":"aidenldavid14","steam_id":76561199161290448,"connected_time":644000000000,"state":"active","ping":189},{"user_id":291,"name":"thefanchick","steam_id":76561199092414034,"connected_time":578000000000,"state":"active","ping":57},{"user_id":253,"name":"Menace to Sobriety","steam_id":76561198245103000,"connected_time":3338000000000,"state":"active","ping":52}]},{"server_id":15,"name":"Uncletopia | New York City | 3 | Stopwatch","name_short":"nyc-3","host":"nyc-1.us.uncletopia.com","port":27035,"enabled":true,"region":"us-east","cc":"us","latitude":40.73061,"longitude":-73.93524,"reserved":0,"last_update":"0001-01-01T00:00:00Z","name_a2s":"Uncletopia | New York City | 3 | Stopwatch","protocol":17,"map":"pl_upward","folder":"tf","game":"Team Fortress","app_id":440,"player_count":0,"max_players":24,"Bots":0,"server_type":"Dedicated","server_os":"Linux","password":true,"vac":true,"version":"7961495","steam_id":85568392924742820,"keywords":["nocrits","nodmgspread","payload","uncletopia"],"game_id":440,"stv_port":27036,"stv_name":"Uncletopia | New York City | 3 | Stopwatch | STV","players":null},{"server_id":16,"name":"Uncletopia | New York City | 4 | Community","name_short":"nyc-4","host":"nyc-1.us.uncletopia.com","port":27045,"enabled":true,"region":"us-east","cc":"us","latitude":40.73061,"longitude":-73.93524,"reserved":0,"last_update":"0001-01-01T00:00:00Z","name_a2s":"Uncletopia | New York City | 4 | Community","protocol":17,"map":"workshop/pl_shoreleave_rc2.ugc1238849347","folder":"tf","game":"Team Fortress","app_id":440,"player_count":0,"max_players":24,"Bots":0,"server_type":"Dedicated","server_os":"Linux","password":true,"vac":true,"version":"7961495","steam_id":85568392924742821,"keywords":["nocrits","nodmgspread","payload","uncletopia"],"game_id":440,"stv_port":27046,"stv_name":"Uncletopia | New York City | 4 | Community | STV","players":null},{"server_id":142,"name":"Uncletopia | São Paulo | 1 | All Maps","name_short":"sao-1","host":"sao-1.br.uncletopia.com","port":27015,"enabled":true,"region":"sa","cc":"br","latitude":-23.533773,"longitude":-46.62529,"reserved":0,"last_update":"0001-01-01T00:00:00Z","name_a2s":"Uncletopia | São Paulo | 1 | All Maps","protocol":17,"map":"koth_viaduct","folder":"tf","game":"Team Fortress","app_id":440,"player_count":4,"max_players":24,"Bots":0,"server_type":"Dedicated","server_os":"Linux","password":true,"vac":true,"version":"7961495","steam_id":85568392924469996,"keywords":["cp","nocrits","nodmgspread","uncletopia"],"game_id":440,"stv_port":27016,"stv_name":"Uncletopia | São Paulo | 1 | All Maps | STV","players":[{"user_id":64,"name":"eles pegaram minha maconha","steam_id":76561199359501901,"connected_time":2575000000000,"state":"active","ping":32},{"user_id":67,"name":"where did you go","steam_id":76561198075144814,"connected_time":1993000000000,"state":"active","ping":47},{"user_id":72,"name":"awyx","steam_id":76561198318937764,"connected_time":282000000000,"state":"active","ping":82}]},{"server_id":143,"name":"Uncletopia | São Paulo | 2 | Community","name_short":"sao-2","host":"sao-2.br.uncletopia.com","port":27015,"enabled":true,"region":"sa","cc":"br","latitude":-23.533773,"longitude":-46.62529,"reserved":0,"last_update":"0001-01-01T00:00:00Z","name_a2s":"Uncletopia | São Paulo | 2 | Community","protocol":17,"map":"workshop/koth_slaughter_rc1.ugc1712845210","folder":"tf","game":"Team Fortress","app_id":440,"player_count":2,"max_players":24,"Bots":0,"server_type":"Dedicated","server_os":"Linux","password":true,"vac":true,"version":"7961495","steam_id":85568392924485349,"keywords":["cp","nocrits","nodmgspread","uncletopia"],"game_id":440,"stv_port":27016,"stv_name":"Uncletopia | São Paulo | 2 | Community | STV","players":[{"user_id":11,"name":"SmoggySkewball","steam_id":76561198428665466,"connected_time":565000000000,"state":"active","ping":89},{"user_id":12,"name":"twistedVodka","steam_id":76561199429163241,"connected_time":503000000000,"state":"active","ping":72}]},{"server_id":7,"name":"Uncletopia | Seattle | 1 | All Maps","name_short":"sea-1","host":"sea-1.us.uncletopia.com","port":27015,"enabled":true,"region":"us-west","cc":"us","latitude":47.608013,"longitude":-122.33517,"reserved":0,"last_update":"0001-01-01T00:00:00Z","name_a2s":"Uncletopia | Seattle | 1 | All Maps","protocol":17,"map":"pl_borneo","folder":"tf","game":"Team Fortress","app_id":440,"player_count":24,"max_players":24,"Bots":0,"server_type":"Dedicated","server_os":"Linux","password":true,"vac":true,"version":"7961495","steam_id":85568392924469997,"keywords":["nocrits","nodmgspread","payload","uncletopia"],"game_id":440,"stv_port":27016,"stv_name":"Uncletopia | Seattle | 1 | All Maps | STV","players":[{"user_id":23,"name":"DrBurpDerp","steam_id":76561199204298474,"connected_time":2295000000000,"state":"active","ping":84},{"user_id":49,"name":"Frank","steam_id":76561198126681511,"connected_time":778000000000,"state":"active","ping":75},{"user_id":64,"name":"bobtheninjaman","steam_id":76561198066424544,"connected_time":105000000000,"state":"active","ping":85},{"user_id":27,"name":"Sailor","steam_id":76561199081983517,"connected_time":1561000000000,"state":"active","ping":96},{"user_id":50,"name":"QueenCake575","steam_id":76561198996882407,"connected_time":714000000000,"state":"active","ping":68},{"user_id":65,"name":"DinklebergTM","steam_id":76561198263734630,"connected_time":90000000000,"state":"active","ping":97},{"user_id":47,"name":"EngineerSoviet","steam_id":76561199343913468,"connected_time":886000000000,"state":"active","ping":114},{"user_id":32,"name":"[TrC] Dackstrus","steam_id":76561197973518509,"connected_time":1370000000000,"state":"active","ping":56},{"user_id":48,"name":"ocean Backwards","steam_id":76561199246614260,"connected_time":852000000000,"state":"active","ping":59},{"user_id":46,"name":"Mediocre Gaming","steam_id":76561199230467980,"connected_time":898000000000,"state":"active","ping":136},{"user_id":36,"name":"PhD Flopper","steam_id":76561198961051809,"connected_time":1152000000000,"state":"active","ping":100},{"user_id":51,"name":"TOTALLY HARDCORE","steam_id":76561198842311643,"connected_time":711000000000,"state":"active","ping":90},{"user_id":38,"name":"fish","steam_id":76561198401800919,"connected_time":1131000000000,"state":"active","ping":104},{"user_id":52,"name":"Oober Jackalope","steam_id":76561198285747760,"connected_time":694000000000,"state":"active","ping":72},{"user_id":63,"name":"Geomancer36","steam_id":76561198093370710,"connected_time":255000000000,"state":"active","ping":128},{"user_id":43,"name":"C0D","steam_id":76561198340544460,"connected_time":959000000000,"state":"active","ping":58},{"user_id":44,"name":"MrYadaization","steam_id":76561198050770818,"connected_time":930000000000,"state":"active","ping":69},{"user_id":53,"name":"Greskrendtregk","steam_id":76561197969553142,"connected_time":677000000000,"state":"active","ping":49},{"user_id":56,"name":"Barack Obama Gaming","steam_id":76561198129242016,"connected_time":668000000000,"state":"active","ping":51},{"user_id":57,"name":"bobby_basketball","steam_id":76561198347225801,"connected_time":604000000000,"state":"active","ping":47},{"user_id":58,"name":"AkaDoggo","steam_id":76561198968291063,"connected_time":554000000000,"state":"active","ping":108},{"user_id":59,"name":"MegaBitmap","steam_id":76561198086027059,"connected_time":532000000000,"state":"active","ping":92},{"user_id":61,"name":"GrantTheMedicYT","steam_id":76561199077176696,"connected_time":438000000000,"state":"active","ping":73},{"user_id":62,"name":"Federico","steam_id":76561198411873065,"connected_time":437000000000,"state":"active","ping":98}]},{"server_id":119,"name":"Uncletopia | Seattle | 2 | All Maps","name_short":"sea-2","host":"sea-1.us.uncletopia.com","port":27025,"enabled":true,"region":"us-west","cc":"us","latitude":47.608013,"longitude":-122.33517,"reserved":0,"last_update":"0001-01-01T00:00:00Z","name_a2s":"Uncletopia | Seattle | 2 | All Maps","protocol":17,"map":"cp_mountainlab","folder":"tf","game":"Team Fortress","app_id":440,"player_count":0,"max_players":24,"Bots":0,"server_type":"Dedicated","server_os":"Linux","password":true,"vac":true,"version":"7961495","steam_id":85568392924469998,"keywords":["cp","nocrits","nodmgspread","uncletopia"],"game_id":440,"stv_port":27026,"stv_name":"Uncletopia | Seattle | 2 | All Maps | STV","players":null},{"server_id":406,"name":"Uncletopia | Seattle | 3 | Stopwatch","name_short":"sea-3","host":"sea-1.us.uncletopia.com","port":27035,"enabled":true,"region":"us-west","cc":"us","latitude":47.608013,"longitude":-122.33517,"reserved":0,"last_update":"0001-01-01T00:00:00Z","name_a2s":"Uncletopia | Seattle | 3 | Stopwatch","protocol":17,"map":"cp_gullywash_final1","folder":"tf","game":"Team Fortress","app_id":440,"player_count":0,"max_players":24,"Bots":0,"server_type":"Dedicated","server_os":"Linux","password":true,"vac":true,"version":"7961495","steam_id":85568392924515217,"keywords":["cp","nocrits","nodmgspread","uncletopia"],"game_id":440,"stv_port":27036,"stv_name":"Uncletopia | Seattle | 3 | Stopwatch | STV","players":null},{"server_id":17,"name":"Uncletopia | San Francisco | 1 | All Maps","name_short":"sfo-1","host":"sfo-1.us.uncletopia.com","port":27015,"enabled":true,"region":"us-west","cc":"us","latitude":37.77397,"longitude":-122.4313,"reserved":0,"last_update":"0001-01-01T00:00:00Z","name_a2s":"Uncletopia | San Francisco | 1 | All Maps","protocol":17,"map":"pl_pier","folder":"tf","game":"Team Fortress","app_id":440,"player_count":0,"max_players":24,"Bots":0,"server_type":"Dedicated","server_os":"Linux","password":true,"vac":true,"version":"7961495","steam_id":85568392924469999,"keywords":["nocrits","nodmgspread","payload","uncletopia"],"game_id":440,"stv_port":27016,"stv_name":"Uncletopia | San Francisco | 1 | All Maps | STV","players":null},{"server_id":18,"name":"Uncletopia | San Francisco | 2 | All Maps","name_short":"sfo-2","host":"sfo-1.us.uncletopia.com","port":27025,"enabled":true,"region":"us-west","cc":"us","latitude":37.77397,"longitude":-122.4313,"reserved":0,"last_update":"0001-01-01T00:00:00Z","name_a2s":"Uncletopia | San Francisco | 2 | All Maps","protocol":17,"map":"pl_hoodoo_final","folder":"tf","game":"Team Fortress","app_id":440,"player_count":0,"max_players":24,"Bots":0,"server_type":"Dedicated","server_os":"Linux","password":true,"vac":true,"version":"7961495","steam_id":85568392924470000,"keywords":["nocrits","nodmgspread","payload","uncletopia"],"game_id":440,"stv_port":27026,"stv_name":"Uncletopia | San Francisco | 2 | All Maps | STV","players":null},{"server_id":19,"name":"Uncletopia | San Francisco | 3 | Stopwatch","name_short":"sfo-3","host":"sfo-1.us.uncletopia.com","port":27035,"enabled":true,"region":"us-west","cc":"us","latitude":37.77397,"longitude":-122.4313,"reserved":0,"last_update":"0001-01-01T00:00:00Z","name_a2s":"Uncletopia | San Francisco | 3 | Stopwatch","protocol":17,"map":"workshop/koth_clearcut_b15.ugc2107050255","folder":"tf","game":"Team Fortress","app_id":440,"player_count":0,"max_players":24,"Bots":0,"server_type":"Dedicated","server_os":"Linux","password":true,"vac":true,"version":"7961495","steam_id":85568392924742824,"keywords":["cp","nocrits","nodmgspread","uncletopia"],"game_id":440,"stv_port":27036,"stv_name":"Uncletopia | San Francisco | 3 | Stopwatch | STV","players":null},{"server_id":20,"name":"Uncletopia | San Francisco | 4 | Community","name_short":"sfo-4","host":"sfo-1.us.uncletopia.com","port":27045,"enabled":true,"region":"us-west","cc":"us","latitude":37.77397,"longitude":-122.4313,"reserved":0,"last_update":"0001-01-01T00:00:00Z","name_a2s":"Uncletopia | San Francisco | 4 | Community","protocol":17,"map":"workshop/pl_vigil_rc10.ugc1266210012","folder":"tf","game":"Team Fortress","app_id":440,"player_count":0,"max_players":24,"Bots":0,"server_type":"Dedicated","server_os":"Linux","password":true,"vac":true,"version":"7961495","steam_id":85568392924742826,"keywords":["nocrits","nodmgspread","payload","uncletopia"],"game_id":440,"stv_port":27046,"stv_name":"Uncletopia | San Francisco | 4 | Community | STV","players":null},{"server_id":141,"name":"Uncletopia | Sydney | 1 | All Maps","name_short":"syd-1","host":"syd-1.au.uncletopia.com","port":27015,"enabled":true,"region":"au","cc":"au","latitude":-33.865143,"longitude":151.2099,"reserved":0,"last_update":"0001-01-01T00:00:00Z","name_a2s":"Uncletopia | Sydney | 1 | All Maps","protocol":17,"map":"cp_altitude","folder":"tf","game":"Team Fortress","app_id":440,"player_count":0,"max_players":24,"Bots":0,"server_type":"Dedicated","server_os":"Linux","password":true,"vac":true,"version":"7961495","steam_id":85568392924470001,"keywords":["cp","nocrits","nodmgspread","uncletopia"],"game_id":440,"stv_port":27016,"stv_name":"Uncletopia | Sydney | 1 | All Maps | STV","players":null},{"server_id":123,"name":"Uncletopia | Sydney | 2 | All Maps","name_short":"syd-2","host":"syd-1.au.uncletopia.com","port":27025,"enabled":true,"region":"au","cc":"au","latitude":-33.865143,"longitude":151.2099,"reserved":0,"last_update":"0001-01-01T00:00:00Z","name_a2s":"Uncletopia | Sydney | 2 | All Maps","protocol":17,"map":"pl_swiftwater_final1","folder":"tf","game":"Team Fortress","app_id":440,"player_count":0,"max_players":24,"Bots":0,"server_type":"Dedicated","server_os":"Linux","password":true,"vac":true,"version":"7961495","steam_id":85568392924470002,"keywords":["nocrits","nodmgspread","payload","uncletopia"],"game_id":440,"stv_port":27026,"stv_name":"Uncletopia | Sydney | 2 | All Maps | STV","players":null},{"server_id":395,"name":"Uncletopia | Sydney | 3 | All Maps","name_short":"syd-3","host":"syd-1.au.uncletopia.com","port":27035,"enabled":true,"region":"au","cc":"au","latitude":-33.865143,"longitude":151.2099,"reserved":0,"last_update":"0001-01-01T00:00:00Z","name_a2s":"Uncletopia | Sydney | 3 | All Maps","protocol":17,"map":"koth_highpass","folder":"tf","game":"Team Fortress","app_id":440,"player_count":0,"max_players":24,"Bots":0,"server_type":"Dedicated","server_os":"Linux","password":true,"vac":true,"version":"7961495","steam_id":85568392925194467,"keywords":["cp","nocrits","nodmgspread","uncletopia"],"game_id":440,"stv_port":27036,"stv_name":"Uncletopia | Sydney | 3 | All Maps | STV","players":null},{"server_id":396,"name":"Uncletopia | Sydney | 4 | All Maps","name_short":"syd-4","host":"syd-1.au.uncletopia.com","port":27045,"enabled":true,"region":"au","cc":"au","latitude":-33.865143,"longitude":151.2099,"reserved":0,"last_update":"0001-01-01T00:00:00Z","name_a2s":"Uncletopia | Sydney | 4 | All Maps","protocol":17,"map":"koth_cascade","folder":"tf","game":"Team Fortress","app_id":440,"player_count":0,"max_players":24,"Bots":0,"server_type":"Dedicated","server_os":"Linux","password":true,"vac":true,"version":"7961495","steam_id":85568392925397958,"keywords":["cp","nocrits","nodmgspread","uncletopia"],"game_id":440,"stv_port":27046,"stv_name":"Uncletopia | Sydney | 4 | All Maps | STV","players":null},{"server_id":58,"name":"Uncletopia | Sydney | 5 | Stopwatch","name_short":"syd-5","host":"syd-1.au.uncletopia.com","port":27055,"enabled":true,"region":"au","cc":"au","latitude":-33.865143,"longitude":151.2099,"reserved":0,"last_update":"0001-01-01T00:00:00Z","name_a2s":"Uncletopia | Sydney | 5 | Stopwatch","protocol":17,"map":"workshop/koth_product_final.ugc454272353","folder":"tf","game":"Team Fortress","app_id":440,"player_count":0,"max_players":24,"Bots":0,"server_type":"Dedicated","server_os":"Linux","password":true,"vac":true,"version":"7961495","steam_id":85568392925397959,"keywords":["cp","nocrits","nodmgspread","uncletopia"],"game_id":440,"stv_port":27056,"stv_name":"Uncletopia | Sydney | 5 | Stopwatch | STV","players":null},{"server_id":59,"name":"Uncletopia | Sydney | 6 | Community","name_short":"syd-6","host":"syd-1.au.uncletopia.com","port":27065,"enabled":true,"region":"au","cc":"au","latitude":-33.865143,"longitude":151.2099,"reserved":0,"last_update":"0001-01-01T00:00:00Z","name_a2s":"Uncletopia | Sydney | 6 | Community","protocol":17,"map":"workshop/cp_mannbase_rc2a.ugc1900737467","folder":"tf","game":"Team Fortress","app_id":440,"player_count":0,"max_players":24,"Bots":0,"server_type":"Dedicated","server_os":"Linux","password":true,"vac":true,"version":"7961495","steam_id":85568392925397960,"keywords":["cp","nocrits","nodmgspread","uncletopia"],"game_id":440,"stv_port":27066,"stv_name":"Uncletopia | Sydney | 6 | Community | STV","players":null},{"server_id":49,"name":"Uncletopia | Warsaw | 1 | One Thousand Uncles","name_short":"waw-1","host":"waw-1.pl.uncletopia.com","port":27015,"enabled":true,"region":"eu","cc":"pl","latitude":52.2297,"longitude":21.017532,"reserved":0,"last_update":"0001-01-01T00:00:00Z","name_a2s":"Uncletopia | Warsaw | 1 | One Thousand Uncles","protocol":17,"map":"cp_dustbowl","folder":"tf","game":"Team Fortress","app_id":440,"player_count":30,"max_players":32,"Bots":20,"server_type":"Dedicated","server_os":"Linux","password":true,"vac":true,"version":"7961495","steam_id":85568392925397850,"keywords":["alltalk","bots","cp","danepve","increased_maxplayers","norespawntime","uncletopia"],"game_id":440,"stv_port":0,"stv_name":"","players":[{"user_id":337,"name":"PuPuruPuruPumPu","steam_id":76561198391950490,"connected_time":3177000000000,"state":"active","ping":98},{"user_id":359,"name":"DarthDanny","steam_id":76561197997718926,"connected_time":2245000000000,"state":"active","ping":132},{"user_id":368,"name":"Sissel GT","steam_id":76561198798757458,"connected_time":1193000000000,"state":"active","ping":80},{"user_id":361,"name":"sokoltd31","steam_id":76561199481892547,"connected_time":1810000000000,"state":"active","ping":100},{"user_id":362,"name":"soorenaRaiden","steam_id":76561199476318021,"connected_time":1768000000000,"state":"active","ping":167},{"user_id":374,"name":"Tispy","steam_id":76561199207410049,"connected_time":154000000000,"state":"spawning","ping":136},{"user_id":365,"name":"Valoxi","steam_id":76561197995042938,"connected_time":1355000000000,"state":"active","ping":81},{"user_id":370,"name":"Pat Redway","steam_id":76561198032922508,"connected_time":1157000000000,"state":"active","ping":83},{"user_id":372,"name":"tyroksi :D","steam_id":76561198103875245,"connected_time":1009000000000,"state":"active","ping":134},{"user_id":375,"name":"Otto von Bismarck","steam_id":76561198964429990,"connected_time":56000000000,"state":"active","ping":58}]},{"server_id":50,"name":"Uncletopia | Warsaw | 2 | One Thousand Uncles","name_short":"waw-2","host":"waw-1.pl.uncletopia.com","port":27025,"enabled":true,"region":"eu","cc":"pl","latitude":52.2297,"longitude":21.017532,"reserved":0,"last_update":"0001-01-01T00:00:00Z","name_a2s":"Uncletopia | Warsaw | 2 | One Thousand Uncles","protocol":17,"map":"pl_snowycoast","folder":"tf","game":"Team Fortress","app_id":440,"player_count":25,"max_players":32,"Bots":20,"server_type":"Dedicated","server_os":"Linux","password":true,"vac":true,"version":"7961495","steam_id":85568392925397851,"keywords":["alltalk","bots","danepve","increased_maxplayers","norespawntime","payload","uncletopia"],"game_id":440,"stv_port":0,"stv_name":"","players":[{"user_id":552,"name":"MichaelScopic","steam_id":76561198440602177,"connected_time":3381000000000,"state":"active","ping":204},{"user_id":582,"name":"durzymurzyn","steam_id":76561199084680369,"connected_time":1210000000000,"state":"active","ping":41},{"user_id":583,"name":"aofi the flat tgirl","steam_id":76561199172110503,"connected_time":706000000000,"state":"active","ping":181},{"user_id":581,"name":"Sonic2013 🇵🇱🇺🇦","steam_id":76561198110541962,"connected_time":1652000000000,"state":"active","ping":72},{"user_id":604,"name":"John Noob","steam_id":76561197999170026,"connected_time":120000000000,"state":"active","ping":110}]},{"server_id":51,"name":"Uncletopia | Warsaw | 3 | All Maps","name_short":"waw-3","host":"waw-1.pl.uncletopia.com","port":27035,"enabled":true,"region":"eu","cc":"pl","latitude":52.2297,"longitude":21.017532,"reserved":0,"last_update":"0001-01-01T00:00:00Z","name_a2s":"Uncletopia | Warsaw | 3 | All Maps","protocol":17,"map":"koth_viaduct","folder":"tf","game":"Team Fortress","app_id":440,"player_count":0,"max_players":24,"Bots":0,"server_type":"Dedicated","server_os":"Linux","password":true,"vac":true,"version":"7961495","steam_id":85568392925397852,"keywords":["cp","nocrits","nodmgspread","uncletopia"],"game_id":440,"stv_port":27036,"stv_name":"Uncletopia | Warsaw | 3 | All Maps | STV","players":null},{"server_id":52,"name":"Uncletopia | Warsaw | 4 | All Maps","name_short":"waw-4","host":"waw-1.pl.uncletopia.com","port":27045,"enabled":true,"region":"eu","cc":"pl","latitude":52.2297,"longitude":21.017532,"reserved":0,"last_update":"0001-01-01T00:00:00Z","name_a2s":"Uncletopia | Warsaw | 4 | All Maps","protocol":17,"map":"cp_dustbowl","folder":"tf","game":"Team Fortress","app_id":440,"player_count":0,"max_players":24,"Bots":0,"server_type":"Dedicated","server_os":"Linux","password":true,"vac":true,"version":"7961495","steam_id":85568392925397853,"keywords":["cp","nocrits","nodmgspread","uncletopia"],"game_id":440,"stv_port":27046,"stv_name":"Uncletopia | Warsaw | 4 | All Maps | STV","players":null},{"server_id":53,"name":"Uncletopia | Warsaw | 5 | Stopwatch","name_short":"waw-5","host":"waw-1.pl.uncletopia.com","port":27055,"enabled":true,"region":"eu","cc":"pl","latitude":52.2297,"longitude":21.017532,"reserved":0,"last_update":"0001-01-01T00:00:00Z","name_a2s":"Uncletopia | Warsaw | 5 | Stopwatch","protocol":17,"map":"workshop/koth_product_final.ugc454272353","folder":"tf","game":"Team Fortress","app_id":440,"player_count":0,"max_players":24,"Bots":0,"server_type":"Dedicated","server_os":"Linux","password":true,"vac":true,"version":"7961495","steam_id":85568392925397854,"keywords":["cp","nocrits","nodmgspread","uncletopia"],"game_id":440,"stv_port":27056,"stv_name":"Uncletopia | Warsaw | 5 | Stopwatch | STV","players":null},{"server_id":54,"name":"Uncletopia | Warsaw | 6 | Community","name_short":"waw-6","host":"waw-1.pl.uncletopia.com","port":27065,"enabled":true,"region":"eu","cc":"pl","latitude":52.2297,"longitude":21.017532,"reserved":0,"last_update":"0001-01-01T00:00:00Z","name_a2s":"Uncletopia | Warsaw | 6 | Community","protocol":17,"map":"workshop/cp_fulgur_rc2a.ugc2068252300","folder":"tf","game":"Team Fortress","app_id":440,"player_count":0,"max_players":24,"Bots":0,"server_type":"Dedicated","server_os":"Linux","password":true,"vac":true,"version":"7961495","steam_id":85568392925397856,"keywords":["cp","nocrits","nodmgspread","uncletopia"],"game_id":440,"stv_port":27066,"stv_name":"Uncletopia | Warsaw | 6 | Community | STV","players":null}]}