{"status":true,"message":"","result":[{"server_id":9,"name":"Uncletopia | Atlanta | 1 | All Maps","name_short":"atl-1","host":"atl-1.us.uncletopia.com","port":27015,"enabled":true,"region":"us-east","cc":"us","latitude":33.753746,"longitude":-84.38633,"reserved":0,"last_update":"0001-01-01T00:00:00Z","name_a2s":"Uncletopia | Atlanta | 1 | All Maps","protocol":17,"map":"cp_mountainlab","folder":"tf","game":"Team Fortress","app_id":440,"player_count":24,"max_players":24,"Bots":0,"server_type":"Dedicated","server_os":"Linux","password":true,"vac":true,"version":"7742253","steam_id":85568392924469982,"keywords":["cp","nocrits","nodmgspread","uncletopia"],"game_id":440,"stv_port":27016,"stv_name":"Uncletopia | Atlanta | 1 | All Maps | STV","players":[{"user_id":210,"name":"DON QUIXOTE","steam_id":76561198091111592,"connected_time":3195000000000,"state":"active","ping":46},{"user_id":204,"name":"Jin","steam_id":76561198119873148,"connected_time":3823000000000,"state":"active","ping":76},{"user_id":218,"name":"lexapro delirium","steam_id":76561198343005244,"connected_time":2359000000000,"state":"active","ping":122},{"user_id":138,"name":"Young-OG","steam_id":76561198058800479,"connected_time":7157000000000,"state":"active","ping":62},{"user_id":219,"name":"ATL1 | Mayhem","steam_id":76561199246637881,"connected_time":1959000000000,"state":"active","ping":57},{"user_id":235,"name":"The ATF","steam_id":76561198046518234,"connected_time":514000000000,"state":"active","ping":52},{"user_id":232,"name":"slogan","steam_id":76561197974410492,"connected_time":634000000000,"state":"active","ping":80},{"user_id":228,"name":"Kagutrena","steam_id":76561198114774533,"connected_time":1305000000000,"state":"active","ping":69},{"user_id":205,"name":"T√ñZI","steam_id":76561198045268695,"connected_time":3819000000000,"state":"active","ping":75},{"user_id":206,"name":"Jellyboi","steam_id":76561197995758438,"connected_time":3805000000000,"state":"active","ping":61},{"user_id":231,"name":"AliCeline","steam_id":76561198207017241,"connected_time":706000000000,"state":"active","ping":73},{"user_id":163,"name":"ark","steam_id":76561198041066271,"connected_time":5691000000000,"state":"active","ping":85},{"user_id":229,"name":"craf","steam_id":76561198163535075,"connected_time":949000000000,"state":"active","ping":73},{"user_id":212,"name":"Obelisk","steam_id":76561198049416866,"connected_time":3052000000000,"state":"active","ping":51},{"user_id":227,"name":"Azazel","steam_id":76561198370600754,"connected_time":1367000000000,"state":"active","ping":71},{"user_id":225,"name":"Den_Doofed","steam_id":76561198064418407,"connected_time":1537000000000,"state":"active","ping":90},{"user_id":213,"name":"squid game","steam_id":76561199248960166,"connected_time":3047000000000,"state":"active","ping":97},{"user_id":236,"name":"Strawburrr","steam_id":76561199208694620,"connected_time":494000000000,"state":"active","ping":64},{"user_id":230,"name":"Royal_tm","steam_id":76561198319509387,"connected_time":865000000000,"state":"active","ping":70},{"user_id":222,"name":"stink claus","steam_id":76561198099318923,"connected_time":1567000000000,"state":"active","ping":78},{"user_id":226,"name":"DJRmazing","steam_id":76561198045180003,"connected_time":1531000000000,"state":"active","ping":89},{"user_id":239,"name":"kohi","steam_id":76561198319990195,"connected_time":248000000000,"state":"active","ping":89},{"user_id":220,"name":"‡∂û‚Åß‚ÅßOÕ≠nÕ™eÕ§TrueDev","steam_id":76561198107400823,"connected_time":1578000000000,"state":"active","ping":72},{"user_id":234,"name":"Towns","steam_id":76561198984662863,"connected_time":532000000000,"state":"active","ping":78}]},{"server_id":400,"name":"Uncletopia | Atlanta | 3 | Stopwatch Beta","name_short":"atl-3","host":"atl-1.us.uncletopia.com","port":27035,"enabled":true,"region":"us-east","cc":"us","latitude":33.753746,"longitude":-84.38633,"reserved":0,"last_update":"0001-01-01T00:00:00Z","name_a2s":"Uncletopia | Atlanta | 3 | Stopwatch Beta","protocol":17,"map":"pl_upward","folder":"tf","game":"Team Fortress","app_id":440,"player_count":1,"max_players":24,"Bots":0,"server_type":"Dedicated","server_os":"Linux","password":true,"vac":true,"version":"7742253","steam_id":85568392924515187,"keywords":["nocrits","nodmgspread","payload","uncletopia"],"game_id":440,"stv_port":27036,"stv_name":"Uncletopia | Atlanta | 3 | Stopwatch Beta | STV","players":[{"user_id":10,"name":"TheSpoop","steam_id":76561198872441049,"connected_time":1000000000,"state":"spawning","ping":46}]},{"server_id":401,"name":"Uncletopia | Atlanta | 4 | No Payload","name_short":"atl-4","host":"atl-1.us.uncletopia.com","port":27045,"enabled":true,"region":"us-east","cc":"us","latitude":33.753746,"longitude":-84.38633,"reserved":0,"last_update":"0001-01-01T00:00:00Z","name_a2s":"Uncletopia | Atlanta | 4 | No Payload","protocol":17,"map":"pl_pier","folder":"tf","game":"Team Fortress","app_id":440,"player_count":0,"max_players":24,"Bots":0,"server_type":"Dedicated","server_os":"Linux","password":true,"vac":true,"version":"7723704","steam_id":85568392924515188,"keywords":["nocrits","nodmgspread","payload","uncletopia"],"game_id":440,"stv_port":27046,"stv_name":"Uncletopia | Atlanta | 4 | No Payload | STV","players":null},{"server_id":2,"name":"Uncletopia | Chicago | 1 | All Maps","name_short":"chi-1","host":"chi-1.us.uncletopia.com","port":27015,"enabled":true,"region":"us-central","cc":"us","latitude":41.881832,"longitude":-87.62318,"reserved":0,"last_update":"0001-01-01T00:00:00Z","name_a2s":"Uncletopia | Chicago | 1 | All Maps","protocol":17,"map":"koth_highpass","folder":"tf","game":"Team Fortress","app_id":440,"player_count":0,"max_players":24,"Bots":0,"server_type":"Dedicated","server_os":"Linux","password":true,"vac":true,"version":"7742253","steam_id":85568392924469984,"keywords":["cp","nocrits","nodmgspread","uncletopia"],"game_id":440,"stv_port":27016,"stv_name":"Uncletopia | Chicago | 1 | All Maps | STV","players":null},{"server_id":106,"name":"Uncletopia | Chicago | 2 | All Maps","name_short":"chi-2","host":"chi-1.us.uncletopia.com","port":27025,"enabled":true,"region":"us-central","cc":"us","latitude":41.881832,"longitude":-87.62318,"reserved":0,"last_update":"0001-01-01T00:00:00Z","name_a2s":"Uncletopia | Chicago | 2 | All Maps","protocol":17,"map":"cp_altitude","folder":"tf","game":"Team Fortress","app_id":440,"player_count":0,"max_players":24,"Bots":0,"server_type":"Dedicated","server_os":"Linux","password":true,"vac":true,"version":"7742253","steam_id":85568392924469985,"keywords":["cp","nocrits","nodmgspread","uncletopia"],"game_id":440,"stv_port":27026,"stv_name":"Uncletopia | Chicago | 2 | All Maps | STV","players":null},{"server_id":402,"name":"Uncletopia | Chicago | 3 | All Maps","name_short":"chi-3","host":"chi-1.us.uncletopia.com","port":27035,"enabled":true,"region":"us-central","cc":"us","latitude":41.881832,"longitude":-87.62318,"reserved":0,"last_update":"0001-01-01T00:00:00Z","name_a2s":"Uncletopia | Chicago | 3 | All Maps","protocol":17,"map":"pl_frontier_final","folder":"tf","game":"Team Fortress","app_id":440,"player_count":24,"max_players":24,"Bots":0,"server_type":"Dedicated","server_os":"Linux","password":true,"vac":true,"version":"7742253","steam_id":85568392924515191,"keywords":["nocrits","nodmgspread","payload","uncletopia"],"game_id":440,"stv_port":27036,"stv_name":"Uncletopia | Chicago | 3 | All Maps | STV","players":[{"user_id":221,"name":"catboy gayming","steam_id":76561198262604439,"connected_time":1756000000000,"state":"active","ping":35},{"user_id":236,"name":"bee","steam_id":76561198025553902,"connected_time":1072000000000,"state":"active","ping":45},{"user_id":234,"name":"lauren/","steam_id":76561198048745798,"connected_time":1234000000000,"state":"active","ping":45},{"user_id":228,"name":"Provocator","steam_id":76561197961830410,"connected_time":1394000000000,"state":"active","ping":64},{"user_id":205,"name":"Laundry","steam_id":76561198106170346,"connected_time":2678000000000,"state":"active","ping":66},{"user_id":247,"name":"squig_","steam_id":76561198043726592,"connected_time":377000000000,"state":"active","ping":61},{"user_id":207,"name":"DragonJimmy","steam_id":76561198272966565,"connected_time":2659000000000,"state":"active","ping":79},{"user_id":208,"name":"DO NOT call me BART SIMPSON!!","steam_id":76561198069113375,"connected_time":2640000000000,"state":"active","ping":66},{"user_id":243,"name":"Stoopii","steam_id":76561198244352384,"connected_time":937000000000,"state":"active","ping":82},{"user_id":245,"name":"vial","steam_id":76561198366140277,"connected_time":751000000000,"state":"active","ping":80},{"user_id":182,"name":"Bullwinkle J. Moose","steam_id":76561198075977196,"connected_time":4052000000000,"state":"active","ping":75},{"user_id":230,"name":"SquirrelAway‚Ñ¢","steam_id":76561197998828619,"connected_time":1339000000000,"state":"active","ping":75},{"user_id":227,"name":"King Baldski","steam_id":76561198359568400,"connected_time":1590000000000,"state":"active","ping":141},{"user_id":223,"name":"ToadcolonD","steam_id":76561199398272900,"connected_time":1687000000000,"state":"active","ping":84},{"user_id":237,"name":"Alt","steam_id":76561197992591984,"connected_time":1069000000000,"state":"active","ping":58},{"user_id":43,"name":"rat slappa","steam_id":76561198013983333,"connected_time":12637000000000,"state":"active","ping":60},{"user_id":249,"name":"JazzMuted","steam_id":76561197974184265,"connected_time":159000000000,"state":"active","ping":47},{"user_id":248,"name":"GlazingDonut","steam_id":76561198847420641,"connected_time":249000000000,"state":"active","ping":85},{"user_id":246,"name":"Echoes","steam_id":76561198082136398,"connected_time":493000000000,"state":"active","ping":60},{"user_id":216,"name":".jpg","steam_id":76561198137237377,"connected_time":2336000000000,"state":"active","ping":72},{"user_id":229,"name":"Lost (15)","steam_id":76561198093713427,"connected_time":1366000000000,"state":"active","ping":70},{"user_id":233,"name":"JA","steam_id":76561198308183330,"connected_time":1309000000000,"state":"active","ping":46},{"user_id":213,"name":"xXx_The_REAL_Marge_Simpson_xXx","steam_id":76561199116846851,"connected_time":2608000000000,"state":"active","ping":73},{"user_id":226,"name":"jungl","steam_id":76561198309329395,"connected_time":1664000000000,"state":"active","ping":75}]},{"server_id":403,"name":"Uncletopia | Chicago | 4 | All Maps","name_short":"chi-4","host":"chi-1.us.uncletopia.com","port":27045,"enabled":true,"region":"us-central","cc":"us","latitude":41.881832,"longitude":-87.62318,"reserved":0,"last_update":"0001-01-01T00:00:00Z","name_a2s":"Uncletopia | Chicago | 4 | All Maps","protocol":17,"map":"koth_highpass","folder":"tf","game":"Team Fortress","app_id":440,"player_count":0,"max_players":24,"Bots":0,"server_type":"Dedicated","server_os":"Linux","password":true,"vac":true,"version":"7742253","steam_id":85568392924515193,"keywords":["cp","nocrits","nodmgspread","uncletopia"],"game_id":440,"stv_port":27046,"stv_name":"Uncletopia | Chicago | 4 | All Maps | STV","players":null},{"server_id":36,"name":"Uncletopia | Chicago | 5 | All Maps","name_short":"chi-5","host":"chi-2.us.uncletopia.com","port":27015,"enabled":true,"region":"us-central","cc":"us","latitude":41.881832,"longitude":-87.62318,"reserved":0,"last_update":"0001-01-01T00:00:00Z","name_a2s":"Uncletopia | Chicago | 5 | All Maps","protocol":17,"map":"koth_highpass","folder":"tf","game":"Team Fortress","app_id":440,"player_count":0,"max_players":24,"Bots":0,"server_type":"Dedicated","server_os":"Linux","password":true,"vac":true,"version":"7742253","steam_id":85568392924866362,"keywords":["cp","nocrits","nodmgspread","uncletopia"],"game_id":440,"stv_port":27016,"stv_name":"Uncletopia | Chicago | 5 | All Maps | STV","players":null},{"server_id":37,"name":"Uncletopia | Chicago | 6 | All Maps","name_short":"chi-6","host":"chi-2.us.uncletopia.com","port":27025,"enabled":true,"region":"us-central","cc":"us","latitude":41.881832,"longitude":-87.62318,"reserved":0,"last_update":"0001-01-01T00:00:00Z","name_a2s":"Uncletopia | Chicago | 6 | All Maps","protocol":17,"map":"cp_sunshine","folder":"tf","game":"Team Fortress","app_id":440,"player_count":1,"max_players":24,"Bots":0,"server_type":"Dedicated","server_os":"Linux","password":true,"vac":true,"version":"7742253","steam_id":85568392924866363,"keywords":["cp","nocrits","nodmgspread","uncletopia"],"game_id":440,"stv_port":27026,"stv_name":"Uncletopia | Chicago | 6 | All Maps | STV","players":[{"user_id":4,"name":"DJFunnyBone","steam_id":76561198892528359,"connected_time":494000000000,"state":"active","ping":32}]},{"server_id":38,"name":"Uncletopia | Chicago | 7 | Stopwatch Beta","name_short":"chi-7","host":"chi-2.us.uncletopia.com","port":27035,"enabled":true,"region":"us-central","cc":"us","latitude":41.881832,"longitude":-87.62318,"reserved":0,"last_update":"0001-01-01T00:00:00Z","name_a2s":"Uncletopia | Chicago | 7 | Stopwatch Beta","protocol":17,"map":"cp_altitude","folder":"tf","game":"Team Fortress","app_id":440,"player_count":0,"max_players":24,"Bots":0,"server_type":"Dedicated","server_os":"Linux","password":true,"vac":true,"version":"7742253","steam_id":85568392924866364,"keywords":["cp","nocrits","nodmgspread","uncletopia"],"game_id":440,"stv_port":27036,"stv_name":"Uncletopia | Chicago | 7 | Stopwatch Beta | STV","players":null},{"server_id":39,"name":"Uncletopia | Chicago | 8 | Community","name_short":"chi-8","host":"chi-2.us.uncletopia.com","port":27045,"enabled":true,"region":"us-central","cc":"us","latitude":41.881832,"longitude":-87.62318,"reserved":0,"last_update":"0001-01-01T00:00:00Z","name_a2s":"Uncletopia | Chicago | 8 | Community","protocol":17,"map":"koth_cascade","folder":"tf","game":"Team Fortress","app_id":440,"player_count":1,"max_players":24,"Bots":0,"server_type":"Dedicated","server_os":"Linux","password":true,"vac":true,"version":"7742253","steam_id":85568392924866365,"keywords":["cp","nocrits","nodmgspread","uncletopia"],"game_id":440,"stv_port":27046,"stv_name":"Uncletopia | Chicago | 8 | Community | STV","players":[{"user_id":4,"name":"Zand012","steam_id":76561198864444751,"connected_time":0,"state":"spawning","ping":11}]},{"server_id":8,"name":"Uncletopia | Dallas | 1 | All Maps","name_short":"dal-1","host":"dal-1.us.uncletopia.com","port":27015,"enabled":true,"region":"us-central","cc":"us","latitude":32.779167,"longitude":-96.80889,"reserved":0,"last_update":"0001-01-01T00:00:00Z","name_a2s":"Uncletopia | Dallas | 1 | All Maps","protocol":17,"map":"pl_snowycoast","folder":"tf","game":"Team Fortress","app_id":440,"player_count":24,"max_players":24,"Bots":0,"server_type":"Dedicated","server_os":"Linux","password":true,"vac":true,"version":"7742253","steam_id":85568392924469986,"keywords":["nocrits","nodmgspread","payload","uncletopia"],"game_id":440,"stv_port":27016,"stv_name":"Uncletopia | Dallas | 1 | All Maps | STV","players":[{"user_id":85,"name":"Just Another Stoned Eevee","steam_id":76561198262852705,"connected_time":641000000000,"state":"active","ping":77},{"user_id":86,"name":"Lenny","steam_id":76561198183943137,"connected_time":611000000000,"state":"active","ping":89},{"user_id":97,"name":"Goku‚Ñ¢ From Disney¬©","steam_id":76561198015327152,"connected_time":166000000000,"state":"active","ping":81},{"user_id":95,"name":"Obamacare","steam_id":76561198018894553,"connected_time":213000000000,"state":"active","ping":67},{"user_id":87,"name":"Portaldude626","steam_id":76561198954610452,"connected_time":610000000000,"state":"active","ping":69},{"user_id":20,"name":"sopermolg","steam_id":76561197978282744,"connected_time":4283000000000,"state":"active","ping":76},{"user_id":90,"name":"Totally","steam_id":76561198126511227,"connected_time":575000000000,"state":"active","ping":79},{"user_id":75,"name":"Thurricane","steam_id":76561198410724666,"connected_time":1387000000000,"state":"active","ping":90},{"user_id":94,"name":"Weakest Touhou Fan","steam_id":76561198388363822,"connected_time":263000000000,"state":"active","ping":123},{"user_id":59,"name":"trash beast","steam_id":76561198015792736,"connected_time":2678000000000,"state":"active","ping":82},{"user_id":83,"name":"Sexyrevolver","steam_id":76561199058132505,"connected_time":708000000000,"state":"active","ping":78},{"user_id":88,"name":"Death Grips","steam_id":76561198306155040,"connected_time":605000000000,"state":"active","ping":80},{"user_id":57,"name":"Maranata","steam_id":76561198830158092,"connected_time":2865000000000,"state":"active","ping":78},{"user_id":76,"name":"kibsta","steam_id":76561198991982630,"connected_time":1382000000000,"state":"active","ping":79},{"user_id":98,"name":"remedu","steam_id":76561198005152587,"connected_time":48000000000,"state":"active","ping":45},{"user_id":93,"name":"Toygar","steam_id":76561198023679830,"connected_time":356000000000,"state":"active","ping":78},{"user_id":37,"name":"dosimeter","steam_id":76561198039608940,"connected_time":3644000000000,"state":"active","ping":109},{"user_id":73,"name":"Drinkable Milk","steam_id":76561199418706430,"connected_time":1643000000000,"state":"active","ping":53},{"user_id":99,"name":"Discourse","steam_id":76561198984286678,"connected_time":42000000000,"state":"active","ping":77},{"user_id":96,"name":"DenDa","steam_id":76561198321944154,"connected_time":185000000000,"state":"active","ping":47},{"user_id":77,"name":"Ros","steam_id":76561199055963822,"connected_time":1378000000000,"state":"active","ping":75},{"user_id":92,"name":"Papa Terry","steam_id":76561198092457944,"connected_time":454000000000,"state":"active","ping":48},{"user_id":80,"name":"Radix","steam_id":76561199017810409,"connected_time":1105000000000,"state":"active","ping":76},{"user_id":72,"name":"Lonely Hat","steam_id":76561199098253679,"connected_time":1829000000000,"state":"active","ping":117}]},{"server_id":108,"name":"Uncletopia | Dallas | 2 | All Maps","name_short":"dal-2","host":"dal-1.us.uncletopia.com","port":27025,"enabled":true,"region":"us-central","cc":"us","latitude":32.779167,"longitude":-96.80889,"reserved":0,"last_update":"0001-01-01T00:00:00Z","name_a2s":"Uncletopia | Dallas | 2 | All Maps","protocol":17,"map":"koth_lakeside_final","folder":"tf","game":"Team Fortress","app_id":440,"player_count":0,"max_players":24,"Bots":0,"server_type":"Dedicated","server_os":"Linux","password":true,"vac":true,"version":"7742253","steam_id":85568392924469988,"keywords":["cp","nocrits","nodmgspread","uncletopia"],"game_id":440,"stv_port":27026,"stv_name":"Uncletopia | Dallas | 2 | All Maps | STV","players":null},{"server_id":5,"name":"Uncletopia | Frankfurt | 1 | All Maps","name_short":"frk-1","host":"frk-1.de.uncletopia.com","port":27015,"enabled":true,"region":"eu","cc":"de","latitude":50.110924,"longitude":8.682127,"reserved":0,"last_update":"0001-01-01T00:00:00Z","name_a2s":"Uncletopia | Frankfurt | 1 | All Maps","protocol":17,"map":"pl_badwater","folder":"tf","game":"Team Fortress","app_id":440,"player_count":24,"max_players":24,"Bots":0,"server_type":"Dedicated","server_os":"Linux","password":true,"vac":true,"version":"7742253","steam_id":85568392924469989,"keywords":["nocrits","nodmgspread","payload","uncletopia"],"game_id":440,"stv_port":27016,"stv_name":"Uncletopia | Frankfurt | 1 | All Maps | STV","players":[{"user_id":194,"name":"disturbing polish father","steam_id":76561198126398022,"connected_time":1902000000000,"state":"active","ping":72},{"user_id":173,"name":"Peanut","steam_id":76561198086465931,"connected_time":3436000000000,"state":"active","ping":90},{"user_id":207,"name":"HanhiGaming","steam_id":76561198877007477,"connected_time":244000000000,"state":"active","ping":87},{"user_id":209,"name":"E","steam_id":76561198166340115,"connected_time":213000000000,"state":"active","ping":65},{"user_id":176,"name":"Glib","steam_id":76561198065530312,"connected_time":3060000000000,"state":"active","ping":84},{"user_id":208,"name":"yeldad","steam_id":76561198447264153,"connected_time":243000000000,"state":"active","ping":125},{"user_id":162,"name":"lyra","steam_id":76561198043601838,"connected_time":3939000000000,"state":"active","ping":60},{"user_id":198,"name":"hallfelt","steam_id":76561199008716852,"connected_time":1883000000000,"state":"active","ping":103},{"user_id":54,"name":"Nick","steam_id":76561198036109469,"connected_time":11757000000000,"state":"active","ping":90},{"user_id":202,"name":"Hell Striker","steam_id":76561199023875942,"connected_time":1384000000000,"state":"active","ping":104},{"user_id":199,"name":"SIUUUUUUU","steam_id":76561198364121077,"connected_time":1882000000000,"state":"active","ping":95},{"user_id":205,"name":"Cloud","steam_id":76561198014080545,"connected_time":978000000000,"state":"active","ping":91},{"user_id":188,"name":"semi-legit polish business","steam_id":76561199433578516,"connected_time":2063000000000,"state":"active","ping":87},{"user_id":206,"name":"guiseppe","steam_id":76561198046129681,"connected_time":849000000000,"state":"active","ping":92},{"user_id":78,"name":"YeetusFeetus","steam_id":76561199043598948,"connected_time":11153000000000,"state":"active","ping":136},{"user_id":203,"name":"Benzo Fury","steam_id":76561198025259336,"connected_time":1290000000000,"state":"active","ping":55},{"user_id":174,"name":"the Black Hunter","steam_id":76561198106049954,"connected_time":3207000000000,"state":"active","ping":85},{"user_id":159,"name":"The Fellow Feller","steam_id":76561198188864306,"connected_time":4064000000000,"state":"active","ping":58},{"user_id":65,"name":"Hexagon","steam_id":76561198151205758,"connected_time":11543000000000,"state":"active","ping":50},{"user_id":172,"name":"jd","steam_id":76561198071502515,"connected_time":3533000000000,"state":"active","ping":66},{"user_id":191,"name":"Big Noot","steam_id":76561198057707263,"connected_time":2002000000000,"state":"active","ping":58},{"user_id":210,"name":"AmadStatistician","steam_id":76561198163654770,"connected_time":197000000000,"state":"active","ping":65},{"user_id":186,"name":"pathetic polish fat man","steam_id":76561198062107879,"connected_time":2199000000000,"state":"active","ping":77},{"user_id":95,"name":"Sneakykindaham","steam_id":76561198158743287,"connected_time":9618000000000,"state":"active","ping":57}]},{"server_id":110,"name":"Uncletopia | Frankfurt | 2 | All Maps","name_short":"frk-2","host":"frk-1.de.uncletopia.com","port":27025,"enabled":true,"region":"eu","cc":"de","latitude":50.110924,"longitude":8.682127,"reserved":0,"last_update":"0001-01-01T00:00:00Z","name_a2s":"Uncletopia | Frankfurt | 2 | All Maps","protocol":17,"map":"pl_badwater","folder":"tf","game":"Team Fortress","app_id":440,"player_count":24,"max_players":24,"Bots":0,"server_type":"Dedicated","server_os":"Linux","password":true,"vac":true,"version":"7742253","steam_id":85568392924469990,"keywords":["nocrits","nodmgspread","payload","uncletopia"],"game_id":440,"stv_port":27026,"stv_name":"Uncletopia | Frankfurt | 2 | All Maps | STV","players":[{"user_id":583,"name":"Tryrn","steam_id":76561198075487436,"connected_time":880000000000,"state":"active","ping":86},{"user_id":591,"name":"viddy","steam_id":76561198004383856,"connected_time":407000000000,"state":"active","ping":91},{"user_id":586,"name":"Creamy","steam_id":76561198063907478,"connected_time":845000000000,"state":"active","ping":66},{"user_id":594,"name":"ùñâùñóùñÜùñåùñîùñì","steam_id":76561199436349867,"connected_time":91000000000,"state":"active","ping":133},{"user_id":498,"name":"tui.","steam_id":76561198241547670,"connected_time":6513000000000,"state":"active","ping":90},{"user_id":428,"name":"BlueBlaster","steam_id":76561197995684708,"connected_time":10947000000000,"state":"active","ping":76},{"user_id":571,"name":"waffle toaster","steam_id":76561198799089628,"connected_time":1983000000000,"state":"active","ping":67},{"user_id":551,"name":"T_G_G","steam_id":76561199114568070,"connected_time":3605000000000,"state":"active","ping":83},{"user_id":581,"name":"SantiThePug #ReviveTheCaber","steam_id":76561199049615996,"connected_time":917000000000,"state":"active","ping":66},{"user_id":595,"name":"Birne","steam_id":76561198001335120,"connected_time":90000000000,"state":"active","ping":55},{"user_id":588,"name":"twitch.tv/vision515","steam_id":76561198065293729,"connected_time":679000000000,"state":"active","ping":169},{"user_id":578,"name":"Seeker","steam_id":76561198873052772,"connected_time":1605000000000,"state":"active","ping":67},{"user_id":593,"name":"manure merchant","steam_id":76561198010109316,"connected_time":204000000000,"state":"active","ping":55},{"user_id":587,"name":"Bia≈Çy","steam_id":76561197996016988,"connected_time":845000000000,"state":"active","ping":65},{"user_id":509,"name":"SPAH","steam_id":76561199195985387,"connected_time":6195000000000,"state":"active","ping":95},{"user_id":589,"name":"socaramel","steam_id":76561197984480336,"connected_time":673000000000,"state":"active","ping":82},{"user_id":575,"name":"rmz.ssj","steam_id":76561198329613930,"connected_time":1870000000000,"state":"active","ping":60},{"user_id":577,"name":"LOBZIK","steam_id":76561198114830120,"connected_time":1758000000000,"state":"active","ping":75},{"user_id":576,"name":"where is my egg?","steam_id":76561198172542535,"connected_time":1868000000000,"state":"active","ping":73},{"user_id":570,"name":"torn","steam_id":76561198223003236,"connected_time":2048000000000,"state":"active","ping":70},{"user_id":579,"name":"sondi","steam_id":76561198045466209,"connected_time":938000000000,"state":"active","ping":65},{"user_id":568,"name":"varnu (enhanced)","steam_id":76561198104896547,"connected_time":2104000000000,"state":"active","ping":72},{"user_id":549,"name":"zek","steam_id":76561198862763731,"connected_time":3807000000000,"state":"active","ping":59},{"user_id":533,"name":"Radical priest","steam_id":76561198110470565,"connected_time":5203000000000,"state":"active","ping":103}]},{"server_id":308,"name":"Uncletopia | Frankfurt | 3 | All Maps","name_short":"frk-3","host":"frk-1.de.uncletopia.com","port":27035,"enabled":true,"region":"eu","cc":"de","latitude":50.110924,"longitude":8.682127,"reserved":0,"last_update":"0001-01-01T00:00:00Z","name_a2s":"Uncletopia | Frankfurt | 3 | All Maps","protocol":17,"map":"pl_goldrush","folder":"tf","game":"Team Fortress","app_id":440,"player_count":24,"max_players":24,"Bots":0,"server_type":"Dedicated","server_os":"Linux","password":true,"vac":true,"version":"7742253","steam_id":85568392924504274,"keywords":["nocrits","nodmgspread","payload","uncletopia"],"game_id":440,"stv_port":27036,"stv_name":"Uncletopia | Frankfurt | 3 | All Maps | STV","players":[{"user_id":576,"name":"jeremiah","steam_id":76561198314490927,"connected_time":821000000000,"state":"active","ping":162},{"user_id":521,"name":"Erior","steam_id":76561198039462080,"connected_time":4256000000000,"state":"active","ping":121},{"user_id":585,"name":"An unnecessary Jojo reference","steam_id":76561198121764825,"connected_time":281000000000,"state":"active","ping":53},{"user_id":556,"name":"BlinkedUp","steam_id":76561198249985618,"connected_time":2049000000000,"state":"active","ping":65},{"user_id":568,"name":"Dondonz","steam_id":76561198111407893,"connected_time":1632000000000,"state":"active","ping":61},{"user_id":582,"name":"Bonnano","steam_id":76561198124081203,"connected_time":523000000000,"state":"active","ping":66},{"user_id":550,"name":"Pabs :D","steam_id":76561198000016962,"connected_time":2476000000000,"state":"active","ping":60},{"user_id":579,"name":"H...","steam_id":76561197984299377,"connected_time":609000000000,"state":"active","ping":52},{"user_id":580,"name":"Dr. WAH","steam_id":76561198297778149,"connected_time":593000000000,"state":"active","ping":71},{"user_id":562,"name":"eeeeee","steam_id":76561198427092596,"connected_time":1840000000000,"state":"active","ping":118},{"user_id":563,"name":"Flatsal","steam_id":76561198087386923,"connected_time":1825000000000,"state":"active","ping":99},{"user_id":574,"name":"Leviopterix","steam_id":76561198172397734,"connected_time":1041000000000,"state":"active","ping":58},{"user_id":535,"name":"ball","steam_id":76561199232997788,"connected_time":3669000000000,"state":"active","ping":87},{"user_id":555,"name":"...","steam_id":76561198969234594,"connected_time":2199000000000,"state":"active","ping":62},{"user_id":573,"name":"Mercedes","steam_id":76561198103178319,"connected_time":1069000000000,"state":"active","ping":61},{"user_id":566,"name":"Tidez_","steam_id":76561198374956415,"connected_time":1680000000000,"state":"active","ping":71},{"user_id":523,"name":"jormavainen","steam_id":76561198126115435,"connected_time":4194000000000,"state":"active","ping":103},{"user_id":539,"name":"Jokudami","steam_id":76561198346604154,"connected_time":3394000000000,"state":"active","ping":50},{"user_id":583,"name":"hulluheppu1","steam_id":76561198093458326,"connected_time":478000000000,"state":"active","ping":62},{"user_id":572,"name":"luma","steam_id":76561198081649669,"connected_time":1107000000000,"state":"active","ping":61},{"user_id":586,"name":"homeinvasion$","steam_id":76561199111905021,"connected_time":93000000000,"state":"active","ping":102},{"user_id":548,"name":"—Ç—É–∫–∫—É –∏—Ä–º–∞","steam_id":76561197998715016,"connected_time":2940000000000,"state":"active","ping":62},{"user_id":559,"name":"Furious Frenchman","steam_id":76561198082076952,"connected_time":1964000000000,"state":"active","ping":62},{"user_id":584,"name":"gus","steam_id":76561198876303958,"connected_time":464000000000,"state":"active","ping":120}]},{"server_id":309,"name":"Uncletopia | Frankfurt | 4 | All Maps","name_short":"frk-4","host":"frk-1.de.uncletopia.com","port":27045,"enabled":true,"region":"eu","cc":"de","latitude":50.110924,"longitude":8.682127,"reserved":0,"last_update":"0001-01-01T00:00:00Z","name_a2s":"Uncletopia | Frankfurt | 4 | All Maps","protocol":17,"map":"koth_highpass","folder":"tf","game":"Team Fortress","app_id":440,"player_count":0,"max_players":24,"Bots":0,"server_type":"Dedicated","server_os":"Linux","password":true,"vac":true,"version":"7742253","steam_id":85568392924504275,"keywords":["cp","nocrits","nodmgspread","uncletopia"],"game_id":440,"stv_port":27046,"stv_name":"Uncletopia | Frankfurt | 4 | All Maps | STV","players":null},{"server_id":310,"name":"Uncletopia | Frankfurt | 5 | All Maps","name_short":"frk-5","host":"frk-1.de.uncletopia.com","port":27055,"enabled":true,"region":"eu","cc":"de","latitude":50.110924,"longitude":8.682127,"reserved":0,"last_update":"0001-01-01T00:00:00Z","name_a2s":"Uncletopia | Frankfurt | 5 | All Maps","protocol":17,"map":"cp_powerhouse","folder":"tf","game":"Team Fortress","app_id":440,"player_count":24,"max_players":24,"Bots":0,"server_type":"Dedicated","server_os":"Linux","password":true,"vac":true,"version":"7742253","steam_id":85568392924504277,"keywords":["cp","nocrits","nodmgspread","uncletopia"],"game_id":440,"stv_port":27056,"stv_name":"Uncletopia | Frankfurt | 5 | All Maps | STV","players":[{"user_id":361,"name":"SuperTyroni","steam_id":76561198078442172,"connected_time":1371000000000,"state":"active","ping":86},{"user_id":394,"name":"Antonio Gilipollas Caraculo","steam_id":76561198412197820,"connected_time":731000000000,"state":"active","ping":65},{"user_id":415,"name":"Senator Armstrong","steam_id":76561198984346408,"connected_time":230000000000,"state":"active","ping":69},{"user_id":425,"name":"MaximumFlyer64","steam_id":76561198064589007,"connected_time":18000000000,"state":"spawning","ping":159},{"user_id":405,"name":"GernSi","steam_id":76561198811564680,"connected_time":399000000000,"state":"active","ping":90},{"user_id":407,"name":"o_o","steam_id":76561198113045011,"connected_time":388000000000,"state":"active","ping":89},{"user_id":326,"name":"chachiply","steam_id":76561198316355509,"connected_time":4075000000000,"state":"active","ping":74},{"user_id":336,"name":"Toasty5050","steam_id":76561198073540881,"connected_time":2857000000000,"state":"active","ping":44},{"user_id":426,"name":"Rare Endangered Spycrab","steam_id":76561199150653133,"connected_time":7000000000,"state":"spawning","ping":200},{"user_id":325,"name":"Armando","steam_id":76561198863720301,"connected_time":4087000000000,"state":"active","ping":75},{"user_id":402,"name":"ratoshin","steam_id":76561198194433657,"connected_time":450000000000,"state":"active","ping":47},{"user_id":331,"name":"Fluffy","steam_id":76561198084447725,"connected_time":3663000000000,"state":"active","ping":58},{"user_id":385,"name":"—Ç–æ–ª—è","steam_id":76561199098518615,"connected_time":964000000000,"state":"active","ping":76},{"user_id":370,"name":"JJay","steam_id":76561198988799866,"connected_time":1225000000000,"state":"active","ping":61},{"user_id":321,"name":"Rimx","steam_id":76561198053034840,"connected_time":4346000000000,"state":"active","ping":88},{"user_id":408,"name":"Chen","steam_id":76561198440363619,"connected_time":379000000000,"state":"active","ping":52},{"user_id":395,"name":"padillacampos","steam_id":76561198161923970,"connected_time":620000000000,"state":"active","ping":85},{"user_id":397,"name":"Ela?","steam_id":76561198382598509,"connected_time":533000000000,"state":"active","ping":59},{"user_id":310,"name":"Dan","steam_id":76561198314800357,"connected_time":5061000000000,"state":"active","ping":104},{"user_id":337,"name":"pizzahawaiiEnjoyerwithbigdick","steam_id":76561198079752629,"connected_time":2847000000000,"state":"active","ping":61},{"user_id":332,"name":"Illecillewaet","steam_id":76561198005935655,"connected_time":3323000000000,"state":"active","ping":104},{"user_id":335,"name":"[Insert Oneshot refrence]","steam_id":76561198951206047,"connected_time":2893000000000,"state":"active","ping":81},{"user_id":356,"name":"Jack Of All Trades","steam_id":76561199273837625,"connected_time":1471000000000,"state":"active","ping":182},{"user_id":351,"name":"BodyShotI","steam_id":76561198984953635,"connected_time":1567000000000,"state":"active","ping":108}]},{"server_id":311,"name":"Uncletopia | Frankfurt | 6 | All Maps","name_short":"frk-6","host":"frk-1.de.uncletopia.com","port":27065,"enabled":true,"region":"eu","cc":"de","latitude":50.110924,"longitude":8.682127,"reserved":0,"last_update":"0001-01-01T00:00:00Z","name_a2s":"Uncletopia | Frankfurt | 6 | All Maps","protocol":17,"map":"koth_lakeside_final","folder":"tf","game":"Team Fortress","app_id":440,"player_count":0,"max_players":24,"Bots":0,"server_type":"Dedicated","server_os":"Linux","password":true,"vac":true,"version":"7742253","steam_id":85568392924504278,"keywords":["cp","nocrits","nodmgspread","uncletopia"],"game_id":440,"stv_port":27066,"stv_name":"Uncletopia | Frankfurt | 6 | All Maps | STV","players":null},{"server_id":23,"name":"Uncletopia | Frankfurt | 7 | Stopwatch Beta","name_short":"frk-7","host":"frk-1.de.uncletopia.com","port":27075,"enabled":true,"region":"eu","cc":"de","latitude":50.110924,"longitude":8.682127,"reserved":0,"last_update":"0001-01-01T00:00:00Z","name_a2s":"Uncletopia | Frankfurt | 7 | Stopwatch Beta","protocol":17,"map":"workshop/koth_ramjam_v2_b2.ugc2865676487","folder":"tf","game":"Team Fortress","app_id":440,"player_count":0,"max_players":24,"Bots":0,"server_type":"Dedicated","server_os":"Linux","password":true,"vac":true,"version":"7742253","steam_id":85568392924742827,"keywords":["cp","nocrits","nodmgspread","uncletopia"],"game_id":440,"stv_port":27076,"stv_name":"Uncletopia | Frankfurt | 7 | Stopwatch Beta | STV","players":null},{"server_id":24,"name":"Uncletopia | Frankfurt | 8 | Community","name_short":"frk-8","host":"frk-1.de.uncletopia.com","port":27085,"enabled":true,"region":"eu","cc":"de","latitude":50.110924,"longitude":8.682127,"reserved":0,"last_update":"0001-01-01T00:00:00Z","name_a2s":"Uncletopia | Frankfurt | 8 | Community","protocol":17,"map":"workshop/koth_slaughter_rc1.ugc1712845210","folder":"tf","game":"Team Fortress","app_id":440,"player_count":0,"max_players":24,"Bots":0,"server_type":"Dedicated","server_os":"Linux","password":true,"vac":true,"version":"7742253","steam_id":85568392924742828,"keywords":["cp","nocrits","nodmgspread","uncletopia"],"game_id":440,"stv_port":27086,"stv_name":"Uncletopia | Frankfurt | 8 | Community | STV","players":null},{"server_id":202,"name":"Uncletopia | Hong Kong | 1 | All Maps","name_short":"hgk-1","host":"hgk-1.hk.uncletopia.com","port":27015,"enabled":true,"region":"asia","cc":"hk","latitude":22.302711,"longitude":114.177216,"reserved":0,"last_update":"0001-01-01T00:00:00Z","name_a2s":"Uncletopia | Hong Kong | 1 | All Maps","protocol":17,"map":"cp_sunshine","folder":"tf","game":"Team Fortress","app_id":440,"player_count":0,"max_players":24,"Bots":0,"server_type":"Dedicated","server_os":"Linux","password":true,"vac":true,"version":"7742253","steam_id":85568392924494504,"keywords":["cp","nocrits","nodmgspread","uncletopia"],"game_id":440,"stv_port":27016,"stv_name":"Uncletopia | Hong Kong | 1 | All Maps | STV","players":null},{"server_id":1,"name":"Uncletopia | Los Angeles | 1 | All Maps","name_short":"lax-1","host":"lax-1.us.uncletopia.com","port":27015,"enabled":true,"region":"us-west","cc":"us","latitude":33.94279,"longitude":-118.41004,"reserved":0,"last_update":"0001-01-01T00:00:00Z","name_a2s":"Uncletopia | Los Angeles | 1 | All Maps","protocol":17,"map":"koth_cascade","folder":"tf","game":"Team Fortress","app_id":440,"player_count":0,"max_players":24,"Bots":0,"server_type":"Dedicated","server_os":"Linux","password":true,"vac":true,"version":"7742253","steam_id":85568392924469991,"keywords":["cp","nocrits","nodmgspread","uncletopia"],"game_id":440,"stv_port":27016,"stv_name":"Uncletopia | Los Angeles | 1 | All Maps | STV","players":null},{"server_id":112,"name":"Uncletopia | Los Angeles | 2 | All Maps","name_short":"lax-2","host":"lax-1.us.uncletopia.com","port":27025,"enabled":true,"region":"us-west","cc":"us","latitude":33.94279,"longitude":-118.41004,"reserved":0,"last_update":"0001-01-01T00:00:00Z","name_a2s":"Uncletopia | Los Angeles | 2 | All Maps","protocol":17,"map":"pl_upward","folder":"tf","game":"Team Fortress","app_id":440,"player_count":0,"max_players":24,"Bots":0,"server_type":"Dedicated","server_os":"Linux","password":true,"vac":true,"version":"7742253","steam_id":85568392924469992,"keywords":["nocrits","nodmgspread","payload","uncletopia"],"game_id":440,"stv_port":27026,"stv_name":"Uncletopia | Los Angeles | 2 | All Maps | STV","players":null},{"server_id":324,"name":"Uncletopia | Los Angeles | 3 | All Maps","name_short":"lax-3","host":"lax-1.us.uncletopia.com","port":27035,"enabled":true,"region":"us-west","cc":"us","latitude":33.94279,"longitude":-118.41004,"reserved":0,"last_update":"0001-01-01T00:00:00Z","name_a2s":"Uncletopia | Los Angeles | 3 | All Maps","protocol":17,"map":"pl_borneo","folder":"tf","game":"Team Fortress","app_id":440,"player_count":0,"max_players":24,"Bots":0,"server_type":"Dedicated","server_os":"Linux","password":true,"vac":true,"version":"7742253","steam_id":85568392924510198,"keywords":["nocrits","nodmgspread","payload","uncletopia"],"game_id":440,"stv_port":27036,"stv_name":"Uncletopia | Los Angeles | 3 | All Maps | STV","players":null},{"server_id":25,"name":"Uncletopia | Los Angeles | 4 | Stopwatch Beta","name_short":"lax-4","host":"lax-1.us.uncletopia.com","port":27045,"enabled":true,"region":"us-west","cc":"us","latitude":33.94279,"longitude":-118.41004,"reserved":0,"last_update":"0001-01-01T00:00:00Z","name_a2s":"Uncletopia | Los Angeles | 4 | Stopwatch Beta","protocol":17,"map":"cp_process_final","folder":"tf","game":"Team Fortress","app_id":440,"player_count":0,"max_players":24,"Bots":0,"server_type":"Dedicated","server_os":"Linux","password":true,"vac":true,"version":"7742253","steam_id":85568392924510199,"keywords":["cp","nocrits","nodmgspread","uncletopia"],"game_id":440,"stv_port":27046,"stv_name":"Uncletopia | Los Angeles | 4 | Stopwatch Beta | STV","players":null},{"server_id":11,"name":"Uncletopia | London | 1 | All Maps","name_short":"lon-1","host":"lon-1.uk.uncletopia.com","port":27015,"enabled":true,"region":"eu","cc":"gb","latitude":51.509865,"longitude":-0.118092,"reserved":0,"last_update":"0001-01-01T00:00:00Z","name_a2s":"Uncletopia | London | 1 | All Maps","protocol":17,"map":"cp_powerhouse","folder":"tf","game":"Team Fortress","app_id":440,"player_count":23,"max_players":24,"Bots":0,"server_type":"Dedicated","server_os":"Linux","password":true,"vac":true,"version":"7742253","steam_id":85568392924367362,"keywords":["cp","nocrits","nodmgspread","uncletopia"],"game_id":440,"stv_port":27016,"stv_name":"Uncletopia | London | 1 | All Maps | STV","players":[{"user_id":197,"name":"Lukas","steam_id":76561198009118452,"connected_time":615000000000,"state":"active","ping":63},{"user_id":130,"name":"MrXtr","steam_id":76561198966247397,"connected_time":3485000000000,"state":"active","ping":62},{"user_id":165,"name":"Yelowchy","steam_id":76561198199416121,"connected_time":1649000000000,"state":"active","ping":101},{"user_id":134,"name":"Bits\u0026Peices","steam_id":76561199225453607,"connected_time":3157000000000,"state":"active","ping":103},{"user_id":204,"name":"Lessoz","steam_id":76561199211572036,"connected_time":64000000000,"state":"active","ping":84},{"user_id":114,"name":"women, weed and weather","steam_id":76561199216923710,"connected_time":4557000000000,"state":"active","ping":134},{"user_id":195,"name":"Marssie","steam_id":76561198071368131,"connected_time":691000000000,"state":"active","ping":73},{"user_id":196,"name":"d u k k i","steam_id":76561198071807437,"connected_time":689000000000,"state":"active","ping":95},{"user_id":188,"name":"hushhx","steam_id":76561198216200092,"connected_time":1206000000000,"state":"active","ping":54},{"user_id":161,"name":"Insanitybomb","steam_id":76561198048707708,"connected_time":2328000000000,"state":"active","ping":61},{"user_id":193,"name":"dreadxs","steam_id":76561198363366212,"connected_time":880000000000,"state":"active","ping":82},{"user_id":200,"name":"MAG 7","steam_id":76561199013368332,"connected_time":365000000000,"state":"active","ping":42},{"user_id":192,"name":"LadyMissfit","steam_id":76561198042236349,"connected_time":1033000000000,"state":"active","ping":80},{"user_id":181,"name":"Major","steam_id":76561198086483282,"connected_time":1247000000000,"state":"active","ping":71},{"user_id":201,"name":"I'm using Tilt Controls.","steam_id":76561198077864552,"connected_time":298000000000,"state":"active","ping":48},{"user_id":199,"name":"theeyeofsauronmc","steam_id":76561199157250663,"connected_time":533000000000,"state":"active","ping":142},{"user_id":171,"name":"MrBanana","steam_id":76561198116021623,"connected_time":1463000000000,"state":"active","ping":60},{"user_id":172,"name":"d00bie","steam_id":76561198025295218,"connected_time":1437000000000,"state":"active","ping":70},{"user_id":184,"name":"–∏–≤–∞–Ω","steam_id":76561198072730591,"connected_time":1231000000000,"state":"active","ping":68},{"user_id":205,"name":"Stepoface","steam_id":76561198091569863,"connected_time":56000000000,"state":"active","ping":71},{"user_id":198,"name":"Walle","steam_id":76561197995148937,"connected_time":586000000000,"state":"active","ping":79},{"user_id":190,"name":"htraB","steam_id":76561198043122677,"connected_time":1177000000000,"state":"active","ping":66},{"user_id":189,"name":"brtaba","steam_id":76561198796334790,"connected_time":1203000000000,"state":"active","ping":67}]},{"server_id":114,"name":"Uncletopia | London | 2 | All Maps","name_short":"lon-2","host":"lon-1.uk.uncletopia.com","port":27025,"enabled":true,"region":"eu","cc":"gb","latitude":51.509865,"longitude":-0.118092,"reserved":0,"last_update":"0001-01-01T00:00:00Z","name_a2s":"Uncletopia | London | 2 | All Maps","protocol":17,"map":"pl_snowycoast","folder":"tf","game":"Team Fortress","app_id":440,"player_count":22,"max_players":24,"Bots":0,"server_type":"Dedicated","server_os":"Linux","password":true,"vac":true,"version":"7742253","steam_id":85568392924470941,"keywords":["nocrits","nodmgspread","payload","uncletopia"],"game_id":440,"stv_port":27026,"stv_name":"Uncletopia | London | 2 | All Maps | STV","players":[{"user_id":233,"name":"Koli","steam_id":76561197992428783,"connected_time":2710000000000,"state":"active","ping":60},{"user_id":255,"name":"C√©l√©rio","steam_id":76561198088253576,"connected_time":581000000000,"state":"active","ping":45},{"user_id":256,"name":"Kahvi","steam_id":76561198723244199,"connected_time":577000000000,"state":"active","ping":76},{"user_id":188,"name":"Spas","steam_id":76561199206966500,"connected_time":5741000000000,"state":"active","ping":63},{"user_id":230,"name":"Someone","steam_id":76561199030195879,"connected_time":2741000000000,"state":"active","ping":40},{"user_id":263,"name":"D-√ê-√êoge","steam_id":76561198035576458,"connected_time":79000000000,"state":"active","ping":54},{"user_id":231,"name":"ciliorkun18","steam_id":76561198228942500,"connected_time":2737000000000,"state":"active","ping":113},{"user_id":241,"name":"C0d3s","steam_id":76561198093907544,"connected_time":1093000000000,"state":"active","ping":99},{"user_id":248,"name":"Gonzo","steam_id":76561198254324824,"connected_time":811000000000,"state":"active","ping":47},{"user_id":258,"name":"ZeeRoll","steam_id":76561198131129970,"connected_time":519000000000,"state":"active","ping":71},{"user_id":56,"name":"Manasa","steam_id":76561198265192382,"connected_time":16253000000000,"state":"active","ping":74},{"user_id":240,"name":"Estamie","steam_id":76561198058527691,"connected_time":1277000000000,"state":"active","ping":74},{"user_id":242,"name":"holykyckling","steam_id":76561198040661615,"connected_time":1015000000000,"state":"active","ping":74},{"user_id":246,"name":"the babadook","steam_id":76561198040168682,"connected_time":821000000000,"state":"active","ping":44},{"user_id":216,"name":"Mr.O #deletesniper","steam_id":76561198039567498,"connected_time":3966000000000,"state":"active","ping":63},{"user_id":252,"name":".quickfast.","steam_id":76561199438900919,"connected_time":752000000000,"state":"active","ping":46},{"user_id":159,"name":"r06u3","steam_id":76561198254099253,"connected_time":8126000000000,"state":"active","ping":177},{"user_id":259,"name":"Ben UFO","steam_id":76561198001648348,"connected_time":496000000000,"state":"active","ping":46},{"user_id":178,"name":"Sipsu","steam_id":76561198059424107,"connected_time":7165000000000,"state":"active","ping":85},{"user_id":250,"name":"Crap bag","steam_id":76561198428381803,"connected_time":803000000000,"state":"active","ping":81},{"user_id":253,"name":"kavun","steam_id":76561198023461869,"connected_time":690000000000,"state":"active","ping":90},{"user_id":236,"name":"Thesis","steam_id":76561199308784371,"connected_time":1758000000000,"state":"active","ping":67}]},{"server_id":320,"name":"Uncletopia | London | 3 | All Maps","name_short":"lon-3","host":"lon-1.uk.uncletopia.com","port":27035,"enabled":true,"region":"eu","cc":"gb","latitude":51.509865,"longitude":-0.118092,"reserved":0,"last_update":"0001-01-01T00:00:00Z","name_a2s":"Uncletopia | London | 3 | All Maps","protocol":17,"map":"pl_borneo","folder":"tf","game":"Team Fortress","app_id":440,"player_count":23,"max_players":24,"Bots":0,"server_type":"Dedicated","server_os":"Linux","password":true,"vac":true,"version":"7742253","steam_id":85568392924510192,"keywords":["nocrits","nodmgspread","payload","uncletopia"],"game_id":440,"stv_port":27036,"stv_name":"Uncletopia | London | 3 | All Maps | STV","players":[{"user_id":366,"name":"Neytan","steam_id":76561198027024747,"connected_time":2890000000000,"state":"active","ping":119},{"user_id":404,"name":"MMS21","steam_id":76561198059351269,"connected_time":1294000000000,"state":"active","ping":60},{"user_id":391,"name":"tristan","steam_id":76561198096097448,"connected_time":1910000000000,"state":"active","ping":51},{"user_id":420,"name":"makiverem","steam_id":76561198425866216,"connected_time":591000000000,"state":"active","ping":76},{"user_id":393,"name":"Shads","steam_id":76561198080817039,"connected_time":1888000000000,"state":"active","ping":35},{"user_id":411,"name":"MalatodiMenta","steam_id":76561198070370194,"connected_time":992000000000,"state":"active","ping":68},{"user_id":397,"name":"tb","steam_id":76561198326153524,"connected_time":1849000000000,"state":"active","ping":60},{"user_id":417,"name":"Ch0rys","steam_id":76561198314985318,"connected_time":730000000000,"state":"active","ping":60},{"user_id":345,"name":"Johan","steam_id":76561197999517316,"connected_time":3664000000000,"state":"active","ping":77},{"user_id":419,"name":"terrine de poisson","steam_id":76561198182874945,"connected_time":601000000000,"state":"active","ping":54},{"user_id":382,"name":"GGabesz","steam_id":76561198117199068,"connected_time":2664000000000,"state":"active","ping":73},{"user_id":400,"name":"resh","steam_id":76561198059782462,"connected_time":1711000000000,"state":"active","ping":60},{"user_id":388,"name":"tf2 gaming","steam_id":76561199406973770,"connected_time":2171000000000,"state":"active","ping":58},{"user_id":332,"name":"downtown boy","steam_id":76561197983094802,"connected_time":3938000000000,"state":"active","ping":97},{"user_id":384,"name":"Domberry","steam_id":76561199346712175,"connected_time":2645000000000,"state":"active","ping":83},{"user_id":413,"name":"MtnDew","steam_id":76561199100059743,"connected_time":957000000000,"state":"active","ping":100},{"user_id":401,"name":"I jazzed myself","steam_id":76561198203016603,"connected_time":1619000000000,"state":"active","ping":49},{"user_id":408,"name":"Zwphyr | TourBot.TF","steam_id":76561198160772793,"connected_time":1012000000000,"state":"active","ping":54},{"user_id":399,"name":"random_player691","steam_id":76561199209946306,"connected_time":1827000000000,"state":"active","ping":53},{"user_id":409,"name":"NiNY√É","steam_id":76561197995685294,"connected_time":1007000000000,"state":"active","ping":44},{"user_id":410,"name":"Ash","steam_id":76561198148738525,"connected_time":1007000000000,"state":"active","ping":101},{"user_id":421,"name":"Michael","steam_id":76561198003146906,"connected_time":363000000000,"state":"active","ping":45},{"user_id":415,"name":"hello my name is devil may cry","steam_id":76561198115106008,"connected_time":772000000000,"state":"active","ping":52}]},{"server_id":321,"name":"Uncletopia | London | 4 | All Maps","name_short":"lon-4","host":"lon-1.uk.uncletopia.com","port":27045,"enabled":true,"region":"eu","cc":"gb","latitude":51.509865,"longitude":-0.118092,"reserved":0,"last_update":"0001-01-01T00:00:00Z","name_a2s":"Uncletopia | London | 4 | All Maps","protocol":17,"map":"cp_dustbowl","folder":"tf","game":"Team Fortress","app_id":440,"player_count":2,"max_players":24,"Bots":0,"server_type":"Dedicated","server_os":"Linux","password":true,"vac":true,"version":"7742253","steam_id":85568392924510193,"keywords":["cp","nocrits","nodmgspread","uncletopia"],"game_id":440,"stv_port":27046,"stv_name":"Uncletopia | London | 4 | All Maps | STV","players":[{"user_id":16,"name":"SirokJones","steam_id":76561199007464588,"connected_time":261000000000,"state":"active","ping":92},{"user_id":17,"name":"vlad","steam_id":76561199003712788,"connected_time":196000000000,"state":"active","ping":36}]},{"server_id":21,"name":"Uncletopia | London | 5 | All Maps","name_short":"lon-5","host":"lon-1.uk.uncletopia.com","port":27055,"enabled":true,"region":"eu","cc":"gb","latitude":51.509865,"longitude":-0.118092,"reserved":0,"last_update":"0001-01-01T00:00:00Z","name_a2s":"Uncletopia | London | 5 | All Maps","protocol":17,"map":"plr_hightower","folder":"tf","game":"Team Fortress","app_id":440,"player_count":20,"max_players":24,"Bots":0,"server_type":"Dedicated","server_os":"Linux","password":true,"vac":true,"version":"7742253","steam_id":85568392924742829,"keywords":["nocrits","nodmgspread","payload","uncletopia"],"game_id":440,"stv_port":27056,"stv_name":"Uncletopia | London | 5 | All Maps | STV","players":[{"user_id":24,"name":"SunDowner","steam_id":76561199167532271,"connected_time":1301000000000,"state":"active","ping":119},{"user_id":29,"name":"UsawMed","steam_id":76561198045106141,"connected_time":1099000000000,"state":"active","ping":64},{"user_id":37,"name":"7hero","steam_id":76561198118829945,"connected_time":476000000000,"state":"active","ping":102},{"user_id":17,"name":"Le Chevalier Pingouin","steam_id":76561198221355000,"connected_time":1897000000000,"state":"active","ping":38},{"user_id":38,"name":"still the best 1973 #savetf2","steam_id":76561199221139822,"connected_time":446000000000,"state":"active","ping":98},{"user_id":30,"name":"SynthBox3","steam_id":76561199094075745,"connected_time":1011000000000,"state":"active","ping":90},{"user_id":39,"name":"Equinox","steam_id":76561199055592635,"connected_time":440000000000,"state":"active","ping":72},{"user_id":35,"name":"Din Javel","steam_id":76561198043018352,"connected_time":706000000000,"state":"active","ping":61},{"user_id":42,"name":"ashley","steam_id":76561198056152479,"connected_time":236000000000,"state":"active","ping":39},{"user_id":40,"name":"marsel","steam_id":76561198116168271,"connected_time":386000000000,"state":"active","ping":75},{"user_id":41,"name":"Quartermistress","steam_id":76561198140199123,"connected_time":258000000000,"state":"active","ping":41},{"user_id":43,"name":"casper","steam_id":76561198869567040,"connected_time":220000000000,"state":"active","ping":114},{"user_id":44,"name":"GOUD","steam_id":76561198071823072,"connected_time":202000000000,"state":"active","ping":75},{"user_id":45,"name":"Liba","steam_id":76561198118006754,"connected_time":194000000000,"state":"active","ping":77},{"user_id":46,"name":"Shawty","steam_id":76561198256704286,"connected_time":192000000000,"state":"active","ping":62},{"user_id":48,"name":"gamer man","steam_id":76561198436817109,"connected_time":139000000000,"state":"active","ping":49},{"user_id":53,"name":"Sotviing","steam_id":76561198154311159,"connected_time":48000000000,"state":"active","ping":77},{"user_id":54,"name":"eeeeee","steam_id":76561198017786875,"connected_time":31000000000,"state":"active","ping":58},{"user_id":51,"name":"NEONwarrior234","steam_id":76561198214982895,"connected_time":63000000000,"state":"active","ping":82},{"user_id":52,"name":"lilleskutte","steam_id":76561198033164425,"connected_time":54000000000,"state":"active","ping":76}]},{"server_id":22,"name":"Uncletopia | London | 6 | All Maps","name_short":"lon-6","host":"lon-1.uk.uncletopia.com","port":27065,"enabled":true,"region":"eu","cc":"gb","latitude":51.509865,"longitude":-0.118092,"reserved":0,"last_update":"0001-01-01T00:00:00Z","name_a2s":"Uncletopia | London | 6 | All Maps","protocol":17,"map":"koth_viaduct","folder":"tf","game":"Team Fortress","app_id":440,"player_count":0,"max_players":24,"Bots":0,"server_type":"Dedicated","server_os":"Linux","password":true,"vac":true,"version":"7742253","steam_id":85568392924742830,"keywords":["cp","nocrits","nodmgspread","uncletopia"],"game_id":440,"stv_port":27066,"stv_name":"Uncletopia | London | 6 | All Maps | STV","players":null},{"server_id":40,"name":"Uncletopia | London | 7 | No Payload","name_short":"lon-7","host":"lon-1.uk.uncletopia.com","port":27075,"enabled":true,"region":"eu","cc":"gb","latitude":51.509865,"longitude":-0.118092,"reserved":0,"last_update":"0001-01-01T00:00:00Z","name_a2s":"Uncletopia | London | 7 | No Payload","protocol":17,"map":"cp_gravelpit","folder":"tf","game":"Team Fortress","app_id":440,"player_count":0,"max_players":24,"Bots":0,"server_type":"Dedicated","server_os":"Linux","password":true,"vac":true,"version":"7742253","steam_id":85568392924964314,"keywords":["cp","nocrits","nodmgspread","uncletopia"],"game_id":440,"stv_port":27076,"stv_name":"Uncletopia | London | 7 | No Payload | STV","players":null},{"server_id":41,"name":"Uncletopia | London | 8 | Community","name_short":"lon-8","host":"lon-1.uk.uncletopia.com","port":27085,"enabled":true,"region":"eu","cc":"gb","latitude":51.509865,"longitude":-0.118092,"reserved":0,"last_update":"0001-01-01T00:00:00Z","name_a2s":"Uncletopia | London | 8 | Community","protocol":17,"map":"cp_process_final","folder":"tf","game":"Team Fortress","app_id":440,"player_count":0,"max_players":24,"Bots":0,"server_type":"Dedicated","server_os":"Linux","password":true,"vac":true,"version":"7742253","steam_id":85568392924964315,"keywords":["cp","nocrits","nodmgspread","uncletopia"],"game_id":440,"stv_port":27086,"stv_name":"Uncletopia | London | 8 | Community | STV","players":null},{"server_id":300,"name":"Uncletopia | Montr√©al | 1 | All Maps","name_short":"mtl-1","host":"mtl-1.ca.uncletopia.com","port":27015,"enabled":true,"region":"us-east","cc":"ca","latitude":45.50889,"longitude":-73.56167,"reserved":0,"last_update":"0001-01-01T00:00:00Z","name_a2s":"Uncletopia | Montr√©al | 1 | All Maps","protocol":17,"map":"koth_lakeside_final","folder":"tf","game":"Team Fortress","app_id":440,"player_count":0,"max_players":24,"Bots":0,"server_type":"Dedicated","server_os":"Linux","password":true,"vac":true,"version":"7742253","steam_id":85568392924500087,"keywords":["cp","nocrits","nodmgspread","uncletopia"],"game_id":440,"stv_port":27016,"stv_name":"Uncletopia | Montr√©al | 1 | All Maps | STV","players":null},{"server_id":301,"name":"Uncletopia | Montr√©al | 2 | All Maps","name_short":"mtl-2","host":"mtl-1.ca.uncletopia.com","port":27025,"enabled":true,"region":"us-east","cc":"ca","latitude":45.50889,"longitude":-73.56167,"reserved":0,"last_update":"0001-01-01T00:00:00Z","name_a2s":"Uncletopia | Montr√©al | 2 | All Maps","protocol":17,"map":"koth_lakeside_final","folder":"tf","game":"Team Fortress","app_id":440,"player_count":0,"max_players":24,"Bots":0,"server_type":"Dedicated","server_os":"Linux","password":true,"vac":true,"version":"7742253","steam_id":85568392924500088,"keywords":["cp","nocrits","nodmgspread","uncletopia"],"game_id":440,"stv_port":27026,"stv_name":"Uncletopia | Montr√©al | 2 | All Maps | STV","players":null},{"server_id":302,"name":"Uncletopia | Montr√©al | 3 | All Maps","name_short":"mtl-3","host":"mtl-1.ca.uncletopia.com","port":27035,"enabled":true,"region":"us-east","cc":"ca","latitude":45.50889,"longitude":-73.56167,"reserved":0,"last_update":"0001-01-01T00:00:00Z","name_a2s":"Uncletopia | Montr√©al | 3 | All Maps","protocol":17,"map":"cp_sunshine","folder":"tf","game":"Team Fortress","app_id":440,"player_count":0,"max_players":24,"Bots":0,"server_type":"Dedicated","server_os":"Linux","password":true,"vac":true,"version":"7742253","steam_id":85568392924500089,"keywords":["cp","nocrits","nodmgspread","uncletopia"],"game_id":440,"stv_port":27036,"stv_name":"Uncletopia | Montr√©al | 3 | All Maps | STV","players":null},{"server_id":303,"name":"Uncletopia | Montr√©al | 4 | No Payload","name_short":"mtl-4","host":"mtl-1.ca.uncletopia.com","port":27045,"enabled":true,"region":"us-east","cc":"ca","latitude":45.50889,"longitude":-73.56167,"reserved":0,"last_update":"0001-01-01T00:00:00Z","name_a2s":"Uncletopia | Montr√©al | 4 | No Payload","protocol":17,"map":"koth_highpass","folder":"tf","game":"Team Fortress","app_id":440,"player_count":0,"max_players":24,"Bots":0,"server_type":"Dedicated","server_os":"Linux","password":true,"vac":true,"version":"7742253","steam_id":85568392924500090,"keywords":["cp","nocrits","nodmgspread","uncletopia"],"game_id":440,"stv_port":27046,"stv_name":"Uncletopia | Montr√©al | 4 | No Payload | STV","players":null},{"server_id":13,"name":"Uncletopia | New York City | 1 | All Maps","name_short":"nyc-1","host":"nyc-1.us.uncletopia.com","port":27015,"enabled":true,"region":"us-east","cc":"us","latitude":40.73061,"longitude":-73.93524,"reserved":0,"last_update":"0001-01-01T00:00:00Z","name_a2s":"Uncletopia | New York City | 1 | All Maps","protocol":17,"map":"plr_bananabay","folder":"tf","game":"Team Fortress","app_id":440,"player_count":24,"max_players":24,"Bots":0,"server_type":"Dedicated","server_os":"Linux","password":true,"vac":true,"version":"7742253","steam_id":85568392924469993,"keywords":["nocrits","nodmgspread","payload","uncletopia"],"game_id":440,"stv_port":27016,"stv_name":"Uncletopia | New York City | 1 | All Maps | STV","players":[{"user_id":63,"name":"Myagic","steam_id":76561198123746755,"connected_time":5658000000000,"state":"active","ping":87},{"user_id":122,"name":"dr peppah chug!","steam_id":76561198068835693,"connected_time":1851000000000,"state":"active","ping":79},{"user_id":143,"name":"YunKo„ÉÑ","steam_id":76561199107366261,"connected_time":715000000000,"state":"active","ping":65},{"user_id":96,"name":"IMPACT CPU","steam_id":76561198001344879,"connected_time":3551000000000,"state":"active","ping":60},{"user_id":116,"name":"Sire Salty","steam_id":76561198079639072,"connected_time":2089000000000,"state":"active","ping":52},{"user_id":125,"name":"Pan","steam_id":76561199122755987,"connected_time":1724000000000,"state":"active","ping":108},{"user_id":151,"name":"The Scorcher","steam_id":76561198804901722,"connected_time":406000000000,"state":"active","ping":83},{"user_id":108,"name":"gooseboy","steam_id":76561199187661052,"connected_time":2925000000000,"state":"active","ping":64},{"user_id":118,"name":"Diamond Jack","steam_id":76561198321304762,"connected_time":2030000000000,"state":"active","ping":43},{"user_id":138,"name":"SugiNo528","steam_id":76561199176230786,"connected_time":746000000000,"state":"active","ping":105},{"user_id":133,"name":"Bi Panic","steam_id":76561198426306122,"connected_time":1217000000000,"state":"active","ping":60},{"user_id":155,"name":"DualiTea","steam_id":76561198081733870,"connected_time":7000000000,"state":"spawning","ping":89},{"user_id":144,"name":"F0rest","steam_id":76561199112458876,"connected_time":698000000000,"state":"active","ping":35},{"user_id":99,"name":"moodi catgirl","steam_id":76561198124028045,"connected_time":3320000000000,"state":"active","ping":55},{"user_id":145,"name":"TheWallaby","steam_id":76561198948037546,"connected_time":669000000000,"state":"active","ping":56},{"user_id":153,"name":"Sir Loincloth","steam_id":76561198033073991,"connected_time":329000000000,"state":"active","ping":98},{"user_id":154,"name":"CAROLINA BBQ","steam_id":76561198061859304,"connected_time":86000000000,"state":"active","ping":55},{"user_id":132,"name":"mordecai","steam_id":76561198000689264,"connected_time":1263000000000,"state":"active","ping":178},{"user_id":54,"name":"Fermenting Kiwi","steam_id":76561198253303497,"connected_time":6259000000000,"state":"active","ping":91},{"user_id":152,"name":"PanPanPan111","steam_id":76561198197070906,"connected_time":348000000000,"state":"active","ping":88},{"user_id":149,"name":"aqua","steam_id":76561199407709552,"connected_time":449000000000,"state":"active","ping":75},{"user_id":128,"name":"attentiondeficit","steam_id":76561198129682583,"connected_time":1635000000000,"state":"active","ping":79},{"user_id":135,"name":"Purgatory","steam_id":76561198374795958,"connected_time":774000000000,"state":"active","ping":91},{"user_id":150,"name":"LazyKoala99","steam_id":76561199183623672,"connected_time":443000000000,"state":"active","ping":51}]},{"server_id":14,"name":"Uncletopia | New York City | 2 | All Maps","name_short":"nyc-2","host":"nyc-1.us.uncletopia.com","port":27025,"enabled":true,"region":"us-east","cc":"us","latitude":40.73061,"longitude":-73.93524,"reserved":0,"last_update":"0001-01-01T00:00:00Z","name_a2s":"Uncletopia | New York City | 2 | All Maps","protocol":17,"map":"pl_badwater","folder":"tf","game":"Team Fortress","app_id":440,"player_count":24,"max_players":24,"Bots":0,"server_type":"Dedicated","server_os":"Linux","password":true,"vac":true,"version":"7742253","steam_id":85568392924469994,"keywords":["nocrits","nodmgspread","payload","uncletopia"],"game_id":440,"stv_port":27026,"stv_name":"Uncletopia | New York City | 2 | All Maps | STV","players":[{"user_id":8,"name":"deusvult","steam_id":76561199246399499,"connected_time":2729000000000,"state":"active","ping":59},{"user_id":56,"name":"SuperJagops","steam_id":76561198034689716,"connected_time":727000000000,"state":"active","ping":51},{"user_id":38,"name":"Polygunner","steam_id":76561199165741650,"connected_time":1617000000000,"state":"active","ping":64},{"user_id":33,"name":"Slug Warrior","steam_id":76561197996052704,"connected_time":1730000000000,"state":"active","ping":62},{"user_id":12,"name":"cidkantspel","steam_id":76561198424125251,"connected_time":2399000000000,"state":"active","ping":67},{"user_id":13,"name":"Wiggee","steam_id":76561197972792989,"connected_time":2298000000000,"state":"active","ping":82},{"user_id":60,"name":"33","steam_id":76561198894676484,"connected_time":500000000000,"state":"active","ping":117},{"user_id":46,"name":"Zelumie","steam_id":76561198147335801,"connected_time":1537000000000,"state":"active","ping":74},{"user_id":22,"name":"Vefti","steam_id":76561198178172809,"connected_time":1872000000000,"state":"active","ping":84},{"user_id":71,"name":"kaccer","steam_id":76561198331683379,"connected_time":320000000000,"state":"active","ping":49},{"user_id":69,"name":"(`ÔΩ•œâÔΩ•¬¥)","steam_id":76561198000045766,"connected_time":341000000000,"state":"active","ping":48},{"user_id":64,"name":"Ghost Deini","steam_id":76561198063336720,"connected_time":453000000000,"state":"active","ping":82},{"user_id":26,"name":"BigBubble42","steam_id":76561198136286123,"connected_time":1841000000000,"state":"active","ping":72},{"user_id":41,"name":"Room","steam_id":76561199174579733,"connected_time":1600000000000,"state":"active","ping":69},{"user_id":42,"name":"zanealcannon","steam_id":76561198409950668,"connected_time":1590000000000,"state":"active","ping":67},{"user_id":58,"name":"thomasdee725","steam_id":76561199189526173,"connected_time":520000000000,"state":"active","ping":60},{"user_id":47,"name":"Defender0070","steam_id":76561199089678158,"connected_time":1525000000000,"state":"active","ping":45},{"user_id":79,"name":"quinneroni","steam_id":76561198868096146,"connected_time":135000000000,"state":"active","ping":180},{"user_id":54,"name":"Bigtimefan5","steam_id":76561199047490167,"connected_time":1082000000000,"state":"active","ping":64},{"user_id":44,"name":"aimboat","steam_id":76561198218131923,"connected_time":1579000000000,"state":"active","ping":85},{"user_id":35,"name":"Mycelion","steam_id":76561198024999530,"connected_time":1689000000000,"state":"active","ping":85},{"user_id":48,"name":"[12V] Marv","steam_id":76561198158638384,"connected_time":1494000000000,"state":"active","ping":67},{"user_id":49,"name":"Tartan Spartan","steam_id":76561198171718019,"connected_time":1471000000000,"state":"active","ping":119},{"user_id":78,"name":"merry fishmas","steam_id":76561198255819115,"connected_time":163000000000,"state":"active","ping":81}]},{"server_id":15,"name":"Uncletopia | New York City | 3 | Stopwatch Beta","name_short":"nyc-3","host":"nyc-1.us.uncletopia.com","port":27035,"enabled":true,"region":"us-east","cc":"us","latitude":40.73061,"longitude":-73.93524,"reserved":0,"last_update":"0001-01-01T00:00:00Z","name_a2s":"Uncletopia | New York City | 3 | Stopwatch Beta","protocol":17,"map":"cp_altitude","folder":"tf","game":"Team Fortress","app_id":440,"player_count":0,"max_players":24,"Bots":0,"server_type":"Dedicated","server_os":"Linux","password":true,"vac":true,"version":"7742253","steam_id":85568392924742820,"keywords":["cp","nocrits","nodmgspread","uncletopia"],"game_id":440,"stv_port":27036,"stv_name":"Uncletopia | New York City | 3 | Stopwatch Beta | STV","players":null},{"server_id":16,"name":"Uncletopia | New York City | 4 | Community","name_short":"nyc-4","host":"nyc-1.us.uncletopia.com","port":27045,"enabled":true,"region":"us-east","cc":"us","latitude":40.73061,"longitude":-73.93524,"reserved":0,"last_update":"0001-01-01T00:00:00Z","name_a2s":"Uncletopia | New York City | 4 | Community","protocol":17,"map":"pl_barnblitz","folder":"tf","game":"Team Fortress","app_id":440,"player_count":0,"max_players":24,"Bots":0,"server_type":"Dedicated","server_os":"Linux","password":true,"vac":true,"version":"7742253","steam_id":85568392924742821,"keywords":["nocrits","nodmgspread","payload","uncletopia"],"game_id":440,"stv_port":27046,"stv_name":"Uncletopia | New York City | 4 | Community | STV","players":null},{"server_id":142,"name":"Uncletopia | S√£o Paulo | 1 | All Maps","name_short":"sao-1","host":"sao-1.br.uncletopia.com","port":27015,"enabled":true,"region":"sa","cc":"br","latitude":-23.533773,"longitude":-46.62529,"reserved":0,"last_update":"0001-01-01T00:00:00Z","name_a2s":"Uncletopia | S√£o Paulo | 1 | All Maps","protocol":17,"map":"pl_frontier_final","folder":"tf","game":"Team Fortress","app_id":440,"player_count":14,"max_players":24,"Bots":0,"server_type":"Dedicated","server_os":"Linux","password":true,"vac":true,"version":"7742253","steam_id":85568392924469996,"keywords":["nocrits","nodmgspread","payload","uncletopia"],"game_id":440,"stv_port":27016,"stv_name":"Uncletopia | S√£o Paulo | 1 | All Maps | STV","players":[{"user_id":7,"name":"Caneta Vermelha","steam_id":76561198358676721,"connected_time":2484000000000,"state":"active","ping":35},{"user_id":16,"name":"(F2P)YellowEyePatch","steam_id":76561199108111310,"connected_time":1585000000000,"state":"active","ping":47},{"user_id":28,"name":"Ôº•ÔΩéÔΩÑÔΩÖÔΩíÔºÆÔΩÖÔΩÉÔΩíÔΩè","steam_id":76561198044304293,"connected_time":229000000000,"state":"active","ping":31},{"user_id":10,"name":"Caneta Azul","steam_id":76561198352362764,"connected_time":2352000000000,"state":"active","ping":42},{"user_id":11,"name":"Gon√ßalves","steam_id":76561198064935413,"connected_time":2255000000000,"state":"active","ping":45},{"user_id":25,"name":"Proto","steam_id":76561198131548429,"connected_time":405000000000,"state":"active","ping":48},{"user_id":14,"name":"Elon SAD","steam_id":76561199064720390,"connected_time":1765000000000,"state":"active","ping":62},{"user_id":19,"name":"$r. Hello There #savetf2","steam_id":76561198874231807,"connected_time":1260000000000,"state":"active","ping":41},{"user_id":27,"name":"Zero","steam_id":76561199383267408,"connected_time":267000000000,"state":"active","ping":177},{"user_id":21,"name":"Sheep","steam_id":76561198965004777,"connected_time":921000000000,"state":"active","ping":53},{"user_id":26,"name":"Egg Guzzler","steam_id":76561199109194893,"connected_time":290000000000,"state":"active","ping":206},{"user_id":23,"name":"ionamagic","steam_id":76561199258554130,"connected_time":641000000000,"state":"active","ping":82},{"user_id":29,"name":"Derretimento Geral 2017","steam_id":76561198194300069,"connected_time":159000000000,"state":"active","ping":192},{"user_id":31,"name":"jp","steam_id":76561198244003168,"connected_time":10000000000,"state":"spawning","ping":56}]},{"server_id":143,"name":"Uncletopia | S√£o Paulo | 2 | All Maps","name_short":"sao-2","host":"sao-2.br.uncletopia.com","port":27015,"enabled":true,"region":"sa","cc":"br","latitude":-23.533773,"longitude":-46.62529,"reserved":0,"last_update":"0001-01-01T00:00:00Z","name_a2s":"Uncletopia | S√£o Paulo | 2 | All Maps","protocol":17,"map":"pl_upward","folder":"tf","game":"Team Fortress","app_id":440,"player_count":0,"max_players":24,"Bots":0,"server_type":"Dedicated","server_os":"Linux","password":true,"vac":true,"version":"7742253","steam_id":85568392924485349,"keywords":["nocrits","nodmgspread","payload","uncletopia"],"game_id":440,"stv_port":27016,"stv_name":"Uncletopia | S√£o Paulo | 2 | All Maps | STV","players":null},{"server_id":7,"name":"Uncletopia | Seattle | 1 | All Maps","name_short":"sea-1","host":"sea-1.us.uncletopia.com","port":27015,"enabled":true,"region":"us-west","cc":"us","latitude":47.608013,"longitude":-122.33517,"reserved":0,"last_update":"0001-01-01T00:00:00Z","name_a2s":"Uncletopia | Seattle | 1 | All Maps","protocol":17,"map":"cp_altitude","folder":"tf","game":"Team Fortress","app_id":440,"player_count":24,"max_players":24,"Bots":0,"server_type":"Dedicated","server_os":"Linux","password":true,"vac":true,"version":"7742253","steam_id":85568392924469997,"keywords":["cp","nocrits","nodmgspread","uncletopia"],"game_id":440,"stv_port":27016,"stv_name":"Uncletopia | Seattle | 1 | All Maps | STV","players":[{"user_id":179,"name":"non_ai","steam_id":76561198270951938,"connected_time":1801000000000,"state":"active","ping":109},{"user_id":199,"name":"Barple Bapkins","steam_id":76561198146096076,"connected_time":1139000000000,"state":"active","ping":133},{"user_id":189,"name":"asbestos taste tester","steam_id":76561198161043251,"connected_time":1362000000000,"state":"active","ping":134},{"user_id":168,"name":"konstantynopolita≈Ñczykowianecz","steam_id":76561199117761097,"connected_time":2623000000000,"state":"active","ping":47},{"user_id":143,"name":"Spazzls","steam_id":76561198075224361,"connected_time":3756000000000,"state":"active","ping":108},{"user_id":180,"name":"AureateAura","steam_id":76561198046902265,"connected_time":1636000000000,"state":"active","ping":122},{"user_id":208,"name":"Sex on the peach","steam_id":76561198002353326,"connected_time":523000000000,"state":"active","ping":111},{"user_id":192,"name":"SHARK THAT EATS L E A N B E E F","steam_id":76561198271947627,"connected_time":1266000000000,"state":"active","ping":147},{"user_id":140,"name":"NathanSpades","steam_id":76561198870850297,"connected_time":3861000000000,"state":"active","ping":75},{"user_id":209,"name":"keffers | Chrimbus Time","steam_id":76561198202338796,"connected_time":489000000000,"state":"active","ping":94},{"user_id":186,"name":"Fredfredfood","steam_id":76561198072824802,"connected_time":1464000000000,"state":"active","ping":81},{"user_id":187,"name":"Porkchop","steam_id":76561198047654421,"connected_time":1412000000000,"state":"active","ping":110},{"user_id":194,"name":"Protoshake","steam_id":76561198840276176,"connected_time":1242000000000,"state":"active","ping":90},{"user_id":210,"name":"splicer400","steam_id":76561198170111062,"connected_time":418000000000,"state":"active","ping":108},{"user_id":195,"name":"Piogre","steam_id":76561198006182258,"connected_time":1222000000000,"state":"active","ping":96},{"user_id":207,"name":"helloyes_123","steam_id":76561198184669555,"connected_time":742000000000,"state":"active","ping":70},{"user_id":197,"name":"your discord kitten uwu","steam_id":76561198192330781,"connected_time":1156000000000,"state":"active","ping":113},{"user_id":205,"name":"ArchmageF","steam_id":76561197992246851,"connected_time":931000000000,"state":"active","ping":48},{"user_id":200,"name":"Knuckles","steam_id":76561198000704259,"connected_time":1136000000000,"state":"active","ping":105},{"user_id":212,"name":"FedSmoker","steam_id":76561198255854081,"connected_time":338000000000,"state":"active","ping":54},{"user_id":202,"name":"Joji - Tick Tock","steam_id":76561198418414338,"connected_time":1077000000000,"state":"active","ping":101},{"user_id":203,"name":"hamdrinker985","steam_id":76561199241807676,"connected_time":1049000000000,"state":"active","ping":53},{"user_id":176,"name":"THE CUMEST LORD","steam_id":76561198061412592,"connected_time":2066000000000,"state":"active","ping":115},{"user_id":204,"name":"help","steam_id":76561199056338917,"connected_time":1030000000000,"state":"active","ping":123}]},{"server_id":119,"name":"Uncletopia | Seattle | 2 | All Maps","name_short":"sea-2","host":"sea-1.us.uncletopia.com","port":27025,"enabled":true,"region":"us-west","cc":"us","latitude":47.608013,"longitude":-122.33517,"reserved":0,"last_update":"0001-01-01T00:00:00Z","name_a2s":"Uncletopia | Seattle | 2 | All Maps","protocol":17,"map":"koth_cascade","folder":"tf","game":"Team Fortress","app_id":440,"player_count":0,"max_players":24,"Bots":0,"server_type":"Dedicated","server_os":"Linux","password":true,"vac":true,"version":"7742253","steam_id":85568392924469998,"keywords":["cp","nocrits","nodmgspread","uncletopia"],"game_id":440,"stv_port":27026,"stv_name":"Uncletopia | Seattle | 2 | All Maps | STV","players":null},{"server_id":406,"name":"Uncletopia | Seattle | 3 | Stopwatch Beta","name_short":"sea-3","host":"sea-1.us.uncletopia.com","port":27035,"enabled":true,"region":"us-west","cc":"us","latitude":47.608013,"longitude":-122.33517,"reserved":0,"last_update":"0001-01-01T00:00:00Z","name_a2s":"Uncletopia | Seattle | 3 | Stopwatch Beta","protocol":17,"map":"pl_upward","folder":"tf","game":"Team Fortress","app_id":440,"player_count":0,"max_players":24,"Bots":0,"server_type":"Dedicated","server_os":"Linux","password":true,"vac":false,"version":"7742253","steam_id":0,"keywords":["nocrits","nodmgspread","payload","uncletopia"],"game_id":440,"stv_port":27036,"stv_name":"Uncletopia | Seattle | 3 | Stopwatch Beta | STV","players":null},{"server_id":17,"name":"Uncletopia | San Francisco | 1 | All Maps","name_short":"sfo-1","host":"sfo-1.us.uncletopia.com","port":27015,"enabled":true,"region":"us-west","cc":"us","latitude":37.77397,"longitude":-122.4313,"reserved":0,"last_update":"0001-01-01T00:00:00Z","name_a2s":"Uncletopia | San Francisco | 1 | All Maps","protocol":17,"map":"koth_cascade","folder":"tf","game":"Team Fortress","app_id":440,"player_count":0,"max_players":24,"Bots":0,"server_type":"Dedicated","server_os":"Linux","password":true,"vac":true,"version":"7742253","steam_id":85568392924469999,"keywords":["cp","nocrits","nodmgspread","uncletopia"],"game_id":440,"stv_port":27016,"stv_name":"Uncletopia | San Francisco | 1 | All Maps | STV","players":null},{"server_id":18,"name":"Uncletopia | San Francisco | 2 | All Maps","name_short":"sfo-2","host":"sfo-1.us.uncletopia.com","port":27025,"enabled":true,"region":"us-west","cc":"us","latitude":37.77397,"longitude":-122.4313,"reserved":0,"last_update":"0001-01-01T00:00:00Z","name_a2s":"Uncletopia | San Francisco | 2 | All Maps","protocol":17,"map":"cp_process_final","folder":"tf","game":"Team Fortress","app_id":440,"player_count":0,"max_players":24,"Bots":0,"server_type":"Dedicated","server_os":"Linux","password":true,"vac":true,"version":"7742253","steam_id":85568392924470000,"keywords":["cp","nocrits","nodmgspread","uncletopia"],"game_id":440,"stv_port":27026,"stv_name":"Uncletopia | San Francisco | 2 | All Maps | STV","players":null},{"server_id":19,"name":"Uncletopia | San Francisco | 3 | Stopwatch Beta","name_short":"sfo-3","host":"sfo-1.us.uncletopia.com","port":27035,"enabled":true,"region":"us-west","cc":"us","latitude":37.77397,"longitude":-122.4313,"reserved":0,"last_update":"0001-01-01T00:00:00Z","name_a2s":"Uncletopia | San Francisco | 3 | Stopwatch Beta","protocol":17,"map":"cp_snakewater_final1","folder":"tf","game":"Team Fortress","app_id":440,"player_count":0,"max_players":24,"Bots":0,"server_type":"Dedicated","server_os":"Linux","password":true,"vac":true,"version":"7742253","steam_id":85568392924742824,"keywords":["cp","nocrits","nodmgspread","uncletopia"],"game_id":440,"stv_port":27036,"stv_name":"Uncletopia | San Francisco | 3 | Stopwatch Beta | STV","players":null},{"server_id":20,"name":"Uncletopia | San Francisco | 4 | Community","name_short":"sfo-4","host":"sfo-1.us.uncletopia.com","port":27045,"enabled":true,"region":"us-west","cc":"us","latitude":37.77397,"longitude":-122.4313,"reserved":0,"last_update":"0001-01-01T00:00:00Z","name_a2s":"Uncletopia | San Francisco | 4 | Community","protocol":17,"map":"cp_altitude","folder":"tf","game":"Team Fortress","app_id":440,"player_count":0,"max_players":24,"Bots":0,"server_type":"Dedicated","server_os":"Linux","password":true,"vac":true,"version":"7742253","steam_id":85568392924742826,"keywords":["cp","nocrits","nodmgspread","uncletopia"],"game_id":440,"stv_port":27046,"stv_name":"Uncletopia | San Francisco | 4 | Community | STV","players":null},{"server_id":141,"name":"Uncletopia | Sydney | 1 | All Maps","name_short":"syd-1","host":"syd-1.au.uncletopia.com","port":27015,"enabled":true,"region":"au","cc":"au","latitude":-33.865143,"longitude":151.2099,"reserved":0,"last_update":"0001-01-01T00:00:00Z","name_a2s":"Uncletopia | Sydney | 1 | All Maps","protocol":17,"map":"pl_barnblitz","folder":"tf","game":"Team Fortress","app_id":440,"player_count":0,"max_players":24,"Bots":0,"server_type":"Dedicated","server_os":"Linux","password":true,"vac":true,"version":"7742253","steam_id":85568392924470001,"keywords":["nocrits","nodmgspread","payload","uncletopia"],"game_id":440,"stv_port":27016,"stv_name":"Uncletopia | Sydney | 1 | All Maps | STV","players":null},{"server_id":123,"name":"Uncletopia | Sydney | 2 | All Maps","name_short":"syd-2","host":"syd-1.au.uncletopia.com","port":27025,"enabled":true,"region":"au","cc":"au","latitude":-33.865143,"longitude":151.2099,"reserved":0,"last_update":"0001-01-01T00:00:00Z","name_a2s":"Uncletopia | Sydney | 2 | All Maps","protocol":17,"map":"pl_chilly","folder":"tf","game":"Team Fortress","app_id":440,"player_count":0,"max_players":24,"Bots":0,"server_type":"Dedicated","server_os":"Linux","password":true,"vac":true,"version":"7742253","steam_id":85568392924470002,"keywords":["nocrits","nodmgspread","payload","uncletopia"],"game_id":440,"stv_port":27026,"stv_name":"Uncletopia | Sydney | 2 | All Maps | STV","players":null},{"server_id":395,"name":"Uncletopia | Sydney | 3 | All Maps","name_short":"syd-3","host":"syd-1.au.uncletopia.com","port":27035,"enabled":true,"region":"au","cc":"au","latitude":-33.865143,"longitude":151.2099,"reserved":0,"last_update":"0001-01-01T00:00:00Z","name_a2s":"Uncletopia | Sydney | 3 | All Maps","protocol":17,"map":"cp_snakewater_final1","folder":"tf","game":"Team Fortress","app_id":440,"player_count":0,"max_players":24,"Bots":0,"server_type":"Dedicated","server_os":"Linux","password":true,"vac":true,"version":"7742253","steam_id":85568392925194467,"keywords":["cp","nocrits","nodmgspread","uncletopia"],"game_id":440,"stv_port":27036,"stv_name":"Uncletopia | Sydney | 3 | All Maps | STV","players":null},{"server_id":396,"name":"Uncletopia | Sydney | 4 | All Maps","name_short":"syd-4","host":"syd-1.au.uncletopia.com","port":27045,"enabled":true,"region":"au","cc":"au","latitude":-33.865143,"longitude":151.2099,"reserved":0,"last_update":"0001-01-01T00:00:00Z","name_a2s":"Uncletopia | Sydney | 4 | All Maps","protocol":17,"map":"koth_lakeside_final","folder":"tf","game":"Team Fortress","app_id":440,"player_count":0,"max_players":24,"Bots":0,"server_type":"Dedicated","server_os":"Linux","password":true,"vac":true,"version":"7742253","steam_id":85568392925397958,"keywords":["cp","nocrits","nodmgspread","uncletopia"],"game_id":440,"stv_port":27046,"stv_name":"Uncletopia | Sydney | 4 | All Maps | STV","players":null},{"server_id":58,"name":"Uncletopia | Sydney | 5 | Stopwatch Beta","name_short":"syd-5","host":"syd-1.au.uncletopia.com","port":27055,"enabled":true,"region":"au","cc":"au","latitude":-33.865143,"longitude":151.2099,"reserved":0,"last_update":"0001-01-01T00:00:00Z","name_a2s":"Uncletopia | Sydney | 5 | Stopwatch Beta","protocol":17,"map":"cp_snakewater_final1","folder":"tf","game":"Team Fortress","app_id":440,"player_count":0,"max_players":24,"Bots":0,"server_type":"Dedicated","server_os":"Linux","password":true,"vac":true,"version":"7742253","steam_id":85568392925397959,"keywords":["cp","nocrits","nodmgspread","uncletopia"],"game_id":440,"stv_port":27056,"stv_name":"Uncletopia | Sydney | 5 | Stopwatch Beta | STV","players":null},{"server_id":59,"name":"Uncletopia | Sydney | 6 | Community","name_short":"syd-6","host":"syd-1.au.uncletopia.com","port":27065,"enabled":true,"region":"au","cc":"au","latitude":-33.865143,"longitude":151.2099,"reserved":0,"last_update":"0001-01-01T00:00:00Z","name_a2s":"Uncletopia | Sydney | 6 | Community","protocol":17,"map":"workshop/pl_barnblitz_pro7.ugc582280235","folder":"tf","game":"Team Fortress","app_id":440,"player_count":0,"max_players":24,"Bots":0,"server_type":"Dedicated","server_os":"Linux","password":true,"vac":true,"version":"7742253","steam_id":85568392925397960,"keywords":["nocrits","nodmgspread","payload","uncletopia"],"game_id":440,"stv_port":27066,"stv_name":"Uncletopia | Sydney | 6 | Community | STV","players":null},{"server_id":49,"name":"Uncletopia | Warsaw | 1 | All Maps","name_short":"waw-1","host":"waw-1.pl.uncletopia.com","port":27015,"enabled":true,"region":"eu","cc":"pl","latitude":52.2297,"longitude":21.017532,"reserved":0,"last_update":"0001-01-01T00:00:00Z","name_a2s":"Uncletopia | Warsaw | 1 | All Maps","protocol":17,"map":"koth_lakeside_final","folder":"tf","game":"Team Fortress","app_id":440,"player_count":0,"max_players":24,"Bots":0,"server_type":"Dedicated","server_os":"Linux","password":true,"vac":true,"version":"7723704","steam_id":85568392925397850,"keywords":["cp","nocrits","nodmgspread","uncletopia"],"game_id":440,"stv_port":27016,"stv_name":"Uncletopia | Warsaw | 1 | All Maps | STV","players":null},{"server_id":50,"name":"Uncletopia | Warsaw | 2 | All Maps","name_short":"waw-2","host":"waw-1.pl.uncletopia.com","port":27025,"enabled":true,"region":"eu","cc":"pl","latitude":52.2297,"longitude":21.017532,"reserved":0,"last_update":"0001-01-01T00:00:00Z","name_a2s":"Uncletopia | Warsaw | 2 | All Maps","protocol":17,"map":"pl_upward","folder":"tf","game":"Team Fortress","app_id":440,"player_count":0,"max_players":24,"Bots":0,"server_type":"Dedicated","server_os":"Linux","password":true,"vac":true,"version":"7742253","steam_id":85568392925397851,"keywords":["nocrits","nodmgspread","payload","uncletopia"],"game_id":440,"stv_port":27026,"stv_name":"Uncletopia | Warsaw | 2 | All Maps | STV","players":null},{"server_id":51,"name":"Uncletopia | Warsaw | 3 | All Maps","name_short":"waw-3","host":"waw-1.pl.uncletopia.com","port":27035,"enabled":true,"region":"eu","cc":"pl","latitude":52.2297,"longitude":21.017532,"reserved":0,"last_update":"0001-01-01T00:00:00Z","name_a2s":"Uncletopia | Warsaw | 3 | All Maps","protocol":17,"map":"pl_swiftwater_final1","folder":"tf","game":"Team Fortress","app_id":440,"player_count":0,"max_players":24,"Bots":0,"server_type":"Dedicated","server_os":"Linux","password":true,"vac":true,"version":"7742253","steam_id":85568392925397852,"keywords":["nocrits","nodmgspread","payload","uncletopia"],"game_id":440,"stv_port":27036,"stv_name":"Uncletopia | Warsaw | 3 | All Maps | STV","players":null},{"server_id":52,"name":"Uncletopia | Warsaw | 4 | All Maps","name_short":"waw-4","host":"waw-1.pl.uncletopia.com","port":27045,"enabled":true,"region":"eu","cc":"pl","latitude":52.2297,"longitude":21.017532,"reserved":0,"last_update":"0001-01-01T00:00:00Z","name_a2s":"Uncletopia | Warsaw | 4 | All Maps","protocol":17,"map":"pl_upward","folder":"tf","game":"Team Fortress","app_id":440,"player_count":0,"max_players":24,"Bots":0,"server_type":"Dedicated","server_os":"Linux","password":true,"vac":true,"version":"7742253","steam_id":85568392925397853,"keywords":["nocrits","nodmgspread","payload","uncletopia"],"game_id":440,"stv_port":27046,"stv_name":"Uncletopia | Warsaw | 4 | All Maps | STV","players":null},{"server_id":53,"name":"Uncletopia | Warsaw | 5 | Stopwatch Beta","name_short":"waw-5","host":"waw-1.pl.uncletopia.com","port":27055,"enabled":true,"region":"eu","cc":"pl","latitude":52.2297,"longitude":21.017532,"reserved":0,"last_update":"0001-01-01T00:00:00Z","name_a2s":"Uncletopia | Warsaw | 5 | Stopwatch Beta","protocol":17,"map":"pl_pier","folder":"tf","game":"Team Fortress","app_id":440,"player_count":0,"max_players":24,"Bots":0,"server_type":"Dedicated","server_os":"Linux","password":true,"vac":true,"version":"7742253","steam_id":85568392925397854,"keywords":["nocrits","nodmgspread","payload","uncletopia"],"game_id":440,"stv_port":27056,"stv_name":"Uncletopia | Warsaw | 5 | Stopwatch Beta | STV","players":null},{"server_id":54,"name":"Uncletopia | Warsaw | 6 | Community","name_short":"waw-6","host":"waw-1.pl.uncletopia.com","port":27065,"enabled":true,"region":"eu","cc":"pl","latitude":52.2297,"longitude":21.017532,"reserved":0,"last_update":"0001-01-01T00:00:00Z","name_a2s":"Uncletopia | Warsaw | 6 | Community","protocol":17,"map":"workshop/koth_synthetic_rc6a.ugc1549817316","folder":"tf","game":"Team Fortress","app_id":440,"player_count":0,"max_players":24,"Bots":0,"server_type":"Dedicated","server_os":"Linux","password":true,"vac":true,"version":"7742253","steam_id":85568392925397856,"keywords":["cp","nocrits","nodmgspread","uncletopia"],"game_id":440,"stv_port":27066,"stv_name":"Uncletopia | Warsaw | 6 | Community | STV","players":null}]}