{"status":true,"message":"","result":[{"server_id":9,"name":"Uncletopia | Atlanta | 1 | All Maps","name_short":"atl-1","host":"atl-1.us.uncletopia.com","port":27015,"enabled":true,"region":"us-east","cc":"us","latitude":33.753746,"longitude":-84.38633,"reserved":0,"last_update":"0001-01-01T00:00:00Z","name_a2s":"Uncletopia | Atlanta | 1 | All Maps","protocol":17,"map":"cp_process_final","folder":"tf","game":"Team Fortress","app_id":440,"player_count":24,"max_players":24,"Bots":0,"server_type":"Dedicated","server_os":"Linux","password":true,"vac":true,"version":"7701286","steam_id":85568392924469982,"keywords":["cp","nocrits","nodmgspread","uncletopia"],"game_id":440,"stv_port":27016,"stv_name":"Uncletopia | Atlanta | 1 | All Maps | STV","players":[{"user_id":531,"name":"ATL6 loot","steam_id":76561198069954956,"connected_time":632000000000,"state":"active","ping":46},{"user_id":517,"name":"ATL1 | merryy","steam_id":76561198968001329,"connected_time":1561000000000,"state":"active","ping":47},{"user_id":317,"name":"SuperJagops","steam_id":76561198034689716,"connected_time":12628000000000,"state":"active","ping":75},{"user_id":454,"name":"FROYO donovin","steam_id":76561198045679387,"connected_time":6441000000000,"state":"active","ping":60},{"user_id":486,"name":"jacobobxbackup01","steam_id":76561199441787165,"connected_time":4892000000000,"state":"active","ping":77},{"user_id":521,"name":"bdkaine1","steam_id":76561198133545467,"connected_time":1529000000000,"state":"active","ping":63},{"user_id":512,"name":"The Squid Gamer™","steam_id":76561198340621517,"connected_time":2406000000000,"state":"active","ping":108},{"user_id":518,"name":"ATL1 | Lancer Fan Club","steam_id":76561198355495948,"connected_time":1561000000000,"state":"active","ping":62},{"user_id":501,"name":"harry gooch","steam_id":76561198024817457,"connected_time":3990000000000,"state":"active","ping":57},{"user_id":532,"name":"Intro Bonito","steam_id":76561198119478838,"connected_time":360000000000,"state":"active","ping":64},{"user_id":538,"name":"Heretic","steam_id":76561198058904839,"connected_time":25000000000,"state":"active","ping":127},{"user_id":497,"name":"HALO 3","steam_id":76561198020825795,"connected_time":4204000000000,"state":"active","ping":49},{"user_id":522,"name":"tight end","steam_id":76561198073103529,"connected_time":1499000000000,"state":"active","ping":60},{"user_id":534,"name":"Salty_4k","steam_id":76561199003853524,"connected_time":316000000000,"state":"active","ping":60},{"user_id":519,"name":"Intran","steam_id":76561198124907032,"connected_time":1554000000000,"state":"active","ping":53},{"user_id":443,"name":"Ziath","steam_id":76561198094009164,"connected_time":7567000000000,"state":"active","ping":77},{"user_id":536,"name":"Mage","steam_id":76561198285026879,"connected_time":121000000000,"state":"active","ping":69},{"user_id":505,"name":"Abbashea","steam_id":76561199182136969,"connected_time":2820000000000,"state":"active","ping":110},{"user_id":520,"name":"Daksuki","steam_id":76561198084127751,"connected_time":1554000000000,"state":"active","ping":88},{"user_id":507,"name":"p4ka (in a pear tree)","steam_id":76561198315291317,"connected_time":2773000000000,"state":"active","ping":74},{"user_id":523,"name":"HeliX.PRO","steam_id":76561198353422081,"connected_time":1465000000000,"state":"active","ping":81},{"user_id":515,"name":"rose","steam_id":76561198048882285,"connected_time":1575000000000,"state":"active","ping":61},{"user_id":525,"name":"Zillers","steam_id":76561198095248744,"connected_time":1282000000000,"state":"active","ping":66},{"user_id":492,"name":"✿ self-cannibalizing customer","steam_id":76561198294013916,"connected_time":4274000000000,"state":"active","ping":67}]},{"server_id":400,"name":"Uncletopia | Atlanta | 3 | All Maps","name_short":"atl-3","host":"atl-1.us.uncletopia.com","port":27035,"enabled":true,"region":"us-east","cc":"us","latitude":33.753746,"longitude":-84.38633,"reserved":0,"last_update":"0001-01-01T00:00:00Z","name_a2s":"Uncletopia | Atlanta | 3 | All Maps","protocol":17,"map":"koth_highpass","folder":"tf","game":"Team Fortress","app_id":440,"player_count":0,"max_players":24,"Bots":0,"server_type":"Dedicated","server_os":"Linux","password":true,"vac":true,"version":"7701286","steam_id":85568392924515187,"keywords":["cp","nocrits","nodmgspread","uncletopia"],"game_id":440,"stv_port":0,"stv_name":"","players":null},{"server_id":401,"name":"Uncletopia | Atlanta | 4 | No Payload","name_short":"atl-4","host":"atl-1.us.uncletopia.com","port":27045,"enabled":true,"region":"us-east","cc":"us","latitude":33.753746,"longitude":-84.38633,"reserved":0,"last_update":"0001-01-01T00:00:00Z","name_a2s":"Uncletopia | Atlanta | 4 | No Payload","protocol":17,"map":"koth_brazil","folder":"tf","game":"Team Fortress","app_id":440,"player_count":0,"max_players":24,"Bots":0,"server_type":"Dedicated","server_os":"Linux","password":true,"vac":true,"version":"7701286","steam_id":85568392924515188,"keywords":["cp","nocrits","nodmgspread","uncletopia"],"game_id":440,"stv_port":27046,"stv_name":"Uncletopia | Atlanta | 4 | No Payload | STV","players":null},{"server_id":2,"name":"Uncletopia | Chicago | 1 | All Maps","name_short":"chi-1","host":"chi-1.us.uncletopia.com","port":27015,"enabled":true,"region":"us-central","cc":"us","latitude":41.881832,"longitude":-87.62318,"reserved":0,"last_update":"0001-01-01T00:00:00Z","name_a2s":"Uncletopia | Chicago | 1 | All Maps","protocol":17,"map":"cp_egypt_final","folder":"tf","game":"Team Fortress","app_id":440,"player_count":22,"max_players":24,"Bots":0,"server_type":"Dedicated","server_os":"Linux","password":true,"vac":true,"version":"7701286","steam_id":85568392924469984,"keywords":["cp","nocrits","nodmgspread","uncletopia"],"game_id":440,"stv_port":27016,"stv_name":"Uncletopia | Chicago | 1 | All Maps | STV","players":[{"user_id":303,"name":"wheat","steam_id":76561197971158435,"connected_time":1163000000000,"state":"active","ping":58},{"user_id":315,"name":"Valenhart","steam_id":76561198354036240,"connected_time":131000000000,"state":"active","ping":73},{"user_id":307,"name":"AzureGaming","steam_id":76561198374197393,"connected_time":927000000000,"state":"active","ping":60},{"user_id":272,"name":"TreesRUs","steam_id":76561198305740611,"connected_time":3630000000000,"state":"active","ping":64},{"user_id":299,"name":"beta central","steam_id":76561198301876831,"connected_time":1177000000000,"state":"active","ping":58},{"user_id":295,"name":"dyragu","steam_id":76561198172046883,"connected_time":1934000000000,"state":"active","ping":50},{"user_id":316,"name":"miles","steam_id":76561198006838401,"connected_time":50000000000,"state":"active","ping":75},{"user_id":300,"name":"M1C4A3L","steam_id":76561198009980085,"connected_time":1176000000000,"state":"active","ping":75},{"user_id":287,"name":"IGotTheLettuce","steam_id":76561198062473897,"connected_time":2259000000000,"state":"active","ping":58},{"user_id":249,"name":"agentish","steam_id":76561198055088122,"connected_time":5238000000000,"state":"active","ping":49},{"user_id":301,"name":"CAdaverOusPRophet","steam_id":76561198045304110,"connected_time":1174000000000,"state":"active","ping":50},{"user_id":305,"name":"Dragon_Spiced","steam_id":76561198097517957,"connected_time":1080000000000,"state":"active","ping":77},{"user_id":271,"name":"GuyGoom","steam_id":76561198254522178,"connected_time":3642000000000,"state":"active","ping":51},{"user_id":306,"name":"FedSmoker","steam_id":76561198255854081,"connected_time":1073000000000,"state":"active","ping":98},{"user_id":312,"name":"the.land.of.avalon","steam_id":76561198245431668,"connected_time":296000000000,"state":"active","ping":56},{"user_id":317,"name":"Astrozombeez","steam_id":76561198113754079,"connected_time":43000000000,"state":"spawning","ping":74},{"user_id":318,"name":"DIZ","steam_id":76561199065119525,"connected_time":15000000000,"state":"spawning","ping":82},{"user_id":293,"name":"Ok","steam_id":76561198356826506,"connected_time":2163000000000,"state":"active","ping":145},{"user_id":310,"name":"daemon","steam_id":76561198001541433,"connected_time":741000000000,"state":"active","ping":48},{"user_id":302,"name":"Lyfer","steam_id":76561198967608353,"connected_time":1173000000000,"state":"active","ping":166},{"user_id":276,"name":"Tay1Qr","steam_id":76561198082809935,"connected_time":3458000000000,"state":"active","ping":69},{"user_id":280,"name":"LAB8","steam_id":76561198047743526,"connected_time":2618000000000,"state":"active","ping":87}]},{"server_id":106,"name":"Uncletopia | Chicago | 2 | All Maps","name_short":"chi-2","host":"chi-1.us.uncletopia.com","port":27025,"enabled":true,"region":"us-central","cc":"us","latitude":41.881832,"longitude":-87.62318,"reserved":0,"last_update":"0001-01-01T00:00:00Z","name_a2s":"Uncletopia | Chicago | 2 | All Maps","protocol":17,"map":"koth_viaduct","folder":"tf","game":"Team Fortress","app_id":440,"player_count":0,"max_players":24,"Bots":0,"server_type":"Dedicated","server_os":"Linux","password":true,"vac":true,"version":"7701286","steam_id":85568392924469985,"keywords":["cp","nocrits","nodmgspread","uncletopia"],"game_id":440,"stv_port":27026,"stv_name":"Uncletopia | Chicago | 2 | All Maps | STV","players":null},{"server_id":402,"name":"Uncletopia | Chicago | 3 | All Maps","name_short":"chi-3","host":"chi-1.us.uncletopia.com","port":27035,"enabled":true,"region":"us-central","cc":"us","latitude":41.881832,"longitude":-87.62318,"reserved":0,"last_update":"0001-01-01T00:00:00Z","name_a2s":"Uncletopia | Chicago | 3 | All Maps","protocol":17,"map":"pl_barnblitz","folder":"tf","game":"Team Fortress","app_id":440,"player_count":7,"max_players":24,"Bots":0,"server_type":"Dedicated","server_os":"Linux","password":true,"vac":true,"version":"7701286","steam_id":85568392924515191,"keywords":["nocrits","nodmgspread","payload","uncletopia"],"game_id":440,"stv_port":27036,"stv_name":"Uncletopia | Chicago | 3 | All Maps | STV","players":[{"user_id":6,"name":"Rornir","steam_id":76561198081829615,"connected_time":412000000000,"state":"active","ping":39},{"user_id":7,"name":"Jolly Crowbar","steam_id":76561199105488936,"connected_time":396000000000,"state":"active","ping":135},{"user_id":9,"name":"SqueakyPiston","steam_id":76561198092321743,"connected_time":192000000000,"state":"active","ping":60},{"user_id":12,"name":"Impresio","steam_id":76561198129127347,"connected_time":142000000000,"state":"active","ping":59},{"user_id":11,"name":"majorbobfunction","steam_id":76561198042464632,"connected_time":182000000000,"state":"active","ping":48},{"user_id":13,"name":"Aittrium","steam_id":76561199435287672,"connected_time":69000000000,"state":"active","ping":54},{"user_id":14,"name":"Lethal","steam_id":76561198055545714,"connected_time":57000000000,"state":"active","ping":102}]},{"server_id":403,"name":"Uncletopia | Chicago | 4 | All Maps","name_short":"chi-4","host":"chi-1.us.uncletopia.com","port":27045,"enabled":true,"region":"us-central","cc":"us","latitude":41.881832,"longitude":-87.62318,"reserved":0,"last_update":"0001-01-01T00:00:00Z","name_a2s":"Uncletopia | Chicago | 4 | All Maps","protocol":17,"map":"pl_barnblitz","folder":"tf","game":"Team Fortress","app_id":440,"player_count":21,"max_players":24,"Bots":0,"server_type":"Dedicated","server_os":"Linux","password":true,"vac":true,"version":"7701286","steam_id":85568392924515193,"keywords":["nocrits","nodmgspread","payload","uncletopia"],"game_id":440,"stv_port":27046,"stv_name":"Uncletopia | Chicago | 4 | All Maps | STV","players":[{"user_id":76,"name":"Gibus Man","steam_id":76561198257241062,"connected_time":46000000000,"state":"spawning","ping":293},{"user_id":58,"name":"porz","steam_id":76561198195711453,"connected_time":1196000000000,"state":"active","ping":65},{"user_id":67,"name":"Officer Mike","steam_id":76561198011641011,"connected_time":617000000000,"state":"active","ping":56},{"user_id":13,"name":"Allround2472","steam_id":76561199415662603,"connected_time":2927000000000,"state":"spawning","ping":85},{"user_id":75,"name":"in trouble? call a crackhead","steam_id":76561198072657891,"connected_time":186000000000,"state":"spawning","ping":76},{"user_id":15,"name":"Fredfredfood","steam_id":76561198072824802,"connected_time":2672000000000,"state":"active","ping":48},{"user_id":77,"name":"stop","steam_id":76561198268686419,"connected_time":28000000000,"state":"active","ping":50},{"user_id":40,"name":"boats\u003c3","steam_id":76561198118810297,"connected_time":1831000000000,"state":"active","ping":89},{"user_id":65,"name":"Cardjitsu Blackbelt","steam_id":76561199099203623,"connected_time":725000000000,"state":"active","ping":87},{"user_id":66,"name":"Grumbo","steam_id":76561199002106124,"connected_time":719000000000,"state":"active","ping":106},{"user_id":20,"name":"Pimpin' Aint Easy","steam_id":76561198228972504,"connected_time":2606000000000,"state":"spawning","ping":73},{"user_id":68,"name":"Черный властелин","steam_id":76561199013551130,"connected_time":564000000000,"state":"connecting","ping":524},{"user_id":64,"name":"Randy Butternubs","steam_id":76561197983738629,"connected_time":791000000000,"state":"spawning","ping":47},{"user_id":70,"name":"Scorpianswag","steam_id":76561198260651036,"connected_time":535000000000,"state":"active","ping":91},{"user_id":71,"name":"Catboy Potemkin","steam_id":76561198078474420,"connected_time":504000000000,"state":"active","ping":53},{"user_id":31,"name":"Brandino!","steam_id":76561198000446932,"connected_time":2074000000000,"state":"active","ping":78},{"user_id":33,"name":"parsee","steam_id":76561198095139889,"connected_time":2071000000000,"state":"active","ping":65},{"user_id":74,"name":"Klep","steam_id":76561198117832167,"connected_time":304000000000,"state":"active","ping":104},{"user_id":61,"name":"defs98","steam_id":76561198134813102,"connected_time":1097000000000,"state":"active","ping":57},{"user_id":46,"name":"who's champ?","steam_id":76561199195205705,"connected_time":1757000000000,"state":"spawning","ping":83},{"user_id":44,"name":"Raydn","steam_id":76561198418414338,"connected_time":1784000000000,"state":"active","ping":70}]},{"server_id":36,"name":"Uncletopia | Chicago | 5 | All Maps","name_short":"chi-5","host":"chi-2.us.uncletopia.com","port":27015,"enabled":true,"region":"us-central","cc":"us","latitude":41.881832,"longitude":-87.62318,"reserved":0,"last_update":"0001-01-01T00:00:00Z","name_a2s":"Uncletopia | Chicago | 5 | All Maps","protocol":17,"map":"pl_swiftwater_final1","folder":"tf","game":"Team Fortress","app_id":440,"player_count":6,"max_players":24,"Bots":0,"server_type":"Dedicated","server_os":"Linux","password":true,"vac":true,"version":"7701286","steam_id":85568392924866362,"keywords":["nocrits","nodmgspread","payload","uncletopia"],"game_id":440,"stv_port":27016,"stv_name":"Uncletopia | Chicago | 5 | All Maps | STV","players":[{"user_id":25,"name":"MoldyNut","steam_id":76561199019728518,"connected_time":995000000000,"state":"active","ping":57},{"user_id":16,"name":"Fry Enjoyer","steam_id":76561198987191738,"connected_time":2926000000000,"state":"active","ping":80},{"user_id":27,"name":"zombs","steam_id":76561198359456881,"connected_time":184000000000,"state":"active","ping":58},{"user_id":20,"name":"zzz","steam_id":76561198012566405,"connected_time":1651000000000,"state":"active","ping":61},{"user_id":21,"name":"piss killer killer","steam_id":76561198068701341,"connected_time":1621000000000,"state":"active","ping":73},{"user_id":24,"name":"1_berserker","steam_id":76561197992905340,"connected_time":1134000000000,"state":"active","ping":54}]},{"server_id":37,"name":"Uncletopia | Chicago | 6 | All Maps","name_short":"chi-6","host":"chi-2.us.uncletopia.com","port":27025,"enabled":true,"region":"us-central","cc":"us","latitude":41.881832,"longitude":-87.62318,"reserved":0,"last_update":"0001-01-01T00:00:00Z","name_a2s":"Uncletopia | Chicago | 6 | All Maps","protocol":17,"map":"cp_mountainlab","folder":"tf","game":"Team Fortress","app_id":440,"player_count":0,"max_players":24,"Bots":0,"server_type":"Dedicated","server_os":"Linux","password":true,"vac":true,"version":"7701286","steam_id":85568392924866363,"keywords":["cp","nocrits","nodmgspread","uncletopia"],"game_id":440,"stv_port":0,"stv_name":"","players":null},{"server_id":38,"name":"Uncletopia | Chicago | 7 | No Payload","name_short":"chi-7","host":"chi-2.us.uncletopia.com","port":27035,"enabled":true,"region":"us-central","cc":"us","latitude":41.881832,"longitude":-87.62318,"reserved":0,"last_update":"0001-01-01T00:00:00Z","name_a2s":"Uncletopia | Chicago | 7 | No Payload","protocol":17,"map":"cp_snakewater_final1","folder":"tf","game":"Team Fortress","app_id":440,"player_count":0,"max_players":24,"Bots":0,"server_type":"Dedicated","server_os":"Linux","password":true,"vac":true,"version":"7701286","steam_id":85568392924866364,"keywords":["cp","nocrits","nodmgspread","uncletopia"],"game_id":440,"stv_port":0,"stv_name":"","players":null},{"server_id":39,"name":"Uncletopia | Chicago | 8 | Community","name_short":"chi-8","host":"chi-2.us.uncletopia.com","port":27045,"enabled":true,"region":"us-central","cc":"us","latitude":41.881832,"longitude":-87.62318,"reserved":0,"last_update":"0001-01-01T00:00:00Z","name_a2s":"Uncletopia | Chicago | 8 | Community","protocol":17,"map":"koth_cascade","folder":"tf","game":"Team Fortress","app_id":440,"player_count":0,"max_players":24,"Bots":0,"server_type":"Dedicated","server_os":"Linux","password":true,"vac":true,"version":"7701286","steam_id":85568392924866365,"keywords":["cp","nocrits","nodmgspread","uncletopia"],"game_id":440,"stv_port":0,"stv_name":"","players":null},{"server_id":8,"name":"Uncletopia | Dallas | 1 | All Maps","name_short":"dal-1","host":"dal-1.us.uncletopia.com","port":27015,"enabled":true,"region":"us-central","cc":"us","latitude":32.779167,"longitude":-96.80889,"reserved":0,"last_update":"0001-01-01T00:00:00Z","name_a2s":"Uncletopia | Dallas | 1 | All Maps","protocol":17,"map":"koth_viaduct","folder":"tf","game":"Team Fortress","app_id":440,"player_count":24,"max_players":24,"Bots":0,"server_type":"Dedicated","server_os":"Linux","password":true,"vac":true,"version":"7701286","steam_id":85568392924469986,"keywords":["cp","nocrits","nodmgspread","uncletopia"],"game_id":440,"stv_port":27016,"stv_name":"Uncletopia | Dallas | 1 | All Maps | STV","players":[{"user_id":106,"name":"toad","steam_id":76561197988729190,"connected_time":4375000000000,"state":"active","ping":75},{"user_id":102,"name":"Riff","steam_id":76561198066921423,"connected_time":4677000000000,"state":"active","ping":57},{"user_id":140,"name":"bean boy","steam_id":76561199085645300,"connected_time":619000000000,"state":"active","ping":57},{"user_id":19,"name":"Eightyy  Fourr","steam_id":76561197960374225,"connected_time":9691000000000,"state":"active","ping":45},{"user_id":135,"name":"BlueKanary","steam_id":76561198818539418,"connected_time":1324000000000,"state":"active","ping":85},{"user_id":101,"name":"Reyloko","steam_id":76561198172480913,"connected_time":4691000000000,"state":"active","ping":73},{"user_id":110,"name":"Ⓑ⓪⓪ⓣⓨⓒⓐⓚⓔⓢ","steam_id":76561198088776421,"connected_time":3850000000000,"state":"active","ping":85},{"user_id":103,"name":"weeb","steam_id":76561198106945226,"connected_time":4578000000000,"state":"active","ping":75},{"user_id":126,"name":"BIG HOG","steam_id":76561198079923652,"connected_time":2897000000000,"state":"active","ping":52},{"user_id":129,"name":"the Sho","steam_id":76561199383245112,"connected_time":1772000000000,"state":"active","ping":99},{"user_id":142,"name":"A Literal Fucking Rat","steam_id":76561198178872429,"connected_time":552000000000,"state":"active","ping":64},{"user_id":122,"name":"Dr. Bonair","steam_id":76561198129237487,"connected_time":3207000000000,"state":"active","ping":61},{"user_id":143,"name":"no vc no c","steam_id":76561197989503095,"connected_time":528000000000,"state":"active","ping":178},{"user_id":136,"name":"Hannibal The Conqueror","steam_id":76561198051452752,"connected_time":1205000000000,"state":"active","ping":194},{"user_id":55,"name":"PROFILE NAME","steam_id":76561199438851854,"connected_time":8083000000000,"state":"active","ping":121},{"user_id":133,"name":"Jen Shine","steam_id":76561198127039453,"connected_time":1435000000000,"state":"active","ping":83},{"user_id":144,"name":"HUNTER","steam_id":76561198085325660,"connected_time":506000000000,"state":"active","ping":76},{"user_id":148,"name":"PizzaFratello","steam_id":76561199059951970,"connected_time":236000000000,"state":"active","ping":79},{"user_id":146,"name":"Sicko Mode (Chris Pratt Cover)","steam_id":76561198315786174,"connected_time":390000000000,"state":"active","ping":93},{"user_id":147,"name":"Spunk Mikunkel","steam_id":76561198116765135,"connected_time":357000000000,"state":"active","ping":110},{"user_id":47,"name":"Mr.Oxiclean","steam_id":76561198144729009,"connected_time":8385000000000,"state":"active","ping":76},{"user_id":114,"name":"xbox record that","steam_id":76561198150117455,"connected_time":3808000000000,"state":"active","ping":71},{"user_id":149,"name":"Jake The Human","steam_id":76561198054122057,"connected_time":209000000000,"state":"active","ping":51},{"user_id":51,"name":"Anon","steam_id":76561198109740776,"connected_time":8316000000000,"state":"active","ping":91}]},{"server_id":108,"name":"Uncletopia | Dallas | 2 | All Maps","name_short":"dal-2","host":"dal-1.us.uncletopia.com","port":27025,"enabled":true,"region":"us-central","cc":"us","latitude":32.779167,"longitude":-96.80889,"reserved":0,"last_update":"0001-01-01T00:00:00Z","name_a2s":"Uncletopia | Dallas | 2 | All Maps","protocol":17,"map":"koth_lakeside_final","folder":"tf","game":"Team Fortress","app_id":440,"player_count":0,"max_players":24,"Bots":0,"server_type":"Dedicated","server_os":"Linux","password":true,"vac":true,"version":"7701286","steam_id":85568392924469988,"keywords":["cp","nocrits","nodmgspread","uncletopia"],"game_id":440,"stv_port":27026,"stv_name":"Uncletopia | Dallas | 2 | All Maps | STV","players":null},{"server_id":5,"name":"Uncletopia | Frankfurt | 1 | All Maps","name_short":"frk-1","host":"frk-1.de.uncletopia.com","port":27015,"enabled":true,"region":"eu","cc":"de","latitude":50.110924,"longitude":8.682127,"reserved":0,"last_update":"0001-01-01T00:00:00Z","name_a2s":"Uncletopia | Frankfurt | 1 | All Maps","protocol":17,"map":"pl_frontier_final","folder":"tf","game":"Team Fortress","app_id":440,"player_count":24,"max_players":24,"Bots":0,"server_type":"Dedicated","server_os":"Linux","password":true,"vac":true,"version":"7701286","steam_id":85568392924469989,"keywords":["nocrits","nodmgspread","payload","uncletopia"],"game_id":440,"stv_port":27016,"stv_name":"Uncletopia | Frankfurt | 1 | All Maps | STV","players":[{"user_id":450,"name":"pl_zławoda","steam_id":76561198040588109,"connected_time":2969000000000,"state":"active","ping":88},{"user_id":439,"name":"(can chat) mafutbolero","steam_id":76561199233664005,"connected_time":4068000000000,"state":"active","ping":71},{"user_id":485,"name":"Human bean","steam_id":76561198261377744,"connected_time":346000000000,"state":"active","ping":97},{"user_id":490,"name":"yusef","steam_id":76561198108481078,"connected_time":52000000000,"state":"active","ping":105},{"user_id":481,"name":"ruby (ribbit)","steam_id":76561198040870467,"connected_time":936000000000,"state":"active","ping":69},{"user_id":462,"name":"Cippo95","steam_id":76561198255311582,"connected_time":2378000000000,"state":"active","ping":64},{"user_id":452,"name":"do not cheat","steam_id":76561198078928120,"connected_time":2961000000000,"state":"active","ping":92},{"user_id":445,"name":"ToyTolga","steam_id":76561199021867253,"connected_time":3282000000000,"state":"active","ping":116},{"user_id":477,"name":"Jag är ett anka","steam_id":76561198059978438,"connected_time":1180000000000,"state":"active","ping":41},{"user_id":487,"name":"VIN WEASEL","steam_id":76561198014387066,"connected_time":107000000000,"state":"active","ping":66},{"user_id":482,"name":"Marty™","steam_id":76561198060073673,"connected_time":931000000000,"state":"active","ping":60},{"user_id":367,"name":"pl_schlechteswasser","steam_id":76561199087055541,"connected_time":7498000000000,"state":"active","ping":93},{"user_id":463,"name":"muza♥","steam_id":76561198220183377,"connected_time":2155000000000,"state":"active","ping":104},{"user_id":467,"name":"E_WM","steam_id":76561198283432737,"connected_time":1848000000000,"state":"active","ping":97},{"user_id":343,"name":"Serton♝","steam_id":76561198011061126,"connected_time":8757000000000,"state":"active","ping":97},{"user_id":486,"name":"Uncle Lame","steam_id":76561198089003514,"connected_time":153000000000,"state":"active","ping":44},{"user_id":440,"name":"Tao","steam_id":76561198036750896,"connected_time":3992000000000,"state":"active","ping":48},{"user_id":461,"name":"Grønkjær","steam_id":76561198041075280,"connected_time":2583000000000,"state":"active","ping":83},{"user_id":480,"name":"Burgoo_King","steam_id":76561198133572225,"connected_time":949000000000,"state":"active","ping":68},{"user_id":479,"name":"1","steam_id":76561199259135692,"connected_time":966000000000,"state":"active","ping":104},{"user_id":421,"name":"Gardvord","steam_id":76561198120715753,"connected_time":4800000000000,"state":"active","ping":64},{"user_id":489,"name":"Johnny Boy","steam_id":76561197969525453,"connected_time":82000000000,"state":"active","ping":62},{"user_id":391,"name":"pl_badwater","steam_id":76561198152184280,"connected_time":6264000000000,"state":"active","ping":77},{"user_id":398,"name":"ghost","steam_id":76561198189940229,"connected_time":5784000000000,"state":"active","ping":62}]},{"server_id":110,"name":"Uncletopia | Frankfurt | 2 | All Maps","name_short":"frk-2","host":"frk-1.de.uncletopia.com","port":27025,"enabled":true,"region":"eu","cc":"de","latitude":50.110924,"longitude":8.682127,"reserved":0,"last_update":"0001-01-01T00:00:00Z","name_a2s":"Uncletopia | Frankfurt | 2 | All Maps","protocol":17,"map":"cp_steel","folder":"tf","game":"Team Fortress","app_id":440,"player_count":24,"max_players":24,"Bots":0,"server_type":"Dedicated","server_os":"Linux","password":true,"vac":true,"version":"7701286","steam_id":85568392924469990,"keywords":["cp","nocrits","nodmgspread","uncletopia"],"game_id":440,"stv_port":27026,"stv_name":"Uncletopia | Frankfurt | 2 | All Maps | STV","players":[{"user_id":212,"name":"Persephone \u003c3","steam_id":76561198045694137,"connected_time":1730000000000,"state":"active","ping":79},{"user_id":242,"name":"Tibor","steam_id":76561198268827760,"connected_time":52000000000,"state":"active","ping":89},{"user_id":217,"name":"drippin jimmy","steam_id":76561198219243969,"connected_time":1686000000000,"state":"active","ping":72},{"user_id":222,"name":"jovi_","steam_id":76561198449280552,"connected_time":1505000000000,"state":"active","ping":59},{"user_id":209,"name":"ardaduck","steam_id":76561198092609064,"connected_time":2152000000000,"state":"active","ping":57},{"user_id":216,"name":"FuckThisI'mOut","steam_id":76561198229777208,"connected_time":1699000000000,"state":"active","ping":59},{"user_id":241,"name":"Jempo","steam_id":76561198099270807,"connected_time":338000000000,"state":"active","ping":112},{"user_id":218,"name":"xXdoge gaming 42069Xx","steam_id":76561198372971096,"connected_time":1682000000000,"state":"active","ping":78},{"user_id":219,"name":"greatest legal mind i ever knew","steam_id":76561199234889615,"connected_time":1682000000000,"state":"active","ping":75},{"user_id":232,"name":"Dark Lord","steam_id":76561198047359132,"connected_time":1295000000000,"state":"active","ping":74},{"user_id":171,"name":"Hexagon","steam_id":76561198151205758,"connected_time":4111000000000,"state":"active","ping":55},{"user_id":205,"name":"Fox","steam_id":76561198079364100,"connected_time":2422000000000,"state":"active","ping":71},{"user_id":195,"name":"Nick","steam_id":76561198036109469,"connected_time":3122000000000,"state":"active","ping":89},{"user_id":231,"name":"balance? dafaq is that?","steam_id":76561199439030016,"connected_time":1332000000000,"state":"active","ping":106},{"user_id":238,"name":"goblinninja110","steam_id":76561198269159354,"connected_time":388000000000,"state":"active","ping":65},{"user_id":174,"name":"Mr. Mundy","steam_id":76561198132008918,"connected_time":4088000000000,"state":"active","ping":73},{"user_id":185,"name":"NALA","steam_id":76561198039806469,"connected_time":3567000000000,"state":"active","ping":66},{"user_id":239,"name":"where is my egg?","steam_id":76561198172542535,"connected_time":379000000000,"state":"active","ping":68},{"user_id":211,"name":"Sim","steam_id":76561198086641180,"connected_time":1799000000000,"state":"active","ping":67},{"user_id":204,"name":"Arcad","steam_id":76561198059786891,"connected_time":2458000000000,"state":"active","ping":87},{"user_id":233,"name":"stun","steam_id":76561198276681691,"connected_time":803000000000,"state":"active","ping":70},{"user_id":240,"name":"totto","steam_id":76561198313721515,"connected_time":373000000000,"state":"active","ping":57},{"user_id":203,"name":"☩ Knightz ☩","steam_id":76561198040936414,"connected_time":2615000000000,"state":"active","ping":115},{"user_id":141,"name":"Sir Oldryn Shootsalot","steam_id":76561198060264635,"connected_time":5122000000000,"state":"active","ping":46}]},{"server_id":308,"name":"Uncletopia | Frankfurt | 3 | All Maps","name_short":"frk-3","host":"frk-1.de.uncletopia.com","port":27035,"enabled":true,"region":"eu","cc":"de","latitude":50.110924,"longitude":8.682127,"reserved":0,"last_update":"0001-01-01T00:00:00Z","name_a2s":"Uncletopia | Frankfurt | 3 | All Maps","protocol":17,"map":"cp_snakewater_final1","folder":"tf","game":"Team Fortress","app_id":440,"player_count":24,"max_players":24,"Bots":0,"server_type":"Dedicated","server_os":"Linux","password":true,"vac":true,"version":"7701286","steam_id":85568392924504274,"keywords":["cp","nocrits","nodmgspread","uncletopia"],"game_id":440,"stv_port":27036,"stv_name":"Uncletopia | Frankfurt | 3 | All Maps | STV","players":[{"user_id":491,"name":"slav heavy","steam_id":76561198324316160,"connected_time":1907000000000,"state":"active","ping":60},{"user_id":514,"name":"Kofoed","steam_id":76561198053101628,"connected_time":521000000000,"state":"active","ping":49},{"user_id":519,"name":"Caskye","steam_id":76561198165430888,"connected_time":123000000000,"state":"active","ping":67},{"user_id":520,"name":"mat","steam_id":76561198824697295,"connected_time":118000000000,"state":"active","ping":66},{"user_id":506,"name":"donk","steam_id":76561198742407927,"connected_time":1286000000000,"state":"active","ping":74},{"user_id":417,"name":"bigwish | bmod.tf","steam_id":76561197997859723,"connected_time":5650000000000,"state":"active","ping":76},{"user_id":488,"name":"Swedde","steam_id":76561198297296440,"connected_time":1930000000000,"state":"active","ping":71},{"user_id":495,"name":"Phiphler","steam_id":76561197994055715,"connected_time":1782000000000,"state":"active","ping":65},{"user_id":449,"name":"moser23","steam_id":76561197960543171,"connected_time":3572000000000,"state":"active","ping":48},{"user_id":496,"name":"Miosong","steam_id":76561198070755151,"connected_time":1771000000000,"state":"active","ping":80},{"user_id":515,"name":"Rops","steam_id":76561198031608011,"connected_time":479000000000,"state":"active","ping":85},{"user_id":507,"name":"Mr.Schnittlauch","steam_id":76561198295868113,"connected_time":1271000000000,"state":"active","ping":54},{"user_id":521,"name":"Regan","steam_id":76561198100631086,"connected_time":70000000000,"state":"active","ping":65},{"user_id":516,"name":"Dolcelatte","steam_id":76561198038501770,"connected_time":154000000000,"state":"active","ping":46},{"user_id":505,"name":"COFFEE","steam_id":76561198869355986,"connected_time":1352000000000,"state":"active","ping":78},{"user_id":524,"name":"M4R1O","steam_id":76561198050528464,"connected_time":17000000000,"state":"active","ping":60},{"user_id":504,"name":"Kagyol","steam_id":76561198312938996,"connected_time":1388000000000,"state":"active","ping":59},{"user_id":460,"name":"( ]KROAN[ )","steam_id":76561198022840710,"connected_time":3175000000000,"state":"active","ping":65},{"user_id":525,"name":"Bobo","steam_id":76561198052308399,"connected_time":14000000000,"state":"spawning","ping":62},{"user_id":485,"name":"i forgor","steam_id":76561198137627679,"connected_time":2075000000000,"state":"active","ping":112},{"user_id":508,"name":"oser","steam_id":76561198153989118,"connected_time":1261000000000,"state":"active","ping":77},{"user_id":518,"name":"Rycuryk","steam_id":76561198130325647,"connected_time":140000000000,"state":"active","ping":61},{"user_id":517,"name":"Mor'du","steam_id":76561198274105878,"connected_time":146000000000,"state":"active","ping":76},{"user_id":523,"name":"(0_0) oops","steam_id":76561199212017700,"connected_time":58000000000,"state":"active","ping":150}]},{"server_id":309,"name":"Uncletopia | Frankfurt | 4 | All Maps","name_short":"frk-4","host":"frk-1.de.uncletopia.com","port":27045,"enabled":true,"region":"eu","cc":"de","latitude":50.110924,"longitude":8.682127,"reserved":0,"last_update":"0001-01-01T00:00:00Z","name_a2s":"Uncletopia | Frankfurt | 4 | All Maps","protocol":17,"map":"koth_suijin","folder":"tf","game":"Team Fortress","app_id":440,"player_count":24,"max_players":24,"Bots":0,"server_type":"Dedicated","server_os":"Linux","password":true,"vac":true,"version":"7701286","steam_id":85568392924504275,"keywords":["cp","nocrits","nodmgspread","uncletopia"],"game_id":440,"stv_port":27046,"stv_name":"Uncletopia | Frankfurt | 4 | All Maps | STV","players":[{"user_id":193,"name":"Rory","steam_id":76561198354037580,"connected_time":2986000000000,"state":"active","ping":52},{"user_id":215,"name":"vetzakski","steam_id":76561198988041775,"connected_time":1751000000000,"state":"active","ping":62},{"user_id":70,"name":"gamer_","steam_id":76561198094125769,"connected_time":12450000000000,"state":"active","ping":77},{"user_id":137,"name":"DeepBlue","steam_id":76561198140075795,"connected_time":7857000000000,"state":"active","ping":54},{"user_id":210,"name":"Fat Pigeon","steam_id":76561198817940142,"connected_time":2048000000000,"state":"active","ping":47},{"user_id":231,"name":"justin_ (f2p)","steam_id":76561198839843428,"connected_time":253000000000,"state":"active","ping":131},{"user_id":214,"name":"greg","steam_id":76561198872353720,"connected_time":1855000000000,"state":"active","ping":69},{"user_id":219,"name":"viziborju","steam_id":76561199145340529,"connected_time":900000000000,"state":"active","ping":66},{"user_id":202,"name":"Vratis","steam_id":76561198062957725,"connected_time":2469000000000,"state":"active","ping":63},{"user_id":230,"name":"Animatic","steam_id":76561198186421601,"connected_time":567000000000,"state":"active","ping":185},{"user_id":233,"name":"Mar","steam_id":76561198127633424,"connected_time":11000000000,"state":"spawning","ping":94},{"user_id":220,"name":"dddd","steam_id":76561198120894372,"connected_time":882000000000,"state":"active","ping":103},{"user_id":228,"name":"nabster","steam_id":76561198117906576,"connected_time":666000000000,"state":"active","ping":74},{"user_id":146,"name":"Micheal","steam_id":76561198010791637,"connected_time":7621000000000,"state":"active","ping":52},{"user_id":232,"name":"Lersu OK GOOD YES lovemilky","steam_id":76561198050389376,"connected_time":44000000000,"state":"active","ping":89},{"user_id":225,"name":"KarlRanzeier","steam_id":76561198066281337,"connected_time":780000000000,"state":"active","ping":55},{"user_id":180,"name":"Recurracy","steam_id":76561197993421597,"connected_time":4158000000000,"state":"active","ping":53},{"user_id":218,"name":"Carry Krypl","steam_id":76561198136938121,"connected_time":936000000000,"state":"active","ping":43},{"user_id":172,"name":"Yony","steam_id":76561199070569941,"connected_time":5293000000000,"state":"active","ping":60},{"user_id":221,"name":"Pieck Finger","steam_id":76561198043743639,"connected_time":862000000000,"state":"active","ping":46},{"user_id":181,"name":"M76030","steam_id":76561198046651252,"connected_time":4154000000000,"state":"active","ping":52},{"user_id":182,"name":"Appelflap64","steam_id":76561198012819017,"connected_time":4141000000000,"state":"active","ping":61},{"user_id":207,"name":"JackFighter","steam_id":76561198032798785,"connected_time":2347000000000,"state":"active","ping":75},{"user_id":229,"name":"Flex Finster","steam_id":76561198061632224,"connected_time":666000000000,"state":"active","ping":47}]},{"server_id":310,"name":"Uncletopia | Frankfurt | 5 | All Maps","name_short":"frk-5","host":"frk-1.de.uncletopia.com","port":27055,"enabled":true,"region":"eu","cc":"de","latitude":50.110924,"longitude":8.682127,"reserved":0,"last_update":"0001-01-01T00:00:00Z","name_a2s":"Uncletopia | Frankfurt | 5 | All Maps","protocol":17,"map":"cp_sunshine","folder":"tf","game":"Team Fortress","app_id":440,"player_count":9,"max_players":24,"Bots":0,"server_type":"Dedicated","server_os":"Linux","password":true,"vac":true,"version":"7701286","steam_id":85568392924504277,"keywords":["cp","nocrits","nodmgspread","uncletopia"],"game_id":440,"stv_port":27056,"stv_name":"Uncletopia | Frankfurt | 5 | All Maps | STV","players":[{"user_id":153,"name":"Ka","steam_id":76561198056465756,"connected_time":54000000000,"state":"active","ping":88},{"user_id":127,"name":"Frazzles","steam_id":76561199228009586,"connected_time":1949000000000,"state":"active","ping":66},{"user_id":143,"name":"ух Александр","steam_id":76561198995476261,"connected_time":650000000000,"state":"active","ping":98},{"user_id":139,"name":"Graceful Jabberwocky","steam_id":76561199013504849,"connected_time":1065000000000,"state":"active","ping":62},{"user_id":144,"name":"ух Никитка","steam_id":76561199227727933,"connected_time":647000000000,"state":"active","ping":105},{"user_id":149,"name":":(","steam_id":76561198044465070,"connected_time":174000000000,"state":"active","ping":84},{"user_id":150,"name":"ampersandbear","steam_id":76561198054336112,"connected_time":171000000000,"state":"active","ping":75},{"user_id":151,"name":"Proto-arc","steam_id":76561198012776747,"connected_time":155000000000,"state":"active","ping":58},{"user_id":152,"name":"FrikFree","steam_id":76561198035336281,"connected_time":129000000000,"state":"active","ping":65}]},{"server_id":311,"name":"Uncletopia | Frankfurt | 6 | All Maps","name_short":"frk-6","host":"frk-1.de.uncletopia.com","port":27065,"enabled":true,"region":"eu","cc":"de","latitude":50.110924,"longitude":8.682127,"reserved":0,"last_update":"0001-01-01T00:00:00Z","name_a2s":"Uncletopia | Frankfurt | 6 | All Maps","protocol":17,"map":"cp_snakewater_final1","folder":"tf","game":"Team Fortress","app_id":440,"player_count":0,"max_players":24,"Bots":0,"server_type":"Dedicated","server_os":"Linux","password":true,"vac":true,"version":"7701286","steam_id":85568392924504278,"keywords":["cp","nocrits","nodmgspread","uncletopia"],"game_id":440,"stv_port":27066,"stv_name":"Uncletopia | Frankfurt | 6 | All Maps | STV","players":null},{"server_id":23,"name":"Uncletopia | Frankfurt | 7 | No Payload","name_short":"frk-7","host":"frk-1.de.uncletopia.com","port":27075,"enabled":true,"region":"eu","cc":"de","latitude":50.110924,"longitude":8.682127,"reserved":0,"last_update":"0001-01-01T00:00:00Z","name_a2s":"Uncletopia | Frankfurt | 7 | No Payload","protocol":17,"map":"koth_harvest_final","folder":"tf","game":"Team Fortress","app_id":440,"player_count":0,"max_players":24,"Bots":0,"server_type":"Dedicated","server_os":"Linux","password":true,"vac":true,"version":"7701286","steam_id":85568392924742827,"keywords":["cp","nocrits","nodmgspread","uncletopia"],"game_id":440,"stv_port":27076,"stv_name":"Uncletopia | Frankfurt | 7 | No Payload | STV","players":null},{"server_id":24,"name":"Uncletopia | Frankfurt | 8 | Community","name_short":"frk-8","host":"frk-1.de.uncletopia.com","port":27085,"enabled":true,"region":"eu","cc":"de","latitude":50.110924,"longitude":8.682127,"reserved":0,"last_update":"0001-01-01T00:00:00Z","name_a2s":"Uncletopia | Frankfurt | 8 | Community","protocol":17,"map":"workshop/koth_ashville_final.ugc2130459942","folder":"tf","game":"Team Fortress","app_id":440,"player_count":0,"max_players":24,"Bots":0,"server_type":"Dedicated","server_os":"Linux","password":true,"vac":true,"version":"7701286","steam_id":85568392924742828,"keywords":["cp","nocrits","nodmgspread","uncletopia"],"game_id":440,"stv_port":27086,"stv_name":"Uncletopia | Frankfurt | 8 | Community | STV","players":null},{"server_id":202,"name":"Uncletopia | Hong Kong | 1 | All Maps","name_short":"hgk-1","host":"hgk-1.hk.uncletopia.com","port":27015,"enabled":true,"region":"asia","cc":"hk","latitude":22.302711,"longitude":114.177216,"reserved":0,"last_update":"0001-01-01T00:00:00Z","name_a2s":"Uncletopia | Hong Kong | 1 | All Maps","protocol":17,"map":"koth_cascade","folder":"tf","game":"Team Fortress","app_id":440,"player_count":0,"max_players":24,"Bots":0,"server_type":"Dedicated","server_os":"Linux","password":true,"vac":true,"version":"7701286","steam_id":85568392924494504,"keywords":["cp","nocrits","nodmgspread","uncletopia"],"game_id":440,"stv_port":27016,"stv_name":"Uncletopia | Hong Kong | 1 | All Maps | STV","players":null},{"server_id":1,"name":"Uncletopia | Los Angeles | 1 | All Maps","name_short":"lax-1","host":"lax-1.us.uncletopia.com","port":27015,"enabled":true,"region":"us-west","cc":"us","latitude":33.94279,"longitude":-118.41004,"reserved":0,"last_update":"0001-01-01T00:00:00Z","name_a2s":"Uncletopia | Los Angeles | 1 | All Maps","protocol":17,"map":"koth_lakeside_final","folder":"tf","game":"Team Fortress","app_id":440,"player_count":0,"max_players":24,"Bots":0,"server_type":"Dedicated","server_os":"Linux","password":true,"vac":true,"version":"7701286","steam_id":85568392924469991,"keywords":["cp","nocrits","nodmgspread","uncletopia"],"game_id":440,"stv_port":0,"stv_name":"","players":null},{"server_id":112,"name":"Uncletopia | Los Angeles | 2 | All Maps","name_short":"lax-2","host":"lax-1.us.uncletopia.com","port":27025,"enabled":true,"region":"us-west","cc":"us","latitude":33.94279,"longitude":-118.41004,"reserved":0,"last_update":"0001-01-01T00:00:00Z","name_a2s":"Uncletopia | Los Angeles | 2 | All Maps","protocol":17,"map":"cp_snakewater_final1","folder":"tf","game":"Team Fortress","app_id":440,"player_count":0,"max_players":24,"Bots":0,"server_type":"Dedicated","server_os":"Linux","password":true,"vac":true,"version":"7701286","steam_id":85568392924469992,"keywords":["cp","nocrits","nodmgspread","uncletopia"],"game_id":440,"stv_port":0,"stv_name":"","players":null},{"server_id":324,"name":"Uncletopia | Los Angeles | 3 | All Maps","name_short":"lax-3","host":"lax-1.us.uncletopia.com","port":27035,"enabled":true,"region":"us-west","cc":"us","latitude":33.94279,"longitude":-118.41004,"reserved":0,"last_update":"0001-01-01T00:00:00Z","name_a2s":"Uncletopia | Los Angeles | 3 | All Maps","protocol":17,"map":"koth_lakeside_final","folder":"tf","game":"Team Fortress","app_id":440,"player_count":0,"max_players":24,"Bots":0,"server_type":"Dedicated","server_os":"Linux","password":true,"vac":true,"version":"7701286","steam_id":85568392924510198,"keywords":["cp","nocrits","nodmgspread","uncletopia"],"game_id":440,"stv_port":27036,"stv_name":"Uncletopia | Los Angeles | 3 | All Maps | STV","players":null},{"server_id":25,"name":"Uncletopia | Los Angeles | 4 | No Payload","name_short":"lax-4","host":"lax-1.us.uncletopia.com","port":27045,"enabled":true,"region":"us-west","cc":"us","latitude":33.94279,"longitude":-118.41004,"reserved":0,"last_update":"0001-01-01T00:00:00Z","name_a2s":"Uncletopia | Los Angeles | 4 | No Payload","protocol":17,"map":"pl_badwater","folder":"tf","game":"Team Fortress","app_id":440,"player_count":0,"max_players":24,"Bots":0,"server_type":"Dedicated","server_os":"Linux","password":true,"vac":true,"version":"7701286","steam_id":85568392924510199,"keywords":["nocrits","nodmgspread","payload","uncletopia"],"game_id":440,"stv_port":0,"stv_name":"","players":null},{"server_id":11,"name":"Uncletopia | London | 1 | All Maps","name_short":"lon-1","host":"lon-1.uk.uncletopia.com","port":27015,"enabled":true,"region":"eu","cc":"gb","latitude":51.509865,"longitude":-0.118092,"reserved":0,"last_update":"0001-01-01T00:00:00Z","name_a2s":"Uncletopia | London | 1 | All Maps","protocol":17,"map":"pl_borneo","folder":"tf","game":"Team Fortress","app_id":440,"player_count":24,"max_players":24,"Bots":0,"server_type":"Dedicated","server_os":"Linux","password":true,"vac":true,"version":"7701286","steam_id":85568392924367362,"keywords":["nocrits","nodmgspread","payload","uncletopia"],"game_id":440,"stv_port":27016,"stv_name":"Uncletopia | London | 1 | All Maps | STV","players":[{"user_id":315,"name":"Badger","steam_id":76561198155481888,"connected_time":2761000000000,"state":"active","ping":74},{"user_id":323,"name":"glyph","steam_id":76561197980736364,"connected_time":2137000000000,"state":"active","ping":90},{"user_id":335,"name":"FROYO cosmetical_shoot_prof","steam_id":76561198444036574,"connected_time":820000000000,"state":"active","ping":63},{"user_id":324,"name":"Pip","steam_id":76561198049587565,"connected_time":2102000000000,"state":"active","ping":59},{"user_id":337,"name":"Mi Manchi","steam_id":76561198171573129,"connected_time":752000000000,"state":"active","ping":60},{"user_id":290,"name":"G6 sherlock","steam_id":76561198802967796,"connected_time":5437000000000,"state":"active","ping":114},{"user_id":341,"name":"Mango","steam_id":76561198139555709,"connected_time":429000000000,"state":"active","ping":59},{"user_id":306,"name":"NonProphet","steam_id":76561198280149820,"connected_time":3342000000000,"state":"active","ping":57},{"user_id":267,"name":"Gnarville","steam_id":76561198006373329,"connected_time":6075000000000,"state":"active","ping":49},{"user_id":239,"name":"VK2124 :D","steam_id":76561198111130688,"connected_time":8613000000000,"state":"active","ping":59},{"user_id":259,"name":"✪ Danny","steam_id":76561198104483241,"connected_time":7321000000000,"state":"active","ping":47},{"user_id":339,"name":"SaltyCupcakes","steam_id":76561198256386417,"connected_time":691000000000,"state":"active","ping":46},{"user_id":333,"name":"Christuhfar","steam_id":76561198044496678,"connected_time":1139000000000,"state":"active","ping":60},{"user_id":329,"name":"Joseph Stalin LFT","steam_id":76561198033199746,"connected_time":1358000000000,"state":"active","ping":49},{"user_id":316,"name":"Wuffington","steam_id":76561198033762881,"connected_time":2752000000000,"state":"active","ping":61},{"user_id":256,"name":"Bones","steam_id":76561198065081225,"connected_time":7495000000000,"state":"active","ping":40},{"user_id":309,"name":"Rudebwoyyy","steam_id":76561199387956486,"connected_time":3322000000000,"state":"active","ping":60},{"user_id":322,"name":"daimao622","steam_id":76561198042082838,"connected_time":2306000000000,"state":"active","ping":62},{"user_id":342,"name":"(っ◔◡◔)っ ♥","steam_id":76561199026097466,"connected_time":402000000000,"state":"active","ping":76},{"user_id":192,"name":"festive jones","steam_id":76561198073975078,"connected_time":12220000000000,"state":"active","ping":45},{"user_id":330,"name":"Grim the lemon","steam_id":76561199083433988,"connected_time":1245000000000,"state":"active","ping":49},{"user_id":212,"name":"✪ J","steam_id":76561198094911581,"connected_time":10932000000000,"state":"active","ping":51},{"user_id":231,"name":"Nomad994","steam_id":76561198051908201,"connected_time":9021000000000,"state":"active","ping":88},{"user_id":326,"name":"Megamain","steam_id":76561198923772036,"connected_time":1962000000000,"state":"active","ping":49}]},{"server_id":114,"name":"Uncletopia | London | 2 | All Maps","name_short":"lon-2","host":"lon-1.uk.uncletopia.com","port":27025,"enabled":true,"region":"eu","cc":"gb","latitude":51.509865,"longitude":-0.118092,"reserved":0,"last_update":"0001-01-01T00:00:00Z","name_a2s":"Uncletopia | London | 2 | All Maps","protocol":17,"map":"cp_process_final","folder":"tf","game":"Team Fortress","app_id":440,"player_count":24,"max_players":24,"Bots":0,"server_type":"Dedicated","server_os":"Linux","password":true,"vac":true,"version":"7701286","steam_id":85568392924470941,"keywords":["cp","nocrits","nodmgspread","uncletopia"],"game_id":440,"stv_port":27026,"stv_name":"Uncletopia | London | 2 | All Maps | STV","players":[{"user_id":319,"name":"Enrico Pallazzo","steam_id":76561197993555892,"connected_time":1096000000000,"state":"active","ping":33},{"user_id":287,"name":"Pingy030799","steam_id":76561198070567860,"connected_time":2883000000000,"state":"active","ping":97},{"user_id":269,"name":"Swayer","steam_id":76561198056192460,"connected_time":4633000000000,"state":"active","ping":56},{"user_id":288,"name":"Hati","steam_id":76561198135520039,"connected_time":2794000000000,"state":"active","ping":74},{"user_id":330,"name":"Maksivad","steam_id":76561198134394882,"connected_time":509000000000,"state":"active","ping":88},{"user_id":310,"name":"Zzziiighghmuund","steam_id":76561198798167787,"connected_time":1200000000000,"state":"active","ping":89},{"user_id":331,"name":"Dispenser(Dispenser)","steam_id":76561199211831658,"connected_time":501000000000,"state":"active","ping":56},{"user_id":316,"name":"Klik","steam_id":76561198891046692,"connected_time":1163000000000,"state":"active","ping":75},{"user_id":337,"name":"Noob_with_source","steam_id":76561198870362103,"connected_time":401000000000,"state":"active","ping":54},{"user_id":328,"name":"Weegee","steam_id":76561198215760711,"connected_time":769000000000,"state":"active","ping":55},{"user_id":270,"name":"Sgreff","steam_id":76561198036304365,"connected_time":4591000000000,"state":"active","ping":44},{"user_id":333,"name":"[UiF] BafTac r/f*ckcars","steam_id":76561198060547050,"connected_time":473000000000,"state":"active","ping":60},{"user_id":338,"name":"midget crack maker","steam_id":76561198310932604,"connected_time":140000000000,"state":"active","ping":75},{"user_id":238,"name":"Rob","steam_id":76561198797266244,"connected_time":6163000000000,"state":"active","ping":76},{"user_id":327,"name":"doodgie","steam_id":76561198264934115,"connected_time":818000000000,"state":"active","ping":49},{"user_id":313,"name":"Bob Sacamano","steam_id":76561198085610701,"connected_time":1190000000000,"state":"active","ping":92},{"user_id":241,"name":"THE TOAD APPEARS ! ! !","steam_id":76561198870327755,"connected_time":6007000000000,"state":"active","ping":85},{"user_id":322,"name":"RogatiyZhuk","steam_id":76561199386822589,"connected_time":1027000000000,"state":"active","ping":75},{"user_id":321,"name":"spillr-.-","steam_id":76561198031330889,"connected_time":1080000000000,"state":"active","ping":64},{"user_id":323,"name":"Wrestler","steam_id":76561198117250810,"connected_time":977000000000,"state":"active","ping":122},{"user_id":329,"name":"supremacy","steam_id":76561198066321637,"connected_time":731000000000,"state":"active","ping":102},{"user_id":305,"name":"Captain Winter","steam_id":76561198102128562,"connected_time":2002000000000,"state":"active","ping":69},{"user_id":318,"name":"Tortoise","steam_id":76561198229648184,"connected_time":1159000000000,"state":"active","ping":42},{"user_id":255,"name":"soil.dirt.earth","steam_id":76561198014377623,"connected_time":5563000000000,"state":"active","ping":53}]},{"server_id":320,"name":"Uncletopia | London | 3 | All Maps","name_short":"lon-3","host":"lon-1.uk.uncletopia.com","port":27035,"enabled":true,"region":"eu","cc":"gb","latitude":51.509865,"longitude":-0.118092,"reserved":0,"last_update":"0001-01-01T00:00:00Z","name_a2s":"Uncletopia | London | 3 | All Maps","protocol":17,"map":"pl_upward","folder":"tf","game":"Team Fortress","app_id":440,"player_count":24,"max_players":24,"Bots":0,"server_type":"Dedicated","server_os":"Linux","password":true,"vac":true,"version":"7701286","steam_id":85568392924510192,"keywords":["nocrits","nodmgspread","payload","uncletopia"],"game_id":440,"stv_port":27036,"stv_name":"Uncletopia | London | 3 | All Maps | STV","players":[{"user_id":242,"name":"Big Benn","steam_id":76561199024168373,"connected_time":753000000000,"state":"active","ping":83},{"user_id":205,"name":"Ignatz","steam_id":76561198799086472,"connected_time":2929000000000,"state":"active","ping":101},{"user_id":255,"name":"Cameronal1","steam_id":76561198045433613,"connected_time":462000000000,"state":"active","ping":46},{"user_id":257,"name":"Markein","steam_id":76561198360754280,"connected_time":109000000000,"state":"active","ping":46},{"user_id":258,"name":"RQsC FeQuR","steam_id":76561198090884017,"connected_time":79000000000,"state":"active","ping":45},{"user_id":262,"name":"Favi","steam_id":76561198013236935,"connected_time":15000000000,"state":"active","ping":94},{"user_id":226,"name":"Samwise","steam_id":76561198160115838,"connected_time":1256000000000,"state":"active","ping":51},{"user_id":220,"name":"Zoodly","steam_id":76561198080594440,"connected_time":1496000000000,"state":"active","ping":50},{"user_id":213,"name":"VictorCG","steam_id":76561198070118014,"connected_time":2028000000000,"state":"active","ping":93},{"user_id":263,"name":"padillacampos","steam_id":76561198161923970,"connected_time":12000000000,"state":"spawning","ping":122},{"user_id":245,"name":"TheJCmonster","steam_id":76561198945258203,"connected_time":716000000000,"state":"active","ping":55},{"user_id":239,"name":"zortax","steam_id":76561198114247135,"connected_time":931000000000,"state":"active","ping":68},{"user_id":259,"name":"lulu","steam_id":76561199147764133,"connected_time":73000000000,"state":"active","ping":75},{"user_id":233,"name":"Flint","steam_id":76561197995920776,"connected_time":1045000000000,"state":"active","ping":47},{"user_id":240,"name":"Garbo","steam_id":76561198353731389,"connected_time":927000000000,"state":"active","ping":68},{"user_id":235,"name":"Splarvis","steam_id":76561198007792525,"connected_time":1005000000000,"state":"active","ping":43},{"user_id":246,"name":"Redmailbox","steam_id":76561198042930322,"connected_time":680000000000,"state":"active","ping":71},{"user_id":237,"name":"Gearslut","steam_id":76561198114601678,"connected_time":970000000000,"state":"active","ping":51},{"user_id":241,"name":"43291842381","steam_id":76561198038160325,"connected_time":920000000000,"state":"active","ping":86},{"user_id":247,"name":"wasteland","steam_id":76561198189686075,"connected_time":645000000000,"state":"active","ping":52},{"user_id":261,"name":"Lukas","steam_id":76561198009118452,"connected_time":50000000000,"state":"active","ping":63},{"user_id":256,"name":"lelop","steam_id":76561198277363229,"connected_time":456000000000,"state":"active","ping":59},{"user_id":250,"name":"Morgulan","steam_id":76561198046564543,"connected_time":594000000000,"state":"active","ping":60},{"user_id":251,"name":"Kylul_","steam_id":76561198042981061,"connected_time":591000000000,"state":"active","ping":44}]},{"server_id":321,"name":"Uncletopia | London | 4 | All Maps","name_short":"lon-4","host":"lon-1.uk.uncletopia.com","port":27045,"enabled":true,"region":"eu","cc":"gb","latitude":51.509865,"longitude":-0.118092,"reserved":0,"last_update":"0001-01-01T00:00:00Z","name_a2s":"Uncletopia | London | 4 | All Maps","protocol":17,"map":"cp_sunshine","folder":"tf","game":"Team Fortress","app_id":440,"player_count":8,"max_players":24,"Bots":0,"server_type":"Dedicated","server_os":"Linux","password":true,"vac":true,"version":"7701286","steam_id":85568392924510193,"keywords":["cp","nocrits","nodmgspread","uncletopia"],"game_id":440,"stv_port":27046,"stv_name":"Uncletopia | London | 4 | All Maps | STV","players":[{"user_id":196,"name":"SawdustixPQ","steam_id":76561198815127418,"connected_time":541000000000,"state":"active","ping":91},{"user_id":197,"name":"Clown","steam_id":76561199063268772,"connected_time":508000000000,"state":"active","ping":62},{"user_id":198,"name":"kornetov.vitalya","steam_id":76561199286034833,"connected_time":287000000000,"state":"active","ping":89},{"user_id":199,"name":"WHITEKNIGHTCUCK","steam_id":76561199099619330,"connected_time":49000000000,"state":"active","ping":52},{"user_id":200,"name":"jeff","steam_id":76561198357104319,"connected_time":23000000000,"state":"spawning","ping":96},{"user_id":201,"name":"***** ***","steam_id":76561198048037379,"connected_time":6000000000,"state":"spawning","ping":90},{"user_id":191,"name":"TheFlames","steam_id":76561198179314694,"connected_time":1243000000000,"state":"active","ping":59},{"user_id":183,"name":"chocolate flavoured femboy","steam_id":76561198819353867,"connected_time":1730000000000,"state":"active","ping":36}]},{"server_id":21,"name":"Uncletopia | London | 5 | All Maps","name_short":"lon-5","host":"lon-1.uk.uncletopia.com","port":27055,"enabled":true,"region":"eu","cc":"gb","latitude":51.509865,"longitude":-0.118092,"reserved":0,"last_update":"0001-01-01T00:00:00Z","name_a2s":"Uncletopia | London | 5 | All Maps","protocol":17,"map":"pl_swiftwater_final1","folder":"tf","game":"Team Fortress","app_id":440,"player_count":23,"max_players":24,"Bots":0,"server_type":"Dedicated","server_os":"Linux","password":true,"vac":true,"version":"7701286","steam_id":85568392924742829,"keywords":["nocrits","nodmgspread","payload","uncletopia"],"game_id":440,"stv_port":27056,"stv_name":"Uncletopia | London | 5 | All Maps | STV","players":[{"user_id":96,"name":"Ollie","steam_id":76561198066483629,"connected_time":1939000000000,"state":"active","ping":75},{"user_id":114,"name":"Chocofrolik","steam_id":76561198454779847,"connected_time":780000000000,"state":"active","ping":61},{"user_id":109,"name":"Oak","steam_id":76561198248567360,"connected_time":1028000000000,"state":"active","ping":40},{"user_id":117,"name":"Kahvi","steam_id":76561198723244199,"connected_time":642000000000,"state":"active","ping":88},{"user_id":127,"name":"MrWhite","steam_id":76561198929056707,"connected_time":433000000000,"state":"active","ping":248},{"user_id":107,"name":"beefy \u003c3","steam_id":76561198045347066,"connected_time":1387000000000,"state":"active","ping":57},{"user_id":105,"name":"azzy","steam_id":76561198061293740,"connected_time":1734000000000,"state":"active","ping":78},{"user_id":73,"name":"Syphilised penis","steam_id":76561198042593027,"connected_time":2882000000000,"state":"active","ping":94},{"user_id":118,"name":"NotFionn","steam_id":76561198890525176,"connected_time":629000000000,"state":"active","ping":69},{"user_id":119,"name":"BoPoe","steam_id":76561198093333882,"connected_time":622000000000,"state":"active","ping":105},{"user_id":49,"name":"Simping for Pizza-san","steam_id":76561198067204908,"connected_time":3963000000000,"state":"active","ping":55},{"user_id":113,"name":"obi","steam_id":76561198040154461,"connected_time":858000000000,"state":"active","ping":67},{"user_id":47,"name":"twitch.tv/biofun_","steam_id":76561198170609049,"connected_time":3989000000000,"state":"active","ping":66},{"user_id":120,"name":"Purplenoogie","steam_id":76561198081872160,"connected_time":571000000000,"state":"active","ping":46},{"user_id":121,"name":"Lyell","steam_id":76561198350329389,"connected_time":571000000000,"state":"active","ping":81},{"user_id":83,"name":"Dr. Funkenstein","steam_id":76561197977816210,"connected_time":2432000000000,"state":"active","ping":53},{"user_id":122,"name":"swueuws","steam_id":76561198020716743,"connected_time":566000000000,"state":"active","ping":61},{"user_id":130,"name":"ᴘɪᴏΛ ƎꞍ⊥","steam_id":76561198276912938,"connected_time":105000000000,"state":"active","ping":113},{"user_id":112,"name":"Dewotter","steam_id":76561198007653168,"connected_time":908000000000,"state":"active","ping":53},{"user_id":128,"name":"bart","steam_id":76561198025395216,"connected_time":361000000000,"state":"active","ping":60},{"user_id":65,"name":"Nag","steam_id":76561197970488206,"connected_time":3556000000000,"state":"active","ping":73},{"user_id":94,"name":"pizzaboob","steam_id":76561198097507847,"connected_time":2181000000000,"state":"active","ping":87},{"user_id":129,"name":"guiseppe","steam_id":76561198046129681,"connected_time":216000000000,"state":"active","ping":92}]},{"server_id":22,"name":"Uncletopia | London | 6 | All Maps","name_short":"lon-6","host":"lon-1.uk.uncletopia.com","port":27065,"enabled":true,"region":"eu","cc":"gb","latitude":51.509865,"longitude":-0.118092,"reserved":0,"last_update":"0001-01-01T00:00:00Z","name_a2s":"Uncletopia | London | 6 | All Maps","protocol":17,"map":"koth_highpass","folder":"tf","game":"Team Fortress","app_id":440,"player_count":2,"max_players":24,"Bots":0,"server_type":"Dedicated","server_os":"Linux","password":true,"vac":true,"version":"7701286","steam_id":85568392924742830,"keywords":["cp","nocrits","nodmgspread","uncletopia"],"game_id":440,"stv_port":27066,"stv_name":"Uncletopia | London | 6 | All Maps | STV","players":[{"user_id":32,"name":"cyceusz","steam_id":76561198131789269,"connected_time":592000000000,"state":"active","ping":85},{"user_id":35,"name":"amelon","steam_id":76561199040283085,"connected_time":231000000000,"state":"active","ping":94}]},{"server_id":40,"name":"Uncletopia | London | 7 | No Payload","name_short":"lon-7","host":"lon-1.uk.uncletopia.com","port":27075,"enabled":true,"region":"eu","cc":"gb","latitude":51.509865,"longitude":-0.118092,"reserved":0,"last_update":"0001-01-01T00:00:00Z","name_a2s":"Uncletopia | London | 7 | No Payload","protocol":17,"map":"cp_mercenarypark","folder":"tf","game":"Team Fortress","app_id":440,"player_count":23,"max_players":24,"Bots":0,"server_type":"Dedicated","server_os":"Linux","password":true,"vac":true,"version":"7701286","steam_id":85568392924964314,"keywords":["cp","nocrits","nodmgspread","uncletopia"],"game_id":440,"stv_port":27076,"stv_name":"Uncletopia | London | 7 | No Payload | STV","players":[{"user_id":388,"name":"i am bread","steam_id":76561199180277321,"connected_time":2441000000000,"state":"active","ping":38},{"user_id":443,"name":"NO","steam_id":76561198795767535,"connected_time":544000000000,"state":"active","ping":77},{"user_id":444,"name":"Velarowo","steam_id":76561198349373445,"connected_time":520000000000,"state":"active","ping":56},{"user_id":424,"name":"Meme Necromancer","steam_id":76561198085001718,"connected_time":1207000000000,"state":"active","ping":68},{"user_id":341,"name":"cowboy carl","steam_id":76561198057829900,"connected_time":5694000000000,"state":"active","ping":100},{"user_id":342,"name":"AllCreed","steam_id":76561198086536511,"connected_time":5648000000000,"state":"active","ping":72},{"user_id":446,"name":"AneveX","steam_id":76561198111905804,"connected_time":226000000000,"state":"active","ping":48},{"user_id":408,"name":"jacob?","steam_id":76561199025525354,"connected_time":1864000000000,"state":"active","ping":65},{"user_id":447,"name":"Mass","steam_id":76561198432195204,"connected_time":194000000000,"state":"active","ping":57},{"user_id":445,"name":"compusMentus","steam_id":76561199134152606,"connected_time":266000000000,"state":"active","ping":72},{"user_id":425,"name":"Arnold Jidáš Rimmer","steam_id":76561198130282863,"connected_time":1187000000000,"state":"active","ping":64},{"user_id":393,"name":"Revettah","steam_id":76561198040442214,"connected_time":2348000000000,"state":"active","ping":44},{"user_id":436,"name":"tavish finnegan degroot","steam_id":76561199012662623,"connected_time":975000000000,"state":"active","ping":62},{"user_id":449,"name":"SchwanzusLongus","steam_id":76561198112599986,"connected_time":180000000000,"state":"active","ping":51},{"user_id":442,"name":"tob:ias","steam_id":76561198832146626,"connected_time":589000000000,"state":"active","ping":45},{"user_id":440,"name":"dingledong","steam_id":76561198287096215,"connected_time":869000000000,"state":"active","ping":65},{"user_id":437,"name":"Bottomest","steam_id":76561198091734693,"connected_time":937000000000,"state":"active","ping":60},{"user_id":432,"name":"Warpzel65","steam_id":76561198799303596,"connected_time":1089000000000,"state":"active","ping":113},{"user_id":381,"name":"Spexiver","steam_id":76561198107223055,"connected_time":3262000000000,"state":"active","ping":82},{"user_id":430,"name":"apple","steam_id":76561198350676879,"connected_time":1126000000000,"state":"active","ping":99},{"user_id":448,"name":"rowen","steam_id":76561198801540362,"connected_time":188000000000,"state":"active","ping":48},{"user_id":434,"name":"Kim Jong Un","steam_id":76561198107184059,"connected_time":1041000000000,"state":"active","ping":61},{"user_id":451,"name":"polllky","steam_id":76561199013395201,"connected_time":172000000000,"state":"active","ping":63}]},{"server_id":41,"name":"Uncletopia | London | 8 | Community","name_short":"lon-8","host":"lon-1.uk.uncletopia.com","port":27085,"enabled":true,"region":"eu","cc":"gb","latitude":51.509865,"longitude":-0.118092,"reserved":0,"last_update":"0001-01-01T00:00:00Z","name_a2s":"Uncletopia | London | 8 | Community","protocol":17,"map":"workshop/koth_ramjam_v2_b2.ugc2865676487","folder":"tf","game":"Team Fortress","app_id":440,"player_count":0,"max_players":24,"Bots":0,"server_type":"Dedicated","server_os":"Linux","password":true,"vac":true,"version":"7701286","steam_id":85568392924964315,"keywords":["cp","nocrits","nodmgspread","uncletopia"],"game_id":440,"stv_port":27086,"stv_name":"Uncletopia | London | 8 | Community | STV","players":null},{"server_id":300,"name":"Uncletopia | Montréal | 1 | All Maps","name_short":"mtl-1","host":"mtl-1.ca.uncletopia.com","port":27015,"enabled":true,"region":"us-east","cc":"ca","latitude":45.50889,"longitude":-73.56167,"reserved":0,"last_update":"0001-01-01T00:00:00Z","name_a2s":"Uncletopia | Montréal | 1 | All Maps","protocol":17,"map":"koth_lakeside_final","folder":"tf","game":"Team Fortress","app_id":440,"player_count":0,"max_players":24,"Bots":0,"server_type":"Dedicated","server_os":"Linux","password":true,"vac":true,"version":"7701286","steam_id":85568392924500087,"keywords":["cp","nocrits","nodmgspread","uncletopia"],"game_id":440,"stv_port":0,"stv_name":"","players":null},{"server_id":301,"name":"Uncletopia | Montréal | 2 | All Maps","name_short":"mtl-2","host":"mtl-1.ca.uncletopia.com","port":27025,"enabled":true,"region":"us-east","cc":"ca","latitude":45.50889,"longitude":-73.56167,"reserved":0,"last_update":"0001-01-01T00:00:00Z","name_a2s":"Uncletopia | Montréal | 2 | All Maps","protocol":17,"map":"pl_upward","folder":"tf","game":"Team Fortress","app_id":440,"player_count":0,"max_players":24,"Bots":0,"server_type":"Dedicated","server_os":"Linux","password":true,"vac":true,"version":"7701286","steam_id":85568392924500088,"keywords":["nocrits","nodmgspread","payload","uncletopia"],"game_id":440,"stv_port":27026,"stv_name":"Uncletopia | Montréal | 2 | All Maps | STV","players":null},{"server_id":302,"name":"Uncletopia | Montréal | 3 | All Maps","name_short":"mtl-3","host":"mtl-1.ca.uncletopia.com","port":27035,"enabled":true,"region":"us-east","cc":"ca","latitude":45.50889,"longitude":-73.56167,"reserved":0,"last_update":"0001-01-01T00:00:00Z","name_a2s":"Uncletopia | Montréal | 3 | All Maps","protocol":17,"map":"pl_pier","folder":"tf","game":"Team Fortress","app_id":440,"player_count":0,"max_players":24,"Bots":0,"server_type":"Dedicated","server_os":"Linux","password":true,"vac":true,"version":"7701286","steam_id":85568392924500089,"keywords":["nocrits","nodmgspread","payload","uncletopia"],"game_id":440,"stv_port":0,"stv_name":"","players":null},{"server_id":303,"name":"Uncletopia | Montréal | 4 | No Payload","name_short":"mtl-4","host":"mtl-1.ca.uncletopia.com","port":27045,"enabled":true,"region":"us-east","cc":"ca","latitude":45.50889,"longitude":-73.56167,"reserved":0,"last_update":"0001-01-01T00:00:00Z","name_a2s":"Uncletopia | Montréal | 4 | No Payload","protocol":17,"map":"pl_upward","folder":"tf","game":"Team Fortress","app_id":440,"player_count":0,"max_players":24,"Bots":0,"server_type":"Dedicated","server_os":"Linux","password":true,"vac":true,"version":"7701286","steam_id":85568392924500090,"keywords":["nocrits","nodmgspread","payload","uncletopia"],"game_id":440,"stv_port":0,"stv_name":"","players":null},{"server_id":13,"name":"Uncletopia | New York City | 1 | All Maps","name_short":"nyc-1","host":"nyc-1.us.uncletopia.com","port":27015,"enabled":true,"region":"us-east","cc":"us","latitude":40.73061,"longitude":-73.93524,"reserved":0,"last_update":"0001-01-01T00:00:00Z","name_a2s":"Uncletopia | New York City | 1 | All Maps","protocol":17,"map":"cp_process_final","folder":"tf","game":"Team Fortress","app_id":440,"player_count":0,"max_players":24,"Bots":0,"server_type":"Dedicated","server_os":"Linux","password":true,"vac":true,"version":"7701286","steam_id":85568392924469993,"keywords":["cp","nocrits","nodmgspread","uncletopia"],"game_id":440,"stv_port":27016,"stv_name":"Uncletopia | New York City | 1 | All Maps | STV","players":null},{"server_id":14,"name":"Uncletopia | New York City | 2 | All Maps","name_short":"nyc-2","host":"nyc-1.us.uncletopia.com","port":27025,"enabled":true,"region":"us-east","cc":"us","latitude":40.73061,"longitude":-73.93524,"reserved":0,"last_update":"0001-01-01T00:00:00Z","name_a2s":"Uncletopia | New York City | 2 | All Maps","protocol":17,"map":"pl_badwater","folder":"tf","game":"Team Fortress","app_id":440,"player_count":24,"max_players":24,"Bots":0,"server_type":"Dedicated","server_os":"Linux","password":true,"vac":true,"version":"7701286","steam_id":85568392924469994,"keywords":["nocrits","nodmgspread","payload","uncletopia"],"game_id":440,"stv_port":27026,"stv_name":"Uncletopia | New York City | 2 | All Maps | STV","players":[{"user_id":72,"name":"Pika","steam_id":76561198068063436,"connected_time":729000000000,"state":"active","ping":72},{"user_id":63,"name":"wack","steam_id":76561198095697330,"connected_time":1491000000000,"state":"active","ping":90},{"user_id":56,"name":"Quansen","steam_id":76561198151594550,"connected_time":2431000000000,"state":"active","ping":66},{"user_id":73,"name":"LanFour","steam_id":76561198092092723,"connected_time":715000000000,"state":"active","ping":158},{"user_id":64,"name":"LORD JIMJACK YE-YE","steam_id":76561199151780779,"connected_time":1410000000000,"state":"active","ping":53},{"user_id":60,"name":"Rayden Belmont","steam_id":76561198062254329,"connected_time":1817000000000,"state":"active","ping":64},{"user_id":81,"name":"Phroliax","steam_id":76561198207075529,"connected_time":137000000000,"state":"active","ping":66},{"user_id":70,"name":"Major Woody","steam_id":76561198835541533,"connected_time":836000000000,"state":"active","ping":58},{"user_id":30,"name":"Mom","steam_id":76561198207936000,"connected_time":3923000000000,"state":"active","ping":124},{"user_id":71,"name":"jumboxcoco","steam_id":76561199086049988,"connected_time":835000000000,"state":"active","ping":75},{"user_id":32,"name":"Sarah Tonin","steam_id":76561198263707757,"connected_time":3746000000000,"state":"active","ping":49},{"user_id":52,"name":"big guapo","steam_id":76561198103228695,"connected_time":2896000000000,"state":"active","ping":57},{"user_id":62,"name":"A_Malebolgia","steam_id":76561198097722818,"connected_time":1780000000000,"state":"active","ping":80},{"user_id":53,"name":"themankeys","steam_id":76561198149339536,"connected_time":2819000000000,"state":"active","ping":73},{"user_id":74,"name":"Dragus","steam_id":76561198032967285,"connected_time":668000000000,"state":"active","ping":65},{"user_id":82,"name":"THE GIGGLER","steam_id":76561199275294643,"connected_time":90000000000,"state":"active","ping":81},{"user_id":76,"name":"pogb4nny149","steam_id":76561198020534493,"connected_time":585000000000,"state":"active","ping":87},{"user_id":65,"name":"Goose Pyro","steam_id":76561198994984332,"connected_time":1264000000000,"state":"active","ping":122},{"user_id":78,"name":"harry","steam_id":76561198263271697,"connected_time":468000000000,"state":"active","ping":57},{"user_id":77,"name":"SHURIKEN","steam_id":76561197982319164,"connected_time":558000000000,"state":"active","ping":147},{"user_id":44,"name":"soulsmu","steam_id":76561198022663285,"connected_time":3338000000000,"state":"active","ping":65},{"user_id":45,"name":"google docs extraordinaire","steam_id":76561198124174061,"connected_time":3327000000000,"state":"active","ping":53},{"user_id":47,"name":"A Puppy","steam_id":76561198828184456,"connected_time":3294000000000,"state":"active","ping":47},{"user_id":68,"name":"SquirrelAway™","steam_id":76561197998828619,"connected_time":1168000000000,"state":"active","ping":94}]},{"server_id":15,"name":"Uncletopia | New York City | 3 | All Maps","name_short":"nyc-3","host":"nyc-1.us.uncletopia.com","port":27035,"enabled":true,"region":"us-east","cc":"us","latitude":40.73061,"longitude":-73.93524,"reserved":0,"last_update":"0001-01-01T00:00:00Z","name_a2s":"Uncletopia | New York City | 3 | All Maps","protocol":17,"map":"pl_badwater","folder":"tf","game":"Team Fortress","app_id":440,"player_count":0,"max_players":24,"Bots":0,"server_type":"Dedicated","server_os":"Linux","password":true,"vac":true,"version":"7701286","steam_id":85568392924742820,"keywords":["nocrits","nodmgspread","payload","uncletopia"],"game_id":440,"stv_port":0,"stv_name":"","players":null},{"server_id":16,"name":"Uncletopia | New York City | 4 | Community","name_short":"nyc-4","host":"nyc-1.us.uncletopia.com","port":27045,"enabled":true,"region":"us-east","cc":"us","latitude":40.73061,"longitude":-73.93524,"reserved":0,"last_update":"0001-01-01T00:00:00Z","name_a2s":"Uncletopia | New York City | 4 | Community","protocol":17,"map":"workshop/cp_caldera_rc2.ugc2834196889","folder":"tf","game":"Team Fortress","app_id":440,"player_count":1,"max_players":24,"Bots":0,"server_type":"Dedicated","server_os":"Linux","password":true,"vac":true,"version":"7701286","steam_id":85568392924742821,"keywords":["cp","nocrits","nodmgspread","uncletopia"],"game_id":440,"stv_port":27046,"stv_name":"Uncletopia | New York City | 4 | Community | STV","players":[{"user_id":6,"name":"Spicy Within Reason","steam_id":76561198066700370,"connected_time":27000000000,"state":"active","ping":129}]},{"server_id":142,"name":"Uncletopia | São Paulo | 1 | All Maps","name_short":"sao-1","host":"sao-1.br.uncletopia.com","port":27015,"enabled":true,"region":"sa","cc":"br","latitude":-23.533773,"longitude":-46.62529,"reserved":0,"last_update":"0001-01-01T00:00:00Z","name_a2s":"Uncletopia | São Paulo | 1 | All Maps","protocol":17,"map":"pl_borneo","folder":"tf","game":"Team Fortress","app_id":440,"player_count":4,"max_players":24,"Bots":0,"server_type":"Dedicated","server_os":"Linux","password":true,"vac":true,"version":"7701286","steam_id":85568392924469996,"keywords":["nocrits","nodmgspread","payload","uncletopia"],"game_id":440,"stv_port":27016,"stv_name":"Uncletopia | São Paulo | 1 | All Maps | STV","players":[{"user_id":14,"name":"Homero chino","steam_id":76561199066605566,"connected_time":1642000000000,"state":"active","ping":99},{"user_id":15,"name":"TuVieja_777_","steam_id":76561199289101211,"connected_time":1571000000000,"state":"active","ping":80},{"user_id":16,"name":"ServSky","steam_id":76561199229799084,"connected_time":1556000000000,"state":"active","ping":93},{"user_id":19,"name":"probrinecrack","steam_id":76561199081029120,"connected_time":451000000000,"state":"active","ping":194}]},{"server_id":143,"name":"Uncletopia | São Paulo | 2 | All Maps","name_short":"sao-2","host":"sao-2.br.uncletopia.com","port":27015,"enabled":true,"region":"sa","cc":"br","latitude":-23.533773,"longitude":-46.62529,"reserved":0,"last_update":"0001-01-01T00:00:00Z","name_a2s":"Uncletopia | São Paulo | 2 | All Maps","protocol":17,"map":"cp_mossrock","folder":"tf","game":"Team Fortress","app_id":440,"player_count":16,"max_players":24,"Bots":0,"server_type":"Dedicated","server_os":"Linux","password":true,"vac":true,"version":"7701286","steam_id":85568392924485349,"keywords":["cp","nocrits","nodmgspread","uncletopia"],"game_id":440,"stv_port":27016,"stv_name":"Uncletopia | São Paulo | 2 | All Maps | STV","players":[{"user_id":43,"name":"JosuéManeiros","steam_id":76561198177695750,"connected_time":1055000000000,"state":"active","ping":83},{"user_id":22,"name":"Ricardo Ereto","steam_id":76561199022729585,"connected_time":3537000000000,"state":"active","ping":58},{"user_id":33,"name":"Ice Whallow Come","steam_id":76561198063668057,"connected_time":2224000000000,"state":"active","ping":74},{"user_id":44,"name":"CJAIME01345","steam_id":76561199091599141,"connected_time":624000000000,"state":"active","ping":77},{"user_id":21,"name":"Pietro07","steam_id":76561199017332044,"connected_time":3606000000000,"state":"active","ping":47},{"user_id":48,"name":"chico(greg)zera","steam_id":76561198113465470,"connected_time":273000000000,"state":"active","ping":38},{"user_id":45,"name":"matheus_lanches","steam_id":76561199359501901,"connected_time":604000000000,"state":"active","ping":44},{"user_id":30,"name":"URUBU DO PIX ©","steam_id":76561198941711861,"connected_time":2482000000000,"state":"active","ping":84},{"user_id":31,"name":"Rolf","steam_id":76561198283733842,"connected_time":2479000000000,"state":"active","ping":79},{"user_id":46,"name":"rsk1","steam_id":76561198199413370,"connected_time":462000000000,"state":"active","ping":58},{"user_id":38,"name":"Death_Pow","steam_id":76561198312958718,"connected_time":1630000000000,"state":"active","ping":56},{"user_id":49,"name":"Thuork","steam_id":76561198059172732,"connected_time":256000000000,"state":"active","ping":51},{"user_id":50,"name":"exeter","steam_id":76561198337465527,"connected_time":238000000000,"state":"active","ping":44},{"user_id":52,"name":"Fã do Matheus Alves(Youtuber)","steam_id":76561198330474206,"connected_time":219000000000,"state":"active","ping":76},{"user_id":54,"name":"Zoom!","steam_id":76561198289562649,"connected_time":177000000000,"state":"active","ping":45},{"user_id":55,"name":"[[POLITO]]","steam_id":76561198401755786,"connected_time":174000000000,"state":"active","ping":51}]},{"server_id":7,"name":"Uncletopia | Seattle | 1 | All Maps","name_short":"sea-1","host":"sea-1.us.uncletopia.com","port":27015,"enabled":true,"region":"us-west","cc":"us","latitude":47.608013,"longitude":-122.33517,"reserved":0,"last_update":"0001-01-01T00:00:00Z","name_a2s":"Uncletopia | Seattle | 1 | All Maps","protocol":17,"map":"cp_process_final","folder":"tf","game":"Team Fortress","app_id":440,"player_count":0,"max_players":24,"Bots":0,"server_type":"Dedicated","server_os":"Linux","password":true,"vac":true,"version":"7701286","steam_id":85568392924469997,"keywords":["cp","nocrits","nodmgspread","uncletopia"],"game_id":440,"stv_port":0,"stv_name":"","players":null},{"server_id":119,"name":"Uncletopia | Seattle | 2 | All Maps","name_short":"sea-2","host":"sea-1.us.uncletopia.com","port":27025,"enabled":true,"region":"us-west","cc":"us","latitude":47.608013,"longitude":-122.33517,"reserved":0,"last_update":"0001-01-01T00:00:00Z","name_a2s":"Uncletopia | Seattle | 2 | All Maps","protocol":17,"map":"koth_cascade","folder":"tf","game":"Team Fortress","app_id":440,"player_count":0,"max_players":24,"Bots":0,"server_type":"Dedicated","server_os":"Linux","password":true,"vac":true,"version":"7701286","steam_id":85568392924469998,"keywords":["cp","nocrits","nodmgspread","uncletopia"],"game_id":440,"stv_port":27026,"stv_name":"Uncletopia | Seattle | 2 | All Maps | STV","players":null},{"server_id":17,"name":"Uncletopia | San Francisco | 1 | All Maps","name_short":"sfo-1","host":"sfo-1.us.uncletopia.com","port":27015,"enabled":true,"region":"us-west","cc":"us","latitude":37.77397,"longitude":-122.4313,"reserved":0,"last_update":"0001-01-01T00:00:00Z","name_a2s":"Uncletopia | San Francisco | 1 | All Maps","protocol":17,"map":"pl_borneo","folder":"tf","game":"Team Fortress","app_id":440,"player_count":24,"max_players":24,"Bots":0,"server_type":"Dedicated","server_os":"Linux","password":true,"vac":true,"version":"7701286","steam_id":85568392924469999,"keywords":["nocrits","nodmgspread","payload","uncletopia"],"game_id":440,"stv_port":27016,"stv_name":"Uncletopia | San Francisco | 1 | All Maps | STV","players":[{"user_id":130,"name":"Len","steam_id":76561199141913673,"connected_time":2016000000000,"state":"active","ping":43},{"user_id":120,"name":"Satori Komeiji","steam_id":76561198158211423,"connected_time":2440000000000,"state":"active","ping":47},{"user_id":138,"name":"Frank","steam_id":76561198126681511,"connected_time":1536000000000,"state":"active","ping":60},{"user_id":136,"name":"brentonimo","steam_id":76561198035282062,"connected_time":1685000000000,"state":"active","ping":44},{"user_id":137,"name":"XzachTLY","steam_id":76561198145534604,"connected_time":1620000000000,"state":"active","ping":87},{"user_id":151,"name":"uzr","steam_id":76561198799343084,"connected_time":776000000000,"state":"active","ping":56},{"user_id":123,"name":"VerociousVee","steam_id":76561198289106015,"connected_time":2345000000000,"state":"active","ping":64},{"user_id":134,"name":"Koishi Komeiji","steam_id":76561198063315650,"connected_time":1864000000000,"state":"active","ping":62},{"user_id":145,"name":"wah","steam_id":76561198044443985,"connected_time":987000000000,"state":"active","ping":107},{"user_id":117,"name":"About That Gift I Owed Ya","steam_id":76561198071506287,"connected_time":2602000000000,"state":"active","ping":48},{"user_id":144,"name":"DiscoTraveler","steam_id":76561199240168088,"connected_time":1092000000000,"state":"active","ping":105},{"user_id":146,"name":"Klee","steam_id":76561198419619684,"connected_time":962000000000,"state":"active","ping":114},{"user_id":95,"name":"Agent Q","steam_id":76561198830829003,"connected_time":5426000000000,"state":"active","ping":80},{"user_id":147,"name":"Dedlock","steam_id":76561198046290002,"connected_time":872000000000,"state":"active","ping":75},{"user_id":156,"name":"noelle","steam_id":76561198386344068,"connected_time":386000000000,"state":"active","ping":107},{"user_id":129,"name":"holymoly1645 TWITCH","steam_id":76561198079009899,"connected_time":2070000000000,"state":"active","ping":74},{"user_id":125,"name":"Kuchio","steam_id":76561198161218914,"connected_time":2203000000000,"state":"active","ping":49},{"user_id":150,"name":"OrangeShoes","steam_id":76561197971249940,"connected_time":830000000000,"state":"active","ping":99},{"user_id":101,"name":"amagicowl","steam_id":76561199060487814,"connected_time":4310000000000,"state":"active","ping":78},{"user_id":99,"name":"jennco","steam_id":76561198212421513,"connected_time":4481000000000,"state":"active","ping":46},{"user_id":157,"name":"airbudenjoyer2012","steam_id":76561198150428763,"connected_time":165000000000,"state":"active","ping":46},{"user_id":127,"name":"Aviyarn","steam_id":76561199074194652,"connected_time":2160000000000,"state":"active","ping":109},{"user_id":142,"name":"squid game","steam_id":76561199248960166,"connected_time":1326000000000,"state":"active","ping":53},{"user_id":153,"name":"Cactus™ ♥","steam_id":76561198036441270,"connected_time":705000000000,"state":"active","ping":91}]},{"server_id":18,"name":"Uncletopia | San Francisco | 2 | All Maps","name_short":"sfo-2","host":"sfo-1.us.uncletopia.com","port":27025,"enabled":true,"region":"us-west","cc":"us","latitude":37.77397,"longitude":-122.4313,"reserved":0,"last_update":"0001-01-01T00:00:00Z","name_a2s":"Uncletopia | San Francisco | 2 | All Maps","protocol":17,"map":"ctf_turbine","folder":"tf","game":"Team Fortress","app_id":440,"player_count":16,"max_players":24,"Bots":0,"server_type":"Dedicated","server_os":"Linux","password":true,"vac":true,"version":"7701286","steam_id":85568392924470000,"keywords":["ctf","nocrits","nodmgspread","uncletopia"],"game_id":440,"stv_port":27026,"stv_name":"Uncletopia | San Francisco | 2 | All Maps | STV","players":[{"user_id":36,"name":"TheOmegaSeal","steam_id":76561198175099285,"connected_time":378000000000,"state":"active","ping":43},{"user_id":20,"name":"Deborp","steam_id":76561198118868430,"connected_time":2861000000000,"state":"active","ping":120},{"user_id":21,"name":"ImFr0sty","steam_id":76561199441249487,"connected_time":2731000000000,"state":"active","ping":108},{"user_id":5,"name":"PP pump (water)","steam_id":76561198079462109,"connected_time":4320000000000,"state":"active","ping":107},{"user_id":37,"name":"THE NUT","steam_id":76561198067813626,"connected_time":336000000000,"state":"active","ping":65},{"user_id":8,"name":"RemiSc","steam_id":76561198180669301,"connected_time":3647000000000,"state":"active","ping":62},{"user_id":41,"name":"Savaqa","steam_id":76561198158016688,"connected_time":51000000000,"state":"active","ping":47},{"user_id":39,"name":"Sugary","steam_id":76561198088267265,"connected_time":206000000000,"state":"active","ping":74},{"user_id":26,"name":"Stupid frogs!","steam_id":76561198069415057,"connected_time":2300000000000,"state":"active","ping":44},{"user_id":34,"name":"GumZie","steam_id":76561198202584223,"connected_time":822000000000,"state":"active","ping":45},{"user_id":14,"name":"Deno! 간부","steam_id":76561198041113335,"connected_time":3139000000000,"state":"active","ping":67},{"user_id":15,"name":"仲裁人","steam_id":76561198047166185,"connected_time":3122000000000,"state":"active","ping":74},{"user_id":29,"name":"BoX_hEaD101","steam_id":76561198200875467,"connected_time":1926000000000,"state":"active","ping":63},{"user_id":28,"name":"Jax O'Gaytor","steam_id":76561198288922168,"connected_time":2167000000000,"state":"active","ping":63},{"user_id":31,"name":"1965tobydowd","steam_id":76561198858551969,"connected_time":1559000000000,"state":"active","ping":49},{"user_id":35,"name":"JobyDudePerson","steam_id":76561199157937846,"connected_time":790000000000,"state":"active","ping":92}]},{"server_id":19,"name":"Uncletopia | San Francisco | 3 | No Payload","name_short":"sfo-3","host":"sfo-1.us.uncletopia.com","port":27035,"enabled":true,"region":"us-west","cc":"us","latitude":37.77397,"longitude":-122.4313,"reserved":0,"last_update":"0001-01-01T00:00:00Z","name_a2s":"Uncletopia | San Francisco | 3 | No Payload","protocol":17,"map":"cp_mountainlab","folder":"tf","game":"Team Fortress","app_id":440,"player_count":0,"max_players":24,"Bots":0,"server_type":"Dedicated","server_os":"Linux","password":true,"vac":true,"version":"7701286","steam_id":85568392924742824,"keywords":["cp","nocrits","nodmgspread","uncletopia"],"game_id":440,"stv_port":0,"stv_name":"","players":null},{"server_id":20,"name":"Uncletopia | San Francisco | 4 | Community","name_short":"sfo-4","host":"sfo-1.us.uncletopia.com","port":27045,"enabled":true,"region":"us-west","cc":"us","latitude":37.77397,"longitude":-122.4313,"reserved":0,"last_update":"0001-01-01T00:00:00Z","name_a2s":"Uncletopia | San Francisco | 4 | Community","protocol":17,"map":"cp_altitude","folder":"tf","game":"Team Fortress","app_id":440,"player_count":0,"max_players":24,"Bots":0,"server_type":"Dedicated","server_os":"Linux","password":true,"vac":true,"version":"7701286","steam_id":85568392924742826,"keywords":["cp","nocrits","nodmgspread","uncletopia"],"game_id":440,"stv_port":0,"stv_name":"","players":null},{"server_id":141,"name":"Uncletopia | Sydney | 1 | All Maps","name_short":"syd-1","host":"syd-1.au.uncletopia.com","port":27015,"enabled":true,"region":"au","cc":"au","latitude":-33.865143,"longitude":151.2099,"reserved":0,"last_update":"0001-01-01T00:00:00Z","name_a2s":"Uncletopia | Sydney | 1 | All Maps","protocol":17,"map":"pl_upward","folder":"tf","game":"Team Fortress","app_id":440,"player_count":0,"max_players":24,"Bots":0,"server_type":"Dedicated","server_os":"Linux","password":true,"vac":true,"version":"7701286","steam_id":85568392924470001,"keywords":["nocrits","nodmgspread","payload","uncletopia"],"game_id":440,"stv_port":27016,"stv_name":"Uncletopia | Sydney | 1 | All Maps | STV","players":null},{"server_id":123,"name":"Uncletopia | Sydney | 2 | All Maps","name_short":"syd-2","host":"syd-1.au.uncletopia.com","port":27025,"enabled":true,"region":"au","cc":"au","latitude":-33.865143,"longitude":151.2099,"reserved":0,"last_update":"0001-01-01T00:00:00Z","name_a2s":"Uncletopia | Sydney | 2 | All Maps","protocol":17,"map":"pl_upward","folder":"tf","game":"Team Fortress","app_id":440,"player_count":0,"max_players":24,"Bots":0,"server_type":"Dedicated","server_os":"Linux","password":true,"vac":true,"version":"7701286","steam_id":85568392924470002,"keywords":["nocrits","nodmgspread","payload","uncletopia"],"game_id":440,"stv_port":0,"stv_name":"","players":null},{"server_id":395,"name":"Uncletopia | Sydney | 3 | All Maps","name_short":"syd-3","host":"syd-1.au.uncletopia.com","port":27035,"enabled":true,"region":"au","cc":"au","latitude":-33.865143,"longitude":151.2099,"reserved":0,"last_update":"0001-01-01T00:00:00Z","name_a2s":"Uncletopia | Sydney | 3 | All Maps","protocol":17,"map":"cp_process_final","folder":"tf","game":"Team Fortress","app_id":440,"player_count":0,"max_players":24,"Bots":0,"server_type":"Dedicated","server_os":"Linux","password":true,"vac":true,"version":"7701286","steam_id":85568392925194467,"keywords":["cp","nocrits","nodmgspread","uncletopia"],"game_id":440,"stv_port":0,"stv_name":"","players":null},{"server_id":396,"name":"Uncletopia | Sydney | 4 | All Maps","name_short":"syd-4","host":"syd-1.au.uncletopia.com","port":27045,"enabled":true,"region":"au","cc":"au","latitude":-33.865143,"longitude":151.2099,"reserved":0,"last_update":"0001-01-01T00:00:00Z","name_a2s":"Uncletopia | Sydney | 4 | All Maps","protocol":17,"map":"koth_highpass","folder":"tf","game":"Team Fortress","app_id":440,"player_count":0,"max_players":24,"Bots":0,"server_type":"Dedicated","server_os":"Linux","password":true,"vac":true,"version":"7701286","steam_id":85568392925397958,"keywords":["cp","nocrits","nodmgspread","uncletopia"],"game_id":440,"stv_port":0,"stv_name":"","players":null},{"server_id":58,"name":"Uncletopia | Sydney | 5 | No Payload","name_short":"syd-5","host":"syd-1.au.uncletopia.com","port":27055,"enabled":true,"region":"au","cc":"au","latitude":-33.865143,"longitude":151.2099,"reserved":0,"last_update":"0001-01-01T00:00:00Z","name_a2s":"Uncletopia | Sydney | 5 | No Payload","protocol":17,"map":"pl_swiftwater_final1","folder":"tf","game":"Team Fortress","app_id":440,"player_count":0,"max_players":24,"Bots":0,"server_type":"Dedicated","server_os":"Linux","password":true,"vac":true,"version":"7701286","steam_id":85568392925397959,"keywords":["nocrits","nodmgspread","payload","uncletopia"],"game_id":440,"stv_port":0,"stv_name":"","players":null},{"server_id":59,"name":"Uncletopia | Sydney | 6 | Community","name_short":"syd-6","host":"syd-1.au.uncletopia.com","port":27065,"enabled":true,"region":"au","cc":"au","latitude":-33.865143,"longitude":151.2099,"reserved":0,"last_update":"0001-01-01T00:00:00Z","name_a2s":"Uncletopia | Sydney | 6 | Community","protocol":17,"map":"pl_swiftwater_final1","folder":"tf","game":"Team Fortress","app_id":440,"player_count":0,"max_players":24,"Bots":0,"server_type":"Dedicated","server_os":"Linux","password":true,"vac":true,"version":"7701286","steam_id":85568392925397960,"keywords":["nocrits","nodmgspread","payload","uncletopia"],"game_id":440,"stv_port":0,"stv_name":"","players":null},{"server_id":49,"name":"Uncletopia | Warsaw | 1 | All Maps","name_short":"waw-1","host":"waw-1.pl.uncletopia.com","port":27015,"enabled":true,"region":"eu","cc":"pl","latitude":52.2297,"longitude":21.017532,"reserved":0,"last_update":"0001-01-01T00:00:00Z","name_a2s":"Uncletopia | Warsaw | 1 | All Maps","protocol":17,"map":"koth_lakeside_final","folder":"tf","game":"Team Fortress","app_id":440,"player_count":0,"max_players":24,"Bots":0,"server_type":"Dedicated","server_os":"Linux","password":true,"vac":true,"version":"7701286","steam_id":85568392925397850,"keywords":["cp","nocrits","nodmgspread","uncletopia"],"game_id":440,"stv_port":27016,"stv_name":"Uncletopia | Warsaw | 1 | All Maps | STV","players":null},{"server_id":50,"name":"Uncletopia | Warsaw | 2 | All Maps","name_short":"waw-2","host":"waw-1.pl.uncletopia.com","port":27025,"enabled":true,"region":"eu","cc":"pl","latitude":52.2297,"longitude":21.017532,"reserved":0,"last_update":"0001-01-01T00:00:00Z","name_a2s":"Uncletopia | Warsaw | 2 | All Maps","protocol":17,"map":"koth_harvest_final","folder":"tf","game":"Team Fortress","app_id":440,"player_count":2,"max_players":24,"Bots":0,"server_type":"Dedicated","server_os":"Linux","password":true,"vac":true,"version":"7701286","steam_id":85568392925397851,"keywords":["cp","nocrits","nodmgspread","uncletopia"],"game_id":440,"stv_port":27026,"stv_name":"Uncletopia | Warsaw | 2 | All Maps | STV","players":[{"user_id":16,"name":"√҉͋͂ͥ̍∑҉̛CR͈҉O͋͂","steam_id":76561198041444614,"connected_time":287000000000,"state":"active","ping":48},{"user_id":17,"name":"Jericho","steam_id":76561198212454255,"connected_time":265000000000,"state":"active","ping":52}]},{"server_id":51,"name":"Uncletopia | Warsaw | 3 | All Maps","name_short":"waw-3","host":"waw-1.pl.uncletopia.com","port":27035,"enabled":true,"region":"eu","cc":"pl","latitude":52.2297,"longitude":21.017532,"reserved":0,"last_update":"0001-01-01T00:00:00Z","name_a2s":"Uncletopia | Warsaw | 3 | All Maps","protocol":17,"map":"koth_highpass","folder":"tf","game":"Team Fortress","app_id":440,"player_count":0,"max_players":24,"Bots":0,"server_type":"Dedicated","server_os":"Linux","password":true,"vac":true,"version":"7701286","steam_id":85568392925397852,"keywords":["cp","nocrits","nodmgspread","uncletopia"],"game_id":440,"stv_port":27036,"stv_name":"Uncletopia | Warsaw | 3 | All Maps | STV","players":null},{"server_id":52,"name":"Uncletopia | Warsaw | 4 | All Maps","name_short":"waw-4","host":"waw-1.pl.uncletopia.com","port":27045,"enabled":true,"region":"eu","cc":"pl","latitude":52.2297,"longitude":21.017532,"reserved":0,"last_update":"0001-01-01T00:00:00Z","name_a2s":"Uncletopia | Warsaw | 4 | All Maps","protocol":17,"map":"cp_dustbowl","folder":"tf","game":"Team Fortress","app_id":440,"player_count":0,"max_players":24,"Bots":0,"server_type":"Dedicated","server_os":"Linux","password":true,"vac":true,"version":"7701286","steam_id":85568392925397853,"keywords":["cp","nocrits","nodmgspread","uncletopia"],"game_id":440,"stv_port":27046,"stv_name":"Uncletopia | Warsaw | 4 | All Maps | STV","players":null},{"server_id":53,"name":"Uncletopia | Warsaw | 5 | No Payload","name_short":"waw-5","host":"waw-1.pl.uncletopia.com","port":27055,"enabled":true,"region":"eu","cc":"pl","latitude":52.2297,"longitude":21.017532,"reserved":0,"last_update":"0001-01-01T00:00:00Z","name_a2s":"Uncletopia | Warsaw | 5 | No Payload","protocol":17,"map":"cp_yukon_final","folder":"tf","game":"Team Fortress","app_id":440,"player_count":0,"max_players":24,"Bots":0,"server_type":"Dedicated","server_os":"Linux","password":true,"vac":true,"version":"7701286","steam_id":85568392925397854,"keywords":["cp","nocrits","nodmgspread","uncletopia"],"game_id":440,"stv_port":27056,"stv_name":"Uncletopia | Warsaw | 5 | No Payload | STV","players":null},{"server_id":54,"name":"Uncletopia | Warsaw | 6 | Community","name_short":"waw-6","host":"waw-1.pl.uncletopia.com","port":27065,"enabled":true,"region":"eu","cc":"pl","latitude":52.2297,"longitude":21.017532,"reserved":0,"last_update":"0001-01-01T00:00:00Z","name_a2s":"Uncletopia | Warsaw | 6 | Community","protocol":17,"map":"workshop/koth_synthetic_rc6a.ugc1549817316","folder":"tf","game":"Team Fortress","app_id":440,"player_count":2,"max_players":24,"Bots":0,"server_type":"Dedicated","server_os":"Linux","password":true,"vac":true,"version":"7701286","steam_id":85568392925397856,"keywords":["cp","nocrits","nodmgspread","uncletopia"],"game_id":440,"stv_port":27066,"stv_name":"Uncletopia | Warsaw | 6 | Community | STV","players":[{"user_id":20,"name":"artexx123","steam_id":76561198839181804,"connected_time":400000000000,"state":"active","ping":41},{"user_id":21,"name":"EZZ","steam_id":76561198970730559,"connected_time":397000000000,"state":"active","ping":47}]}]}