{"status":true,"message":"","result":[{"server_id":9,"name":"Uncletopia | Atlanta | 1 | All Maps","name_short":"atl-1","host":"atl-1.us.uncletopia.com","port":27015,"enabled":true,"region":"us-east","cc":"us","latitude":33.753746,"longitude":-84.38633,"reserved":0,"last_update":"0001-01-01T00:00:00Z","name_a2s":"Uncletopia | Atlanta | 1 | All Maps","protocol":17,"map":"koth_highpass","folder":"tf","game":"Team Fortress","app_id":440,"player_count":24,"max_players":24,"Bots":0,"server_type":"Dedicated","server_os":"Linux","password":true,"vac":true,"version":"7961495","steam_id":85568392924469982,"keywords":["cp","nocrits","nodmgspread","uncletopia"],"game_id":440,"stv_port":27016,"stv_name":"Uncletopia | Atlanta | 1 | All Maps | STV","players":null},{"server_id":104,"name":"Uncletopia | Atlanta | 2 | All Maps","name_short":"atl-2","host":"atl-1.us.uncletopia.com","port":27025,"enabled":true,"region":"us-east","cc":"us","latitude":33.753746,"longitude":-84.38633,"reserved":0,"last_update":"0001-01-01T00:00:00Z","name_a2s":"Uncletopia | Atlanta | 2 | All Maps","protocol":17,"map":"cp_dustbowl","folder":"tf","game":"Team Fortress","app_id":440,"player_count":24,"max_players":24,"Bots":0,"server_type":"Dedicated","server_os":"Linux","password":true,"vac":true,"version":"7961495","steam_id":85568392924469983,"keywords":["cp","nocrits","nodmgspread","uncletopia"],"game_id":440,"stv_port":27026,"stv_name":"Uncletopia | Atlanta | 2 | All Maps | STV","players":null},{"server_id":400,"name":"Uncletopia | Atlanta | 3 | Stopwatch","name_short":"atl-3","host":"atl-1.us.uncletopia.com","port":27035,"enabled":true,"region":"us-east","cc":"us","latitude":33.753746,"longitude":-84.38633,"reserved":0,"last_update":"0001-01-01T00:00:00Z","name_a2s":"Uncletopia | Atlanta | 3 | Stopwatch","protocol":17,"map":"pl_swiftwater_final1","folder":"tf","game":"Team Fortress","app_id":440,"player_count":23,"max_players":24,"Bots":0,"server_type":"Dedicated","server_os":"Linux","password":true,"vac":true,"version":"7961495","steam_id":85568392924515187,"keywords":["nocrits","nodmgspread","payload","uncletopia"],"game_id":440,"stv_port":27036,"stv_name":"Uncletopia | Atlanta | 3 | Stopwatch | STV","players":null},{"server_id":401,"name":"Uncletopia | Atlanta | 4 | Community","name_short":"atl-4","host":"atl-1.us.uncletopia.com","port":27045,"enabled":true,"region":"us-east","cc":"us","latitude":33.753746,"longitude":-84.38633,"reserved":0,"last_update":"0001-01-01T00:00:00Z","name_a2s":"Uncletopia | Atlanta | 4 | Community","protocol":17,"map":"pl_cashworks_final1","folder":"tf","game":"Team Fortress","app_id":440,"player_count":0,"max_players":24,"Bots":0,"server_type":"Dedicated","server_os":"Linux","password":true,"vac":true,"version":"7961495","steam_id":85568392924515188,"keywords":["nocrits","nodmgspread","payload","uncletopia"],"game_id":440,"stv_port":27046,"stv_name":"Uncletopia | Atlanta | 4 | Community | STV","players":null},{"server_id":2,"name":"Uncletopia | Chicago | 1 | All Maps","name_short":"chi-1","host":"chi-1.us.uncletopia.com","port":27015,"enabled":true,"region":"us-central","cc":"us","latitude":41.881832,"longitude":-87.62318,"reserved":0,"last_update":"0001-01-01T00:00:00Z","name_a2s":"Uncletopia | Chicago | 1 | All Maps","protocol":17,"map":"pl_frontier_final","folder":"tf","game":"Team Fortress","app_id":440,"player_count":24,"max_players":24,"Bots":0,"server_type":"Dedicated","server_os":"Linux","password":true,"vac":true,"version":"7961495","steam_id":85568392924469984,"keywords":["nocrits","nodmgspread","payload","uncletopia"],"game_id":440,"stv_port":27016,"stv_name":"Uncletopia | Chicago | 1 | All Maps | STV","players":[{"user_id":350,"name":"SomeScuffedKid","steam_id":76561198086113234,"connected_time":1300000000000,"state":"active","ping":68},{"user_id":364,"name":"Joker","steam_id":76561198108480348,"connected_time":393000000000,"state":"active","ping":107},{"user_id":324,"name":"howiredot","steam_id":76561198256931961,"connected_time":4142000000000,"state":"active","ping":54},{"user_id":330,"name":"corned beef","steam_id":76561199366782761,"connected_time":3240000000000,"state":"active","ping":143},{"user_id":268,"name":"Ras","steam_id":76561198123546775,"connected_time":7903000000000,"state":"active","ping":63},{"user_id":344,"name":"Pawn Cushman","steam_id":76561198221635676,"connected_time":1941000000000,"state":"active","ping":70},{"user_id":336,"name":"Forossa","steam_id":76561198108085345,"connected_time":2444000000000,"state":"active","ping":67},{"user_id":299,"name":"super clickteam fusion","steam_id":76561198275101482,"connected_time":6066000000000,"state":"active","ping":133},{"user_id":345,"name":"Notsocreative","steam_id":76561198236372202,"connected_time":1848000000000,"state":"active","ping":80},{"user_id":349,"name":"Spy Gaming","steam_id":76561198453295613,"connected_time":1302000000000,"state":"active","ping":108},{"user_id":329,"name":"Chernov","steam_id":76561198014463424,"connected_time":3393000000000,"state":"active","ping":52},{"user_id":292,"name":"paypur -rng","steam_id":76561198214370515,"connected_time":6167000000000,"state":"active","ping":77},{"user_id":357,"name":"breezewax","steam_id":76561198121702006,"connected_time":855000000000,"state":"active","ping":70},{"user_id":294,"name":"RedManAwesome","steam_id":76561198347691408,"connected_time":6156000000000,"state":"active","ping":65},{"user_id":359,"name":"loscemo","steam_id":76561197994884609,"connected_time":699000000000,"state":"active","ping":65},{"user_id":363,"name":"Kid named download","steam_id":76561199192074448,"connected_time":481000000000,"state":"active","ping":88},{"user_id":304,"name":"Naked","steam_id":76561198062763756,"connected_time":5852000000000,"state":"active","ping":51},{"user_id":334,"name":"Adam (Cursed Confetti Creature)","steam_id":76561198317690197,"connected_time":2453000000000,"state":"active","ping":46},{"user_id":341,"name":"munch","steam_id":76561198820480684,"connected_time":2266000000000,"state":"active","ping":55},{"user_id":356,"name":"latex pyro","steam_id":76561198057076267,"connected_time":1054000000000,"state":"active","ping":67},{"user_id":346,"name":"purple diesel","steam_id":76561197976548449,"connected_time":1756000000000,"state":"active","ping":91},{"user_id":343,"name":"WarMace","steam_id":76561198395937853,"connected_time":2041000000000,"state":"active","ping":68},{"user_id":365,"name":"hej","steam_id":76561197996366940,"connected_time":26000000000,"state":"active","ping":60},{"user_id":326,"name":"Thundermonkey (SMOKE)","steam_id":76561198017631728,"connected_time":3823000000000,"state":"active","ping":65}]},{"server_id":106,"name":"Uncletopia | Chicago | 2 | All Maps","name_short":"chi-2","host":"chi-1.us.uncletopia.com","port":27025,"enabled":true,"region":"us-central","cc":"us","latitude":41.881832,"longitude":-87.62318,"reserved":0,"last_update":"0001-01-01T00:00:00Z","name_a2s":"Uncletopia | Chicago | 2 | All Maps","protocol":17,"map":"cp_altitude","folder":"tf","game":"Team Fortress","app_id":440,"player_count":24,"max_players":24,"Bots":0,"server_type":"Dedicated","server_os":"Linux","password":true,"vac":true,"version":"7961495","steam_id":85568392924469985,"keywords":["cp","nocrits","nodmgspread","uncletopia"],"game_id":440,"stv_port":27026,"stv_name":"Uncletopia | Chicago | 2 | All Maps | STV","players":[{"user_id":224,"name":"og biden pack cart","steam_id":76561198253731826,"connected_time":967000000000,"state":"active","ping":64},{"user_id":221,"name":"anonion","steam_id":76561198056477584,"connected_time":1044000000000,"state":"active","ping":88},{"user_id":171,"name":"Flowers","steam_id":76561198031669899,"connected_time":4659000000000,"state":"active","ping":79},{"user_id":164,"name":"Diesel","steam_id":76561198448815852,"connected_time":5656000000000,"state":"active","ping":94},{"user_id":155,"name":"Grop Noise","steam_id":76561198145445403,"connected_time":6340000000000,"state":"active","ping":55},{"user_id":232,"name":"vv","steam_id":76561198134813102,"connected_time":179000000000,"state":"active","ping":53},{"user_id":213,"name":"Lyathan","steam_id":76561198062773218,"connected_time":1471000000000,"state":"active","ping":64},{"user_id":233,"name":"Ultrasonic Dog Repellent","steam_id":76561198040939246,"connected_time":147000000000,"state":"active","ping":44},{"user_id":218,"name":"Junkan","steam_id":76561198127676420,"connected_time":1095000000000,"state":"active","ping":79},{"user_id":230,"name":"The Horselords and Animal Gods","steam_id":76561197975094050,"connected_time":296000000000,"state":"active","ping":112},{"user_id":203,"name":"fish","steam_id":76561198303575607,"connected_time":2070000000000,"state":"active","ping":87},{"user_id":204,"name":"Mediocre Gaming","steam_id":76561199230467980,"connected_time":2058000000000,"state":"active","ping":63},{"user_id":191,"name":"eWVra2Vy","steam_id":76561198453565942,"connected_time":3446000000000,"state":"active","ping":80},{"user_id":234,"name":"GruntRule","steam_id":76561198039987143,"connected_time":144000000000,"state":"active","ping":84},{"user_id":235,"name":"dr peppah chug!","steam_id":76561198068835693,"connected_time":116000000000,"state":"active","ping":90},{"user_id":231,"name":"Fraglin","steam_id":76561198124964000,"connected_time":290000000000,"state":"active","ping":74},{"user_id":226,"name":"Fluffeline","steam_id":76561198352909489,"connected_time":421000000000,"state":"active","ping":147},{"user_id":214,"name":"Ceige LFT","steam_id":76561198068538473,"connected_time":1470000000000,"state":"active","ping":75},{"user_id":196,"name":"AJTarcza","steam_id":76561198070800190,"connected_time":2617000000000,"state":"active","ping":86},{"user_id":229,"name":"MF SHROOM","steam_id":76561199051344147,"connected_time":371000000000,"state":"active","ping":106},{"user_id":200,"name":"Kduck","steam_id":76561198092171095,"connected_time":2152000000000,"state":"active","ping":65},{"user_id":222,"name":"Cedric","steam_id":76561198072090580,"connected_time":1020000000000,"state":"active","ping":95},{"user_id":208,"name":"the keebler","steam_id":76561199486326945,"connected_time":1989000000000,"state":"active","ping":75},{"user_id":140,"name":"potatoes or potatoes","steam_id":76561198268384671,"connected_time":7790000000000,"state":"active","ping":75}]},{"server_id":402,"name":"Uncletopia | Chicago | 3 | All Maps","name_short":"chi-3","host":"chi-1.us.uncletopia.com","port":27035,"enabled":true,"region":"us-central","cc":"us","latitude":41.881832,"longitude":-87.62318,"reserved":0,"last_update":"0001-01-01T00:00:00Z","name_a2s":"Uncletopia | Chicago | 3 | All Maps","protocol":17,"map":"pl_frontier_final","folder":"tf","game":"Team Fortress","app_id":440,"player_count":24,"max_players":24,"Bots":0,"server_type":"Dedicated","server_os":"Linux","password":true,"vac":true,"version":"7961495","steam_id":85568392924515191,"keywords":["nocrits","nodmgspread","payload","uncletopia"],"game_id":440,"stv_port":27036,"stv_name":"Uncletopia | Chicago | 3 | All Maps | STV","players":[{"user_id":202,"name":"Gailus (She/Her)","steam_id":76561198319509387,"connected_time":257000000000,"state":"active","ping":63},{"user_id":197,"name":"Goldoche","steam_id":76561197995065045,"connected_time":1560000000000,"state":"active","ping":78},{"user_id":182,"name":"JKEEPS","steam_id":76561198289104880,"connected_time":2390000000000,"state":"active","ping":163},{"user_id":183,"name":"Hexadecatrack","steam_id":76561198044480181,"connected_time":2333000000000,"state":"active","ping":50},{"user_id":194,"name":"pinguez","steam_id":76561199003447981,"connected_time":1779000000000,"state":"active","ping":86},{"user_id":191,"name":"THE Shovel Knight","steam_id":76561198306811759,"connected_time":1859000000000,"state":"active","ping":116},{"user_id":89,"name":"teaspinator","steam_id":76561199069748074,"connected_time":10264000000000,"state":"active","ping":51},{"user_id":161,"name":"(no monitor) ayylien","steam_id":76561198042127970,"connected_time":4405000000000,"state":"active","ping":75},{"user_id":198,"name":"phantom","steam_id":76561197963860777,"connected_time":739000000000,"state":"active","ping":59},{"user_id":171,"name":"Geesemans","steam_id":76561199478892816,"connected_time":2957000000000,"state":"active","ping":150},{"user_id":192,"name":"Bobbn","steam_id":76561198876124683,"connected_time":1845000000000,"state":"active","ping":70},{"user_id":199,"name":"Shoeshocker","steam_id":76561198174302467,"connected_time":684000000000,"state":"active","ping":70},{"user_id":185,"name":"Hero Smasher","steam_id":76561198150681669,"connected_time":2260000000000,"state":"active","ping":100},{"user_id":201,"name":"Ax0L_","steam_id":76561199008960175,"connected_time":642000000000,"state":"active","ping":50},{"user_id":195,"name":"FlexTape","steam_id":76561198871834867,"connected_time":1771000000000,"state":"active","ping":125},{"user_id":130,"name":"Polar","steam_id":76561198271964253,"connected_time":7002000000000,"state":"active","ping":81},{"user_id":168,"name":"Vaudeville Villain","steam_id":76561199212093339,"connected_time":2985000000000,"state":"active","ping":73},{"user_id":124,"name":"the archmage","steam_id":76561198380018244,"connected_time":7784000000000,"state":"active","ping":73},{"user_id":165,"name":"SPOOKY_","steam_id":76561198073395404,"connected_time":3361000000000,"state":"active","ping":160},{"user_id":175,"name":"BrendenMad","steam_id":76561198031250581,"connected_time":2829000000000,"state":"active","ping":53},{"user_id":167,"name":"Kuber_Streamz","steam_id":76561198046008453,"connected_time":2995000000000,"state":"active","ping":51},{"user_id":189,"name":"the222attacker","steam_id":76561198969690191,"connected_time":2115000000000,"state":"active","ping":65},{"user_id":196,"name":"Cowboyfos","steam_id":76561199055740230,"connected_time":1770000000000,"state":"active","ping":100},{"user_id":204,"name":"R O D G E D A N","steam_id":76561198226236524,"connected_time":172000000000,"state":"active","ping":75}]},{"server_id":403,"name":"Uncletopia | Chicago | 4 | All Maps","name_short":"chi-4","host":"chi-1.us.uncletopia.com","port":27045,"enabled":true,"region":"us-central","cc":"us","latitude":41.881832,"longitude":-87.62318,"reserved":0,"last_update":"0001-01-01T00:00:00Z","name_a2s":"Uncletopia | Chicago | 4 | All Maps","protocol":17,"map":"koth_king","folder":"tf","game":"Team Fortress","app_id":440,"player_count":24,"max_players":24,"Bots":0,"server_type":"Dedicated","server_os":"Linux","password":true,"vac":true,"version":"7961495","steam_id":85568392924515193,"keywords":["cp","nocrits","nodmgspread","uncletopia"],"game_id":440,"stv_port":27046,"stv_name":"Uncletopia | Chicago | 4 | All Maps | STV","players":[{"user_id":327,"name":"Sergeant Snowflake","steam_id":76561198041474489,"connected_time":1029000000000,"state":"active","ping":55},{"user_id":344,"name":"cellogamer","steam_id":76561198016937098,"connected_time":243000000000,"state":"active","ping":71},{"user_id":343,"name":"Luucyf3r","steam_id":76561198141820085,"connected_time":272000000000,"state":"active","ping":75},{"user_id":341,"name":"Bobletoob","steam_id":76561199184464900,"connected_time":443000000000,"state":"active","ping":113},{"user_id":313,"name":"Oni","steam_id":76561198112066584,"connected_time":1611000000000,"state":"active","ping":62},{"user_id":320,"name":"funny man","steam_id":76561198435286999,"connected_time":1321000000000,"state":"active","ping":60},{"user_id":240,"name":"katryna","steam_id":76561198023440304,"connected_time":5653000000000,"state":"active","ping":59},{"user_id":311,"name":"tA.CHRONIC","steam_id":76561197960760990,"connected_time":1905000000000,"state":"active","ping":47},{"user_id":321,"name":"Crazy Dave!","steam_id":76561198951414566,"connected_time":1292000000000,"state":"active","ping":74},{"user_id":314,"name":"Xatheys","steam_id":76561198082458255,"connected_time":1517000000000,"state":"active","ping":46},{"user_id":330,"name":"Tick","steam_id":76561198184161214,"connected_time":998000000000,"state":"active","ping":44},{"user_id":243,"name":"IMM0RTAL","steam_id":76561198013747901,"connected_time":5592000000000,"state":"active","ping":74},{"user_id":328,"name":"uneducated guess","steam_id":76561198140846580,"connected_time":1020000000000,"state":"active","ping":61},{"user_id":335,"name":"Kaze","steam_id":76561199062949963,"connected_time":778000000000,"state":"active","ping":80},{"user_id":338,"name":"Exio","steam_id":76561198218639325,"connected_time":702000000000,"state":"active","ping":97},{"user_id":345,"name":"Thndr_","steam_id":76561198113242036,"connected_time":241000000000,"state":"active","ping":115},{"user_id":337,"name":"daxx","steam_id":76561197971296086,"connected_time":709000000000,"state":"active","ping":79},{"user_id":342,"name":"Argo","steam_id":76561198353725622,"connected_time":351000000000,"state":"active","ping":75},{"user_id":107,"name":"schnedwob","steam_id":76561197999146588,"connected_time":17193000000000,"state":"active","ping":70},{"user_id":332,"name":"mousecake","steam_id":76561198046870291,"connected_time":931000000000,"state":"active","ping":60},{"user_id":333,"name":"lampin","steam_id":76561197964367078,"connected_time":864000000000,"state":"active","ping":50},{"user_id":346,"name":"tqman","steam_id":76561199031963925,"connected_time":193000000000,"state":"active","ping":122},{"user_id":296,"name":"Mojave Mo'Problem","steam_id":76561198021706593,"connected_time":2459000000000,"state":"active","ping":74},{"user_id":269,"name":"Shaby_Frost","steam_id":76561198401334563,"connected_time":3698000000000,"state":"active","ping":45}]},{"server_id":36,"name":"Uncletopia | Chicago | 5 | All Maps","name_short":"chi-5","host":"chi-2.us.uncletopia.com","port":27015,"enabled":true,"region":"us-central","cc":"us","latitude":41.881832,"longitude":-87.62318,"reserved":0,"last_update":"0001-01-01T00:00:00Z","name_a2s":"Uncletopia | Chicago | 5 | All Maps","protocol":17,"map":"cp_sunshine","folder":"tf","game":"Team Fortress","app_id":440,"player_count":23,"max_players":24,"Bots":0,"server_type":"Dedicated","server_os":"Linux","password":true,"vac":true,"version":"7961495","steam_id":85568392924866362,"keywords":["cp","nocrits","nodmgspread","uncletopia"],"game_id":440,"stv_port":27016,"stv_name":"Uncletopia | Chicago | 5 | All Maps | STV","players":[{"user_id":181,"name":"Synthic","steam_id":76561198999659192,"connected_time":1575000000000,"state":"active","ping":70},{"user_id":179,"name":"fatherrbertrum","steam_id":76561198156538484,"connected_time":1651000000000,"state":"active","ping":55},{"user_id":166,"name":"ThePatheticMedic","steam_id":76561198873083105,"connected_time":2387000000000,"state":"active","ping":57},{"user_id":183,"name":"I Like Cheese","steam_id":76561198006265659,"connected_time":1409000000000,"state":"active","ping":65},{"user_id":178,"name":"Melaza Madera","steam_id":76561199031977210,"connected_time":1738000000000,"state":"active","ping":71},{"user_id":191,"name":"Coolman3214","steam_id":76561198443366140,"connected_time":940000000000,"state":"active","ping":72},{"user_id":161,"name":"Mosquito Born Illness Survivor","steam_id":76561198097300909,"connected_time":2825000000000,"state":"active","ping":62},{"user_id":147,"name":"GOLDIE","steam_id":76561199375258674,"connected_time":3410000000000,"state":"active","ping":95},{"user_id":194,"name":"Degree","steam_id":76561198059812393,"connected_time":685000000000,"state":"active","ping":79},{"user_id":75,"name":"Cranial Brain Trauma","steam_id":76561198055876398,"connected_time":9543000000000,"state":"active","ping":60},{"user_id":185,"name":"mcjuice","steam_id":76561198087730829,"connected_time":1206000000000,"state":"active","ping":67},{"user_id":199,"name":"Ġ1 ♦ Synth","steam_id":76561198058660228,"connected_time":304000000000,"state":"active","ping":59},{"user_id":180,"name":"AllHailTMG","steam_id":76561198447338140,"connected_time":1646000000000,"state":"active","ping":97},{"user_id":196,"name":"HeroOfTime1435","steam_id":76561198414622966,"connected_time":535000000000,"state":"active","ping":81},{"user_id":192,"name":"Retro Phoenix","steam_id":76561198077176271,"connected_time":801000000000,"state":"active","ping":64},{"user_id":141,"name":"dullahan","steam_id":76561198278736434,"connected_time":3569000000000,"state":"active","ping":63},{"user_id":153,"name":"Loud The Taken King","steam_id":76561198011890196,"connected_time":3304000000000,"state":"active","ping":66},{"user_id":200,"name":"Tideflat","steam_id":76561198179850851,"connected_time":232000000000,"state":"active","ping":104},{"user_id":118,"name":"Kitchen Sink Gaming","steam_id":76561198930293420,"connected_time":4583000000000,"state":"active","ping":60},{"user_id":189,"name":"sugoiboi48","steam_id":76561198060056280,"connected_time":1114000000000,"state":"active","ping":59},{"user_id":175,"name":"Goober","steam_id":76561198988863807,"connected_time":1883000000000,"state":"active","ping":78},{"user_id":165,"name":"M249 | Spectre","steam_id":76561198118334485,"connected_time":2580000000000,"state":"active","ping":76},{"user_id":198,"name":"Alice in Rubberland","steam_id":76561198087328346,"connected_time":413000000000,"state":"active","ping":43}]},{"server_id":37,"name":"Uncletopia | Chicago | 6 | All Maps","name_short":"chi-6","host":"chi-2.us.uncletopia.com","port":27025,"enabled":true,"region":"us-central","cc":"us","latitude":41.881832,"longitude":-87.62318,"reserved":0,"last_update":"0001-01-01T00:00:00Z","name_a2s":"Uncletopia | Chicago | 6 | All Maps","protocol":17,"map":"cp_dustbowl","folder":"tf","game":"Team Fortress","app_id":440,"player_count":22,"max_players":24,"Bots":0,"server_type":"Dedicated","server_os":"Linux","password":true,"vac":true,"version":"7961495","steam_id":85568392924866363,"keywords":["cp","nocrits","nodmgspread","uncletopia"],"game_id":440,"stv_port":27026,"stv_name":"Uncletopia | Chicago | 6 | All Maps | STV","players":[{"user_id":141,"name":"Oxygen User","steam_id":76561199111975528,"connected_time":311000000000,"state":"active","ping":96},{"user_id":132,"name":"Dutchman3201","steam_id":76561198064387593,"connected_time":1666000000000,"state":"active","ping":79},{"user_id":74,"name":"Dyson","steam_id":76561199081837220,"connected_time":5669000000000,"state":"active","ping":90},{"user_id":131,"name":"Nephi","steam_id":76561198031525122,"connected_time":1797000000000,"state":"active","ping":81},{"user_id":113,"name":"Steve Jobs' cousin Hand Jobs","steam_id":76561198282766831,"connected_time":2867000000000,"state":"active","ping":59},{"user_id":138,"name":"Pizza Party","steam_id":76561198165730754,"connected_time":605000000000,"state":"active","ping":83},{"user_id":53,"name":"Dragus","steam_id":76561198032967285,"connected_time":7514000000000,"state":"active","ping":52},{"user_id":145,"name":"Engineer","steam_id":76561199138738952,"connected_time":6000000000,"state":"spawning","ping":60},{"user_id":94,"name":"Kart","steam_id":76561198045307014,"connected_time":4346000000000,"state":"active","ping":91},{"user_id":97,"name":"Sigo Chambeando","steam_id":76561198025668771,"connected_time":4241000000000,"state":"active","ping":130},{"user_id":133,"name":"Sunshine","steam_id":76561198885528098,"connected_time":1604000000000,"state":"active","ping":74},{"user_id":118,"name":"Mr_Frosty","steam_id":76561199380389079,"connected_time":2766000000000,"state":"active","ping":88},{"user_id":136,"name":"lowqualitymemes","steam_id":76561198826232868,"connected_time":705000000000,"state":"active","ping":94},{"user_id":92,"name":"Certi","steam_id":76561198087548591,"connected_time":4515000000000,"state":"active","ping":61},{"user_id":143,"name":"DBosch","steam_id":76561198064290290,"connected_time":159000000000,"state":"active","ping":84},{"user_id":76,"name":"Beast_727","steam_id":76561198390289197,"connected_time":5610000000000,"state":"active","ping":53},{"user_id":91,"name":"Flap","steam_id":76561198078889633,"connected_time":4551000000000,"state":"active","ping":59},{"user_id":125,"name":"weak-man","steam_id":76561199379738409,"connected_time":2624000000000,"state":"active","ping":112},{"user_id":65,"name":"1985 Toyota Sprinter Trueno","steam_id":76561198436383373,"connected_time":6842000000000,"state":"active","ping":132},{"user_id":139,"name":"Zhong Xina","steam_id":76561198048157121,"connected_time":596000000000,"state":"active","ping":87},{"user_id":127,"name":"SpookedYa","steam_id":76561198100124291,"connected_time":2538000000000,"state":"active","ping":79},{"user_id":137,"name":"Goblineer","steam_id":76561198442888935,"connected_time":695000000000,"state":"active","ping":168}]},{"server_id":38,"name":"Uncletopia | Chicago | 7 | Stopwatch","name_short":"chi-7","host":"chi-2.us.uncletopia.com","port":27035,"enabled":true,"region":"us-central","cc":"us","latitude":41.881832,"longitude":-87.62318,"reserved":0,"last_update":"0001-01-01T00:00:00Z","name_a2s":"Uncletopia | Chicago | 7 | Stopwatch","protocol":17,"map":"workshop/koth_product_final.ugc454272353","folder":"tf","game":"Team Fortress","app_id":440,"player_count":0,"max_players":24,"Bots":0,"server_type":"Dedicated","server_os":"Linux","password":true,"vac":true,"version":"7961495","steam_id":85568392924866364,"keywords":["cp","nocrits","nodmgspread","uncletopia"],"game_id":440,"stv_port":27036,"stv_name":"Uncletopia | Chicago | 7 | Stopwatch | STV","players":null},{"server_id":39,"name":"Uncletopia | Chicago | 8 | Community","name_short":"chi-8","host":"chi-2.us.uncletopia.com","port":27045,"enabled":true,"region":"us-central","cc":"us","latitude":41.881832,"longitude":-87.62318,"reserved":0,"last_update":"0001-01-01T00:00:00Z","name_a2s":"Uncletopia | Chicago | 8 | Community","protocol":17,"map":"workshop/koth_ramjam_rc1.ugc459778887","folder":"tf","game":"Team Fortress","app_id":440,"player_count":1,"max_players":24,"Bots":0,"server_type":"Dedicated","server_os":"Linux","password":true,"vac":true,"version":"7961495","steam_id":85568392924866365,"keywords":["cp","nocrits","nodmgspread","uncletopia"],"game_id":440,"stv_port":27046,"stv_name":"Uncletopia | Chicago | 8 | Community | STV","players":[{"user_id":23,"name":"PizzaFratello","steam_id":76561199059951970,"connected_time":1067000000000,"state":"active","ping":84}]},{"server_id":8,"name":"Uncletopia | Dallas | 1 | All Maps","name_short":"dal-1","host":"dal-1.us.uncletopia.com","port":27015,"enabled":true,"region":"us-central","cc":"us","latitude":32.779167,"longitude":-96.80889,"reserved":0,"last_update":"0001-01-01T00:00:00Z","name_a2s":"Uncletopia | Dallas | 1 | All Maps","protocol":17,"map":"koth_nucleus","folder":"tf","game":"Team Fortress","app_id":440,"player_count":24,"max_players":24,"Bots":0,"server_type":"Dedicated","server_os":"Linux","password":true,"vac":true,"version":"7961495","steam_id":85568392924469986,"keywords":["cp","nocrits","nodmgspread","uncletopia"],"game_id":440,"stv_port":27016,"stv_name":"Uncletopia | Dallas | 1 | All Maps | STV","players":[{"user_id":300,"name":"merlin","steam_id":76561198334511480,"connected_time":1089000000000,"state":"active","ping":73},{"user_id":303,"name":"DMM","steam_id":76561198065426171,"connected_time":504000000000,"state":"active","ping":53},{"user_id":309,"name":"MayKaye","steam_id":76561199016092265,"connected_time":142000000000,"state":"active","ping":80},{"user_id":250,"name":"leesh","steam_id":76561198079603938,"connected_time":3301000000000,"state":"active","ping":59},{"user_id":239,"name":"THRONGLER","steam_id":76561198198563466,"connected_time":4662000000000,"state":"active","ping":39},{"user_id":305,"name":"skullface","steam_id":76561198353704776,"connected_time":495000000000,"state":"active","ping":42},{"user_id":224,"name":"1998 Mazda b2500","steam_id":76561198883172857,"connected_time":6157000000000,"state":"active","ping":94},{"user_id":294,"name":"CoolOpossum77","steam_id":76561198085047501,"connected_time":1326000000000,"state":"active","ping":51},{"user_id":281,"name":"Lex","steam_id":76561198069948353,"connected_time":2567000000000,"state":"active","ping":60},{"user_id":307,"name":"Chef","steam_id":76561198037041957,"connected_time":219000000000,"state":"active","ping":89},{"user_id":295,"name":"Lamb Shepard","steam_id":76561198031674607,"connected_time":1314000000000,"state":"active","ping":68},{"user_id":308,"name":"DlTTO","steam_id":76561199427026752,"connected_time":200000000000,"state":"active","ping":99},{"user_id":263,"name":"Mainyx","steam_id":76561198811844438,"connected_time":3204000000000,"state":"active","ping":88},{"user_id":284,"name":"Ryzema","steam_id":76561198165594229,"connected_time":2140000000000,"state":"active","ping":87},{"user_id":293,"name":"BNTF","steam_id":76561198062740087,"connected_time":1361000000000,"state":"active","ping":83},{"user_id":311,"name":"JustaDude","steam_id":76561199151914748,"connected_time":7000000000,"state":"spawning","ping":56},{"user_id":278,"name":"Burny Sanders","steam_id":76561197961879048,"connected_time":2701000000000,"state":"active","ping":42},{"user_id":285,"name":"TrashPanda (she/her)","steam_id":76561198447864095,"connected_time":2111000000000,"state":"active","ping":59},{"user_id":297,"name":"schmuck","steam_id":76561198143789773,"connected_time":1307000000000,"state":"active","ping":50},{"user_id":240,"name":"Svepport","steam_id":76561198071373137,"connected_time":4541000000000,"state":"active","ping":60},{"user_id":269,"name":"K.O. Stradivarius","steam_id":76561198974913245,"connected_time":3148000000000,"state":"active","ping":96},{"user_id":298,"name":"sans undertale","steam_id":76561199128903858,"connected_time":1287000000000,"state":"active","ping":99},{"user_id":304,"name":"grape","steam_id":76561197993980328,"connected_time":504000000000,"state":"active","ping":126},{"user_id":279,"name":"Bean Boy","steam_id":76561198279184347,"connected_time":2674000000000,"state":"active","ping":69}]},{"server_id":108,"name":"Uncletopia | Dallas | 2 | All Maps","name_short":"dal-2","host":"dal-1.us.uncletopia.com","port":27025,"enabled":true,"region":"us-central","cc":"us","latitude":32.779167,"longitude":-96.80889,"reserved":0,"last_update":"0001-01-01T00:00:00Z","name_a2s":"Uncletopia | Dallas | 2 | All Maps","protocol":17,"map":"pl_snowycoast","folder":"tf","game":"Team Fortress","app_id":440,"player_count":24,"max_players":24,"Bots":0,"server_type":"Dedicated","server_os":"Linux","password":true,"vac":true,"version":"7961495","steam_id":85568392924469988,"keywords":["nocrits","nodmgspread","payload","uncletopia"],"game_id":440,"stv_port":27026,"stv_name":"Uncletopia | Dallas | 2 | All Maps | STV","players":[{"user_id":198,"name":"7thelden","steam_id":76561198297428761,"connected_time":2601000000000,"state":"active","ping":105},{"user_id":209,"name":"The Noise","steam_id":76561199390353195,"connected_time":1111000000000,"state":"active","ping":53},{"user_id":142,"name":"Bobby Ray","steam_id":76561198044131188,"connected_time":7455000000000,"state":"active","ping":71},{"user_id":215,"name":"crayonnipple","steam_id":76561198070253331,"connected_time":856000000000,"state":"active","ping":94},{"user_id":200,"name":"Grumby","steam_id":76561198149175262,"connected_time":2263000000000,"state":"active","ping":62},{"user_id":220,"name":"HawkBlaze","steam_id":76561199000152914,"connected_time":57000000000,"state":"active","ping":102},{"user_id":179,"name":"Shitty Pilot","steam_id":76561198042723469,"connected_time":3971000000000,"state":"active","ping":56},{"user_id":189,"name":"Ventastega","steam_id":76561197999366317,"connected_time":3274000000000,"state":"active","ping":111},{"user_id":208,"name":"kn0n2999","steam_id":76561198249172818,"connected_time":1521000000000,"state":"active","ping":96},{"user_id":188,"name":"E4Estrogen","steam_id":76561198085813708,"connected_time":3309000000000,"state":"active","ping":78},{"user_id":201,"name":"2014","steam_id":76561199066684927,"connected_time":2209000000000,"state":"active","ping":111},{"user_id":163,"name":"Javaris Jamar Javarison-Lamar","steam_id":76561197974907012,"connected_time":5560000000000,"state":"active","ping":74},{"user_id":213,"name":"Dabbledornk","steam_id":76561198065241300,"connected_time":877000000000,"state":"active","ping":76},{"user_id":195,"name":"tae","steam_id":76561198294360662,"connected_time":3079000000000,"state":"active","ping":78},{"user_id":197,"name":"roto","steam_id":76561198138735860,"connected_time":2860000000000,"state":"active","ping":93},{"user_id":218,"name":"Gunboats Reliant Subhuman","steam_id":76561198046526036,"connected_time":508000000000,"state":"active","ping":80},{"user_id":191,"name":"[Bandit]","steam_id":76561197986919852,"connected_time":3232000000000,"state":"active","ping":97},{"user_id":207,"name":"CDRW Enjoyer","steam_id":76561198119393205,"connected_time":1547000000000,"state":"active","ping":49},{"user_id":210,"name":"Chunk Stuffer","steam_id":76561198856508573,"connected_time":1021000000000,"state":"active","ping":38},{"user_id":199,"name":"C∅RVUS","steam_id":76561198100640019,"connected_time":2473000000000,"state":"active","ping":118},{"user_id":180,"name":"rAnch","steam_id":76561198024562587,"connected_time":3699000000000,"state":"active","ping":43},{"user_id":176,"name":"soft and wet","steam_id":76561198081974528,"connected_time":4403000000000,"state":"active","ping":76},{"user_id":216,"name":"Cloud","steam_id":76561198954987128,"connected_time":788000000000,"state":"active","ping":75},{"user_id":206,"name":"intek","steam_id":76561198052705291,"connected_time":1572000000000,"state":"active","ping":83}]},{"server_id":404,"name":"Uncletopia | Dallas | 3 | All Maps","name_short":"dal-3","host":"dal-1.us.uncletopia.com","port":27035,"enabled":true,"region":"us-central","cc":"us","latitude":32.779167,"longitude":-96.80889,"reserved":0,"last_update":"0001-01-01T00:00:00Z","name_a2s":"Uncletopia | Dallas | 3 | All Maps","protocol":17,"map":"pl_pier","folder":"tf","game":"Team Fortress","app_id":440,"player_count":24,"max_players":24,"Bots":0,"server_type":"Dedicated","server_os":"Linux","password":true,"vac":true,"version":"7961495","steam_id":85568392924515219,"keywords":["nocrits","nodmgspread","payload","uncletopia"],"game_id":440,"stv_port":27036,"stv_name":"Uncletopia | Dallas | 3 | All Maps | STV","players":[{"user_id":57,"name":"Snoopy","steam_id":76561198273735974,"connected_time":3806000000000,"state":"active","ping":71},{"user_id":58,"name":"muck","steam_id":76561198120437909,"connected_time":3752000000000,"state":"active","ping":43},{"user_id":83,"name":"maccthew","steam_id":76561199035058771,"connected_time":1853000000000,"state":"active","ping":59},{"user_id":87,"name":"malarkeyman","steam_id":76561198844473584,"connected_time":1680000000000,"state":"active","ping":63},{"user_id":44,"name":"Rustyorion","steam_id":76561198439186347,"connected_time":5115000000000,"state":"active","ping":100},{"user_id":89,"name":"vcx","steam_id":76561198139371143,"connected_time":1321000000000,"state":"active","ping":70},{"user_id":17,"name":"mkl","steam_id":76561197986401685,"connected_time":6742000000000,"state":"active","ping":59},{"user_id":110,"name":"Max_Attack","steam_id":76561198944028607,"connected_time":55000000000,"state":"active","ping":106},{"user_id":35,"name":"Hart","steam_id":76561199118241286,"connected_time":6156000000000,"state":"active","ping":70},{"user_id":100,"name":"Shalom","steam_id":76561198410005222,"connected_time":756000000000,"state":"active","ping":56},{"user_id":101,"name":"Bully_Maguire","steam_id":76561198212922692,"connected_time":747000000000,"state":"active","ping":82},{"user_id":102,"name":"Lain","steam_id":76561198029303534,"connected_time":747000000000,"state":"active","ping":66},{"user_id":90,"name":"w a o w","steam_id":76561198060769385,"connected_time":1294000000000,"state":"active","ping":98},{"user_id":107,"name":"Niko","steam_id":76561198185806553,"connected_time":347000000000,"state":"active","ping":59},{"user_id":84,"name":"twitch.tv/kegaman_","steam_id":76561198043632775,"connected_time":1810000000000,"state":"active","ping":85},{"user_id":99,"name":"reko","steam_id":76561198278020887,"connected_time":786000000000,"state":"active","ping":64},{"user_id":94,"name":"Queuetimeevent","steam_id":76561198079438423,"connected_time":1026000000000,"state":"active","ping":57},{"user_id":103,"name":"vote yeezus deez nuts 2020","steam_id":76561198132803810,"connected_time":746000000000,"state":"active","ping":64},{"user_id":95,"name":"what're ya buyin","steam_id":76561199277633460,"connected_time":1006000000000,"state":"active","ping":59},{"user_id":50,"name":"(202) 456 - 1414","steam_id":76561198101465748,"connected_time":4627000000000,"state":"active","ping":61},{"user_id":109,"name":"Sax","steam_id":76561198055425123,"connected_time":206000000000,"state":"active","ping":118},{"user_id":88,"name":"moe","steam_id":76561198929586245,"connected_time":1511000000000,"state":"active","ping":84},{"user_id":105,"name":"TheGirthquake","steam_id":76561198238895056,"connected_time":739000000000,"state":"active","ping":52},{"user_id":93,"name":"Liver stealer","steam_id":76561199029954287,"connected_time":1272000000000,"state":"active","ping":150}]},{"server_id":405,"name":"Uncletopia | Dallas | 4 | Community","name_short":"dal-4","host":"dal-1.us.uncletopia.com","port":27045,"enabled":true,"region":"us-central","cc":"us","latitude":32.779167,"longitude":-96.80889,"reserved":0,"last_update":"0001-01-01T00:00:00Z","name_a2s":"Uncletopia | Dallas | 4 | Community","protocol":17,"map":"pl_pier","folder":"tf","game":"Team Fortress","app_id":440,"player_count":0,"max_players":24,"Bots":0,"server_type":"Dedicated","server_os":"Linux","password":true,"vac":true,"version":"7961495","steam_id":85568392924515220,"keywords":["nocrits","nodmgspread","payload","uncletopia"],"game_id":440,"stv_port":27046,"stv_name":"Uncletopia | Dallas | 4 | Community | STV","players":null},{"server_id":5,"name":"Uncletopia | Frankfurt | 1 | All Maps","name_short":"frk-1","host":"frk-1.de.uncletopia.com","port":27015,"enabled":true,"region":"eu","cc":"de","latitude":50.110924,"longitude":8.682127,"reserved":0,"last_update":"0001-01-01T00:00:00Z","name_a2s":"Uncletopia | Frankfurt | 1 | All Maps","protocol":17,"map":"cp_sunshine","folder":"tf","game":"Team Fortress","app_id":440,"player_count":24,"max_players":24,"Bots":0,"server_type":"Dedicated","server_os":"Linux","password":true,"vac":true,"version":"7961495","steam_id":85568392924469989,"keywords":["cp","nocrits","nodmgspread","uncletopia"],"game_id":440,"stv_port":27016,"stv_name":"Uncletopia | Frankfurt | 1 | All Maps | STV","players":[{"user_id":843,"name":"r4s1","steam_id":76561198024034917,"connected_time":886000000000,"state":"active","ping":59},{"user_id":853,"name":"Baxer lolo","steam_id":76561198422173022,"connected_time":29000000000,"state":"active","ping":74},{"user_id":852,"name":"hipster_doofus","steam_id":76561197970902697,"connected_time":128000000000,"state":"active","ping":71},{"user_id":819,"name":"EwyPig","steam_id":76561198104051370,"connected_time":2541000000000,"state":"active","ping":69},{"user_id":799,"name":"Demoknight is insane","steam_id":76561198390727328,"connected_time":4112000000000,"state":"active","ping":55},{"user_id":855,"name":"AlexTheLegion","steam_id":76561198006372156,"connected_time":0,"state":"spawning","ping":0},{"user_id":854,"name":"Sabour","steam_id":76561197963965445,"connected_time":28000000000,"state":"active","ping":62},{"user_id":703,"name":"Reljadin","steam_id":76561198054997553,"connected_time":10774000000000,"state":"active","ping":84},{"user_id":831,"name":"Bobo","steam_id":76561198052308399,"connected_time":1291000000000,"state":"active","ping":56},{"user_id":835,"name":"Stupid Backburner Pyro","steam_id":76561199057422095,"connected_time":1073000000000,"state":"active","ping":70},{"user_id":757,"name":"Safe Joint","steam_id":76561198017799687,"connected_time":6436000000000,"state":"active","ping":120},{"user_id":815,"name":"Kepucz","steam_id":76561197977634244,"connected_time":2848000000000,"state":"active","ping":64},{"user_id":771,"name":"spy in the base","steam_id":76561198284570752,"connected_time":5329000000000,"state":"active","ping":61},{"user_id":838,"name":"Aspartus","steam_id":76561198101385763,"connected_time":1006000000000,"state":"active","ping":44},{"user_id":820,"name":"angry russian man","steam_id":76561198386712795,"connected_time":2486000000000,"state":"active","ping":64},{"user_id":844,"name":"ScaryTree","steam_id":76561199384362833,"connected_time":881000000000,"state":"active","ping":71},{"user_id":845,"name":"MEGOS","steam_id":76561198172740637,"connected_time":877000000000,"state":"active","ping":55},{"user_id":836,"name":"i hack smart refrigerators","steam_id":76561199265289808,"connected_time":1056000000000,"state":"active","ping":113},{"user_id":846,"name":"DETERR","steam_id":76561198223088296,"connected_time":876000000000,"state":"active","ping":55},{"user_id":823,"name":"Mr_Pulse_","steam_id":76561198095001602,"connected_time":2403000000000,"state":"active","ping":86},{"user_id":848,"name":"Vesoljček Dino","steam_id":76561198117141034,"connected_time":838000000000,"state":"active","ping":72},{"user_id":827,"name":"humble genius","steam_id":76561198243808680,"connected_time":1592000000000,"state":"active","ping":60},{"user_id":849,"name":"idenburg","steam_id":76561198063574956,"connected_time":828000000000,"state":"active","ping":65},{"user_id":851,"name":"Unturtle","steam_id":76561198208081884,"connected_time":488000000000,"state":"active","ping":88}]},{"server_id":110,"name":"Uncletopia | Frankfurt | 2 | All Maps","name_short":"frk-2","host":"frk-1.de.uncletopia.com","port":27025,"enabled":true,"region":"eu","cc":"de","latitude":50.110924,"longitude":8.682127,"reserved":0,"last_update":"0001-01-01T00:00:00Z","name_a2s":"Uncletopia | Frankfurt | 2 | All Maps","protocol":17,"map":"pl_pier","folder":"tf","game":"Team Fortress","app_id":440,"player_count":24,"max_players":24,"Bots":0,"server_type":"Dedicated","server_os":"Linux","password":true,"vac":true,"version":"7961495","steam_id":85568392924469990,"keywords":["nocrits","nodmgspread","payload","uncletopia"],"game_id":440,"stv_port":27026,"stv_name":"Uncletopia | Frankfurt | 2 | All Maps | STV","players":[{"user_id":263,"name":"hhhhhh","steam_id":76561198031982574,"connected_time":271000000000,"state":"active","ping":45},{"user_id":223,"name":"MeleeMeta","steam_id":76561198237963558,"connected_time":4727000000000,"state":"active","ping":62},{"user_id":224,"name":"Scrubbler","steam_id":76561198055611048,"connected_time":4680000000000,"state":"active","ping":102},{"user_id":231,"name":"anders McFlanders","steam_id":76561198022811995,"connected_time":3241000000000,"state":"active","ping":58},{"user_id":264,"name":"Karahu","steam_id":76561198060426885,"connected_time":224000000000,"state":"active","ping":72},{"user_id":261,"name":"VATNIK | RAMA","steam_id":76561198040423618,"connected_time":1053000000000,"state":"active","ping":82},{"user_id":177,"name":"Rimx","steam_id":76561198053034840,"connected_time":8786000000000,"state":"active","ping":93},{"user_id":248,"name":"Not Sussy Tanuki","steam_id":76561198137289375,"connected_time":2057000000000,"state":"active","ping":88},{"user_id":262,"name":"Uselss Joe","steam_id":76561198275853629,"connected_time":368000000000,"state":"active","ping":45},{"user_id":110,"name":"SocialistBacon","steam_id":76561198055872267,"connected_time":13321000000000,"state":"active","ping":105},{"user_id":173,"name":"Toasty5050","steam_id":76561198073540881,"connected_time":9266000000000,"state":"active","ping":41},{"user_id":241,"name":"XxBenShapiro420xX","steam_id":76561199229373972,"connected_time":2493000000000,"state":"active","ping":71},{"user_id":154,"name":"Finnish Farmer","steam_id":76561198205366043,"connected_time":10652000000000,"state":"active","ping":77},{"user_id":235,"name":"Lennox","steam_id":76561198069063554,"connected_time":3195000000000,"state":"active","ping":43},{"user_id":256,"name":"Daniluck23","steam_id":76561199070594080,"connected_time":1415000000000,"state":"active","ping":63},{"user_id":226,"name":"Asmodeus","steam_id":76561198283156425,"connected_time":4169000000000,"state":"active","ping":81},{"user_id":205,"name":"Kitfist","steam_id":76561198048559338,"connected_time":6309000000000,"state":"active","ping":62},{"user_id":238,"name":"Cioly","steam_id":76561198257791981,"connected_time":2653000000000,"state":"active","ping":62},{"user_id":260,"name":"NG mathhead","steam_id":76561198429138254,"connected_time":1239000000000,"state":"active","ping":60},{"user_id":97,"name":"Space","steam_id":76561198021572167,"connected_time":13925000000000,"state":"active","ping":59},{"user_id":236,"name":"Burrito","steam_id":76561198023919089,"connected_time":3162000000000,"state":"active","ping":83},{"user_id":228,"name":"PIGs","steam_id":76561197998963483,"connected_time":3402000000000,"state":"active","ping":95},{"user_id":258,"name":"TJ1212","steam_id":76561199013575313,"connected_time":1377000000000,"state":"active","ping":61},{"user_id":251,"name":"SalCrabber deluxe","steam_id":76561198275942961,"connected_time":1727000000000,"state":"active","ping":45}]},{"server_id":308,"name":"Uncletopia | Frankfurt | 3 | All Maps","name_short":"frk-3","host":"frk-1.de.uncletopia.com","port":27035,"enabled":true,"region":"eu","cc":"de","latitude":50.110924,"longitude":8.682127,"reserved":0,"last_update":"0001-01-01T00:00:00Z","name_a2s":"Uncletopia | Frankfurt | 3 | All Maps","protocol":17,"map":"cp_sunshine","folder":"tf","game":"Team Fortress","app_id":440,"player_count":17,"max_players":24,"Bots":0,"server_type":"Dedicated","server_os":"Linux","password":true,"vac":true,"version":"7961495","steam_id":85568392924504274,"keywords":["cp","nocrits","nodmgspread","uncletopia"],"game_id":440,"stv_port":27036,"stv_name":"Uncletopia | Frankfurt | 3 | All Maps | STV","players":[{"user_id":552,"name":"Landeyx","steam_id":76561198126640158,"connected_time":133000000000,"state":"active","ping":56},{"user_id":453,"name":"Red Dynamite","steam_id":76561199073167935,"connected_time":9004000000000,"state":"active","ping":168},{"user_id":545,"name":"☞LaZe☜","steam_id":76561198202191400,"connected_time":572000000000,"state":"active","ping":70},{"user_id":504,"name":"Shine","steam_id":76561198136297981,"connected_time":4501000000000,"state":"active","ping":63},{"user_id":556,"name":"Spoof059","steam_id":76561198356116829,"connected_time":35000000000,"state":"spawning","ping":79},{"user_id":553,"name":"pizzaboob (im funny)","steam_id":76561198097507847,"connected_time":110000000000,"state":"active","ping":73},{"user_id":551,"name":"FoOzTV","steam_id":76561197998636728,"connected_time":181000000000,"state":"active","ping":66},{"user_id":557,"name":"Akisян","steam_id":76561198078706435,"connected_time":32000000000,"state":"active","ping":67},{"user_id":555,"name":"knyazF","steam_id":76561198163278585,"connected_time":79000000000,"state":"active","ping":61},{"user_id":463,"name":"Master Of Noob","steam_id":76561198217926783,"connected_time":7844000000000,"state":"active","ping":62},{"user_id":537,"name":"REN","steam_id":76561198000596385,"connected_time":1161000000000,"state":"active","ping":68},{"user_id":558,"name":"aKENTich","steam_id":76561198062861198,"connected_time":24000000000,"state":"active","ping":106},{"user_id":490,"name":"Xtis","steam_id":76561198043837480,"connected_time":5570000000000,"state":"active","ping":62},{"user_id":487,"name":"Fat Pigeon","steam_id":76561198817940142,"connected_time":5943000000000,"state":"active","ping":45},{"user_id":475,"name":"Nittugai","steam_id":76561198067366462,"connected_time":6725000000000,"state":"active","ping":58},{"user_id":542,"name":"Mr.TEA","steam_id":76561198014381591,"connected_time":978000000000,"state":"active","ping":65},{"user_id":521,"name":"Hoff","steam_id":76561198138540938,"connected_time":2735000000000,"state":"active","ping":73}]},{"server_id":309,"name":"Uncletopia | Frankfurt | 4 | All Maps","name_short":"frk-4","host":"frk-1.de.uncletopia.com","port":27045,"enabled":true,"region":"eu","cc":"de","latitude":50.110924,"longitude":8.682127,"reserved":0,"last_update":"0001-01-01T00:00:00Z","name_a2s":"Uncletopia | Frankfurt | 4 | All Maps","protocol":17,"map":"pl_rumford_event","folder":"tf","game":"Team Fortress","app_id":440,"player_count":24,"max_players":24,"Bots":0,"server_type":"Dedicated","server_os":"Linux","password":true,"vac":true,"version":"7961495","steam_id":85568392924504275,"keywords":["nocrits","nodmgspread","payload","uncletopia"],"game_id":440,"stv_port":27046,"stv_name":"Uncletopia | Frankfurt | 4 | All Maps | STV","players":[{"user_id":697,"name":"DeCypher \u003c3","steam_id":76561198171992619,"connected_time":834000000000,"state":"active","ping":70},{"user_id":699,"name":"I AM SUMMER SLAYCATION","steam_id":76561198179339326,"connected_time":785000000000,"state":"active","ping":76},{"user_id":713,"name":"NoPfizer","steam_id":76561198307914381,"connected_time":552000000000,"state":"active","ping":61},{"user_id":698,"name":"Swank","steam_id":76561198110829070,"connected_time":795000000000,"state":"active","ping":86},{"user_id":700,"name":"Pr0to","steam_id":76561198903803870,"connected_time":784000000000,"state":"active","ping":79},{"user_id":716,"name":"speedy-heavy","steam_id":76561198124991468,"connected_time":161000000000,"state":"active","ping":62},{"user_id":718,"name":"Mza28","steam_id":76561198873993324,"connected_time":129000000000,"state":"active","ping":57},{"user_id":685,"name":"b.golubovic","steam_id":76561198403986920,"connected_time":2100000000000,"state":"active","ping":165},{"user_id":714,"name":"Kacperos12","steam_id":76561198044168268,"connected_time":502000000000,"state":"active","ping":90},{"user_id":693,"name":"Just Navlis (on the scoreboard)","steam_id":76561198090479609,"connected_time":1387000000000,"state":"active","ping":45},{"user_id":717,"name":"Predrag218","steam_id":76561199242439630,"connected_time":151000000000,"state":"active","ping":122},{"user_id":710,"name":"Gen","steam_id":76561198021775885,"connected_time":665000000000,"state":"active","ping":46},{"user_id":712,"name":"TEN YEARS IN THE JOINT","steam_id":76561198393528841,"connected_time":639000000000,"state":"active","ping":85},{"user_id":674,"name":"Pilaarius","steam_id":76561198120273212,"connected_time":2789000000000,"state":"active","ping":94},{"user_id":709,"name":"ion luca caragiale","steam_id":76561198132025408,"connected_time":678000000000,"state":"active","ping":61},{"user_id":704,"name":"Vershal Smershal","steam_id":76561198116223995,"connected_time":750000000000,"state":"active","ping":59},{"user_id":694,"name":"Angry the lime","steam_id":76561199012566222,"connected_time":1085000000000,"state":"active","ping":55},{"user_id":705,"name":"elijah (real)","steam_id":76561199067986782,"connected_time":728000000000,"state":"active","ping":74},{"user_id":706,"name":"the candy dealer :)","steam_id":76561199223214344,"connected_time":726000000000,"state":"active","ping":87},{"user_id":720,"name":"madhead200","steam_id":76561198119498666,"connected_time":106000000000,"state":"active","ping":82},{"user_id":687,"name":"agent youppii","steam_id":76561198055264447,"connected_time":2033000000000,"state":"active","ping":70},{"user_id":692,"name":"waddle dork","steam_id":76561198297349985,"connected_time":1489000000000,"state":"active","ping":63},{"user_id":721,"name":"Gryoss","steam_id":76561197999837111,"connected_time":97000000000,"state":"active","ping":103},{"user_id":537,"name":"KFD","steam_id":76561198157183003,"connected_time":14363000000000,"state":"active","ping":76}]},{"server_id":310,"name":"Uncletopia | Frankfurt | 5 | All Maps","name_short":"frk-5","host":"frk-1.de.uncletopia.com","port":27055,"enabled":true,"region":"eu","cc":"de","latitude":50.110924,"longitude":8.682127,"reserved":0,"last_update":"0001-01-01T00:00:00Z","name_a2s":"Uncletopia | Frankfurt | 5 | All Maps","protocol":17,"map":"pl_snowycoast","folder":"tf","game":"Team Fortress","app_id":440,"player_count":24,"max_players":24,"Bots":0,"server_type":"Dedicated","server_os":"Linux","password":true,"vac":true,"version":"7961495","steam_id":85568392924504277,"keywords":["nocrits","nodmgspread","payload","uncletopia"],"game_id":440,"stv_port":27056,"stv_name":"Uncletopia | Frankfurt | 5 | All Maps | STV","players":[{"user_id":637,"name":"VK2124 :D","steam_id":76561198111130688,"connected_time":904000000000,"state":"active","ping":47},{"user_id":656,"name":"noseb","steam_id":76561199480942903,"connected_time":453000000000,"state":"active","ping":70},{"user_id":638,"name":"Zotya","steam_id":76561198063355213,"connected_time":772000000000,"state":"active","ping":60},{"user_id":639,"name":"LuckySniper","steam_id":76561198262542671,"connected_time":734000000000,"state":"active","ping":97},{"user_id":640,"name":"[Alucard117]","steam_id":76561198042460114,"connected_time":721000000000,"state":"active","ping":81},{"user_id":548,"name":"Xiqui","steam_id":76561198818386611,"connected_time":6240000000000,"state":"active","ping":85},{"user_id":649,"name":"Minimi","steam_id":76561198873850443,"connected_time":541000000000,"state":"active","ping":54},{"user_id":642,"name":"Twex","steam_id":76561198327233338,"connected_time":710000000000,"state":"active","ping":90},{"user_id":643,"name":"COLAN","steam_id":76561198111255418,"connected_time":687000000000,"state":"active","ping":53},{"user_id":647,"name":"Borat","steam_id":76561198122226417,"connected_time":608000000000,"state":"active","ping":50},{"user_id":659,"name":"Alexair","steam_id":76561199022206498,"connected_time":333000000000,"state":"active","ping":73},{"user_id":645,"name":"sex toilet","steam_id":76561198412197820,"connected_time":664000000000,"state":"active","ping":77},{"user_id":651,"name":"FreXx","steam_id":76561198375272077,"connected_time":506000000000,"state":"active","ping":98},{"user_id":648,"name":"Endi","steam_id":76561198914938199,"connected_time":602000000000,"state":"active","ping":91},{"user_id":650,"name":"twitch.tv/kirkan","steam_id":76561198029873185,"connected_time":518000000000,"state":"active","ping":59},{"user_id":652,"name":"Mineflow","steam_id":76561199073568116,"connected_time":499000000000,"state":"active","ping":106},{"user_id":653,"name":"rummy","steam_id":76561197997573379,"connected_time":497000000000,"state":"active","ping":51},{"user_id":654,"name":"mossfan1","steam_id":76561198087525446,"connected_time":478000000000,"state":"active","ping":82},{"user_id":655,"name":"Avocado","steam_id":76561199007231261,"connected_time":468000000000,"state":"active","ping":81},{"user_id":657,"name":"cov","steam_id":76561198328047855,"connected_time":452000000000,"state":"active","ping":76},{"user_id":662,"name":"Kommandør Darcone","steam_id":76561199056365335,"connected_time":280000000000,"state":"active","ping":78},{"user_id":658,"name":"ducks","steam_id":76561198166148685,"connected_time":448000000000,"state":"active","ping":45},{"user_id":660,"name":"Michal Jordan (real)","steam_id":76561199106262610,"connected_time":314000000000,"state":"active","ping":55},{"user_id":663,"name":"󠀡󠀡⁧⁧Balthazar","steam_id":76561198058231110,"connected_time":266000000000,"state":"active","ping":70}]},{"server_id":311,"name":"Uncletopia | Frankfurt | 6 | All Maps","name_short":"frk-6","host":"frk-1.de.uncletopia.com","port":27065,"enabled":true,"region":"eu","cc":"de","latitude":50.110924,"longitude":8.682127,"reserved":0,"last_update":"0001-01-01T00:00:00Z","name_a2s":"Uncletopia | Frankfurt | 6 | All Maps","protocol":17,"map":"pl_frontier_final","folder":"tf","game":"Team Fortress","app_id":440,"player_count":13,"max_players":24,"Bots":0,"server_type":"Dedicated","server_os":"Linux","password":true,"vac":true,"version":"7961495","steam_id":85568392924504278,"keywords":["nocrits","nodmgspread","payload","uncletopia"],"game_id":440,"stv_port":27066,"stv_name":"Uncletopia | Frankfurt | 6 | All Maps | STV","players":[{"user_id":531,"name":"Towercat","steam_id":76561198013141793,"connected_time":0,"state":"spawning","ping":10},{"user_id":399,"name":"BoPoe (omniphobic)","steam_id":76561198093333882,"connected_time":8797000000000,"state":"active","ping":108},{"user_id":487,"name":"playvol ambient/misc/flush1 1","steam_id":76561198336955997,"connected_time":4159000000000,"state":"active","ping":46},{"user_id":523,"name":"Limber","steam_id":76561198406320611,"connected_time":730000000000,"state":"active","ping":59},{"user_id":529,"name":"Cyrocride","steam_id":76561198070477784,"connected_time":157000000000,"state":"active","ping":56},{"user_id":486,"name":"Dr Bondus Bolongus Dongus","steam_id":76561198378657692,"connected_time":4414000000000,"state":"active","ping":57},{"user_id":505,"name":"El Wiwi","steam_id":76561198134378108,"connected_time":2454000000000,"state":"active","ping":82},{"user_id":381,"name":"paypig","steam_id":76561198035137115,"connected_time":10309000000000,"state":"active","ping":59},{"user_id":514,"name":"Der ewige Boomer","steam_id":76561198254812703,"connected_time":2299000000000,"state":"active","ping":66},{"user_id":501,"name":"Sorry","steam_id":76561198040722720,"connected_time":3029000000000,"state":"active","ping":144},{"user_id":517,"name":"endlesshills","steam_id":76561198081908373,"connected_time":2113000000000,"state":"active","ping":55},{"user_id":500,"name":"DutchGamingRoy","steam_id":76561198131834085,"connected_time":3113000000000,"state":"active","ping":55},{"user_id":479,"name":"Hey, I´m Andy!","steam_id":76561198060337777,"connected_time":4946000000000,"state":"active","ping":73}]},{"server_id":23,"name":"Uncletopia | Frankfurt | 7 | Stopwatch","name_short":"frk-7","host":"frk-1.de.uncletopia.com","port":27075,"enabled":true,"region":"eu","cc":"de","latitude":50.110924,"longitude":8.682127,"reserved":0,"last_update":"0001-01-01T00:00:00Z","name_a2s":"Uncletopia | Frankfurt | 7 | Stopwatch","protocol":17,"map":"workshop/koth_ashville_final.ugc2130459942","folder":"tf","game":"Team Fortress","app_id":440,"player_count":0,"max_players":24,"Bots":0,"server_type":"Dedicated","server_os":"Linux","password":true,"vac":true,"version":"7961495","steam_id":85568392924742827,"keywords":["cp","nocrits","nodmgspread","uncletopia"],"game_id":440,"stv_port":27076,"stv_name":"Uncletopia | Frankfurt | 7 | Stopwatch | STV","players":null},{"server_id":24,"name":"Uncletopia | Frankfurt | 8 | Community","name_short":"frk-8","host":"frk-1.de.uncletopia.com","port":27085,"enabled":true,"region":"eu","cc":"de","latitude":50.110924,"longitude":8.682127,"reserved":0,"last_update":"0001-01-01T00:00:00Z","name_a2s":"Uncletopia | Frankfurt | 8 | Community","protocol":17,"map":"workshop/pl_corrode_rc2.ugc546577989","folder":"tf","game":"Team Fortress","app_id":440,"player_count":0,"max_players":24,"Bots":0,"server_type":"Dedicated","server_os":"Linux","password":true,"vac":true,"version":"7961495","steam_id":85568392924742828,"keywords":["nocrits","nodmgspread","payload","uncletopia"],"game_id":440,"stv_port":27086,"stv_name":"Uncletopia | Frankfurt | 8 | Community | STV","players":null},{"server_id":202,"name":"Uncletopia | Hong Kong | 1 | All Maps","name_short":"hgk-1","host":"hgk-1.hk.uncletopia.com","port":27015,"enabled":true,"region":"asia","cc":"hk","latitude":22.302711,"longitude":114.177216,"reserved":0,"last_update":"0001-01-01T00:00:00Z","name_a2s":"Uncletopia | Hong Kong | 1 | All Maps","protocol":17,"map":"pl_snowycoast","folder":"tf","game":"Team Fortress","app_id":440,"player_count":0,"max_players":24,"Bots":0,"server_type":"Dedicated","server_os":"Linux","password":true,"vac":true,"version":"7961495","steam_id":85568392924494504,"keywords":["nocrits","nodmgspread","payload","uncletopia"],"game_id":440,"stv_port":27016,"stv_name":"Uncletopia | Hong Kong | 1 | All Maps | STV","players":null},{"server_id":1,"name":"Uncletopia | Los Angeles | 1 | All Maps","name_short":"lax-1","host":"lax-1.us.uncletopia.com","port":27015,"enabled":true,"region":"us-west","cc":"us","latitude":33.94279,"longitude":-118.41004,"reserved":0,"last_update":"0001-01-01T00:00:00Z","name_a2s":"Uncletopia | Los Angeles | 1 | All Maps","protocol":17,"map":"cp_sunshine","folder":"tf","game":"Team Fortress","app_id":440,"player_count":24,"max_players":24,"Bots":0,"server_type":"Dedicated","server_os":"Linux","password":true,"vac":true,"version":"7961495","steam_id":85568392924469991,"keywords":["cp","nocrits","nodmgspread","uncletopia"],"game_id":440,"stv_port":27016,"stv_name":"Uncletopia | Los Angeles | 1 | All Maps | STV","players":[{"user_id":371,"name":"Master John Thursday","steam_id":76561197987593154,"connected_time":3812000000000,"state":"active","ping":73},{"user_id":388,"name":"AT✪MIC","steam_id":76561198100385184,"connected_time":2536000000000,"state":"active","ping":51},{"user_id":400,"name":"Gerbias","steam_id":76561198001002427,"connected_time":1624000000000,"state":"active","ping":65},{"user_id":309,"name":"mr555","steam_id":76561199128375354,"connected_time":8384000000000,"state":"active","ping":150},{"user_id":344,"name":"Loogus","steam_id":76561198811561721,"connected_time":6043000000000,"state":"active","ping":59},{"user_id":385,"name":"Captain Bong Rips","steam_id":76561198065946939,"connected_time":2623000000000,"state":"active","ping":68},{"user_id":406,"name":"Antonpirulero10","steam_id":76561198253036781,"connected_time":615000000000,"state":"active","ping":76},{"user_id":373,"name":"selvhat","steam_id":76561198114225509,"connected_time":3701000000000,"state":"active","ping":83},{"user_id":369,"name":"Canned Bread","steam_id":76561198354916213,"connected_time":3976000000000,"state":"active","ping":73},{"user_id":398,"name":":D","steam_id":76561198049258493,"connected_time":1662000000000,"state":"active","ping":82},{"user_id":350,"name":"kaputis","steam_id":76561198127468114,"connected_time":5716000000000,"state":"active","ping":84},{"user_id":404,"name":"silver","steam_id":76561199020503397,"connected_time":740000000000,"state":"active","ping":35},{"user_id":407,"name":"Dimmerswitch","steam_id":76561198034782177,"connected_time":348000000000,"state":"active","ping":47},{"user_id":386,"name":"Sunkenthree51","steam_id":76561198300781307,"connected_time":2597000000000,"state":"active","ping":59},{"user_id":402,"name":"All Tomorrow's Parties","steam_id":76561197995936212,"connected_time":1328000000000,"state":"active","ping":75},{"user_id":401,"name":"FI LO","steam_id":76561198976530881,"connected_time":1598000000000,"state":"active","ping":30},{"user_id":378,"name":"a chicken","steam_id":76561198313121580,"connected_time":3176000000000,"state":"active","ping":46},{"user_id":375,"name":"Sleezy","steam_id":76561198839500707,"connected_time":3665000000000,"state":"active","ping":40},{"user_id":367,"name":"bottom pride burger","steam_id":76561198322247602,"connected_time":4033000000000,"state":"active","ping":58},{"user_id":399,"name":"Freyja","steam_id":76561198207412177,"connected_time":1654000000000,"state":"active","ping":83},{"user_id":395,"name":"......","steam_id":76561198067612741,"connected_time":1800000000000,"state":"active","ping":68},{"user_id":394,"name":"Grim","steam_id":76561198016978310,"connected_time":1860000000000,"state":"active","ping":71},{"user_id":403,"name":"Silverman_Cam","steam_id":76561198936168937,"connected_time":973000000000,"state":"active","ping":61},{"user_id":393,"name":"yellow ᗜˬᗜ","steam_id":76561198366474647,"connected_time":1975000000000,"state":"active","ping":37}]},{"server_id":112,"name":"Uncletopia | Los Angeles | 2 | All Maps","name_short":"lax-2","host":"lax-1.us.uncletopia.com","port":27025,"enabled":true,"region":"us-west","cc":"us","latitude":33.94279,"longitude":-118.41004,"reserved":0,"last_update":"0001-01-01T00:00:00Z","name_a2s":"Uncletopia | Los Angeles | 2 | All Maps","protocol":17,"map":"koth_viaduct","folder":"tf","game":"Team Fortress","app_id":440,"player_count":0,"max_players":24,"Bots":0,"server_type":"Dedicated","server_os":"Linux","password":true,"vac":true,"version":"7961495","steam_id":85568392924469992,"keywords":["cp","nocrits","nodmgspread","uncletopia"],"game_id":440,"stv_port":27026,"stv_name":"Uncletopia | Los Angeles | 2 | All Maps | STV","players":null},{"server_id":324,"name":"Uncletopia | Los Angeles | 3 | All Maps","name_short":"lax-3","host":"lax-1.us.uncletopia.com","port":27035,"enabled":true,"region":"us-west","cc":"us","latitude":33.94279,"longitude":-118.41004,"reserved":0,"last_update":"0001-01-01T00:00:00Z","name_a2s":"Uncletopia | Los Angeles | 3 | All Maps","protocol":17,"map":"pl_frontier_final","folder":"tf","game":"Team Fortress","app_id":440,"player_count":1,"max_players":24,"Bots":0,"server_type":"Dedicated","server_os":"Linux","password":true,"vac":true,"version":"7961495","steam_id":85568392924510198,"keywords":["nocrits","nodmgspread","payload","uncletopia"],"game_id":440,"stv_port":27036,"stv_name":"Uncletopia | Los Angeles | 3 | All Maps | STV","players":[{"user_id":8,"name":"Rei★","steam_id":76561199195639694,"connected_time":78000000000,"state":"active","ping":79}]},{"server_id":25,"name":"Uncletopia | Los Angeles | 4 | Stopwatch","name_short":"lax-4","host":"lax-1.us.uncletopia.com","port":27045,"enabled":true,"region":"us-west","cc":"us","latitude":33.94279,"longitude":-118.41004,"reserved":0,"last_update":"0001-01-01T00:00:00Z","name_a2s":"Uncletopia | Los Angeles | 4 | Stopwatch","protocol":17,"map":"pl_barnblitz","folder":"tf","game":"Team Fortress","app_id":440,"player_count":0,"max_players":24,"Bots":0,"server_type":"Dedicated","server_os":"Linux","password":true,"vac":true,"version":"7961495","steam_id":85568392924510199,"keywords":["nocrits","nodmgspread","payload","uncletopia"],"game_id":440,"stv_port":27046,"stv_name":"Uncletopia | Los Angeles | 4 | Stopwatch | STV","players":null},{"server_id":11,"name":"Uncletopia | London | 1 | All Maps","name_short":"lon-1","host":"lon-1.uk.uncletopia.com","port":27015,"enabled":true,"region":"eu","cc":"gb","latitude":51.509865,"longitude":-0.118092,"reserved":0,"last_update":"0001-01-01T00:00:00Z","name_a2s":"Uncletopia | London | 1 | All Maps","protocol":17,"map":"pl_badwater","folder":"tf","game":"Team Fortress","app_id":440,"player_count":24,"max_players":24,"Bots":0,"server_type":"Dedicated","server_os":"Linux","password":true,"vac":true,"version":"7961495","steam_id":85568392924367362,"keywords":["nocrits","nodmgspread","payload","uncletopia"],"game_id":440,"stv_port":27016,"stv_name":"Uncletopia | London | 1 | All Maps | STV","players":[{"user_id":564,"name":"Amandus","steam_id":76561198036281079,"connected_time":1529000000000,"state":"active","ping":61},{"user_id":587,"name":"sora","steam_id":76561198096547662,"connected_time":677000000000,"state":"active","ping":50},{"user_id":565,"name":"AsuX","steam_id":76561197990333289,"connected_time":1525000000000,"state":"active","ping":61},{"user_id":509,"name":"Kahvi","steam_id":76561198723244199,"connected_time":6980000000000,"state":"active","ping":76},{"user_id":585,"name":"Cuthbert","steam_id":76561198204649481,"connected_time":846000000000,"state":"active","ping":107},{"user_id":586,"name":"Stunner John Mode! ツ","steam_id":76561199085822219,"connected_time":826000000000,"state":"active","ping":90},{"user_id":533,"name":"Kphi(i)","steam_id":76561198970587061,"connected_time":4203000000000,"state":"active","ping":55},{"user_id":575,"name":"MakeItRainbow","steam_id":76561198045098064,"connected_time":1295000000000,"state":"active","ping":61},{"user_id":518,"name":"Nessieling","steam_id":76561198083556891,"connected_time":6018000000000,"state":"active","ping":80},{"user_id":596,"name":"Vivian From Paper Mario","steam_id":76561198077624205,"connected_time":493000000000,"state":"active","ping":68},{"user_id":511,"name":"I'm only human after all","steam_id":76561198048453764,"connected_time":6890000000000,"state":"active","ping":50},{"user_id":538,"name":"Carbon Monoxide Detector","steam_id":76561198055608801,"connected_time":4112000000000,"state":"active","ping":70},{"user_id":562,"name":"R0mulone","steam_id":76561198352513792,"connected_time":1572000000000,"state":"active","ping":63},{"user_id":546,"name":"MeowMaster","steam_id":76561198284605819,"connected_time":3414000000000,"state":"active","ping":88},{"user_id":555,"name":"Ozzie","steam_id":76561197992915315,"connected_time":2684000000000,"state":"active","ping":67},{"user_id":580,"name":"MoistMomMauler","steam_id":76561198069359049,"connected_time":1164000000000,"state":"active","ping":75},{"user_id":558,"name":"呂さんのリージョン","steam_id":76561198248239796,"connected_time":2199000000000,"state":"active","ping":54},{"user_id":576,"name":"STiNGHAN","steam_id":76561198023989090,"connected_time":1292000000000,"state":"active","ping":85},{"user_id":581,"name":"Scobra","steam_id":76561198000734400,"connected_time":1098000000000,"state":"active","ping":113},{"user_id":600,"name":"Fuzz","steam_id":76561198013049077,"connected_time":416000000000,"state":"active","ping":81},{"user_id":507,"name":"Trapezoid","steam_id":76561198059369295,"connected_time":7055000000000,"state":"active","ping":75},{"user_id":569,"name":"Tekky☻","steam_id":76561197990987315,"connected_time":1485000000000,"state":"active","ping":40},{"user_id":573,"name":"❤︎WarMole❤","steam_id":76561198104248760,"connected_time":1353000000000,"state":"active","ping":75},{"user_id":591,"name":"Prime Minister Rishi Sunak","steam_id":76561198846784757,"connected_time":607000000000,"state":"active","ping":63}]},{"server_id":114,"name":"Uncletopia | London | 2 | All Maps","name_short":"lon-2","host":"lon-1.uk.uncletopia.com","port":27025,"enabled":true,"region":"eu","cc":"gb","latitude":51.509865,"longitude":-0.118092,"reserved":0,"last_update":"0001-01-01T00:00:00Z","name_a2s":"Uncletopia | London | 2 | All Maps","protocol":17,"map":"pl_swiftwater_final1","folder":"tf","game":"Team Fortress","app_id":440,"player_count":24,"max_players":24,"Bots":0,"server_type":"Dedicated","server_os":"Linux","password":true,"vac":true,"version":"7961495","steam_id":85568392924470941,"keywords":["nocrits","nodmgspread","payload","uncletopia"],"game_id":440,"stv_port":27026,"stv_name":"Uncletopia | London | 2 | All Maps | STV","players":[{"user_id":576,"name":"Mayor Wank from Wanker Town","steam_id":76561197998253588,"connected_time":1581000000000,"state":"active","ping":60},{"user_id":620,"name":"MostSereneDogeBestDoge","steam_id":76561198061196566,"connected_time":414000000000,"state":"active","ping":57},{"user_id":578,"name":"LizaЯdlЧ","steam_id":76561198176750238,"connected_time":1548000000000,"state":"active","ping":71},{"user_id":455,"name":"soap lore 20","steam_id":76561198058879767,"connected_time":10846000000000,"state":"active","ping":43},{"user_id":579,"name":"Абсолютная водка","steam_id":76561198886250433,"connected_time":1506000000000,"state":"active","ping":75},{"user_id":580,"name":"StingyLettuce","steam_id":76561199010337406,"connected_time":1480000000000,"state":"active","ping":114},{"user_id":574,"name":"remi, she wrote.","steam_id":76561198044045655,"connected_time":2208000000000,"state":"active","ping":72},{"user_id":611,"name":"Mega Man Legends 3","steam_id":76561198014110199,"connected_time":663000000000,"state":"active","ping":45},{"user_id":523,"name":"Silverbolt","steam_id":76561198153165763,"connected_time":5913000000000,"state":"active","ping":68},{"user_id":622,"name":"CINO","steam_id":76561198363841749,"connected_time":330000000000,"state":"active","ping":85},{"user_id":569,"name":"Raulca25","steam_id":76561199068256964,"connected_time":2617000000000,"state":"active","ping":80},{"user_id":324,"name":"dash.","steam_id":76561198084796149,"connected_time":21069000000000,"state":"active","ping":45},{"user_id":583,"name":"Cloud03","steam_id":76561199010969848,"connected_time":1326000000000,"state":"active","ping":90},{"user_id":449,"name":"Jams","steam_id":76561198118316970,"connected_time":12128000000000,"state":"active","ping":76},{"user_id":602,"name":"H2n9","steam_id":76561198055811259,"connected_time":835000000000,"state":"active","ping":56},{"user_id":571,"name":"FriendlyHotdog","steam_id":76561199060628836,"connected_time":2531000000000,"state":"active","ping":58},{"user_id":572,"name":"piper","steam_id":76561198112687349,"connected_time":2397000000000,"state":"active","ping":54},{"user_id":607,"name":"A Pigeon","steam_id":76561198114090555,"connected_time":721000000000,"state":"active","ping":71},{"user_id":585,"name":"❤ Sparx ❤","steam_id":76561198095009261,"connected_time":1262000000000,"state":"active","ping":94},{"user_id":626,"name":"tungcool","steam_id":76561199497838740,"connected_time":175000000000,"state":"active","ping":149},{"user_id":621,"name":"tone'","steam_id":76561198055552635,"connected_time":386000000000,"state":"active","ping":67},{"user_id":588,"name":"V0iDZMAX","steam_id":76561198153592566,"connected_time":1203000000000,"state":"active","ping":42},{"user_id":589,"name":"tired medic main","steam_id":76561198255340533,"connected_time":1188000000000,"state":"active","ping":86},{"user_id":591,"name":"Jasperatus","steam_id":76561198196733750,"connected_time":1089000000000,"state":"active","ping":94}]},{"server_id":320,"name":"Uncletopia | London | 3 | All Maps","name_short":"lon-3","host":"lon-1.uk.uncletopia.com","port":27035,"enabled":true,"region":"eu","cc":"gb","latitude":51.509865,"longitude":-0.118092,"reserved":0,"last_update":"0001-01-01T00:00:00Z","name_a2s":"Uncletopia | London | 3 | All Maps","protocol":17,"map":"pl_pier","folder":"tf","game":"Team Fortress","app_id":440,"player_count":24,"max_players":24,"Bots":0,"server_type":"Dedicated","server_os":"Linux","password":true,"vac":true,"version":"7961495","steam_id":85568392924510192,"keywords":["nocrits","nodmgspread","payload","uncletopia"],"game_id":440,"stv_port":27036,"stv_name":"Uncletopia | London | 3 | All Maps | STV","players":[{"user_id":484,"name":"dumb","steam_id":76561198181134706,"connected_time":1334000000000,"state":"active","ping":69},{"user_id":458,"name":"Brrpstr","steam_id":76561198394221491,"connected_time":2787000000000,"state":"active","ping":67},{"user_id":471,"name":"Weegad Wobus","steam_id":76561199429562693,"connected_time":2014000000000,"state":"active","ping":73},{"user_id":486,"name":"Blar","steam_id":76561198042438229,"connected_time":1289000000000,"state":"active","ping":58},{"user_id":447,"name":"The Lady","steam_id":76561198029895809,"connected_time":3606000000000,"state":"active","ping":83},{"user_id":487,"name":"Hoxton","steam_id":76561198058847428,"connected_time":1259000000000,"state":"active","ping":48},{"user_id":485,"name":"Suetolog","steam_id":76561199053090212,"connected_time":1324000000000,"state":"active","ping":60},{"user_id":488,"name":"\u003e:3","steam_id":76561198368312026,"connected_time":1244000000000,"state":"active","ping":67},{"user_id":498,"name":"Hildreth","steam_id":76561197995254867,"connected_time":312000000000,"state":"active","ping":48},{"user_id":492,"name":"omnibombulator","steam_id":76561198025858897,"connected_time":565000000000,"state":"active","ping":49},{"user_id":445,"name":"Star Throne","steam_id":76561198132171027,"connected_time":3957000000000,"state":"active","ping":58},{"user_id":472,"name":"SKY_","steam_id":76561198080980508,"connected_time":1997000000000,"state":"active","ping":65},{"user_id":429,"name":"hyvakii705","steam_id":76561198086630552,"connected_time":6185000000000,"state":"active","ping":78},{"user_id":493,"name":"TOP G","steam_id":76561198138928548,"connected_time":424000000000,"state":"active","ping":60},{"user_id":476,"name":"doctwoeight","steam_id":76561198153488940,"connected_time":1915000000000,"state":"active","ping":81},{"user_id":474,"name":"hasky","steam_id":76561197986052798,"connected_time":1954000000000,"state":"active","ping":71},{"user_id":501,"name":"I Don't Know","steam_id":76561198841011430,"connected_time":254000000000,"state":"active","ping":85},{"user_id":433,"name":"♂ MGE ♂ PUPSIK ♂","steam_id":76561198308302932,"connected_time":5960000000000,"state":"active","ping":104},{"user_id":497,"name":"SpyCrab  Erik Twice","steam_id":76561198009710309,"connected_time":316000000000,"state":"active","ping":57},{"user_id":477,"name":"Vexu","steam_id":76561198113145846,"connected_time":1914000000000,"state":"active","ping":89},{"user_id":490,"name":"Anri Okita's Massive Milkers","steam_id":76561199186352720,"connected_time":1210000000000,"state":"active","ping":60},{"user_id":502,"name":"luma","steam_id":76561198081649669,"connected_time":220000000000,"state":"active","ping":75},{"user_id":499,"name":"Qwerty","steam_id":76561198023525894,"connected_time":288000000000,"state":"active","ping":89},{"user_id":491,"name":"Gubbly Bubbins","steam_id":76561198101451654,"connected_time":736000000000,"state":"active","ping":45}]},{"server_id":321,"name":"Uncletopia | London | 4 | All Maps","name_short":"lon-4","host":"lon-1.uk.uncletopia.com","port":27045,"enabled":true,"region":"eu","cc":"gb","latitude":51.509865,"longitude":-0.118092,"reserved":0,"last_update":"0001-01-01T00:00:00Z","name_a2s":"Uncletopia | London | 4 | All Maps","protocol":17,"map":"pl_upward","folder":"tf","game":"Team Fortress","app_id":440,"player_count":19,"max_players":24,"Bots":0,"server_type":"Dedicated","server_os":"Linux","password":true,"vac":true,"version":"7961495","steam_id":85568392924510193,"keywords":["nocrits","nodmgspread","payload","uncletopia"],"game_id":440,"stv_port":27046,"stv_name":"Uncletopia | London | 4 | All Maps | STV","players":[{"user_id":344,"name":"c1v","steam_id":76561199085624224,"connected_time":141000000000,"state":"active","ping":69},{"user_id":295,"name":"๑ï","steam_id":76561198147277460,"connected_time":2918000000000,"state":"active","ping":60},{"user_id":345,"name":"armadillo","steam_id":76561198324656652,"connected_time":135000000000,"state":"active","ping":49},{"user_id":335,"name":"japjao","steam_id":76561199230386527,"connected_time":1260000000000,"state":"active","ping":58},{"user_id":275,"name":"Cheese Goblin","steam_id":76561198102366281,"connected_time":4861000000000,"state":"active","ping":42},{"user_id":343,"name":"Fraz #savetf2","steam_id":76561198067764552,"connected_time":221000000000,"state":"active","ping":61},{"user_id":348,"name":"hahahaha","steam_id":76561198263260743,"connected_time":34000000000,"state":"active","ping":106},{"user_id":349,"name":"Aaronbill3","steam_id":76561198014056212,"connected_time":27000000000,"state":"spawning","ping":57},{"user_id":340,"name":"Emivescent","steam_id":76561198178094250,"connected_time":543000000000,"state":"active","ping":43},{"user_id":291,"name":"GamerPanda","steam_id":76561198061454277,"connected_time":3495000000000,"state":"active","ping":70},{"user_id":350,"name":"ack","steam_id":76561198139796077,"connected_time":0,"state":"connecting","ping":0},{"user_id":342,"name":"Vivas","steam_id":76561199118814729,"connected_time":264000000000,"state":"active","ping":63},{"user_id":297,"name":"noot","steam_id":76561198148074472,"connected_time":2907000000000,"state":"active","ping":59},{"user_id":338,"name":"Hercules","steam_id":76561198041164170,"connected_time":710000000000,"state":"active","ping":60},{"user_id":311,"name":"Dīng.Zhèn1996","steam_id":76561198152681460,"connected_time":2266000000000,"state":"active","ping":75},{"user_id":328,"name":"DavidRcv","steam_id":76561198119522337,"connected_time":1694000000000,"state":"active","ping":100},{"user_id":322,"name":"Kamanie","steam_id":76561198135448255,"connected_time":1989000000000,"state":"active","ping":61},{"user_id":339,"name":"Mymy","steam_id":76561198819871606,"connected_time":581000000000,"state":"active","ping":103},{"user_id":336,"name":"Economic crisis","steam_id":76561198063562843,"connected_time":1150000000000,"state":"active","ping":74}]},{"server_id":21,"name":"Uncletopia | London | 5 | All Maps","name_short":"lon-5","host":"lon-1.uk.uncletopia.com","port":27055,"enabled":true,"region":"eu","cc":"gb","latitude":51.509865,"longitude":-0.118092,"reserved":0,"last_update":"0001-01-01T00:00:00Z","name_a2s":"Uncletopia | London | 5 | All Maps","protocol":17,"map":"pl_frontier_final","folder":"tf","game":"Team Fortress","app_id":440,"player_count":24,"max_players":24,"Bots":0,"server_type":"Dedicated","server_os":"Linux","password":true,"vac":true,"version":"7961495","steam_id":85568392924742829,"keywords":["nocrits","nodmgspread","payload","uncletopia"],"game_id":440,"stv_port":27056,"stv_name":"Uncletopia | London | 5 | All Maps | STV","players":[{"user_id":240,"name":"A Precious Spap","steam_id":76561199186496740,"connected_time":1630000000000,"state":"active","ping":154},{"user_id":222,"name":"Moon","steam_id":76561198808108594,"connected_time":2352000000000,"state":"active","ping":97},{"user_id":260,"name":"[AXG] PK Blizzard","steam_id":76561198039836567,"connected_time":413000000000,"state":"active","ping":46},{"user_id":223,"name":"Mobster Tortoise","steam_id":76561199036837091,"connected_time":2352000000000,"state":"active","ping":89},{"user_id":259,"name":"Bob Sacamano","steam_id":76561198085610701,"connected_time":481000000000,"state":"active","ping":102},{"user_id":252,"name":"cactus varo","steam_id":76561198968770670,"connected_time":1095000000000,"state":"active","ping":87},{"user_id":224,"name":"63756d","steam_id":76561198808699024,"connected_time":2315000000000,"state":"active","ping":72},{"user_id":247,"name":"Fridge","steam_id":76561198071665589,"connected_time":1367000000000,"state":"active","ping":96},{"user_id":227,"name":"TrickyTriumph","steam_id":76561197995681057,"connected_time":2164000000000,"state":"active","ping":53},{"user_id":255,"name":"SPORKULES","steam_id":76561198035540562,"connected_time":873000000000,"state":"active","ping":54},{"user_id":232,"name":"Futatsuiwa Mamizou","steam_id":76561198799303596,"connected_time":1949000000000,"state":"active","ping":107},{"user_id":233,"name":"bignazzer","steam_id":76561199472149697,"connected_time":1945000000000,"state":"active","ping":56},{"user_id":234,"name":"threedb","steam_id":76561198087626806,"connected_time":1821000000000,"state":"active","ping":189},{"user_id":164,"name":"carrot enjoyer","steam_id":76561198069649097,"connected_time":6920000000000,"state":"active","ping":63},{"user_id":235,"name":"Bahaanin","steam_id":76561199001587424,"connected_time":1801000000000,"state":"active","ping":61},{"user_id":249,"name":"Juan Solo","steam_id":76561198018688536,"connected_time":1343000000000,"state":"active","ping":132},{"user_id":262,"name":"Goliac","steam_id":76561198165205268,"connected_time":242000000000,"state":"active","ping":95},{"user_id":253,"name":"TheEmeraldStar","steam_id":76561198072942529,"connected_time":968000000000,"state":"active","ping":82},{"user_id":254,"name":"Woman (Real)","steam_id":76561199151823932,"connected_time":959000000000,"state":"active","ping":81},{"user_id":246,"name":"bladerunner | Trade.tf","steam_id":76561198272175230,"connected_time":1463000000000,"state":"active","ping":55},{"user_id":256,"name":"Logern","steam_id":76561198085243794,"connected_time":862000000000,"state":"active","ping":56},{"user_id":244,"name":"jawA","steam_id":76561198070341774,"connected_time":1546000000000,"state":"active","ping":87},{"user_id":261,"name":"Watermelon","steam_id":76561198078349914,"connected_time":405000000000,"state":"active","ping":59},{"user_id":198,"name":"Bruschetta","steam_id":76561198251927162,"connected_time":5054000000000,"state":"active","ping":69}]},{"server_id":22,"name":"Uncletopia | London | 6 | All Maps","name_short":"lon-6","host":"lon-1.uk.uncletopia.com","port":27065,"enabled":true,"region":"eu","cc":"gb","latitude":51.509865,"longitude":-0.118092,"reserved":0,"last_update":"0001-01-01T00:00:00Z","name_a2s":"Uncletopia | London | 6 | All Maps","protocol":17,"map":"pl_upward","folder":"tf","game":"Team Fortress","app_id":440,"player_count":24,"max_players":24,"Bots":0,"server_type":"Dedicated","server_os":"Linux","password":true,"vac":true,"version":"7961495","steam_id":85568392924742830,"keywords":["nocrits","nodmgspread","payload","uncletopia"],"game_id":440,"stv_port":27066,"stv_name":"Uncletopia | London | 6 | All Maps | STV","players":[{"user_id":331,"name":"R1CO#8624","steam_id":76561198141828284,"connected_time":1370000000000,"state":"active","ping":71},{"user_id":341,"name":"Musical Impressions","steam_id":76561199171488677,"connected_time":622000000000,"state":"active","ping":31},{"user_id":252,"name":"cock dick gaming","steam_id":76561199042470246,"connected_time":9314000000000,"state":"active","ping":66},{"user_id":304,"name":"Dungdil","steam_id":76561198351930639,"connected_time":3663000000000,"state":"active","ping":70},{"user_id":310,"name":"ExtraFlames","steam_id":76561199136146246,"connected_time":2794000000000,"state":"active","ping":61},{"user_id":337,"name":"Prototype M.A.K","steam_id":76561198416932796,"connected_time":802000000000,"state":"active","ping":86},{"user_id":155,"name":"Fuck it (unhandicaps)","steam_id":76561197983095579,"connected_time":14927000000000,"state":"active","ping":83},{"user_id":296,"name":"Son Goku","steam_id":76561199383437138,"connected_time":4629000000000,"state":"active","ping":124},{"user_id":312,"name":"irritable vowel syndrome","steam_id":76561198117033273,"connected_time":2518000000000,"state":"active","ping":54},{"user_id":292,"name":"Kernel Panic","steam_id":76561198215811047,"connected_time":5134000000000,"state":"active","ping":42},{"user_id":329,"name":"free back real estate","steam_id":76561197999437155,"connected_time":1607000000000,"state":"active","ping":53},{"user_id":327,"name":"I Love Filtered Water","steam_id":76561198016042113,"connected_time":1811000000000,"state":"active","ping":91},{"user_id":269,"name":"Coq Consumer","steam_id":76561198450526083,"connected_time":7328000000000,"state":"active","ping":72},{"user_id":288,"name":"hazy","steam_id":76561198189686075,"connected_time":5876000000000,"state":"active","ping":44},{"user_id":268,"name":"Gluttony","steam_id":76561198243258784,"connected_time":7332000000000,"state":"active","ping":78},{"user_id":293,"name":"⸸aura⸸","steam_id":76561198066258544,"connected_time":4979000000000,"state":"active","ping":62},{"user_id":340,"name":"Baron","steam_id":76561198021901783,"connected_time":689000000000,"state":"active","ping":57},{"user_id":235,"name":"Sza","steam_id":76561198022132105,"connected_time":10602000000000,"state":"active","ping":67},{"user_id":324,"name":"Demifletch","steam_id":76561199468472941,"connected_time":1902000000000,"state":"active","ping":136},{"user_id":338,"name":"Strix","steam_id":76561198015322735,"connected_time":798000000000,"state":"active","ping":67},{"user_id":328,"name":"Mircoxi","steam_id":76561199407632710,"connected_time":1700000000000,"state":"active","ping":58},{"user_id":333,"name":"Korvahkh","steam_id":76561198152127949,"connected_time":1351000000000,"state":"active","ping":160},{"user_id":335,"name":"Nooters","steam_id":76561198154576395,"connected_time":938000000000,"state":"active","ping":93},{"user_id":117,"name":"transgender e-girl","steam_id":76561198168589809,"connected_time":18419000000000,"state":"active","ping":45}]},{"server_id":40,"name":"Uncletopia | London | 7 | Stopwatch","name_short":"lon-7","host":"lon-1.uk.uncletopia.com","port":27075,"enabled":true,"region":"eu","cc":"gb","latitude":51.509865,"longitude":-0.118092,"reserved":0,"last_update":"0001-01-01T00:00:00Z","name_a2s":"Uncletopia | London | 7 | Stopwatch","protocol":17,"map":"pl_upward","folder":"tf","game":"Team Fortress","app_id":440,"player_count":24,"max_players":24,"Bots":0,"server_type":"Dedicated","server_os":"Linux","password":true,"vac":true,"version":"7961495","steam_id":85568392924964314,"keywords":["nocrits","nodmgspread","payload","uncletopia"],"game_id":440,"stv_port":27076,"stv_name":"Uncletopia | London | 7 | Stopwatch | STV","players":[{"user_id":217,"name":"Skatnaset","steam_id":76561198298457353,"connected_time":251000000000,"state":"active","ping":83},{"user_id":202,"name":"Atlas#SaveTf2","steam_id":76561198876084253,"connected_time":1356000000000,"state":"active","ping":73},{"user_id":207,"name":"Rohnus","steam_id":76561198074049934,"connected_time":1061000000000,"state":"active","ping":57},{"user_id":208,"name":"Eric Catman","steam_id":76561198802117294,"connected_time":1036000000000,"state":"active","ping":65},{"user_id":197,"name":"Hinojo","steam_id":76561198015573257,"connected_time":1735000000000,"state":"active","ping":69},{"user_id":204,"name":"oskar.collins2","steam_id":76561199092232637,"connected_time":1302000000000,"state":"active","ping":78},{"user_id":222,"name":"Aida","steam_id":76561198311044984,"connected_time":153000000000,"state":"active","ping":75},{"user_id":180,"name":"padillacampos","steam_id":76561198161923970,"connected_time":3009000000000,"state":"active","ping":83},{"user_id":199,"name":"Battlefield Medic","steam_id":76561198167539381,"connected_time":1622000000000,"state":"active","ping":76},{"user_id":220,"name":"katten","steam_id":76561198163615254,"connected_time":192000000000,"state":"active","ping":60},{"user_id":187,"name":"ran is running","steam_id":76561199443185667,"connected_time":2233000000000,"state":"active","ping":132},{"user_id":136,"name":"Unreliable, funny and dangerous","steam_id":76561198050709790,"connected_time":5161000000000,"state":"active","ping":95},{"user_id":200,"name":"Kean","steam_id":76561198147081884,"connected_time":1620000000000,"state":"active","ping":136},{"user_id":214,"name":"Burgoo_King","steam_id":76561198133572225,"connected_time":797000000000,"state":"active","ping":82},{"user_id":221,"name":"The SexHaver Gamer","steam_id":76561198093735871,"connected_time":177000000000,"state":"active","ping":60},{"user_id":141,"name":"Katsu!","steam_id":76561198082570310,"connected_time":4996000000000,"state":"active","ping":87},{"user_id":194,"name":"Mister","steam_id":76561199049647854,"connected_time":1892000000000,"state":"active","ping":49},{"user_id":216,"name":"Spectra","steam_id":76561198086718879,"connected_time":607000000000,"state":"active","ping":63},{"user_id":174,"name":"MEDiUM","steam_id":76561198112328561,"connected_time":3309000000000,"state":"active","ping":89},{"user_id":215,"name":"Vyllckart","steam_id":76561198119172997,"connected_time":747000000000,"state":"active","ping":75},{"user_id":213,"name":"Sylvanas","steam_id":76561198154904165,"connected_time":870000000000,"state":"active","ping":123},{"user_id":212,"name":"Flying skyhigh","steam_id":76561198372971096,"connected_time":967000000000,"state":"active","ping":83},{"user_id":195,"name":"Sloth","steam_id":76561198030577957,"connected_time":1884000000000,"state":"active","ping":80},{"user_id":201,"name":"Roboolet","steam_id":76561198107353953,"connected_time":1608000000000,"state":"active","ping":50}]},{"server_id":41,"name":"Uncletopia | London | 8 | Community","name_short":"lon-8","host":"lon-1.uk.uncletopia.com","port":27085,"enabled":true,"region":"eu","cc":"gb","latitude":51.509865,"longitude":-0.118092,"reserved":0,"last_update":"0001-01-01T00:00:00Z","name_a2s":"Uncletopia | London | 8 | Community","protocol":17,"map":"workshop/pl_eruption_b9a.ugc2807898013","folder":"tf","game":"Team Fortress","app_id":440,"player_count":7,"max_players":24,"Bots":0,"server_type":"Dedicated","server_os":"Linux","password":true,"vac":true,"version":"7961495","steam_id":85568392924964315,"keywords":["nocrits","nodmgspread","payload","uncletopia"],"game_id":440,"stv_port":27086,"stv_name":"Uncletopia | London | 8 | Community | STV","players":[{"user_id":21,"name":"ninxl","steam_id":76561198872900838,"connected_time":1523000000000,"state":"active","ping":55},{"user_id":23,"name":"RyanXcAp","steam_id":76561198107919703,"connected_time":1509000000000,"state":"active","ping":45},{"user_id":24,"name":"Pingu","steam_id":76561198131719032,"connected_time":1496000000000,"state":"active","ping":30},{"user_id":25,"name":"sjmay","steam_id":76561198264054811,"connected_time":1494000000000,"state":"active","ping":76},{"user_id":26,"name":"Mongcrete Cow","steam_id":76561198111736997,"connected_time":1489000000000,"state":"active","ping":44},{"user_id":27,"name":"Indigo","steam_id":76561197988643601,"connected_time":1325000000000,"state":"active","ping":42},{"user_id":30,"name":"Not._.K07","steam_id":76561198296084468,"connected_time":40000000000,"state":"spawning","ping":181}]},{"server_id":300,"name":"Uncletopia | Montréal | 1 | One Thousand Uncles","name_short":"mtl-1","host":"mtl-1.ca.uncletopia.com","port":27015,"enabled":true,"region":"us-east","cc":"ca","latitude":45.50889,"longitude":-73.56167,"reserved":0,"last_update":"0001-01-01T00:00:00Z","name_a2s":"","protocol":0,"map":"","folder":"","game":"","app_id":0,"player_count":5,"max_players":0,"Bots":0,"server_type":"","server_os":"","password":false,"vac":false,"version":"","steam_id":0,"keywords":null,"game_id":0,"stv_port":0,"stv_name":"","players":[{"user_id":147,"name":"DrMisteryous2","steam_id":76561198336307012,"connected_time":7363000000000,"state":"active","ping":165},{"user_id":188,"name":"i eat glue","steam_id":76561198827026673,"connected_time":1807000000000,"state":"active","ping":46},{"user_id":207,"name":"Ritchy Starkey","steam_id":76561199497242566,"connected_time":213000000000,"state":"active","ping":41},{"user_id":187,"name":"Wafflehead","steam_id":76561198053539741,"connected_time":3543000000000,"state":"active","ping":45},{"user_id":185,"name":"kdhbuilder","steam_id":76561199058095193,"connected_time":4380000000000,"state":"active","ping":101}]},{"server_id":301,"name":"Uncletopia | Montréal | 2 | One Thousand Uncles","name_short":"mtl-2","host":"mtl-1.ca.uncletopia.com","port":27025,"enabled":true,"region":"us-east","cc":"ca","latitude":45.50889,"longitude":-73.56167,"reserved":0,"last_update":"0001-01-01T00:00:00Z","name_a2s":"","protocol":0,"map":"","folder":"","game":"","app_id":0,"player_count":12,"max_players":0,"Bots":0,"server_type":"","server_os":"","password":false,"vac":false,"version":"","steam_id":0,"keywords":null,"game_id":0,"stv_port":0,"stv_name":"","players":[{"user_id":112,"name":"Yep","steam_id":76561198041437251,"connected_time":2256000000000,"state":"active","ping":61},{"user_id":134,"name":"Ralsei the fluffy boi","steam_id":76561199013540561,"connected_time":1472000000000,"state":"active","ping":152},{"user_id":108,"name":"02boots","steam_id":76561198082060694,"connected_time":2587000000000,"state":"active","ping":104},{"user_id":109,"name":"Misfit","steam_id":76561198365692745,"connected_time":2579000000000,"state":"active","ping":59},{"user_id":74,"name":"Sergeant_Umbreon","steam_id":76561198084188758,"connected_time":7844000000000,"state":"active","ping":121},{"user_id":110,"name":"Soop64","steam_id":76561198866546807,"connected_time":2568000000000,"state":"active","ping":77},{"user_id":132,"name":"Brison","steam_id":76561198051370524,"connected_time":1778000000000,"state":"active","ping":102},{"user_id":135,"name":"Diplomatic Dentist","steam_id":76561198203304151,"connected_time":1392000000000,"state":"active","ping":87},{"user_id":138,"name":"lasky","steam_id":76561198017030029,"connected_time":680000000000,"state":"active","ping":117},{"user_id":113,"name":"leumas","steam_id":76561198240408540,"connected_time":2236000000000,"state":"active","ping":53},{"user_id":137,"name":"TheGuy101","steam_id":76561199201772624,"connected_time":1315000000000,"state":"active","ping":131},{"user_id":141,"name":"reymundo","steam_id":76561197989412830,"connected_time":421000000000,"state":"active","ping":117}]},{"server_id":302,"name":"Uncletopia | Montréal | 3 | One Thousand Uncles","name_short":"mtl-3","host":"mtl-1.ca.uncletopia.com","port":27035,"enabled":true,"region":"us-east","cc":"ca","latitude":45.50889,"longitude":-73.56167,"reserved":0,"last_update":"0001-01-01T00:00:00Z","name_a2s":"","protocol":0,"map":"","folder":"","game":"","app_id":0,"player_count":0,"max_players":0,"Bots":0,"server_type":"","server_os":"","password":false,"vac":false,"version":"","steam_id":0,"keywords":null,"game_id":0,"stv_port":0,"stv_name":"","players":null},{"server_id":13,"name":"Uncletopia | New York City | 1 | All Maps","name_short":"nyc-1","host":"nyc-1.us.uncletopia.com","port":27015,"enabled":true,"region":"us-east","cc":"us","latitude":40.73061,"longitude":-73.93524,"reserved":0,"last_update":"0001-01-01T00:00:00Z","name_a2s":"Uncletopia | New York City | 1 | All Maps","protocol":17,"map":"cp_dustbowl","folder":"tf","game":"Team Fortress","app_id":440,"player_count":24,"max_players":24,"Bots":0,"server_type":"Dedicated","server_os":"Linux","password":true,"vac":true,"version":"7961495","steam_id":85568392924469993,"keywords":["cp","nocrits","nodmgspread","uncletopia"],"game_id":440,"stv_port":27016,"stv_name":"Uncletopia | New York City | 1 | All Maps | STV","players":[{"user_id":305,"name":"The_Epic_Conclusion","steam_id":76561198084250179,"connected_time":443000000000,"state":"active","ping":63},{"user_id":290,"name":"Endark","steam_id":76561199118160482,"connected_time":896000000000,"state":"active","ping":130},{"user_id":309,"name":"K9 Kid","steam_id":76561198078740641,"connected_time":296000000000,"state":"active","ping":65},{"user_id":310,"name":"Bee_Pirate","steam_id":76561199000599111,"connected_time":34000000000,"state":"active","ping":62},{"user_id":182,"name":"Wique","steam_id":76561198071217597,"connected_time":7966000000000,"state":"active","ping":70},{"user_id":291,"name":"Hemiphix","steam_id":76561198329316429,"connected_time":895000000000,"state":"active","ping":57},{"user_id":301,"name":"Cold shoulder","steam_id":76561198453824178,"connected_time":660000000000,"state":"active","ping":132},{"user_id":308,"name":"Konnichiwa Izutsumi desu","steam_id":76561198022302843,"connected_time":353000000000,"state":"active","ping":75},{"user_id":280,"name":"remanedur","steam_id":76561198059459507,"connected_time":2499000000000,"state":"active","ping":67},{"user_id":288,"name":"Cimbasso","steam_id":76561198968050004,"connected_time":1595000000000,"state":"active","ping":74},{"user_id":300,"name":"Vid","steam_id":76561198011086127,"connected_time":705000000000,"state":"active","ping":77},{"user_id":285,"name":"ndvr","steam_id":76561199379200102,"connected_time":1807000000000,"state":"active","ping":52},{"user_id":296,"name":"theartistnathan","steam_id":76561198833787452,"connected_time":814000000000,"state":"active","ping":88},{"user_id":281,"name":"Cheesi","steam_id":76561199417190840,"connected_time":2235000000000,"state":"active","ping":83},{"user_id":294,"name":"Indigolake","steam_id":76561198202215807,"connected_time":840000000000,"state":"active","ping":69},{"user_id":287,"name":"Top Frog","steam_id":76561198072793446,"connected_time":1682000000000,"state":"active","ping":68},{"user_id":232,"name":"Bert.","steam_id":76561198140666346,"connected_time":5289000000000,"state":"active","ping":50},{"user_id":83,"name":"A Puppy","steam_id":76561198828184456,"connected_time":15589000000000,"state":"active","ping":53},{"user_id":306,"name":"Lucille_Bluth","steam_id":76561198206133916,"connected_time":435000000000,"state":"active","ping":71},{"user_id":303,"name":"What's My Age Again?","steam_id":76561198035304483,"connected_time":527000000000,"state":"active","ping":71},{"user_id":276,"name":"froge","steam_id":76561198304959766,"connected_time":2678000000000,"state":"active","ping":149},{"user_id":282,"name":"BOB","steam_id":76561198000787196,"connected_time":2232000000000,"state":"active","ping":157},{"user_id":295,"name":"Vegerot","steam_id":76561197997843710,"connected_time":839000000000,"state":"active","ping":45},{"user_id":307,"name":"moonage72","steam_id":76561199187008629,"connected_time":361000000000,"state":"active","ping":99}]},{"server_id":14,"name":"Uncletopia | New York City | 2 | All Maps","name_short":"nyc-2","host":"nyc-1.us.uncletopia.com","port":27025,"enabled":true,"region":"us-east","cc":"us","latitude":40.73061,"longitude":-73.93524,"reserved":0,"last_update":"0001-01-01T00:00:00Z","name_a2s":"Uncletopia | New York City | 2 | All Maps","protocol":17,"map":"pl_snowycoast","folder":"tf","game":"Team Fortress","app_id":440,"player_count":24,"max_players":24,"Bots":0,"server_type":"Dedicated","server_os":"Linux","password":true,"vac":true,"version":"7961495","steam_id":85568392924469994,"keywords":["nocrits","nodmgspread","payload","uncletopia"],"game_id":440,"stv_port":27026,"stv_name":"Uncletopia | New York City | 2 | All Maps | STV","players":[{"user_id":410,"name":"Rambly Dambly","steam_id":76561198844496567,"connected_time":1074000000000,"state":"active","ping":36},{"user_id":411,"name":"NerdyEnforcement","steam_id":76561198437710820,"connected_time":1060000000000,"state":"active","ping":130},{"user_id":420,"name":"hack fraud","steam_id":76561198015036066,"connected_time":912000000000,"state":"active","ping":112},{"user_id":422,"name":"AIDS GIRAFFE","steam_id":76561198010525744,"connected_time":886000000000,"state":"active","ping":55},{"user_id":384,"name":"WADE BOGGS","steam_id":76561199497207470,"connected_time":2932000000000,"state":"active","ping":84},{"user_id":368,"name":"HUMBY","steam_id":76561198065045867,"connected_time":4190000000000,"state":"active","ping":98},{"user_id":425,"name":"Tortellini","steam_id":76561198211521176,"connected_time":602000000000,"state":"active","ping":65},{"user_id":408,"name":"sam","steam_id":76561198088504281,"connected_time":1112000000000,"state":"active","ping":49},{"user_id":409,"name":"bobbymcbobington","steam_id":76561199089411172,"connected_time":1110000000000,"state":"active","ping":109},{"user_id":412,"name":"Raji","steam_id":76561199113478745,"connected_time":1050000000000,"state":"active","ping":132},{"user_id":401,"name":"🜏Snowstone🜏","steam_id":76561198373692962,"connected_time":1491000000000,"state":"active","ping":76},{"user_id":415,"name":"Raccoon","steam_id":76561199189494190,"connected_time":989000000000,"state":"active","ping":71},{"user_id":383,"name":"Deep Curly","steam_id":76561197981290558,"connected_time":3332000000000,"state":"active","ping":56},{"user_id":421,"name":"Biosock Infiknit","steam_id":76561198072693794,"connected_time":897000000000,"state":"active","ping":81},{"user_id":404,"name":"i hate my bitchmade son","steam_id":76561198044034546,"connected_time":1341000000000,"state":"active","ping":70},{"user_id":423,"name":"guy","steam_id":76561198079925551,"connected_time":796000000000,"state":"active","ping":46},{"user_id":424,"name":"RazDaz","steam_id":76561198280695081,"connected_time":652000000000,"state":"active","ping":65},{"user_id":379,"name":"ham salmontizer","steam_id":76561198168840293,"connected_time":3771000000000,"state":"active","ping":101},{"user_id":380,"name":"b4rry","steam_id":76561198365887154,"connected_time":3650000000000,"state":"active","ping":62},{"user_id":398,"name":"Fairchild Republic A-10 Thndrbl","steam_id":76561199038043360,"connected_time":1780000000000,"state":"active","ping":72},{"user_id":372,"name":"WesyUWU (The mini crit pig)","steam_id":76561198069188177,"connected_time":4048000000000,"state":"active","ping":100},{"user_id":426,"name":"TeatsMcghee #TummyTroubles","steam_id":76561198036483480,"connected_time":284000000000,"state":"active","ping":60},{"user_id":369,"name":"Kung fu Mungus","steam_id":76561198069281556,"connected_time":4170000000000,"state":"active","ping":93},{"user_id":418,"name":"twelve ounces of pootmà","steam_id":76561198178638591,"connected_time":952000000000,"state":"active","ping":88}]},{"server_id":15,"name":"Uncletopia | New York City | 3 | Stopwatch","name_short":"nyc-3","host":"nyc-1.us.uncletopia.com","port":27035,"enabled":true,"region":"us-east","cc":"us","latitude":40.73061,"longitude":-73.93524,"reserved":0,"last_update":"0001-01-01T00:00:00Z","name_a2s":"Uncletopia | New York City | 3 | Stopwatch","protocol":17,"map":"cp_metalworks","folder":"tf","game":"Team Fortress","app_id":440,"player_count":0,"max_players":24,"Bots":0,"server_type":"Dedicated","server_os":"Linux","password":true,"vac":true,"version":"7961495","steam_id":85568392924742820,"keywords":["cp","nocrits","nodmgspread","uncletopia"],"game_id":440,"stv_port":27036,"stv_name":"Uncletopia | New York City | 3 | Stopwatch | STV","players":null},{"server_id":16,"name":"Uncletopia | New York City | 4 | Community","name_short":"nyc-4","host":"nyc-1.us.uncletopia.com","port":27045,"enabled":true,"region":"us-east","cc":"us","latitude":40.73061,"longitude":-73.93524,"reserved":0,"last_update":"0001-01-01T00:00:00Z","name_a2s":"Uncletopia | New York City | 4 | Community","protocol":17,"map":"workshop/pl_divulgence_b4b.ugc2884808746","folder":"tf","game":"Team Fortress","app_id":440,"player_count":24,"max_players":24,"Bots":0,"server_type":"Dedicated","server_os":"Linux","password":true,"vac":true,"version":"7961495","steam_id":85568392924742821,"keywords":["nocrits","nodmgspread","payload","uncletopia"],"game_id":440,"stv_port":27046,"stv_name":"Uncletopia | New York City | 4 | Community | STV","players":[{"user_id":128,"name":"Slav main","steam_id":76561198160796479,"connected_time":2680000000000,"state":"active","ping":65},{"user_id":141,"name":"too deep for most to understand","steam_id":76561198022636144,"connected_time":1621000000000,"state":"active","ping":44},{"user_id":115,"name":"⊰Aero⊱","steam_id":76561198084648457,"connected_time":3864000000000,"state":"active","ping":77},{"user_id":137,"name":"MondoDong","steam_id":76561197991400109,"connected_time":2015000000000,"state":"active","ping":51},{"user_id":142,"name":"Brad Bones","steam_id":76561198068129320,"connected_time":1572000000000,"state":"active","ping":57},{"user_id":130,"name":"Cla1rv0yant","steam_id":76561198073841803,"connected_time":2585000000000,"state":"active","ping":63},{"user_id":126,"name":"Silverback","steam_id":76561198928735294,"connected_time":2953000000000,"state":"active","ping":140},{"user_id":53,"name":".jpg","steam_id":76561198137237377,"connected_time":7327000000000,"state":"active","ping":63},{"user_id":110,"name":"Peepster","steam_id":76561198297854733,"connected_time":4538000000000,"state":"active","ping":85},{"user_id":174,"name":"bones","steam_id":76561198058617451,"connected_time":66000000000,"state":"active","ping":69},{"user_id":133,"name":"Stupid Rat (Extra Stupid)","steam_id":76561199091290729,"connected_time":2330000000000,"state":"active","ping":93},{"user_id":165,"name":"Phil Collins","steam_id":76561198068868644,"connected_time":352000000000,"state":"active","ping":113},{"user_id":131,"name":"Psuedonamed Memelord","steam_id":76561198293295694,"connected_time":2550000000000,"state":"active","ping":120},{"user_id":140,"name":"titaniumterminator","steam_id":76561199201357138,"connected_time":1637000000000,"state":"active","ping":64},{"user_id":120,"name":"chalupa","steam_id":76561199072435724,"connected_time":3520000000000,"state":"active","ping":61},{"user_id":122,"name":"LegendaireNic","steam_id":76561198211753861,"connected_time":3490000000000,"state":"active","ping":61},{"user_id":139,"name":"andyrams","steam_id":76561198110826418,"connected_time":1872000000000,"state":"active","ping":64},{"user_id":154,"name":"cheese man","steam_id":76561199122214098,"connected_time":580000000000,"state":"active","ping":57},{"user_id":121,"name":"Lego Yoda","steam_id":76561199008362890,"connected_time":3515000000000,"state":"active","ping":45},{"user_id":123,"name":"onuralp_tf2","steam_id":76561198133321967,"connected_time":3430000000000,"state":"active","ping":163},{"user_id":151,"name":"Winston Churchill Is Bad At TF2","steam_id":76561198315973318,"connected_time":946000000000,"state":"active","ping":58},{"user_id":172,"name":"deadpixel","steam_id":76561198150249843,"connected_time":203000000000,"state":"active","ping":75},{"user_id":143,"name":"Zerwee","steam_id":76561198181368101,"connected_time":1534000000000,"state":"active","ping":142},{"user_id":153,"name":"canadian birds","steam_id":76561198059466588,"connected_time":863000000000,"state":"active","ping":59}]},{"server_id":142,"name":"Uncletopia | São Paulo | 1 | All Maps","name_short":"sao-1","host":"sao-1.br.uncletopia.com","port":27015,"enabled":true,"region":"sa","cc":"br","latitude":-23.533773,"longitude":-46.62529,"reserved":0,"last_update":"0001-01-01T00:00:00Z","name_a2s":"Uncletopia | São Paulo | 1 | All Maps","protocol":17,"map":"koth_lakeside_final","folder":"tf","game":"Team Fortress","app_id":440,"player_count":0,"max_players":24,"Bots":0,"server_type":"Dedicated","server_os":"Linux","password":true,"vac":true,"version":"7961495","steam_id":85568392924469996,"keywords":["cp","nocrits","nodmgspread","uncletopia"],"game_id":440,"stv_port":27016,"stv_name":"Uncletopia | São Paulo | 1 | All Maps | STV","players":null},{"server_id":143,"name":"Uncletopia | São Paulo | 2 | Community","name_short":"sao-2","host":"sao-2.br.uncletopia.com","port":27015,"enabled":true,"region":"sa","cc":"br","latitude":-23.533773,"longitude":-46.62529,"reserved":0,"last_update":"0001-01-01T00:00:00Z","name_a2s":"Uncletopia | São Paulo | 2 | Community","protocol":17,"map":"workshop/koth_kemptown_rc1.ugc767410655","folder":"tf","game":"Team Fortress","app_id":440,"player_count":3,"max_players":24,"Bots":0,"server_type":"Dedicated","server_os":"Linux","password":true,"vac":true,"version":"7961495","steam_id":85568392924485349,"keywords":["cp","nocrits","nodmgspread","uncletopia"],"game_id":440,"stv_port":27016,"stv_name":"Uncletopia | São Paulo | 2 | Community | STV","players":[{"user_id":20,"name":"modulando você","steam_id":76561198435468554,"connected_time":544000000000,"state":"active","ping":84},{"user_id":21,"name":"|AY|LazyCian","steam_id":76561199121786457,"connected_time":346000000000,"state":"active","ping":51},{"user_id":22,"name":"Songalongamon","steam_id":76561198114565169,"connected_time":108000000000,"state":"active","ping":42}]},{"server_id":7,"name":"Uncletopia | Seattle | 1 | All Maps","name_short":"sea-1","host":"sea-1.us.uncletopia.com","port":27015,"enabled":true,"region":"us-west","cc":"us","latitude":47.608013,"longitude":-122.33517,"reserved":0,"last_update":"0001-01-01T00:00:00Z","name_a2s":"Uncletopia | Seattle | 1 | All Maps","protocol":17,"map":"pl_barnblitz","folder":"tf","game":"Team Fortress","app_id":440,"player_count":25,"max_players":24,"Bots":0,"server_type":"Dedicated","server_os":"Linux","password":true,"vac":true,"version":"7961495","steam_id":85568392924469997,"keywords":["nocrits","nodmgspread","payload","uncletopia"],"game_id":440,"stv_port":27016,"stv_name":"Uncletopia | Seattle | 1 | All Maps | STV","players":[{"user_id":272,"name":"Grand","steam_id":76561198290143399,"connected_time":7544000000000,"state":"active","ping":74},{"user_id":354,"name":"Blueyou","steam_id":76561198086516692,"connected_time":326000000000,"state":"active","ping":55},{"user_id":254,"name":"Level 99 Mudcrab","steam_id":76561198077452771,"connected_time":8885000000000,"state":"active","ping":89},{"user_id":353,"name":"Punished Jeff #NeverSimpAgain","steam_id":76561198304252584,"connected_time":355000000000,"state":"active","ping":63},{"user_id":349,"name":"Scruffy the Janitor","steam_id":76561199127423378,"connected_time":682000000000,"state":"active","ping":76},{"user_id":288,"name":"Pyrotek⁴","steam_id":76561198072747672,"connected_time":5857000000000,"state":"active","ping":74},{"user_id":351,"name":"Underscorn","steam_id":76561198374209415,"connected_time":614000000000,"state":"active","ping":113},{"user_id":326,"name":"hyazZaZa","steam_id":76561199100342013,"connected_time":2050000000000,"state":"active","ping":75},{"user_id":331,"name":"ShackerJack","steam_id":76561198118017448,"connected_time":1897000000000,"state":"active","ping":56},{"user_id":334,"name":"Meerkat","steam_id":76561199245435539,"connected_time":1741000000000,"state":"active","ping":68},{"user_id":314,"name":"WillieMakit","steam_id":76561197985391684,"connected_time":3000000000000,"state":"active","ping":83},{"user_id":319,"name":"aisu","steam_id":76561198043768507,"connected_time":2252000000000,"state":"active","ping":90},{"user_id":336,"name":"Yoyo-Wo","steam_id":76561198880520205,"connected_time":1646000000000,"state":"active","ping":84},{"user_id":327,"name":"kenZino","steam_id":76561197967971192,"connected_time":2032000000000,"state":"active","ping":57},{"user_id":347,"name":"guappodiablo2","steam_id":76561198132087785,"connected_time":761000000000,"state":"active","ping":63},{"user_id":338,"name":"a cat plushie","steam_id":76561198080046542,"connected_time":1543000000000,"state":"active","ping":48},{"user_id":330,"name":"Seriously Bruh","steam_id":76561198070408485,"connected_time":1938000000000,"state":"active","ping":55},{"user_id":342,"name":"geekin and tweakin","steam_id":76561198095480838,"connected_time":772000000000,"state":"active","ping":45},{"user_id":355,"name":"Kylar","steam_id":76561198196979431,"connected_time":72000000000,"state":"active","ping":76},{"user_id":350,"name":"Furikuri","steam_id":76561197998277739,"connected_time":674000000000,"state":"active","ping":39},{"user_id":333,"name":"Azall","steam_id":76561198080294343,"connected_time":1864000000000,"state":"active","ping":85},{"user_id":348,"name":"Librinox / Irrith","steam_id":76561198008996805,"connected_time":744000000000,"state":"active","ping":115},{"user_id":179,"name":"Preston","steam_id":76561198255721392,"connected_time":16090000000000,"state":"active","ping":112},{"user_id":209,"name":"Tom Skirrett","steam_id":76561198014600788,"connected_time":12138000000000,"state":"active","ping":65},{"user_id":356,"name":"stinky wink","steam_id":76561199075375089,"connected_time":25000000000,"state":"spawning","ping":73}]},{"server_id":119,"name":"Uncletopia | Seattle | 2 | All Maps","name_short":"sea-2","host":"sea-1.us.uncletopia.com","port":27025,"enabled":true,"region":"us-west","cc":"us","latitude":47.608013,"longitude":-122.33517,"reserved":0,"last_update":"0001-01-01T00:00:00Z","name_a2s":"Uncletopia | Seattle | 2 | All Maps","protocol":17,"map":"cp_granary","folder":"tf","game":"Team Fortress","app_id":440,"player_count":24,"max_players":24,"Bots":0,"server_type":"Dedicated","server_os":"Linux","password":true,"vac":true,"version":"7961495","steam_id":85568392924469998,"keywords":["cp","nocrits","nodmgspread","uncletopia"],"game_id":440,"stv_port":27026,"stv_name":"Uncletopia | Seattle | 2 | All Maps | STV","players":[{"user_id":169,"name":"hello friend","steam_id":76561197999390572,"connected_time":2455000000000,"state":"active","ping":99},{"user_id":186,"name":"SketchyEtchaSketch","steam_id":76561198143747486,"connected_time":347000000000,"state":"active","ping":136},{"user_id":188,"name":"oil","steam_id":76561198099980149,"connected_time":205000000000,"state":"active","ping":77},{"user_id":171,"name":"onionman0106","steam_id":76561199067766868,"connected_time":2383000000000,"state":"active","ping":44},{"user_id":156,"name":"HelloImE","steam_id":76561198069084336,"connected_time":3590000000000,"state":"active","ping":60},{"user_id":187,"name":"Shrimps","steam_id":76561198983016709,"connected_time":346000000000,"state":"active","ping":68},{"user_id":148,"name":"cielael","steam_id":76561198043971956,"connected_time":4016000000000,"state":"active","ping":76},{"user_id":167,"name":"♦Benji♦","steam_id":76561198313529973,"connected_time":3001000000000,"state":"active","ping":43},{"user_id":191,"name":"Onion Zest","steam_id":76561198438947865,"connected_time":7000000000,"state":"spawning","ping":112},{"user_id":182,"name":"[BBC] myr","steam_id":76561198200786939,"connected_time":429000000000,"state":"active","ping":42},{"user_id":150,"name":"ranni's left nipple","steam_id":76561198131567365,"connected_time":3863000000000,"state":"active","ping":52},{"user_id":189,"name":"CubDub","steam_id":76561198304548526,"connected_time":174000000000,"state":"active","ping":64},{"user_id":181,"name":"CashGordon","steam_id":76561197975594096,"connected_time":437000000000,"state":"active","ping":42},{"user_id":116,"name":"QUANDALE DINGLE GAMING #SAVE TF","steam_id":76561199285434768,"connected_time":5407000000000,"state":"active","ping":87},{"user_id":162,"name":"Stolas ♥","steam_id":76561198835430280,"connected_time":3090000000000,"state":"active","ping":70},{"user_id":163,"name":"_cza","steam_id":76561198079793576,"connected_time":3078000000000,"state":"active","ping":45},{"user_id":147,"name":"[TTV]slendermansmoom","steam_id":76561199053946374,"connected_time":4127000000000,"state":"active","ping":57},{"user_id":185,"name":"the pizza","steam_id":76561198221331476,"connected_time":413000000000,"state":"active","ping":58},{"user_id":166,"name":"for eel? on cod? no carp?","steam_id":76561198095121758,"connected_time":3013000000000,"state":"active","ping":75},{"user_id":175,"name":"rat who can kickflip","steam_id":76561198073620027,"connected_time":2073000000000,"state":"active","ping":43},{"user_id":153,"name":"SpiritGaming4Life","steam_id":76561198799411351,"connected_time":3793000000000,"state":"active","ping":93},{"user_id":168,"name":"i have an rsi","steam_id":76561198020322241,"connected_time":2696000000000,"state":"active","ping":58},{"user_id":192,"name":"Buswolley","steam_id":76561197995205571,"connected_time":2000000000,"state":"spawning","ping":42},{"user_id":180,"name":"Dimple #TF2Center","steam_id":76561198980324190,"connected_time":537000000000,"state":"active","ping":46}]},{"server_id":406,"name":"Uncletopia | Seattle | 3 | Stopwatch","name_short":"sea-3","host":"sea-1.us.uncletopia.com","port":27035,"enabled":true,"region":"us-west","cc":"us","latitude":47.608013,"longitude":-122.33517,"reserved":0,"last_update":"0001-01-01T00:00:00Z","name_a2s":"Uncletopia | Seattle | 3 | Stopwatch","protocol":17,"map":"workshop/koth_ramjam_rc1.ugc459778887","folder":"tf","game":"Team Fortress","app_id":440,"player_count":0,"max_players":24,"Bots":0,"server_type":"Dedicated","server_os":"Linux","password":true,"vac":true,"version":"7961495","steam_id":85568392924515217,"keywords":["cp","nocrits","nodmgspread","uncletopia"],"game_id":440,"stv_port":27036,"stv_name":"Uncletopia | Seattle | 3 | Stopwatch | STV","players":null},{"server_id":17,"name":"Uncletopia | San Francisco | 1 | All Maps","name_short":"sfo-1","host":"sfo-1.us.uncletopia.com","port":27015,"enabled":true,"region":"us-west","cc":"us","latitude":37.77397,"longitude":-122.4313,"reserved":0,"last_update":"0001-01-01T00:00:00Z","name_a2s":"Uncletopia | San Francisco | 1 | All Maps","protocol":17,"map":"ctf_2fort","folder":"tf","game":"Team Fortress","app_id":440,"player_count":23,"max_players":24,"Bots":0,"server_type":"Dedicated","server_os":"Linux","password":true,"vac":true,"version":"7961495","steam_id":85568392924469999,"keywords":["ctf","nocrits","nodmgspread","uncletopia"],"game_id":440,"stv_port":27016,"stv_name":"Uncletopia | San Francisco | 1 | All Maps | STV","players":[{"user_id":131,"name":"460BF0 JustAWarper","steam_id":76561198850723295,"connected_time":1548000000000,"state":"active","ping":72},{"user_id":147,"name":"Roberto Del Fuego","steam_id":76561198043458554,"connected_time":753000000000,"state":"active","ping":94},{"user_id":108,"name":"shakoiwa","steam_id":76561199059441773,"connected_time":2960000000000,"state":"active","ping":56},{"user_id":25,"name":"omnislime","steam_id":76561199382475668,"connected_time":9681000000000,"state":"active","ping":98},{"user_id":78,"name":"Wendigo","steam_id":76561197994528974,"connected_time":6138000000000,"state":"active","ping":95},{"user_id":144,"name":"My Name A Borat","steam_id":76561198077713291,"connected_time":1328000000000,"state":"active","ping":95},{"user_id":63,"name":"Birby","steam_id":76561198884009768,"connected_time":7040000000000,"state":"active","ping":55},{"user_id":127,"name":"Who loves orange soda?","steam_id":76561198059808982,"connected_time":2177000000000,"state":"active","ping":60},{"user_id":151,"name":"nfseskimo","steam_id":76561198078745666,"connected_time":202000000000,"state":"active","ping":60},{"user_id":106,"name":"foofydafoofer","steam_id":76561199395830278,"connected_time":3031000000000,"state":"active","ping":72},{"user_id":121,"name":"noel","steam_id":76561198128280883,"connected_time":2421000000000,"state":"active","ping":126},{"user_id":104,"name":"Alchemist","steam_id":76561198094238189,"connected_time":3399000000000,"state":"active","ping":64},{"user_id":133,"name":"Livin' Like Larry","steam_id":76561198313360974,"connected_time":1533000000000,"state":"active","ping":33},{"user_id":152,"name":"bingus :3","steam_id":76561199198633203,"connected_time":116000000000,"state":"active","ping":85},{"user_id":134,"name":"Higuma","steam_id":76561198375229012,"connected_time":1532000000000,"state":"active","ping":55},{"user_id":91,"name":"紅鬍子","steam_id":76561198072410042,"connected_time":4580000000000,"state":"active","ping":64},{"user_id":146,"name":"ChronicNight","steam_id":76561199441974578,"connected_time":1134000000000,"state":"active","ping":79},{"user_id":145,"name":"Leo x.x","steam_id":76561198309760791,"connected_time":1293000000000,"state":"active","ping":97},{"user_id":100,"name":"Cave Dweller","steam_id":76561198374825685,"connected_time":3569000000000,"state":"active","ping":59},{"user_id":99,"name":"bunny","steam_id":76561198194067598,"connected_time":3853000000000,"state":"active","ping":118},{"user_id":153,"name":"Duk","steam_id":76561198450692568,"connected_time":108000000000,"state":"active","ping":66},{"user_id":124,"name":"Blue Banana","steam_id":76561198100077411,"connected_time":2351000000000,"state":"active","ping":60},{"user_id":148,"name":"Hidden_Slime225","steam_id":76561199089440679,"connected_time":421000000000,"state":"active","ping":116}]},{"server_id":18,"name":"Uncletopia | San Francisco | 2 | All Maps","name_short":"sfo-2","host":"sfo-1.us.uncletopia.com","port":27025,"enabled":true,"region":"us-west","cc":"us","latitude":37.77397,"longitude":-122.4313,"reserved":0,"last_update":"0001-01-01T00:00:00Z","name_a2s":"Uncletopia | San Francisco | 2 | All Maps","protocol":17,"map":"cp_sunshine","folder":"tf","game":"Team Fortress","app_id":440,"player_count":0,"max_players":24,"Bots":0,"server_type":"Dedicated","server_os":"Linux","password":true,"vac":true,"version":"7961495","steam_id":85568392924470000,"keywords":["cp","nocrits","nodmgspread","uncletopia"],"game_id":440,"stv_port":27026,"stv_name":"Uncletopia | San Francisco | 2 | All Maps | STV","players":null},{"server_id":19,"name":"Uncletopia | San Francisco | 3 | Stopwatch","name_short":"sfo-3","host":"sfo-1.us.uncletopia.com","port":27035,"enabled":true,"region":"us-west","cc":"us","latitude":37.77397,"longitude":-122.4313,"reserved":0,"last_update":"0001-01-01T00:00:00Z","name_a2s":"Uncletopia | San Francisco | 3 | Stopwatch","protocol":17,"map":"pl_pier","folder":"tf","game":"Team Fortress","app_id":440,"player_count":0,"max_players":24,"Bots":0,"server_type":"Dedicated","server_os":"Linux","password":true,"vac":true,"version":"7961495","steam_id":85568392924742824,"keywords":["nocrits","nodmgspread","payload","uncletopia"],"game_id":440,"stv_port":27036,"stv_name":"Uncletopia | San Francisco | 3 | Stopwatch | STV","players":null},{"server_id":20,"name":"Uncletopia | San Francisco | 4 | Community","name_short":"sfo-4","host":"sfo-1.us.uncletopia.com","port":27045,"enabled":true,"region":"us-west","cc":"us","latitude":37.77397,"longitude":-122.4313,"reserved":0,"last_update":"0001-01-01T00:00:00Z","name_a2s":"Uncletopia | San Francisco | 4 | Community","protocol":17,"map":"pl_pier","folder":"tf","game":"Team Fortress","app_id":440,"player_count":1,"max_players":24,"Bots":0,"server_type":"Dedicated","server_os":"Linux","password":true,"vac":true,"version":"7961495","steam_id":85568392924742826,"keywords":["nocrits","nodmgspread","payload","uncletopia"],"game_id":440,"stv_port":27046,"stv_name":"Uncletopia | San Francisco | 4 | Community | STV","players":[{"user_id":3,"name":"RealGamerTime","steam_id":76561198870557226,"connected_time":42000000000,"state":"active","ping":127}]},{"server_id":141,"name":"Uncletopia | Sydney | 1 | All Maps","name_short":"syd-1","host":"syd-1.au.uncletopia.com","port":27015,"enabled":true,"region":"au","cc":"au","latitude":-33.865143,"longitude":151.2099,"reserved":0,"last_update":"0001-01-01T00:00:00Z","name_a2s":"Uncletopia | Sydney | 1 | All Maps","protocol":17,"map":"koth_viaduct","folder":"tf","game":"Team Fortress","app_id":440,"player_count":0,"max_players":24,"Bots":0,"server_type":"Dedicated","server_os":"Linux","password":true,"vac":true,"version":"7961495","steam_id":85568392924470001,"keywords":["cp","nocrits","nodmgspread","uncletopia"],"game_id":440,"stv_port":27016,"stv_name":"Uncletopia | Sydney | 1 | All Maps | STV","players":null},{"server_id":123,"name":"Uncletopia | Sydney | 2 | All Maps","name_short":"syd-2","host":"syd-1.au.uncletopia.com","port":27025,"enabled":true,"region":"au","cc":"au","latitude":-33.865143,"longitude":151.2099,"reserved":0,"last_update":"0001-01-01T00:00:00Z","name_a2s":"Uncletopia | Sydney | 2 | All Maps","protocol":17,"map":"koth_lakeside_final","folder":"tf","game":"Team Fortress","app_id":440,"player_count":0,"max_players":24,"Bots":0,"server_type":"Dedicated","server_os":"Linux","password":true,"vac":true,"version":"7961495","steam_id":85568392924470002,"keywords":["cp","nocrits","nodmgspread","uncletopia"],"game_id":440,"stv_port":27026,"stv_name":"Uncletopia | Sydney | 2 | All Maps | STV","players":null},{"server_id":395,"name":"Uncletopia | Sydney | 3 | All Maps","name_short":"syd-3","host":"syd-1.au.uncletopia.com","port":27035,"enabled":true,"region":"au","cc":"au","latitude":-33.865143,"longitude":151.2099,"reserved":0,"last_update":"0001-01-01T00:00:00Z","name_a2s":"Uncletopia | Sydney | 3 | All Maps","protocol":17,"map":"pl_frontier_final","folder":"tf","game":"Team Fortress","app_id":440,"player_count":0,"max_players":24,"Bots":0,"server_type":"Dedicated","server_os":"Linux","password":true,"vac":true,"version":"7961495","steam_id":85568392925194467,"keywords":["nocrits","nodmgspread","payload","uncletopia"],"game_id":440,"stv_port":27036,"stv_name":"Uncletopia | Sydney | 3 | All Maps | STV","players":null},{"server_id":396,"name":"Uncletopia | Sydney | 4 | All Maps","name_short":"syd-4","host":"syd-1.au.uncletopia.com","port":27045,"enabled":true,"region":"au","cc":"au","latitude":-33.865143,"longitude":151.2099,"reserved":0,"last_update":"0001-01-01T00:00:00Z","name_a2s":"Uncletopia | Sydney | 4 | All Maps","protocol":17,"map":"cp_process_final","folder":"tf","game":"Team Fortress","app_id":440,"player_count":0,"max_players":24,"Bots":0,"server_type":"Dedicated","server_os":"Linux","password":true,"vac":true,"version":"7961495","steam_id":85568392925397958,"keywords":["cp","nocrits","nodmgspread","uncletopia"],"game_id":440,"stv_port":27046,"stv_name":"Uncletopia | Sydney | 4 | All Maps | STV","players":null},{"server_id":58,"name":"Uncletopia | Sydney | 5 | Stopwatch","name_short":"syd-5","host":"syd-1.au.uncletopia.com","port":27055,"enabled":true,"region":"au","cc":"au","latitude":-33.865143,"longitude":151.2099,"reserved":0,"last_update":"0001-01-01T00:00:00Z","name_a2s":"Uncletopia | Sydney | 5 | Stopwatch","protocol":17,"map":"pl_frontier_final","folder":"tf","game":"Team Fortress","app_id":440,"player_count":0,"max_players":24,"Bots":0,"server_type":"Dedicated","server_os":"Linux","password":true,"vac":true,"version":"7961495","steam_id":85568392925397959,"keywords":["nocrits","nodmgspread","payload","uncletopia"],"game_id":440,"stv_port":27056,"stv_name":"Uncletopia | Sydney | 5 | Stopwatch | STV","players":null},{"server_id":59,"name":"Uncletopia | Sydney | 6 | Community","name_short":"syd-6","host":"syd-1.au.uncletopia.com","port":27065,"enabled":true,"region":"au","cc":"au","latitude":-33.865143,"longitude":151.2099,"reserved":0,"last_update":"0001-01-01T00:00:00Z","name_a2s":"Uncletopia | Sydney | 6 | Community","protocol":17,"map":"cp_sunshine","folder":"tf","game":"Team Fortress","app_id":440,"player_count":0,"max_players":24,"Bots":0,"server_type":"Dedicated","server_os":"Linux","password":true,"vac":true,"version":"7961495","steam_id":85568392925397960,"keywords":["cp","nocrits","nodmgspread","uncletopia"],"game_id":440,"stv_port":27066,"stv_name":"Uncletopia | Sydney | 6 | Community | STV","players":null},{"server_id":49,"name":"Uncletopia | Warsaw | 1 | One Thousand Uncles","name_short":"waw-1","host":"waw-1.pl.uncletopia.com","port":27015,"enabled":true,"region":"eu","cc":"pl","latitude":52.2297,"longitude":21.017532,"reserved":0,"last_update":"0001-01-01T00:00:00Z","name_a2s":"Uncletopia | Warsaw | 1 | One Thousand Uncles","protocol":17,"map":"cp_egypt_final","folder":"tf","game":"Team Fortress","app_id":440,"player_count":27,"max_players":32,"Bots":16,"server_type":"Dedicated","server_os":"Linux","password":true,"vac":true,"version":"7961495","steam_id":85568392925397850,"keywords":["alltalk","bots","cp","danepve","increased_maxplayers","nocrits","norespawntime","uncletopia"],"game_id":440,"stv_port":0,"stv_name":"","players":[{"user_id":551,"name":"( ͠° ͟ʖ ͡°)","steam_id":76561199362861027,"connected_time":7218000000000,"state":"active","ping":314},{"user_id":612,"name":"Edgy Name","steam_id":76561198378270820,"connected_time":2547000000000,"state":"active","ping":42},{"user_id":645,"name":"tadisab","steam_id":76561199484049632,"connected_time":671000000000,"state":"active","ping":149},{"user_id":662,"name":"Two Tone Provolone","steam_id":76561198064994658,"connected_time":349000000000,"state":"active","ping":59},{"user_id":596,"name":"Piquesque","steam_id":76561198286763046,"connected_time":4230000000000,"state":"active","ping":113},{"user_id":555,"name":"Samuel L. Jackson","steam_id":76561198130427881,"connected_time":6725000000000,"state":"active","ping":190},{"user_id":641,"name":"A Blåhaj Fan","steam_id":76561199029212388,"connected_time":1297000000000,"state":"active","ping":41},{"user_id":630,"name":"Nikt Ważny (F2P)","steam_id":76561199273293257,"connected_time":2148000000000,"state":"active","ping":85},{"user_id":631,"name":"SpineJuice","steam_id":76561199084272069,"connected_time":2018000000000,"state":"active","ping":70},{"user_id":639,"name":"lugge","steam_id":76561197963937453,"connected_time":1434000000000,"state":"active","ping":60},{"user_id":610,"name":"Womanticore","steam_id":76561199235582031,"connected_time":2891000000000,"state":"active","ping":235}]},{"server_id":50,"name":"Uncletopia | Warsaw | 2 | One Thousand Uncles","name_short":"waw-2","host":"waw-1.pl.uncletopia.com","port":27025,"enabled":true,"region":"eu","cc":"pl","latitude":52.2297,"longitude":21.017532,"reserved":0,"last_update":"0001-01-01T00:00:00Z","name_a2s":"Uncletopia | Warsaw | 2 | One Thousand Uncles","protocol":17,"map":"pl_upward","folder":"tf","game":"Team Fortress","app_id":440,"player_count":28,"max_players":32,"Bots":16,"server_type":"Dedicated","server_os":"Linux","password":true,"vac":true,"version":"7961495","steam_id":85568392925397851,"keywords":["alltalk","bots","danepve","increased_maxplayers","nocrits","norespawntime","payload","uncletopia"],"game_id":440,"stv_port":0,"stv_name":"","players":[{"user_id":63,"name":"o_o","steam_id":76561198113045011,"connected_time":6226000000000,"state":"active","ping":108},{"user_id":94,"name":"night.s","steam_id":76561198326287823,"connected_time":2569000000000,"state":"active","ping":98},{"user_id":111,"name":"FishD.ck_47","steam_id":76561198114773103,"connected_time":1335000000000,"state":"active","ping":91},{"user_id":113,"name":"ultra *","steam_id":76561198086304421,"connected_time":617000000000,"state":"active","ping":88},{"user_id":116,"name":"Pinkchup","steam_id":76561198106802803,"connected_time":236000000000,"state":"active","ping":71},{"user_id":114,"name":"abrax","steam_id":76561198252035180,"connected_time":579000000000,"state":"active","ping":45},{"user_id":84,"name":"Berserker","steam_id":76561198411142951,"connected_time":3691000000000,"state":"active","ping":93},{"user_id":85,"name":"Aunty Bane","steam_id":76561198091969871,"connected_time":3648000000000,"state":"active","ping":98},{"user_id":69,"name":"Sephiroth","steam_id":76561198390935635,"connected_time":5632000000000,"state":"active","ping":183},{"user_id":86,"name":"BeefHammer","steam_id":76561198078426223,"connected_time":3552000000000,"state":"active","ping":113},{"user_id":92,"name":"Farmbot 512","steam_id":76561198346383246,"connected_time":2938000000000,"state":"active","ping":83},{"user_id":117,"name":"SynthBox3","steam_id":76561199094075745,"connected_time":9000000000,"state":"spawning","ping":119}]},{"server_id":51,"name":"Uncletopia | Warsaw | 3 | All Maps","name_short":"waw-3","host":"waw-1.pl.uncletopia.com","port":27035,"enabled":true,"region":"eu","cc":"pl","latitude":52.2297,"longitude":21.017532,"reserved":0,"last_update":"0001-01-01T00:00:00Z","name_a2s":"Uncletopia | Warsaw | 3 | All Maps","protocol":17,"map":"koth_cascade","folder":"tf","game":"Team Fortress","app_id":440,"player_count":5,"max_players":24,"Bots":0,"server_type":"Dedicated","server_os":"Linux","password":true,"vac":true,"version":"7961495","steam_id":85568392925397852,"keywords":["cp","nocrits","nodmgspread","uncletopia"],"game_id":440,"stv_port":27036,"stv_name":"Uncletopia | Warsaw | 3 | All Maps | STV","players":[{"user_id":267,"name":"f4f_cricket","steam_id":76561197985879993,"connected_time":3782000000000,"state":"active","ping":78},{"user_id":303,"name":"C1ph3R","steam_id":76561198021288666,"connected_time":438000000000,"state":"active","ping":99},{"user_id":302,"name":"disabled chimp","steam_id":76561198132062857,"connected_time":459000000000,"state":"active","ping":61},{"user_id":281,"name":"Bounty","steam_id":76561198032698137,"connected_time":3466000000000,"state":"active","ping":41},{"user_id":172,"name":"Mario","steam_id":76561198053838936,"connected_time":9673000000000,"state":"active","ping":96}]},{"server_id":52,"name":"Uncletopia | Warsaw | 4 | All Maps","name_short":"waw-4","host":"waw-1.pl.uncletopia.com","port":27045,"enabled":true,"region":"eu","cc":"pl","latitude":52.2297,"longitude":21.017532,"reserved":0,"last_update":"0001-01-01T00:00:00Z","name_a2s":"Uncletopia | Warsaw | 4 | All Maps","protocol":17,"map":"pl_swiftwater_final1","folder":"tf","game":"Team Fortress","app_id":440,"player_count":24,"max_players":24,"Bots":0,"server_type":"Dedicated","server_os":"Linux","password":true,"vac":true,"version":"7961495","steam_id":85568392925397853,"keywords":["nocrits","nodmgspread","payload","uncletopia"],"game_id":440,"stv_port":27046,"stv_name":"Uncletopia | Warsaw | 4 | All Maps | STV","players":[{"user_id":108,"name":"MINPJ","steam_id":76561199364106508,"connected_time":2581000000000,"state":"active","ping":55},{"user_id":143,"name":"Accident","steam_id":76561198037232641,"connected_time":469000000000,"state":"active","ping":81},{"user_id":148,"name":"Power","steam_id":76561199026606068,"connected_time":12000000000,"state":"spawning","ping":104},{"user_id":112,"name":"FackOff","steam_id":76561198167353035,"connected_time":2389000000000,"state":"active","ping":48},{"user_id":147,"name":"My left foot itches","steam_id":76561198078411001,"connected_time":146000000000,"state":"active","ping":60},{"user_id":72,"name":"Kiwi","steam_id":76561198973862092,"connected_time":5120000000000,"state":"active","ping":57},{"user_id":73,"name":"pajakala","steam_id":76561198271641525,"connected_time":5114000000000,"state":"active","ping":70},{"user_id":74,"name":"Wesnicak CZ","steam_id":76561198124483688,"connected_time":5109000000000,"state":"active","ping":42},{"user_id":75,"name":"Cikula","steam_id":76561198324384778,"connected_time":5105000000000,"state":"active","ping":67},{"user_id":121,"name":"Pomperipossa","steam_id":76561198011456806,"connected_time":2132000000000,"state":"active","ping":87},{"user_id":77,"name":"Mabert","steam_id":76561198436058407,"connected_time":4902000000000,"state":"active","ping":52},{"user_id":106,"name":"Lorenzo Lovers","steam_id":76561198073973581,"connected_time":2878000000000,"state":"active","ping":96},{"user_id":79,"name":"ashi","steam_id":76561198424646794,"connected_time":4885000000000,"state":"active","ping":85},{"user_id":137,"name":"Nils #freemichi","steam_id":76561198254882979,"connected_time":833000000000,"state":"active","ping":75},{"user_id":102,"name":"Yes","steam_id":76561199036314428,"connected_time":3195000000000,"state":"active","ping":74},{"user_id":115,"name":"raddaway","steam_id":76561197985156003,"connected_time":2360000000000,"state":"active","ping":91},{"user_id":138,"name":"Delere","steam_id":76561198061309755,"connected_time":830000000000,"state":"active","ping":100},{"user_id":123,"name":"ДИНОЗАВР","steam_id":76561198054281705,"connected_time":1957000000000,"state":"active","ping":101},{"user_id":140,"name":"NutSmasherKazimir87","steam_id":76561199116240875,"connected_time":601000000000,"state":"active","ping":77},{"user_id":125,"name":"Seph \u003c3","steam_id":76561198062593199,"connected_time":1829000000000,"state":"active","ping":60},{"user_id":141,"name":"Potato","steam_id":76561198184310425,"connected_time":532000000000,"state":"active","ping":106},{"user_id":134,"name":"Dr_Foxy","steam_id":76561199438046064,"connected_time":1332000000000,"state":"active","ping":77},{"user_id":145,"name":"GAJtheSPY","steam_id":76561198256080023,"connected_time":273000000000,"state":"active","ping":60},{"user_id":146,"name":"IlikeChowMien","steam_id":76561199466131782,"connected_time":247000000000,"state":"active","ping":152}]},{"server_id":53,"name":"Uncletopia | Warsaw | 5 | Stopwatch","name_short":"waw-5","host":"waw-1.pl.uncletopia.com","port":27055,"enabled":true,"region":"eu","cc":"pl","latitude":52.2297,"longitude":21.017532,"reserved":0,"last_update":"0001-01-01T00:00:00Z","name_a2s":"Uncletopia | Warsaw | 5 | Stopwatch","protocol":17,"map":"workshop/koth_product_final.ugc454272353","folder":"tf","game":"Team Fortress","app_id":440,"player_count":0,"max_players":24,"Bots":0,"server_type":"Dedicated","server_os":"Linux","password":true,"vac":true,"version":"7961495","steam_id":85568392925397854,"keywords":["cp","nocrits","nodmgspread","uncletopia"],"game_id":440,"stv_port":27056,"stv_name":"Uncletopia | Warsaw | 5 | Stopwatch | STV","players":null},{"server_id":54,"name":"Uncletopia | Warsaw | 6 | Community","name_short":"waw-6","host":"waw-1.pl.uncletopia.com","port":27065,"enabled":true,"region":"eu","cc":"pl","latitude":52.2297,"longitude":21.017532,"reserved":0,"last_update":"0001-01-01T00:00:00Z","name_a2s":"Uncletopia | Warsaw | 6 | Community","protocol":17,"map":"workshop/koth_kemptown_rc1.ugc767410655","folder":"tf","game":"Team Fortress","app_id":440,"player_count":0,"max_players":24,"Bots":0,"server_type":"Dedicated","server_os":"Linux","password":true,"vac":true,"version":"7961495","steam_id":85568392925397856,"keywords":["cp","nocrits","nodmgspread","uncletopia"],"game_id":440,"stv_port":27066,"stv_name":"Uncletopia | Warsaw | 6 | Community | STV","players":null}]}