{"status":true,"message":"","result":[{"server_id":9,"name":"Uncletopia | Atlanta | 1 | All Maps","name_short":"atl-1","host":"atl-1.us.uncletopia.com","port":27015,"enabled":true,"region":"us-east","cc":"us","latitude":33.753746,"longitude":-84.38633,"reserved":0,"last_update":"0001-01-01T00:00:00Z","name_a2s":"Uncletopia | Atlanta | 1 | All Maps","protocol":17,"map":"koth_cascade","folder":"tf","game":"Team Fortress","app_id":440,"player_count":0,"max_players":24,"Bots":0,"server_type":"Dedicated","server_os":"Linux","password":true,"vac":true,"version":"7757534","steam_id":85568392924469982,"keywords":["cp","nocrits","nodmgspread","uncletopia"],"game_id":440,"stv_port":27016,"stv_name":"Uncletopia | Atlanta | 1 | All Maps | STV","players":null},{"server_id":104,"name":"Uncletopia | Atlanta | 2 | All Maps","name_short":"atl-2","host":"atl-1.us.uncletopia.com","port":27025,"enabled":true,"region":"us-east","cc":"us","latitude":33.753746,"longitude":-84.38633,"reserved":0,"last_update":"0001-01-01T00:00:00Z","name_a2s":"Uncletopia | Atlanta | 2 | All Maps","protocol":17,"map":"cp_dustbowl","folder":"tf","game":"Team Fortress","app_id":440,"player_count":0,"max_players":24,"Bots":0,"server_type":"Dedicated","server_os":"Linux","password":true,"vac":true,"version":"7757534","steam_id":85568392924469983,"keywords":["cp","nocrits","nodmgspread","uncletopia"],"game_id":440,"stv_port":27026,"stv_name":"Uncletopia | Atlanta | 2 | All Maps | STV","players":null},{"server_id":400,"name":"Uncletopia | Atlanta | 3 | Community","name_short":"atl-3","host":"atl-1.us.uncletopia.com","port":27035,"enabled":true,"region":"us-east","cc":"us","latitude":33.753746,"longitude":-84.38633,"reserved":0,"last_update":"0001-01-01T00:00:00Z","name_a2s":"Uncletopia | Atlanta | 3 | Community","protocol":17,"map":"cp_snakewater_final1","folder":"tf","game":"Team Fortress","app_id":440,"player_count":0,"max_players":24,"Bots":0,"server_type":"Dedicated","server_os":"Linux","password":true,"vac":true,"version":"7757534","steam_id":85568392924515187,"keywords":["cp","nocrits","nodmgspread","uncletopia"],"game_id":440,"stv_port":27036,"stv_name":"Uncletopia | Atlanta | 3 | Community | STV","players":null},{"server_id":401,"name":"Uncletopia | Atlanta | 4 | No Payload","name_short":"atl-4","host":"atl-1.us.uncletopia.com","port":27045,"enabled":true,"region":"us-east","cc":"us","latitude":33.753746,"longitude":-84.38633,"reserved":0,"last_update":"0001-01-01T00:00:00Z","name_a2s":"","protocol":0,"map":"","folder":"","game":"","app_id":0,"player_count":0,"max_players":0,"Bots":0,"server_type":"","server_os":"","password":false,"vac":false,"version":"","steam_id":0,"keywords":null,"game_id":0,"stv_port":0,"stv_name":"","players":null},{"server_id":2,"name":"Uncletopia | Chicago | 1 | All Maps","name_short":"chi-1","host":"chi-1.us.uncletopia.com","port":27015,"enabled":true,"region":"us-central","cc":"us","latitude":41.881832,"longitude":-87.62318,"reserved":0,"last_update":"0001-01-01T00:00:00Z","name_a2s":"Uncletopia | Chicago | 1 | All Maps","protocol":17,"map":"cp_sunshine","folder":"tf","game":"Team Fortress","app_id":440,"player_count":19,"max_players":24,"Bots":0,"server_type":"Dedicated","server_os":"Linux","password":true,"vac":true,"version":"7757534","steam_id":85568392924469984,"keywords":["cp","nocrits","nodmgspread","uncletopia"],"game_id":440,"stv_port":27016,"stv_name":"Uncletopia | Chicago | 1 | All Maps | STV","players":[{"user_id":13,"name":"MrPeanutBetter","steam_id":76561199149697526,"connected_time":2365000000000,"state":"active","ping":102},{"user_id":29,"name":"Pizza Vore","steam_id":76561198286114190,"connected_time":697000000000,"state":"active","ping":129},{"user_id":27,"name":"Anarchy","steam_id":76561198283240854,"connected_time":860000000000,"state":"active","ping":71},{"user_id":48,"name":"Cooler FIlet-O-Fish","steam_id":76561198209847111,"connected_time":4000000000,"state":"spawning","ping":76},{"user_id":20,"name":"LloydMann","steam_id":76561198025392778,"connected_time":1303000000000,"state":"active","ping":55},{"user_id":14,"name":"PocketTieAMPLFY","steam_id":76561199080485881,"connected_time":2264000000000,"state":"active","ping":142},{"user_id":15,"name":"Raizen","steam_id":76561199092445367,"connected_time":2243000000000,"state":"active","ping":48},{"user_id":16,"name":"ice cream (冰淇淋)","steam_id":76561198976530881,"connected_time":2188000000000,"state":"active","ping":88},{"user_id":33,"name":"jorjor wells","steam_id":76561199073429082,"connected_time":541000000000,"state":"active","ping":64},{"user_id":30,"name":"The Broken Lightbulb","steam_id":76561198141566312,"connected_time":682000000000,"state":"active","ping":108},{"user_id":45,"name":"dismissy","steam_id":76561198073904781,"connected_time":103000000000,"state":"active","ping":150},{"user_id":35,"name":"Mak","steam_id":76561198089197922,"connected_time":519000000000,"state":"active","ping":102},{"user_id":36,"name":"Legendstorm09","steam_id":76561199131721629,"connected_time":514000000000,"state":"active","ping":51},{"user_id":37,"name":"Jcawb","steam_id":76561198171286687,"connected_time":509000000000,"state":"active","ping":95},{"user_id":38,"name":"Portal2Player","steam_id":76561198062870114,"connected_time":498000000000,"state":"active","ping":74},{"user_id":41,"name":"Frankthetank64","steam_id":76561198362368253,"connected_time":247000000000,"state":"active","ping":81},{"user_id":40,"name":"shadow elite","steam_id":76561198165212575,"connected_time":274000000000,"state":"active","ping":60},{"user_id":43,"name":"Gordon Ramsay","steam_id":76561198123893900,"connected_time":201000000000,"state":"active","ping":72},{"user_id":47,"name":"Gless","steam_id":76561198059194418,"connected_time":56000000000,"state":"active","ping":60}]},{"server_id":106,"name":"Uncletopia | Chicago | 2 | All Maps","name_short":"chi-2","host":"chi-1.us.uncletopia.com","port":27025,"enabled":true,"region":"us-central","cc":"us","latitude":41.881832,"longitude":-87.62318,"reserved":0,"last_update":"0001-01-01T00:00:00Z","name_a2s":"Uncletopia | Chicago | 2 | All Maps","protocol":17,"map":"cp_dustbowl","folder":"tf","game":"Team Fortress","app_id":440,"player_count":4,"max_players":24,"Bots":0,"server_type":"Dedicated","server_os":"Linux","password":true,"vac":true,"version":"7757534","steam_id":85568392924469985,"keywords":["cp","nocrits","nodmgspread","uncletopia"],"game_id":440,"stv_port":27026,"stv_name":"Uncletopia | Chicago | 2 | All Maps | STV","players":[{"user_id":3,"name":"pr4242","steam_id":76561199383650165,"connected_time":1569000000000,"state":"active","ping":188},{"user_id":4,"name":"cagkaan","steam_id":76561198973450658,"connected_time":1556000000000,"state":"active","ping":203},{"user_id":5,"name":"Kirsk","steam_id":76561198084397649,"connected_time":1196000000000,"state":"active","ping":55},{"user_id":6,"name":"+Goober+","steam_id":76561199200969139,"connected_time":228000000000,"state":"active","ping":94}]},{"server_id":402,"name":"Uncletopia | Chicago | 3 | All Maps","name_short":"chi-3","host":"chi-1.us.uncletopia.com","port":27035,"enabled":true,"region":"us-central","cc":"us","latitude":41.881832,"longitude":-87.62318,"reserved":0,"last_update":"0001-01-01T00:00:00Z","name_a2s":"Uncletopia | Chicago | 3 | All Maps","protocol":17,"map":"cp_sunshine","folder":"tf","game":"Team Fortress","app_id":440,"player_count":0,"max_players":24,"Bots":0,"server_type":"Dedicated","server_os":"Linux","password":true,"vac":true,"version":"7757534","steam_id":85568392924515191,"keywords":["cp","nocrits","nodmgspread","uncletopia"],"game_id":440,"stv_port":27036,"stv_name":"Uncletopia | Chicago | 3 | All Maps | STV","players":null},{"server_id":403,"name":"Uncletopia | Chicago | 4 | All Maps","name_short":"chi-4","host":"chi-1.us.uncletopia.com","port":27045,"enabled":true,"region":"us-central","cc":"us","latitude":41.881832,"longitude":-87.62318,"reserved":0,"last_update":"0001-01-01T00:00:00Z","name_a2s":"Uncletopia | Chicago | 4 | All Maps","protocol":17,"map":"koth_lakeside_final","folder":"tf","game":"Team Fortress","app_id":440,"player_count":0,"max_players":24,"Bots":0,"server_type":"Dedicated","server_os":"Linux","password":true,"vac":true,"version":"7757534","steam_id":85568392924515193,"keywords":["cp","nocrits","nodmgspread","uncletopia"],"game_id":440,"stv_port":27046,"stv_name":"Uncletopia | Chicago | 4 | All Maps | STV","players":null},{"server_id":36,"name":"Uncletopia | Chicago | 5 | All Maps","name_short":"chi-5","host":"chi-2.us.uncletopia.com","port":27015,"enabled":true,"region":"us-central","cc":"us","latitude":41.881832,"longitude":-87.62318,"reserved":0,"last_update":"0001-01-01T00:00:00Z","name_a2s":"Uncletopia | Chicago | 5 | All Maps","protocol":17,"map":"koth_cascade","folder":"tf","game":"Team Fortress","app_id":440,"player_count":0,"max_players":24,"Bots":0,"server_type":"Dedicated","server_os":"Linux","password":true,"vac":true,"version":"7757534","steam_id":85568392924866362,"keywords":["cp","nocrits","nodmgspread","uncletopia"],"game_id":440,"stv_port":27016,"stv_name":"Uncletopia | Chicago | 5 | All Maps | STV","players":null},{"server_id":37,"name":"Uncletopia | Chicago | 6 | All Maps","name_short":"chi-6","host":"chi-2.us.uncletopia.com","port":27025,"enabled":true,"region":"us-central","cc":"us","latitude":41.881832,"longitude":-87.62318,"reserved":0,"last_update":"0001-01-01T00:00:00Z","name_a2s":"Uncletopia | Chicago | 6 | All Maps","protocol":17,"map":"pl_borneo","folder":"tf","game":"Team Fortress","app_id":440,"player_count":0,"max_players":24,"Bots":0,"server_type":"Dedicated","server_os":"Linux","password":true,"vac":true,"version":"7757534","steam_id":85568392924866363,"keywords":["nocrits","nodmgspread","payload","uncletopia"],"game_id":440,"stv_port":27026,"stv_name":"Uncletopia | Chicago | 6 | All Maps | STV","players":null},{"server_id":38,"name":"Uncletopia | Chicago | 7 | Stopwatch Beta","name_short":"chi-7","host":"chi-2.us.uncletopia.com","port":27035,"enabled":true,"region":"us-central","cc":"us","latitude":41.881832,"longitude":-87.62318,"reserved":0,"last_update":"0001-01-01T00:00:00Z","name_a2s":"Uncletopia | Chicago | 7 | Stopwatch Beta","protocol":17,"map":"pl_barnblitz","folder":"tf","game":"Team Fortress","app_id":440,"player_count":0,"max_players":24,"Bots":0,"server_type":"Dedicated","server_os":"Linux","password":true,"vac":true,"version":"7757534","steam_id":85568392924866364,"keywords":["nocrits","nodmgspread","payload","uncletopia"],"game_id":440,"stv_port":27036,"stv_name":"Uncletopia | Chicago | 7 | Stopwatch Beta | STV","players":null},{"server_id":39,"name":"Uncletopia | Chicago | 8 | Community","name_short":"chi-8","host":"chi-2.us.uncletopia.com","port":27045,"enabled":true,"region":"us-central","cc":"us","latitude":41.881832,"longitude":-87.62318,"reserved":0,"last_update":"0001-01-01T00:00:00Z","name_a2s":"Uncletopia | Chicago | 8 | Community","protocol":17,"map":"koth_cascade","folder":"tf","game":"Team Fortress","app_id":440,"player_count":0,"max_players":24,"Bots":0,"server_type":"Dedicated","server_os":"Linux","password":true,"vac":true,"version":"7757534","steam_id":85568392924866365,"keywords":["cp","nocrits","nodmgspread","uncletopia"],"game_id":440,"stv_port":27046,"stv_name":"Uncletopia | Chicago | 8 | Community | STV","players":null},{"server_id":8,"name":"Uncletopia | Dallas | 1 | All Maps","name_short":"dal-1","host":"dal-1.us.uncletopia.com","port":27015,"enabled":true,"region":"us-central","cc":"us","latitude":32.779167,"longitude":-96.80889,"reserved":0,"last_update":"0001-01-01T00:00:00Z","name_a2s":"Uncletopia | Dallas | 1 | All Maps","protocol":17,"map":"koth_cascade","folder":"tf","game":"Team Fortress","app_id":440,"player_count":0,"max_players":24,"Bots":0,"server_type":"Dedicated","server_os":"Linux","password":true,"vac":true,"version":"7757534","steam_id":85568392924469986,"keywords":["cp","nocrits","nodmgspread","uncletopia"],"game_id":440,"stv_port":27016,"stv_name":"Uncletopia | Dallas | 1 | All Maps | STV","players":null},{"server_id":108,"name":"Uncletopia | Dallas | 2 | All Maps","name_short":"dal-2","host":"dal-1.us.uncletopia.com","port":27025,"enabled":true,"region":"us-central","cc":"us","latitude":32.779167,"longitude":-96.80889,"reserved":0,"last_update":"0001-01-01T00:00:00Z","name_a2s":"Uncletopia | Dallas | 2 | All Maps","protocol":17,"map":"cp_sunshine","folder":"tf","game":"Team Fortress","app_id":440,"player_count":24,"max_players":24,"Bots":0,"server_type":"Dedicated","server_os":"Linux","password":true,"vac":true,"version":"7757534","steam_id":85568392924469988,"keywords":["cp","nocrits","nodmgspread","uncletopia"],"game_id":440,"stv_port":27026,"stv_name":"Uncletopia | Dallas | 2 | All Maps | STV","players":[{"user_id":100,"name":"Chris","steam_id":76561198180625579,"connected_time":1351000000000,"state":"active","ping":91},{"user_id":72,"name":"This game sucks","steam_id":76561198042007578,"connected_time":2924000000000,"state":"active","ping":60},{"user_id":95,"name":"Fluffy \u003c3 [HUGS]","steam_id":76561198119444962,"connected_time":1487000000000,"state":"active","ping":110},{"user_id":90,"name":"Kysterable | trade.tf","steam_id":76561198152878137,"connected_time":1763000000000,"state":"active","ping":46},{"user_id":65,"name":"ian","steam_id":76561198119616750,"connected_time":3254000000000,"state":"active","ping":64},{"user_id":84,"name":"Splinto","steam_id":76561198111260488,"connected_time":2155000000000,"state":"active","ping":66},{"user_id":107,"name":"Furby","steam_id":76561198170434365,"connected_time":731000000000,"state":"active","ping":115},{"user_id":85,"name":"Cynicalrage #TF2center","steam_id":76561198085805532,"connected_time":1976000000000,"state":"active","ping":63},{"user_id":106,"name":"DaimosZ","steam_id":76561198427670710,"connected_time":783000000000,"state":"active","ping":86},{"user_id":91,"name":"Dankey Kang","steam_id":76561198090232160,"connected_time":1740000000000,"state":"active","ping":88},{"user_id":103,"name":"skullfuck","steam_id":76561198285819311,"connected_time":1123000000000,"state":"active","ping":75},{"user_id":88,"name":"Araganor","steam_id":76561198041988085,"connected_time":1804000000000,"state":"active","ping":48},{"user_id":92,"name":"Meh but good","steam_id":76561199005772246,"connected_time":1721000000000,"state":"active","ping":69},{"user_id":102,"name":"brayayin","steam_id":76561199257286346,"connected_time":1204000000000,"state":"active","ping":157},{"user_id":18,"name":"4 Itchy Tasty","steam_id":76561198009869383,"connected_time":6038000000000,"state":"active","ping":75},{"user_id":75,"name":"TrustworthyStranger","steam_id":76561198154105678,"connected_time":2722000000000,"state":"active","ping":72},{"user_id":110,"name":"Dong","steam_id":76561199030207481,"connected_time":231000000000,"state":"active","ping":47},{"user_id":105,"name":"The Notorious RBG","steam_id":76561198014275148,"connected_time":999000000000,"state":"active","ping":100},{"user_id":109,"name":"Blue Necromancer","steam_id":76561198275755146,"connected_time":394000000000,"state":"active","ping":99},{"user_id":111,"name":"shaderoses","steam_id":76561198070800500,"connected_time":55000000000,"state":"active","ping":79},{"user_id":101,"name":"Joe Swanson","steam_id":76561199089907740,"connected_time":1323000000000,"state":"active","ping":71},{"user_id":54,"name":"Tyler\u0026Fingers","steam_id":76561198085154485,"connected_time":4101000000000,"state":"active","ping":92},{"user_id":108,"name":"THEDINKY","steam_id":76561198190077399,"connected_time":641000000000,"state":"active","ping":76},{"user_id":99,"name":"Mr. Smooooth","steam_id":76561198037566858,"connected_time":1446000000000,"state":"active","ping":87}]},{"server_id":5,"name":"Uncletopia | Frankfurt | 1 | All Maps","name_short":"frk-1","host":"frk-1.de.uncletopia.com","port":27015,"enabled":true,"region":"eu","cc":"de","latitude":50.110924,"longitude":8.682127,"reserved":0,"last_update":"0001-01-01T00:00:00Z","name_a2s":"Uncletopia | Frankfurt | 1 | All Maps","protocol":17,"map":"cp_altitude","folder":"tf","game":"Team Fortress","app_id":440,"player_count":0,"max_players":24,"Bots":0,"server_type":"Dedicated","server_os":"Linux","password":true,"vac":true,"version":"7757534","steam_id":85568392924469989,"keywords":["cp","nocrits","nodmgspread","uncletopia"],"game_id":440,"stv_port":27016,"stv_name":"Uncletopia | Frankfurt | 1 | All Maps | STV","players":null},{"server_id":110,"name":"Uncletopia | Frankfurt | 2 | All Maps","name_short":"frk-2","host":"frk-1.de.uncletopia.com","port":27025,"enabled":true,"region":"eu","cc":"de","latitude":50.110924,"longitude":8.682127,"reserved":0,"last_update":"0001-01-01T00:00:00Z","name_a2s":"Uncletopia | Frankfurt | 2 | All Maps","protocol":17,"map":"koth_lakeside_final","folder":"tf","game":"Team Fortress","app_id":440,"player_count":0,"max_players":24,"Bots":0,"server_type":"Dedicated","server_os":"Linux","password":true,"vac":true,"version":"7757534","steam_id":85568392924469990,"keywords":["cp","nocrits","nodmgspread","uncletopia"],"game_id":440,"stv_port":27026,"stv_name":"Uncletopia | Frankfurt | 2 | All Maps | STV","players":null},{"server_id":308,"name":"Uncletopia | Frankfurt | 3 | All Maps","name_short":"frk-3","host":"frk-1.de.uncletopia.com","port":27035,"enabled":true,"region":"eu","cc":"de","latitude":50.110924,"longitude":8.682127,"reserved":0,"last_update":"0001-01-01T00:00:00Z","name_a2s":"Uncletopia | Frankfurt | 3 | All Maps","protocol":17,"map":"pl_goldrush","folder":"tf","game":"Team Fortress","app_id":440,"player_count":24,"max_players":24,"Bots":0,"server_type":"Dedicated","server_os":"Linux","password":true,"vac":true,"version":"7757534","steam_id":85568392924504274,"keywords":["nocrits","nodmgspread","payload","uncletopia"],"game_id":440,"stv_port":27036,"stv_name":"Uncletopia | Frankfurt | 3 | All Maps | STV","players":[{"user_id":258,"name":"TryX","steam_id":76561199356781475,"connected_time":690000000000,"state":"active","ping":66},{"user_id":198,"name":"decommandpro","steam_id":76561198971647041,"connected_time":4487000000000,"state":"active","ping":72},{"user_id":238,"name":"Zombi3","steam_id":76561198326290621,"connected_time":1404000000000,"state":"active","ping":70},{"user_id":233,"name":"boofing prozac","steam_id":76561198851157897,"connected_time":1680000000000,"state":"active","ping":76},{"user_id":244,"name":"Charles Darwin","steam_id":76561197973496139,"connected_time":1198000000000,"state":"active","ping":56},{"user_id":262,"name":"Deacon Dracul","steam_id":76561198046880663,"connected_time":455000000000,"state":"active","ping":106},{"user_id":221,"name":"Vashontrash99","steam_id":76561199250946319,"connected_time":2339000000000,"state":"active","ping":121},{"user_id":219,"name":"Zpak","steam_id":76561197990304738,"connected_time":2435000000000,"state":"active","ping":132},{"user_id":243,"name":"Renard pos4","steam_id":76561197998908594,"connected_time":1331000000000,"state":"active","ping":68},{"user_id":222,"name":"Алиса [ALTFS]","steam_id":76561197997013232,"connected_time":2318000000000,"state":"active","ping":63},{"user_id":248,"name":"/ffª rilookp","steam_id":76561198143529110,"connected_time":1002000000000,"state":"active","ping":48},{"user_id":239,"name":"Mr.Cobretti","steam_id":76561198089905715,"connected_time":1395000000000,"state":"active","ping":93},{"user_id":245,"name":"UltraDavid42","steam_id":76561198103908668,"connected_time":1092000000000,"state":"active","ping":75},{"user_id":240,"name":"smrk","steam_id":76561198066926098,"connected_time":1393000000000,"state":"active","ping":60},{"user_id":241,"name":"Jargo","steam_id":76561198064231790,"connected_time":1374000000000,"state":"active","ping":77},{"user_id":250,"name":"hourglass","steam_id":76561198166613799,"connected_time":895000000000,"state":"active","ping":82},{"user_id":261,"name":"ObsoleteDrone","steam_id":76561199218804188,"connected_time":568000000000,"state":"active","ping":54},{"user_id":247,"name":"JC Denton(fake)","steam_id":76561198989449047,"connected_time":1062000000000,"state":"active","ping":119},{"user_id":228,"name":"DinBin","steam_id":76561198801591466,"connected_time":2234000000000,"state":"active","ping":94},{"user_id":236,"name":"Melon","steam_id":76561198150893860,"connected_time":1442000000000,"state":"active","ping":63},{"user_id":246,"name":"Stock","steam_id":76561198072547087,"connected_time":1089000000000,"state":"active","ping":61},{"user_id":193,"name":"Sh1n","steam_id":76561199012155377,"connected_time":4776000000000,"state":"active","ping":47},{"user_id":231,"name":"Banana Dispenser","steam_id":76561198446549451,"connected_time":2155000000000,"state":"active","ping":76},{"user_id":257,"name":"gdg","steam_id":76561198263862655,"connected_time":719000000000,"state":"active","ping":59}]},{"server_id":309,"name":"Uncletopia | Frankfurt | 4 | All Maps","name_short":"frk-4","host":"frk-1.de.uncletopia.com","port":27045,"enabled":true,"region":"eu","cc":"de","latitude":50.110924,"longitude":8.682127,"reserved":0,"last_update":"0001-01-01T00:00:00Z","name_a2s":"Uncletopia | Frankfurt | 4 | All Maps","protocol":17,"map":"koth_cascade","folder":"tf","game":"Team Fortress","app_id":440,"player_count":0,"max_players":24,"Bots":0,"server_type":"Dedicated","server_os":"Linux","password":true,"vac":true,"version":"7757534","steam_id":85568392924504275,"keywords":["cp","nocrits","nodmgspread","uncletopia"],"game_id":440,"stv_port":27046,"stv_name":"Uncletopia | Frankfurt | 4 | All Maps | STV","players":null},{"server_id":310,"name":"Uncletopia | Frankfurt | 5 | All Maps","name_short":"frk-5","host":"frk-1.de.uncletopia.com","port":27055,"enabled":true,"region":"eu","cc":"de","latitude":50.110924,"longitude":8.682127,"reserved":0,"last_update":"0001-01-01T00:00:00Z","name_a2s":"Uncletopia | Frankfurt | 5 | All Maps","protocol":17,"map":"pl_borneo","folder":"tf","game":"Team Fortress","app_id":440,"player_count":23,"max_players":24,"Bots":0,"server_type":"Dedicated","server_os":"Linux","password":true,"vac":true,"version":"7757534","steam_id":85568392924504277,"keywords":["nocrits","nodmgspread","payload","uncletopia"],"game_id":440,"stv_port":27056,"stv_name":"Uncletopia | Frankfurt | 5 | All Maps | STV","players":[{"user_id":116,"name":"Edison Trent","steam_id":76561198067133145,"connected_time":557000000000,"state":"active","ping":50},{"user_id":99,"name":"fénix","steam_id":76561198083199151,"connected_time":1171000000000,"state":"active","ping":60},{"user_id":91,"name":"LawrenceFishdom","steam_id":76561199190918059,"connected_time":1628000000000,"state":"active","ping":74},{"user_id":108,"name":"___ЭLIfiЙсКИЙ СHAЙПER_","steam_id":76561199389774464,"connected_time":769000000000,"state":"active","ping":100},{"user_id":122,"name":"THVG","steam_id":76561199156685368,"connected_time":399000000000,"state":"active","ping":60},{"user_id":114,"name":"donal rump","steam_id":76561198136239861,"connected_time":596000000000,"state":"active","ping":60},{"user_id":81,"name":"Hoff","steam_id":76561198138540938,"connected_time":2396000000000,"state":"active","ping":71},{"user_id":117,"name":"Lessoz","steam_id":76561199211572036,"connected_time":513000000000,"state":"active","ping":96},{"user_id":82,"name":"CNTRL","steam_id":76561199125803827,"connected_time":2396000000000,"state":"active","ping":70},{"user_id":24,"name":"badrobot","steam_id":76561198322878356,"connected_time":5890000000000,"state":"active","ping":103},{"user_id":113,"name":"Dorich","steam_id":76561198287126217,"connected_time":684000000000,"state":"active","ping":57},{"user_id":120,"name":"Grelamass","steam_id":76561199372198864,"connected_time":457000000000,"state":"active","ping":89},{"user_id":86,"name":"KGiorgios_Bully","steam_id":76561198825392728,"connected_time":1833000000000,"state":"active","ping":106},{"user_id":93,"name":"MRLOLENO","steam_id":76561198450911838,"connected_time":1463000000000,"state":"active","ping":59},{"user_id":121,"name":"blackballs@yeniakit.com.tr","steam_id":76561198887626156,"connected_time":407000000000,"state":"active","ping":145},{"user_id":65,"name":"Akisян","steam_id":76561198078706435,"connected_time":3283000000000,"state":"active","ping":75},{"user_id":107,"name":"Mr. Hunts","steam_id":76561197981910397,"connected_time":816000000000,"state":"active","ping":73},{"user_id":78,"name":"epicgamerfb42","steam_id":76561198057046524,"connected_time":2474000000000,"state":"active","ping":88},{"user_id":118,"name":"Homosapien","steam_id":76561197972035953,"connected_time":501000000000,"state":"active","ping":51},{"user_id":95,"name":"Amandus","steam_id":76561198036281079,"connected_time":1452000000000,"state":"active","ping":61},{"user_id":123,"name":"Yellow Sarong","steam_id":76561198114056695,"connected_time":110000000000,"state":"active","ping":90},{"user_id":103,"name":"THE Mann","steam_id":76561198118064038,"connected_time":833000000000,"state":"active","ping":59},{"user_id":111,"name":"Dogwalker","steam_id":76561197985561055,"connected_time":744000000000,"state":"active","ping":61}]},{"server_id":311,"name":"Uncletopia | Frankfurt | 6 | All Maps","name_short":"frk-6","host":"frk-1.de.uncletopia.com","port":27065,"enabled":true,"region":"eu","cc":"de","latitude":50.110924,"longitude":8.682127,"reserved":0,"last_update":"0001-01-01T00:00:00Z","name_a2s":"Uncletopia | Frankfurt | 6 | All Maps","protocol":17,"map":"pl_frontier_final","folder":"tf","game":"Team Fortress","app_id":440,"player_count":0,"max_players":24,"Bots":0,"server_type":"Dedicated","server_os":"Linux","password":true,"vac":true,"version":"7757534","steam_id":85568392924504278,"keywords":["nocrits","nodmgspread","payload","uncletopia"],"game_id":440,"stv_port":27066,"stv_name":"Uncletopia | Frankfurt | 6 | All Maps | STV","players":null},{"server_id":23,"name":"Uncletopia | Frankfurt | 7 | Stopwatch Beta","name_short":"frk-7","host":"frk-1.de.uncletopia.com","port":27075,"enabled":true,"region":"eu","cc":"de","latitude":50.110924,"longitude":8.682127,"reserved":0,"last_update":"0001-01-01T00:00:00Z","name_a2s":"Uncletopia | Frankfurt | 7 | Stopwatch Beta","protocol":17,"map":"workshop/koth_ramjam_rc1.ugc459778887","folder":"tf","game":"Team Fortress","app_id":440,"player_count":0,"max_players":24,"Bots":0,"server_type":"Dedicated","server_os":"Linux","password":true,"vac":true,"version":"7757534","steam_id":85568392924742827,"keywords":["cp","nocrits","nodmgspread","uncletopia"],"game_id":440,"stv_port":27076,"stv_name":"Uncletopia | Frankfurt | 7 | Stopwatch Beta | STV","players":null},{"server_id":24,"name":"Uncletopia | Frankfurt | 8 | Community","name_short":"frk-8","host":"frk-1.de.uncletopia.com","port":27085,"enabled":true,"region":"eu","cc":"de","latitude":50.110924,"longitude":8.682127,"reserved":0,"last_update":"0001-01-01T00:00:00Z","name_a2s":"Uncletopia | Frankfurt | 8 | Community","protocol":17,"map":"workshop/pl_highwood_b13.ugc1769496557","folder":"tf","game":"Team Fortress","app_id":440,"player_count":0,"max_players":24,"Bots":0,"server_type":"Dedicated","server_os":"Linux","password":true,"vac":true,"version":"7757534","steam_id":85568392924742828,"keywords":["nocrits","nodmgspread","payload","uncletopia"],"game_id":440,"stv_port":27086,"stv_name":"Uncletopia | Frankfurt | 8 | Community | STV","players":null},{"server_id":202,"name":"Uncletopia | Hong Kong | 1 | All Maps","name_short":"hgk-1","host":"hgk-1.hk.uncletopia.com","port":27015,"enabled":true,"region":"asia","cc":"hk","latitude":22.302711,"longitude":114.177216,"reserved":0,"last_update":"0001-01-01T00:00:00Z","name_a2s":"Uncletopia | Hong Kong | 1 | All Maps","protocol":17,"map":"pl_frontier_final","folder":"tf","game":"Team Fortress","app_id":440,"player_count":21,"max_players":24,"Bots":0,"server_type":"Dedicated","server_os":"Linux","password":true,"vac":true,"version":"7757534","steam_id":85568392924494504,"keywords":["nocrits","nodmgspread","payload","uncletopia"],"game_id":440,"stv_port":27016,"stv_name":"Uncletopia | Hong Kong | 1 | All Maps | STV","players":[{"user_id":296,"name":"AmaiRetarded","steam_id":76561199122491157,"connected_time":757000000000,"state":"active","ping":135},{"user_id":240,"name":"tiden2000","steam_id":76561198092969425,"connected_time":6107000000000,"state":"active","ping":99},{"user_id":270,"name":"lax","steam_id":76561198798674165,"connected_time":2942000000000,"state":"active","ping":54},{"user_id":280,"name":"Stupid B","steam_id":76561198131423270,"connected_time":1900000000000,"state":"active","ping":89},{"user_id":276,"name":"Water Buffalo","steam_id":76561198200672038,"connected_time":2500000000000,"state":"active","ping":92},{"user_id":303,"name":"Pillboi","steam_id":76561198011172886,"connected_time":74000000000,"state":"active","ping":42},{"user_id":304,"name":"煙海 | Enkai","steam_id":76561198050460825,"connected_time":43000000000,"state":"active","ping":72},{"user_id":301,"name":"Batbob","steam_id":76561198999413123,"connected_time":91000000000,"state":"active","ping":79},{"user_id":269,"name":"17","steam_id":76561198241530712,"connected_time":3048000000000,"state":"active","ping":59},{"user_id":305,"name":"mosqito","steam_id":76561198195487041,"connected_time":13000000000,"state":"spawning","ping":295},{"user_id":277,"name":"Puni","steam_id":76561197960770692,"connected_time":2390000000000,"state":"active","ping":60},{"user_id":202,"name":"vintage","steam_id":76561198230213828,"connected_time":9786000000000,"state":"active","ping":60},{"user_id":299,"name":"Noyour","steam_id":76561198323259830,"connected_time":109000000000,"state":"active","ping":117},{"user_id":295,"name":"쿠키","steam_id":76561197997220367,"connected_time":776000000000,"state":"active","ping":42},{"user_id":300,"name":"Hallucates","steam_id":76561198872636453,"connected_time":95000000000,"state":"active","ping":89},{"user_id":273,"name":"why6","steam_id":76561199126937183,"connected_time":2867000000000,"state":"active","ping":192},{"user_id":180,"name":"Bertengkar","steam_id":76561198213031155,"connected_time":11745000000000,"state":"active","ping":90},{"user_id":274,"name":"Ray William Johnson","steam_id":76561199014675406,"connected_time":2775000000000,"state":"active","ping":130},{"user_id":302,"name":"Dirt","steam_id":76561199445694770,"connected_time":90000000000,"state":"active","ping":528},{"user_id":237,"name":"Steve","steam_id":76561198429235506,"connected_time":6805000000000,"state":"active","ping":73},{"user_id":264,"name":"ghuzik","steam_id":76561199107596818,"connected_time":3382000000000,"state":"active","ping":116}]},{"server_id":1,"name":"Uncletopia | Los Angeles | 1 | All Maps","name_short":"lax-1","host":"lax-1.us.uncletopia.com","port":27015,"enabled":true,"region":"us-west","cc":"us","latitude":33.94279,"longitude":-118.41004,"reserved":0,"last_update":"0001-01-01T00:00:00Z","name_a2s":"Uncletopia | Los Angeles | 1 | All Maps","protocol":17,"map":"pl_swiftwater_final1","folder":"tf","game":"Team Fortress","app_id":440,"player_count":0,"max_players":24,"Bots":0,"server_type":"Dedicated","server_os":"Linux","password":true,"vac":true,"version":"7757534","steam_id":85568392924469991,"keywords":["nocrits","nodmgspread","payload","uncletopia"],"game_id":440,"stv_port":27016,"stv_name":"Uncletopia | Los Angeles | 1 | All Maps | STV","players":null},{"server_id":112,"name":"Uncletopia | Los Angeles | 2 | All Maps","name_short":"lax-2","host":"lax-1.us.uncletopia.com","port":27025,"enabled":true,"region":"us-west","cc":"us","latitude":33.94279,"longitude":-118.41004,"reserved":0,"last_update":"0001-01-01T00:00:00Z","name_a2s":"Uncletopia | Los Angeles | 2 | All Maps","protocol":17,"map":"koth_cascade","folder":"tf","game":"Team Fortress","app_id":440,"player_count":0,"max_players":24,"Bots":0,"server_type":"Dedicated","server_os":"Linux","password":true,"vac":true,"version":"7757534","steam_id":85568392924469992,"keywords":["cp","nocrits","nodmgspread","uncletopia"],"game_id":440,"stv_port":27026,"stv_name":"Uncletopia | Los Angeles | 2 | All Maps | STV","players":null},{"server_id":324,"name":"Uncletopia | Los Angeles | 3 | All Maps","name_short":"lax-3","host":"lax-1.us.uncletopia.com","port":27035,"enabled":true,"region":"us-west","cc":"us","latitude":33.94279,"longitude":-118.41004,"reserved":0,"last_update":"0001-01-01T00:00:00Z","name_a2s":"Uncletopia | Los Angeles | 3 | All Maps","protocol":17,"map":"pl_swiftwater_final1","folder":"tf","game":"Team Fortress","app_id":440,"player_count":0,"max_players":24,"Bots":0,"server_type":"Dedicated","server_os":"Linux","password":true,"vac":true,"version":"7757534","steam_id":85568392924510198,"keywords":["nocrits","nodmgspread","payload","uncletopia"],"game_id":440,"stv_port":27036,"stv_name":"Uncletopia | Los Angeles | 3 | All Maps | STV","players":null},{"server_id":25,"name":"Uncletopia | Los Angeles | 4 | Stopwatch Beta","name_short":"lax-4","host":"lax-1.us.uncletopia.com","port":27045,"enabled":true,"region":"us-west","cc":"us","latitude":33.94279,"longitude":-118.41004,"reserved":0,"last_update":"0001-01-01T00:00:00Z","name_a2s":"Uncletopia | Los Angeles | 4 | Stopwatch Beta","protocol":17,"map":"pl_swiftwater_final1","folder":"tf","game":"Team Fortress","app_id":440,"player_count":0,"max_players":24,"Bots":0,"server_type":"Dedicated","server_os":"Linux","password":true,"vac":true,"version":"7757534","steam_id":85568392924510199,"keywords":["nocrits","nodmgspread","payload","uncletopia"],"game_id":440,"stv_port":27046,"stv_name":"Uncletopia | Los Angeles | 4 | Stopwatch Beta | STV","players":null},{"server_id":11,"name":"Uncletopia | London | 1 | All Maps","name_short":"lon-1","host":"lon-1.uk.uncletopia.com","port":27015,"enabled":true,"region":"eu","cc":"gb","latitude":51.509865,"longitude":-0.118092,"reserved":0,"last_update":"0001-01-01T00:00:00Z","name_a2s":"Uncletopia | London | 1 | All Maps","protocol":17,"map":"cp_gorge","folder":"tf","game":"Team Fortress","app_id":440,"player_count":24,"max_players":24,"Bots":0,"server_type":"Dedicated","server_os":"Linux","password":true,"vac":true,"version":"7757534","steam_id":85568392924367362,"keywords":["cp","nocrits","nodmgspread","uncletopia"],"game_id":440,"stv_port":27016,"stv_name":"Uncletopia | London | 1 | All Maps | STV","players":[{"user_id":206,"name":"Asda","steam_id":76561198210348121,"connected_time":566000000000,"state":"active","ping":61},{"user_id":187,"name":"pozdrowie","steam_id":76561198056207149,"connected_time":2110000000000,"state":"active","ping":83},{"user_id":215,"name":"yeldad","steam_id":76561198447264153,"connected_time":262000000000,"state":"active","ping":116},{"user_id":209,"name":"Tywhip","steam_id":76561199207545191,"connected_time":451000000000,"state":"active","ping":54},{"user_id":171,"name":"Procrastination","steam_id":76561198060012688,"connected_time":3472000000000,"state":"active","ping":58},{"user_id":217,"name":"Mop","steam_id":76561198822725169,"connected_time":211000000000,"state":"active","ping":58},{"user_id":210,"name":"Kafe","steam_id":76561198083673594,"connected_time":416000000000,"state":"active","ping":52},{"user_id":204,"name":"Topme","steam_id":76561198091734693,"connected_time":685000000000,"state":"active","ping":60},{"user_id":175,"name":"Hu Yuu Hai Ding","steam_id":76561198254210743,"connected_time":3319000000000,"state":"active","ping":46},{"user_id":198,"name":"Amon Ynous","steam_id":76561198034312260,"connected_time":833000000000,"state":"active","ping":70},{"user_id":218,"name":"scroted sigma freud","steam_id":76561198162462063,"connected_time":132000000000,"state":"active","ping":47},{"user_id":191,"name":"kiki","steam_id":76561198838277022,"connected_time":1835000000000,"state":"active","ping":76},{"user_id":211,"name":"Johan","steam_id":76561198145639903,"connected_time":406000000000,"state":"active","ping":93},{"user_id":192,"name":"cult","steam_id":76561198188647690,"connected_time":1577000000000,"state":"active","ping":74},{"user_id":200,"name":"Anax'em","steam_id":76561198082071324,"connected_time":819000000000,"state":"active","ping":49},{"user_id":208,"name":"LuCroGi","steam_id":76561198057283891,"connected_time":454000000000,"state":"active","ping":58},{"user_id":127,"name":"fume.","steam_id":76561197960476801,"connected_time":6803000000000,"state":"active","ping":55},{"user_id":193,"name":"Greenmaker","steam_id":76561198060466591,"connected_time":1550000000000,"state":"active","ping":96},{"user_id":190,"name":"I BOIL SMALL PUPPIES ALIVE","steam_id":76561198388750592,"connected_time":2016000000000,"state":"active","ping":65},{"user_id":203,"name":"boneez","steam_id":76561198186800982,"connected_time":698000000000,"state":"active","ping":61},{"user_id":181,"name":"Happy Tree Friends","steam_id":76561198110694072,"connected_time":2873000000000,"state":"active","ping":138},{"user_id":197,"name":"Der Geist des Hans Rosling","steam_id":76561198049231109,"connected_time":834000000000,"state":"active","ping":71},{"user_id":201,"name":"Kitsune","steam_id":76561198075160802,"connected_time":818000000000,"state":"active","ping":42},{"user_id":213,"name":"arb.haziraj","steam_id":76561199389363921,"connected_time":360000000000,"state":"active","ping":91}]},{"server_id":114,"name":"Uncletopia | London | 2 | All Maps","name_short":"lon-2","host":"lon-1.uk.uncletopia.com","port":27025,"enabled":true,"region":"eu","cc":"gb","latitude":51.509865,"longitude":-0.118092,"reserved":0,"last_update":"0001-01-01T00:00:00Z","name_a2s":"Uncletopia | London | 2 | All Maps","protocol":17,"map":"pl_pier","folder":"tf","game":"Team Fortress","app_id":440,"player_count":0,"max_players":24,"Bots":0,"server_type":"Dedicated","server_os":"Linux","password":true,"vac":true,"version":"7757534","steam_id":85568392924470941,"keywords":["nocrits","nodmgspread","payload","uncletopia"],"game_id":440,"stv_port":27026,"stv_name":"Uncletopia | London | 2 | All Maps | STV","players":null},{"server_id":320,"name":"Uncletopia | London | 3 | All Maps","name_short":"lon-3","host":"lon-1.uk.uncletopia.com","port":27035,"enabled":true,"region":"eu","cc":"gb","latitude":51.509865,"longitude":-0.118092,"reserved":0,"last_update":"0001-01-01T00:00:00Z","name_a2s":"Uncletopia | London | 3 | All Maps","protocol":17,"map":"cp_mountainlab","folder":"tf","game":"Team Fortress","app_id":440,"player_count":24,"max_players":24,"Bots":0,"server_type":"Dedicated","server_os":"Linux","password":true,"vac":true,"version":"7757534","steam_id":85568392924510192,"keywords":["cp","nocrits","nodmgspread","uncletopia"],"game_id":440,"stv_port":27036,"stv_name":"Uncletopia | London | 3 | All Maps | STV","players":[{"user_id":10,"name":"Piquesque","steam_id":76561198286763046,"connected_time":3267000000000,"state":"active","ping":108},{"user_id":4,"name":"abdelmajeedmowafaq","steam_id":76561199470606396,"connected_time":3515000000000,"state":"active","ping":119},{"user_id":5,"name":"Slice :)","steam_id":76561198081699492,"connected_time":3493000000000,"state":"active","ping":65},{"user_id":54,"name":"Alexfanet","steam_id":76561198073013434,"connected_time":1050000000000,"state":"active","ping":104},{"user_id":8,"name":"RiX","steam_id":76561197969053733,"connected_time":3345000000000,"state":"active","ping":64},{"user_id":40,"name":"Flare","steam_id":76561198039098320,"connected_time":2333000000000,"state":"active","ping":49},{"user_id":60,"name":"Riel","steam_id":76561198066017633,"connected_time":646000000000,"state":"active","ping":60},{"user_id":26,"name":"Kek meister 8 mil","steam_id":76561197989904384,"connected_time":2830000000000,"state":"active","ping":63},{"user_id":14,"name":"Delab","steam_id":76561198846356572,"connected_time":3137000000000,"state":"active","ping":97},{"user_id":15,"name":"SCP-096","steam_id":76561199145272393,"connected_time":3136000000000,"state":"active","ping":56},{"user_id":39,"name":"Quasimodo","steam_id":76561198143450673,"connected_time":2345000000000,"state":"active","ping":100},{"user_id":51,"name":"spxcy","steam_id":76561198080296853,"connected_time":1154000000000,"state":"active","ping":91},{"user_id":18,"name":"Baguette","steam_id":76561199069435825,"connected_time":3019000000000,"state":"active","ping":47},{"user_id":43,"name":"Tzujko","steam_id":76561198414707694,"connected_time":2099000000000,"state":"active","ping":85},{"user_id":61,"name":"Plop_","steam_id":76561198112567921,"connected_time":478000000000,"state":"active","ping":38},{"user_id":38,"name":"DizZe","steam_id":76561198139700453,"connected_time":2452000000000,"state":"active","ping":94},{"user_id":58,"name":"August","steam_id":76561198279754524,"connected_time":719000000000,"state":"active","ping":57},{"user_id":52,"name":"TheClownKing","steam_id":76561198992128427,"connected_time":1150000000000,"state":"active","ping":57},{"user_id":25,"name":"✪ qua ✪","steam_id":76561198066408333,"connected_time":2843000000000,"state":"active","ping":82},{"user_id":53,"name":"Sharkplut","steam_id":76561198973649647,"connected_time":1134000000000,"state":"active","ping":65},{"user_id":57,"name":"Kumquat","steam_id":76561198200490386,"connected_time":837000000000,"state":"active","ping":73},{"user_id":65,"name":"jill valentine","steam_id":76561198075068529,"connected_time":8000000000,"state":"spawning","ping":61},{"user_id":35,"name":"。。。","steam_id":76561198101624996,"connected_time":2589000000000,"state":"active","ping":97},{"user_id":59,"name":"Shark Petter","steam_id":76561198358801819,"connected_time":690000000000,"state":"active","ping":72}]},{"server_id":321,"name":"Uncletopia | London | 4 | All Maps","name_short":"lon-4","host":"lon-1.uk.uncletopia.com","port":27045,"enabled":true,"region":"eu","cc":"gb","latitude":51.509865,"longitude":-0.118092,"reserved":0,"last_update":"0001-01-01T00:00:00Z","name_a2s":"Uncletopia | London | 4 | All Maps","protocol":17,"map":"pl_frontier_final","folder":"tf","game":"Team Fortress","app_id":440,"player_count":0,"max_players":24,"Bots":0,"server_type":"Dedicated","server_os":"Linux","password":true,"vac":true,"version":"7757534","steam_id":85568392924510193,"keywords":["nocrits","nodmgspread","payload","uncletopia"],"game_id":440,"stv_port":27046,"stv_name":"Uncletopia | London | 4 | All Maps | STV","players":null},{"server_id":21,"name":"Uncletopia | London | 5 | All Maps","name_short":"lon-5","host":"lon-1.uk.uncletopia.com","port":27055,"enabled":true,"region":"eu","cc":"gb","latitude":51.509865,"longitude":-0.118092,"reserved":0,"last_update":"0001-01-01T00:00:00Z","name_a2s":"Uncletopia | London | 5 | All Maps","protocol":17,"map":"pl_borneo","folder":"tf","game":"Team Fortress","app_id":440,"player_count":0,"max_players":24,"Bots":0,"server_type":"Dedicated","server_os":"Linux","password":true,"vac":true,"version":"7757534","steam_id":85568392924742829,"keywords":["nocrits","nodmgspread","payload","uncletopia"],"game_id":440,"stv_port":27056,"stv_name":"Uncletopia | London | 5 | All Maps | STV","players":null},{"server_id":22,"name":"Uncletopia | London | 6 | All Maps","name_short":"lon-6","host":"lon-1.uk.uncletopia.com","port":27065,"enabled":true,"region":"eu","cc":"gb","latitude":51.509865,"longitude":-0.118092,"reserved":0,"last_update":"0001-01-01T00:00:00Z","name_a2s":"Uncletopia | London | 6 | All Maps","protocol":17,"map":"cp_mountainlab","folder":"tf","game":"Team Fortress","app_id":440,"player_count":0,"max_players":24,"Bots":0,"server_type":"Dedicated","server_os":"Linux","password":true,"vac":true,"version":"7757534","steam_id":85568392924742830,"keywords":["cp","nocrits","nodmgspread","uncletopia"],"game_id":440,"stv_port":27066,"stv_name":"Uncletopia | London | 6 | All Maps | STV","players":null},{"server_id":40,"name":"Uncletopia | London | 7 | No Payload","name_short":"lon-7","host":"lon-1.uk.uncletopia.com","port":27075,"enabled":true,"region":"eu","cc":"gb","latitude":51.509865,"longitude":-0.118092,"reserved":0,"last_update":"0001-01-01T00:00:00Z","name_a2s":"Uncletopia | London | 7 | No Payload","protocol":17,"map":"pl_badwater","folder":"tf","game":"Team Fortress","app_id":440,"player_count":0,"max_players":24,"Bots":0,"server_type":"Dedicated","server_os":"Linux","password":true,"vac":true,"version":"7757534","steam_id":85568392924964314,"keywords":["nocrits","nodmgspread","payload","uncletopia"],"game_id":440,"stv_port":27076,"stv_name":"Uncletopia | London | 7 | No Payload | STV","players":null},{"server_id":41,"name":"Uncletopia | London | 8 | Community","name_short":"lon-8","host":"lon-1.uk.uncletopia.com","port":27085,"enabled":true,"region":"eu","cc":"gb","latitude":51.509865,"longitude":-0.118092,"reserved":0,"last_update":"0001-01-01T00:00:00Z","name_a2s":"Uncletopia | London | 8 | Community","protocol":17,"map":"pl_barnblitz","folder":"tf","game":"Team Fortress","app_id":440,"player_count":0,"max_players":24,"Bots":0,"server_type":"Dedicated","server_os":"Linux","password":true,"vac":true,"version":"7757534","steam_id":85568392924964315,"keywords":["nocrits","nodmgspread","payload","uncletopia"],"game_id":440,"stv_port":27086,"stv_name":"Uncletopia | London | 8 | Community | STV","players":null},{"server_id":300,"name":"Uncletopia | Montréal | 1 | All Maps","name_short":"mtl-1","host":"mtl-1.ca.uncletopia.com","port":27015,"enabled":true,"region":"us-east","cc":"ca","latitude":45.50889,"longitude":-73.56167,"reserved":0,"last_update":"0001-01-01T00:00:00Z","name_a2s":"Uncletopia | Montréal | 1 | All Maps","protocol":17,"map":"pl_upward","folder":"tf","game":"Team Fortress","app_id":440,"player_count":0,"max_players":24,"Bots":0,"server_type":"Dedicated","server_os":"Linux","password":true,"vac":true,"version":"7757534","steam_id":85568392924500087,"keywords":["nocrits","nodmgspread","payload","uncletopia"],"game_id":440,"stv_port":27016,"stv_name":"Uncletopia | Montréal | 1 | All Maps | STV","players":null},{"server_id":301,"name":"Uncletopia | Montréal | 2 | All Maps","name_short":"mtl-2","host":"mtl-1.ca.uncletopia.com","port":27025,"enabled":true,"region":"us-east","cc":"ca","latitude":45.50889,"longitude":-73.56167,"reserved":0,"last_update":"0001-01-01T00:00:00Z","name_a2s":"Uncletopia | Montréal | 2 | All Maps","protocol":17,"map":"pl_snowycoast","folder":"tf","game":"Team Fortress","app_id":440,"player_count":0,"max_players":24,"Bots":0,"server_type":"Dedicated","server_os":"Linux","password":true,"vac":true,"version":"7757534","steam_id":85568392924500088,"keywords":["nocrits","nodmgspread","payload","uncletopia"],"game_id":440,"stv_port":27026,"stv_name":"Uncletopia | Montréal | 2 | All Maps | STV","players":null},{"server_id":302,"name":"Uncletopia | Montréal | 3 | All Maps","name_short":"mtl-3","host":"mtl-1.ca.uncletopia.com","port":27035,"enabled":true,"region":"us-east","cc":"ca","latitude":45.50889,"longitude":-73.56167,"reserved":0,"last_update":"0001-01-01T00:00:00Z","name_a2s":"Uncletopia | Montréal | 3 | All Maps","protocol":17,"map":"pl_swiftwater_final1","folder":"tf","game":"Team Fortress","app_id":440,"player_count":0,"max_players":24,"Bots":0,"server_type":"Dedicated","server_os":"Linux","password":true,"vac":true,"version":"7757534","steam_id":85568392924500089,"keywords":["nocrits","nodmgspread","payload","uncletopia"],"game_id":440,"stv_port":27036,"stv_name":"Uncletopia | Montréal | 3 | All Maps | STV","players":null},{"server_id":303,"name":"Uncletopia | Montréal | 4 | No Payload","name_short":"mtl-4","host":"mtl-1.ca.uncletopia.com","port":27045,"enabled":true,"region":"us-east","cc":"ca","latitude":45.50889,"longitude":-73.56167,"reserved":0,"last_update":"0001-01-01T00:00:00Z","name_a2s":"Uncletopia | Montréal | 4 | No Payload","protocol":17,"map":"cp_gravelpit","folder":"tf","game":"Team Fortress","app_id":440,"player_count":0,"max_players":24,"Bots":0,"server_type":"Dedicated","server_os":"Linux","password":true,"vac":true,"version":"7757534","steam_id":85568392924500090,"keywords":["cp","nocrits","nodmgspread","uncletopia"],"game_id":440,"stv_port":27046,"stv_name":"Uncletopia | Montréal | 4 | No Payload | STV","players":null},{"server_id":13,"name":"Uncletopia | New York City | 1 | All Maps","name_short":"nyc-1","host":"nyc-1.us.uncletopia.com","port":27015,"enabled":true,"region":"us-east","cc":"us","latitude":40.73061,"longitude":-73.93524,"reserved":0,"last_update":"0001-01-01T00:00:00Z","name_a2s":"Uncletopia | New York City | 1 | All Maps","protocol":17,"map":"koth_viaduct","folder":"tf","game":"Team Fortress","app_id":440,"player_count":0,"max_players":24,"Bots":0,"server_type":"Dedicated","server_os":"Linux","password":true,"vac":true,"version":"7757534","steam_id":85568392924469993,"keywords":["cp","nocrits","nodmgspread","uncletopia"],"game_id":440,"stv_port":27016,"stv_name":"Uncletopia | New York City | 1 | All Maps | STV","players":null},{"server_id":14,"name":"Uncletopia | New York City | 2 | All Maps","name_short":"nyc-2","host":"nyc-1.us.uncletopia.com","port":27025,"enabled":true,"region":"us-east","cc":"us","latitude":40.73061,"longitude":-73.93524,"reserved":0,"last_update":"0001-01-01T00:00:00Z","name_a2s":"Uncletopia | New York City | 2 | All Maps","protocol":17,"map":"pl_badwater","folder":"tf","game":"Team Fortress","app_id":440,"player_count":0,"max_players":24,"Bots":0,"server_type":"Dedicated","server_os":"Linux","password":true,"vac":true,"version":"7757534","steam_id":85568392924469994,"keywords":["nocrits","nodmgspread","payload","uncletopia"],"game_id":440,"stv_port":27026,"stv_name":"Uncletopia | New York City | 2 | All Maps | STV","players":null},{"server_id":15,"name":"Uncletopia | New York City | 3 | Stopwatch Beta","name_short":"nyc-3","host":"nyc-1.us.uncletopia.com","port":27035,"enabled":true,"region":"us-east","cc":"us","latitude":40.73061,"longitude":-73.93524,"reserved":0,"last_update":"0001-01-01T00:00:00Z","name_a2s":"Uncletopia | New York City | 3 | Stopwatch Beta","protocol":17,"map":"pl_upward","folder":"tf","game":"Team Fortress","app_id":440,"player_count":0,"max_players":24,"Bots":0,"server_type":"Dedicated","server_os":"Linux","password":true,"vac":true,"version":"7757534","steam_id":85568392924742820,"keywords":["nocrits","nodmgspread","payload","uncletopia"],"game_id":440,"stv_port":27036,"stv_name":"Uncletopia | New York City | 3 | Stopwatch Beta | STV","players":null},{"server_id":16,"name":"Uncletopia | New York City | 4 | Community","name_short":"nyc-4","host":"nyc-1.us.uncletopia.com","port":27045,"enabled":true,"region":"us-east","cc":"us","latitude":40.73061,"longitude":-73.93524,"reserved":0,"last_update":"0001-01-01T00:00:00Z","name_a2s":"Uncletopia | New York City | 4 | Community","protocol":17,"map":"pl_swiftwater_final1","folder":"tf","game":"Team Fortress","app_id":440,"player_count":0,"max_players":24,"Bots":0,"server_type":"Dedicated","server_os":"Linux","password":true,"vac":true,"version":"7757534","steam_id":85568392924742821,"keywords":["nocrits","nodmgspread","payload","uncletopia"],"game_id":440,"stv_port":27046,"stv_name":"Uncletopia | New York City | 4 | Community | STV","players":null},{"server_id":142,"name":"Uncletopia | São Paulo | 1 | All Maps","name_short":"sao-1","host":"sao-1.br.uncletopia.com","port":27015,"enabled":true,"region":"sa","cc":"br","latitude":-23.533773,"longitude":-46.62529,"reserved":0,"last_update":"0001-01-01T00:00:00Z","name_a2s":"Uncletopia | São Paulo | 1 | All Maps","protocol":17,"map":"koth_lakeside_final","folder":"tf","game":"Team Fortress","app_id":440,"player_count":0,"max_players":24,"Bots":0,"server_type":"Dedicated","server_os":"Linux","password":true,"vac":true,"version":"7757534","steam_id":85568392924469996,"keywords":["cp","nocrits","nodmgspread","uncletopia"],"game_id":440,"stv_port":27016,"stv_name":"Uncletopia | São Paulo | 1 | All Maps | STV","players":null},{"server_id":143,"name":"Uncletopia | São Paulo | 2 | All Maps","name_short":"sao-2","host":"sao-2.br.uncletopia.com","port":27015,"enabled":true,"region":"sa","cc":"br","latitude":-23.533773,"longitude":-46.62529,"reserved":0,"last_update":"0001-01-01T00:00:00Z","name_a2s":"Uncletopia | São Paulo | 2 | All Maps","protocol":17,"map":"cp_process_final","folder":"tf","game":"Team Fortress","app_id":440,"player_count":0,"max_players":24,"Bots":0,"server_type":"Dedicated","server_os":"Linux","password":true,"vac":true,"version":"7757534","steam_id":85568392924485349,"keywords":["cp","nocrits","nodmgspread","uncletopia"],"game_id":440,"stv_port":27016,"stv_name":"Uncletopia | São Paulo | 2 | All Maps | STV","players":null},{"server_id":7,"name":"Uncletopia | Seattle | 1 | All Maps","name_short":"sea-1","host":"sea-1.us.uncletopia.com","port":27015,"enabled":true,"region":"us-west","cc":"us","latitude":47.608013,"longitude":-122.33517,"reserved":0,"last_update":"0001-01-01T00:00:00Z","name_a2s":"Uncletopia | Seattle | 1 | All Maps","protocol":17,"map":"koth_lakeside_final","folder":"tf","game":"Team Fortress","app_id":440,"player_count":0,"max_players":24,"Bots":0,"server_type":"Dedicated","server_os":"Linux","password":true,"vac":true,"version":"7757534","steam_id":85568392924469997,"keywords":["cp","nocrits","nodmgspread","uncletopia"],"game_id":440,"stv_port":27016,"stv_name":"Uncletopia | Seattle | 1 | All Maps | STV","players":null},{"server_id":119,"name":"Uncletopia | Seattle | 2 | All Maps","name_short":"sea-2","host":"sea-1.us.uncletopia.com","port":27025,"enabled":true,"region":"us-west","cc":"us","latitude":47.608013,"longitude":-122.33517,"reserved":0,"last_update":"0001-01-01T00:00:00Z","name_a2s":"Uncletopia | Seattle | 2 | All Maps","protocol":17,"map":"pl_pier","folder":"tf","game":"Team Fortress","app_id":440,"player_count":23,"max_players":24,"Bots":0,"server_type":"Dedicated","server_os":"Linux","password":true,"vac":true,"version":"7757534","steam_id":85568392924469998,"keywords":["nocrits","nodmgspread","payload","uncletopia"],"game_id":440,"stv_port":27026,"stv_name":"Uncletopia | Seattle | 2 | All Maps | STV","players":[{"user_id":364,"name":"Predatorial","steam_id":76561198057791254,"connected_time":115000000000,"state":"active","ping":97},{"user_id":344,"name":"Kruger SSP","steam_id":76561197974282727,"connected_time":1274000000000,"state":"active","ping":108},{"user_id":346,"name":"kris736","steam_id":76561198038208255,"connected_time":1235000000000,"state":"active","ping":103},{"user_id":348,"name":"LordBuffQuad","steam_id":76561198095832670,"connected_time":1120000000000,"state":"active","ping":112},{"user_id":359,"name":"Bastee1021","steam_id":76561199456141163,"connected_time":495000000000,"state":"active","ping":102},{"user_id":330,"name":"El Duderino","steam_id":76561199427900685,"connected_time":4464000000000,"state":"active","ping":96},{"user_id":318,"name":"smeasly","steam_id":76561198028718812,"connected_time":5049000000000,"state":"active","ping":35},{"user_id":290,"name":"SadFapping","steam_id":76561198076651049,"connected_time":7257000000000,"state":"active","ping":60},{"user_id":365,"name":"AAGooseman","steam_id":76561198378941369,"connected_time":50000000000,"state":"spawning","ping":68},{"user_id":322,"name":"Hoofuyu","steam_id":76561199022142345,"connected_time":4944000000000,"state":"active","ping":133},{"user_id":362,"name":"fregaropa","steam_id":76561198150806166,"connected_time":174000000000,"state":"active","ping":198},{"user_id":366,"name":"Eosson","steam_id":76561198108642113,"connected_time":11000000000,"state":"spawning","ping":59},{"user_id":292,"name":"Grassman (Cc)","steam_id":76561198026488532,"connected_time":7090000000000,"state":"active","ping":67},{"user_id":320,"name":"Sakisano","steam_id":76561198245814880,"connected_time":5030000000000,"state":"active","ping":77},{"user_id":287,"name":"endo","steam_id":76561197995204381,"connected_time":7344000000000,"state":"active","ping":95},{"user_id":349,"name":"blueturtle96","steam_id":76561198180706950,"connected_time":1104000000000,"state":"active","ping":99},{"user_id":350,"name":"manbearswineflu","steam_id":76561198083945137,"connected_time":1069000000000,"state":"active","ping":110},{"user_id":334,"name":"Romo","steam_id":76561198243101572,"connected_time":4086000000000,"state":"active","ping":124},{"user_id":351,"name":"0","steam_id":76561198053956621,"connected_time":970000000000,"state":"active","ping":97},{"user_id":360,"name":"AVGN","steam_id":76561198369294591,"connected_time":482000000000,"state":"active","ping":120},{"user_id":363,"name":"silverstrike_2","steam_id":76561199174160346,"connected_time":127000000000,"state":"active","ping":91},{"user_id":308,"name":"BurningKev","steam_id":76561198057688837,"connected_time":6494000000000,"state":"active","ping":81},{"user_id":343,"name":"wookieonfire","steam_id":76561198003912682,"connected_time":2098000000000,"state":"active","ping":137}]},{"server_id":406,"name":"Uncletopia | Seattle | 3 | Stopwatch Beta","name_short":"sea-3","host":"sea-1.us.uncletopia.com","port":27035,"enabled":true,"region":"us-west","cc":"us","latitude":47.608013,"longitude":-122.33517,"reserved":0,"last_update":"0001-01-01T00:00:00Z","name_a2s":"Uncletopia | Seattle | 3 | Stopwatch Beta","protocol":17,"map":"workshop/pl_summercoast_rc8e.ugc1761528829","folder":"tf","game":"Team Fortress","app_id":440,"player_count":0,"max_players":24,"Bots":0,"server_type":"Dedicated","server_os":"Linux","password":true,"vac":true,"version":"7757534","steam_id":85568392924515217,"keywords":["nocrits","nodmgspread","payload","uncletopia"],"game_id":440,"stv_port":27036,"stv_name":"Uncletopia | Seattle | 3 | Stopwatch Beta | STV","players":null},{"server_id":17,"name":"Uncletopia | San Francisco | 1 | All Maps","name_short":"sfo-1","host":"sfo-1.us.uncletopia.com","port":27015,"enabled":true,"region":"us-west","cc":"us","latitude":37.77397,"longitude":-122.4313,"reserved":0,"last_update":"0001-01-01T00:00:00Z","name_a2s":"Uncletopia | San Francisco | 1 | All Maps","protocol":17,"map":"cp_altitude","folder":"tf","game":"Team Fortress","app_id":440,"player_count":0,"max_players":24,"Bots":0,"server_type":"Dedicated","server_os":"Linux","password":true,"vac":true,"version":"7757534","steam_id":85568392924469999,"keywords":["cp","nocrits","nodmgspread","uncletopia"],"game_id":440,"stv_port":27016,"stv_name":"Uncletopia | San Francisco | 1 | All Maps | STV","players":null},{"server_id":18,"name":"Uncletopia | San Francisco | 2 | All Maps","name_short":"sfo-2","host":"sfo-1.us.uncletopia.com","port":27025,"enabled":true,"region":"us-west","cc":"us","latitude":37.77397,"longitude":-122.4313,"reserved":0,"last_update":"0001-01-01T00:00:00Z","name_a2s":"Uncletopia | San Francisco | 2 | All Maps","protocol":17,"map":"koth_lakeside_final","folder":"tf","game":"Team Fortress","app_id":440,"player_count":0,"max_players":24,"Bots":0,"server_type":"Dedicated","server_os":"Linux","password":true,"vac":true,"version":"7757534","steam_id":85568392924470000,"keywords":["cp","nocrits","nodmgspread","uncletopia"],"game_id":440,"stv_port":27026,"stv_name":"Uncletopia | San Francisco | 2 | All Maps | STV","players":null},{"server_id":19,"name":"Uncletopia | San Francisco | 3 | Stopwatch Beta","name_short":"sfo-3","host":"sfo-1.us.uncletopia.com","port":27035,"enabled":true,"region":"us-west","cc":"us","latitude":37.77397,"longitude":-122.4313,"reserved":0,"last_update":"0001-01-01T00:00:00Z","name_a2s":"Uncletopia | San Francisco | 3 | Stopwatch Beta","protocol":17,"map":"workshop/pl_summercoast_rc8e.ugc1761528829","folder":"tf","game":"Team Fortress","app_id":440,"player_count":0,"max_players":24,"Bots":0,"server_type":"Dedicated","server_os":"Linux","password":true,"vac":true,"version":"7757534","steam_id":85568392924742824,"keywords":["nocrits","nodmgspread","payload","uncletopia"],"game_id":440,"stv_port":27036,"stv_name":"Uncletopia | San Francisco | 3 | Stopwatch Beta | STV","players":null},{"server_id":20,"name":"Uncletopia | San Francisco | 4 | Community","name_short":"sfo-4","host":"sfo-1.us.uncletopia.com","port":27045,"enabled":true,"region":"us-west","cc":"us","latitude":37.77397,"longitude":-122.4313,"reserved":0,"last_update":"0001-01-01T00:00:00Z","name_a2s":"Uncletopia | San Francisco | 4 | Community","protocol":17,"map":"workshop/pl_barnblitz_pro7.ugc582280235","folder":"tf","game":"Team Fortress","app_id":440,"player_count":0,"max_players":24,"Bots":0,"server_type":"Dedicated","server_os":"Linux","password":true,"vac":true,"version":"7757534","steam_id":85568392924742826,"keywords":["nocrits","nodmgspread","payload","uncletopia"],"game_id":440,"stv_port":27046,"stv_name":"Uncletopia | San Francisco | 4 | Community | STV","players":null},{"server_id":141,"name":"Uncletopia | Sydney | 1 | All Maps","name_short":"syd-1","host":"syd-1.au.uncletopia.com","port":27015,"enabled":true,"region":"au","cc":"au","latitude":-33.865143,"longitude":151.2099,"reserved":0,"last_update":"0001-01-01T00:00:00Z","name_a2s":"Uncletopia | Sydney | 1 | All Maps","protocol":17,"map":"pl_barnblitz","folder":"tf","game":"Team Fortress","app_id":440,"player_count":0,"max_players":24,"Bots":0,"server_type":"Dedicated","server_os":"Linux","password":true,"vac":true,"version":"7757534","steam_id":85568392924470001,"keywords":["nocrits","nodmgspread","payload","uncletopia"],"game_id":440,"stv_port":27016,"stv_name":"Uncletopia | Sydney | 1 | All Maps | STV","players":null},{"server_id":123,"name":"Uncletopia | Sydney | 2 | All Maps","name_short":"syd-2","host":"syd-1.au.uncletopia.com","port":27025,"enabled":true,"region":"au","cc":"au","latitude":-33.865143,"longitude":151.2099,"reserved":0,"last_update":"0001-01-01T00:00:00Z","name_a2s":"Uncletopia | Sydney | 2 | All Maps","protocol":17,"map":"pl_pier","folder":"tf","game":"Team Fortress","app_id":440,"player_count":5,"max_players":24,"Bots":0,"server_type":"Dedicated","server_os":"Linux","password":true,"vac":true,"version":"7757534","steam_id":85568392924470002,"keywords":["nocrits","nodmgspread","payload","uncletopia"],"game_id":440,"stv_port":27026,"stv_name":"Uncletopia | Sydney | 2 | All Maps | STV","players":[{"user_id":165,"name":"Cafe","steam_id":76561198061587693,"connected_time":1737000000000,"state":"active","ping":93},{"user_id":166,"name":"Hammy From Over The Hedge (2006","steam_id":76561199262196710,"connected_time":1676000000000,"state":"active","ping":41},{"user_id":170,"name":"Multigrain Bread","steam_id":76561199182026732,"connected_time":1441000000000,"state":"active","ping":69},{"user_id":171,"name":"CrazyUncleEngineer","steam_id":76561199258212958,"connected_time":1194000000000,"state":"active","ping":53},{"user_id":149,"name":"Captain Canadia","steam_id":76561198167967735,"connected_time":4238000000000,"state":"active","ping":49}]},{"server_id":395,"name":"Uncletopia | Sydney | 3 | All Maps","name_short":"syd-3","host":"syd-1.au.uncletopia.com","port":27035,"enabled":true,"region":"au","cc":"au","latitude":-33.865143,"longitude":151.2099,"reserved":0,"last_update":"0001-01-01T00:00:00Z","name_a2s":"Uncletopia | Sydney | 3 | All Maps","protocol":17,"map":"cp_sunshine","folder":"tf","game":"Team Fortress","app_id":440,"player_count":0,"max_players":24,"Bots":0,"server_type":"Dedicated","server_os":"Linux","password":true,"vac":true,"version":"7757534","steam_id":85568392925194467,"keywords":["cp","nocrits","nodmgspread","uncletopia"],"game_id":440,"stv_port":27036,"stv_name":"Uncletopia | Sydney | 3 | All Maps | STV","players":null},{"server_id":396,"name":"Uncletopia | Sydney | 4 | All Maps","name_short":"syd-4","host":"syd-1.au.uncletopia.com","port":27045,"enabled":true,"region":"au","cc":"au","latitude":-33.865143,"longitude":151.2099,"reserved":0,"last_update":"0001-01-01T00:00:00Z","name_a2s":"Uncletopia | Sydney | 4 | All Maps","protocol":17,"map":"koth_highpass","folder":"tf","game":"Team Fortress","app_id":440,"player_count":0,"max_players":24,"Bots":0,"server_type":"Dedicated","server_os":"Linux","password":true,"vac":true,"version":"7757534","steam_id":85568392925397958,"keywords":["cp","nocrits","nodmgspread","uncletopia"],"game_id":440,"stv_port":27046,"stv_name":"Uncletopia | Sydney | 4 | All Maps | STV","players":null},{"server_id":58,"name":"Uncletopia | Sydney | 5 | Stopwatch Beta","name_short":"syd-5","host":"syd-1.au.uncletopia.com","port":27055,"enabled":true,"region":"au","cc":"au","latitude":-33.865143,"longitude":151.2099,"reserved":0,"last_update":"0001-01-01T00:00:00Z","name_a2s":"Uncletopia | Sydney | 5 | Stopwatch Beta","protocol":17,"map":"koth_cascade","folder":"tf","game":"Team Fortress","app_id":440,"player_count":0,"max_players":24,"Bots":0,"server_type":"Dedicated","server_os":"Linux","password":true,"vac":true,"version":"7757534","steam_id":85568392925397959,"keywords":["cp","nocrits","nodmgspread","uncletopia"],"game_id":440,"stv_port":27056,"stv_name":"Uncletopia | Sydney | 5 | Stopwatch Beta | STV","players":null},{"server_id":59,"name":"Uncletopia | Sydney | 6 | Community","name_short":"syd-6","host":"syd-1.au.uncletopia.com","port":27065,"enabled":true,"region":"au","cc":"au","latitude":-33.865143,"longitude":151.2099,"reserved":0,"last_update":"0001-01-01T00:00:00Z","name_a2s":"Uncletopia | Sydney | 6 | Community","protocol":17,"map":"workshop/koth_trenchfoot_b1a.ugc731436616","folder":"tf","game":"Team Fortress","app_id":440,"player_count":0,"max_players":24,"Bots":0,"server_type":"Dedicated","server_os":"Linux","password":true,"vac":true,"version":"7757534","steam_id":85568392925397960,"keywords":["cp","nocrits","nodmgspread","uncletopia"],"game_id":440,"stv_port":27066,"stv_name":"Uncletopia | Sydney | 6 | Community | STV","players":null},{"server_id":49,"name":"Uncletopia | Warsaw | 1 | All Maps","name_short":"waw-1","host":"waw-1.pl.uncletopia.com","port":27015,"enabled":true,"region":"eu","cc":"pl","latitude":52.2297,"longitude":21.017532,"reserved":0,"last_update":"0001-01-01T00:00:00Z","name_a2s":"","protocol":0,"map":"","folder":"","game":"","app_id":0,"player_count":0,"max_players":0,"Bots":0,"server_type":"","server_os":"","password":false,"vac":false,"version":"","steam_id":0,"keywords":null,"game_id":0,"stv_port":0,"stv_name":"","players":null},{"server_id":50,"name":"Uncletopia | Warsaw | 2 | All Maps","name_short":"waw-2","host":"waw-1.pl.uncletopia.com","port":27025,"enabled":true,"region":"eu","cc":"pl","latitude":52.2297,"longitude":21.017532,"reserved":0,"last_update":"0001-01-01T00:00:00Z","name_a2s":"Uncletopia | Warsaw | 2 | All Maps","protocol":17,"map":"koth_viaduct","folder":"tf","game":"Team Fortress","app_id":440,"player_count":0,"max_players":24,"Bots":0,"server_type":"Dedicated","server_os":"Linux","password":true,"vac":true,"version":"7757534","steam_id":85568392925397851,"keywords":["cp","nocrits","nodmgspread","uncletopia"],"game_id":440,"stv_port":27026,"stv_name":"Uncletopia | Warsaw | 2 | All Maps | STV","players":null},{"server_id":51,"name":"Uncletopia | Warsaw | 3 | All Maps","name_short":"waw-3","host":"waw-1.pl.uncletopia.com","port":27035,"enabled":true,"region":"eu","cc":"pl","latitude":52.2297,"longitude":21.017532,"reserved":0,"last_update":"0001-01-01T00:00:00Z","name_a2s":"Uncletopia | Warsaw | 3 | All Maps","protocol":17,"map":"pl_badwater","folder":"tf","game":"Team Fortress","app_id":440,"player_count":0,"max_players":24,"Bots":0,"server_type":"Dedicated","server_os":"Linux","password":true,"vac":true,"version":"7757534","steam_id":85568392925397852,"keywords":["nocrits","nodmgspread","payload","uncletopia"],"game_id":440,"stv_port":27036,"stv_name":"Uncletopia | Warsaw | 3 | All Maps | STV","players":null},{"server_id":52,"name":"Uncletopia | Warsaw | 4 | All Maps","name_short":"waw-4","host":"waw-1.pl.uncletopia.com","port":27045,"enabled":true,"region":"eu","cc":"pl","latitude":52.2297,"longitude":21.017532,"reserved":0,"last_update":"0001-01-01T00:00:00Z","name_a2s":"Uncletopia | Warsaw | 4 | All Maps","protocol":17,"map":"koth_lakeside_final","folder":"tf","game":"Team Fortress","app_id":440,"player_count":0,"max_players":24,"Bots":0,"server_type":"Dedicated","server_os":"Linux","password":true,"vac":true,"version":"7757534","steam_id":85568392925397853,"keywords":["cp","nocrits","nodmgspread","uncletopia"],"game_id":440,"stv_port":27046,"stv_name":"Uncletopia | Warsaw | 4 | All Maps | STV","players":null},{"server_id":53,"name":"Uncletopia | Warsaw | 5 | Stopwatch Beta","name_short":"waw-5","host":"waw-1.pl.uncletopia.com","port":27055,"enabled":true,"region":"eu","cc":"pl","latitude":52.2297,"longitude":21.017532,"reserved":0,"last_update":"0001-01-01T00:00:00Z","name_a2s":"Uncletopia | Warsaw | 5 | Stopwatch Beta","protocol":17,"map":"pl_borneo","folder":"tf","game":"Team Fortress","app_id":440,"player_count":0,"max_players":24,"Bots":0,"server_type":"Dedicated","server_os":"Linux","password":true,"vac":true,"version":"7757534","steam_id":85568392925397854,"keywords":["nocrits","nodmgspread","payload","uncletopia"],"game_id":440,"stv_port":27056,"stv_name":"Uncletopia | Warsaw | 5 | Stopwatch Beta | STV","players":null},{"server_id":54,"name":"Uncletopia | Warsaw | 6 | Community","name_short":"waw-6","host":"waw-1.pl.uncletopia.com","port":27065,"enabled":true,"region":"eu","cc":"pl","latitude":52.2297,"longitude":21.017532,"reserved":0,"last_update":"0001-01-01T00:00:00Z","name_a2s":"Uncletopia | Warsaw | 6 | Community","protocol":17,"map":"koth_lakeside_final","folder":"tf","game":"Team Fortress","app_id":440,"player_count":0,"max_players":24,"Bots":0,"server_type":"Dedicated","server_os":"Linux","password":true,"vac":true,"version":"7757534","steam_id":85568392925397856,"keywords":["cp","nocrits","nodmgspread","uncletopia"],"game_id":440,"stv_port":27066,"stv_name":"Uncletopia | Warsaw | 6 | Community | STV","players":null}]}