{"status":true,"message":"","result":[{"server_id":9,"name":"Uncletopia | Atlanta | 1 | All Maps","name_short":"atl-1","host":"atl-1.us.uncletopia.com","port":27015,"enabled":true,"region":"us-east","cc":"us","latitude":33.753746,"longitude":-84.38633,"reserved":0,"last_update":"0001-01-01T00:00:00Z","name_a2s":"Uncletopia | Atlanta | 1 | All Maps","protocol":17,"map":"pl_upward","folder":"tf","game":"Team Fortress","app_id":440,"player_count":9,"max_players":24,"Bots":0,"server_type":"Dedicated","server_os":"Linux","password":true,"vac":true,"version":"7961495","steam_id":85568392924469982,"keywords":["nocrits","nodmgspread","payload","uncletopia"],"game_id":440,"stv_port":27016,"stv_name":"Uncletopia | Atlanta | 1 | All Maps | STV","players":[{"user_id":9,"name":"Obelisk","steam_id":76561198049416866,"connected_time":2150000000000,"state":"active","ping":40},{"user_id":11,"name":"Jin Gulilo","steam_id":76561198065151242,"connected_time":1658000000000,"state":"active","ping":72},{"user_id":12,"name":"Ashes!","steam_id":76561197998475441,"connected_time":1090000000000,"state":"active","ping":73},{"user_id":14,"name":"{Pootbine}","steam_id":76561198873335018,"connected_time":883000000000,"state":"active","ping":92},{"user_id":16,"name":"metalfan666","steam_id":76561198386344068,"connected_time":752000000000,"state":"active","ping":70},{"user_id":19,"name":"Ulrich Stern","steam_id":76561198101739682,"connected_time":266000000000,"state":"active","ping":88},{"user_id":18,"name":"kartoffel","steam_id":76561199301833092,"connected_time":485000000000,"state":"active","ping":80},{"user_id":21,"name":"k1eran","steam_id":76561198064600737,"connected_time":214000000000,"state":"active","ping":79},{"user_id":22,"name":"Captain Mike","steam_id":76561199246901315,"connected_time":208000000000,"state":"active","ping":99}]},{"server_id":104,"name":"Uncletopia | Atlanta | 2 | All Maps","name_short":"atl-2","host":"atl-1.us.uncletopia.com","port":27025,"enabled":true,"region":"us-east","cc":"us","latitude":33.753746,"longitude":-84.38633,"reserved":0,"last_update":"0001-01-01T00:00:00Z","name_a2s":"Uncletopia | Atlanta | 2 | All Maps","protocol":17,"map":"koth_suijin","folder":"tf","game":"Team Fortress","app_id":440,"player_count":5,"max_players":24,"Bots":0,"server_type":"Dedicated","server_os":"Linux","password":true,"vac":true,"version":"7961495","steam_id":85568392924469983,"keywords":["cp","nocrits","nodmgspread","uncletopia"],"game_id":440,"stv_port":27026,"stv_name":"Uncletopia | Atlanta | 2 | All Maps | STV","players":[{"user_id":8,"name":"Optimus Prime","steam_id":76561198848975156,"connected_time":405000000000,"state":"active","ping":137},{"user_id":9,"name":"chowda2469","steam_id":76561199229468032,"connected_time":391000000000,"state":"active","ping":120},{"user_id":10,"name":"firestryke28","steam_id":76561198828349415,"connected_time":308000000000,"state":"active","ping":142},{"user_id":11,"name":"talented","steam_id":76561198800259660,"connected_time":197000000000,"state":"active","ping":45},{"user_id":12,"name":"colorblindwizardlvl5","steam_id":76561199208988804,"connected_time":106000000000,"state":"active","ping":59}]},{"server_id":400,"name":"Uncletopia | Atlanta | 3 | Stopwatch","name_short":"atl-3","host":"atl-1.us.uncletopia.com","port":27035,"enabled":true,"region":"us-east","cc":"us","latitude":33.753746,"longitude":-84.38633,"reserved":0,"last_update":"0001-01-01T00:00:00Z","name_a2s":"Uncletopia | Atlanta | 3 | Stopwatch","protocol":17,"map":"cp_metalworks","folder":"tf","game":"Team Fortress","app_id":440,"player_count":24,"max_players":24,"Bots":0,"server_type":"Dedicated","server_os":"Linux","password":true,"vac":true,"version":"7961495","steam_id":85568392924515187,"keywords":["cp","nocrits","nodmgspread","uncletopia"],"game_id":440,"stv_port":27036,"stv_name":"Uncletopia | Atlanta | 3 | Stopwatch | STV","players":[{"user_id":67,"name":"CosmicClown","steam_id":76561199001021817,"connected_time":1654000000000,"state":"active","ping":137},{"user_id":68,"name":"DSM-IVCE","steam_id":76561199438515797,"connected_time":1520000000000,"state":"active","ping":227},{"user_id":69,"name":"Kazmu","steam_id":76561199481680917,"connected_time":1504000000000,"state":"active","ping":119},{"user_id":93,"name":"prototype money","steam_id":76561198116767286,"connected_time":308000000000,"state":"active","ping":53},{"user_id":25,"name":"Zombieslayer","steam_id":76561198407877826,"connected_time":3572000000000,"state":"active","ping":71},{"user_id":81,"name":"Captain Demytri","steam_id":76561198097998607,"connected_time":902000000000,"state":"active","ping":90},{"user_id":79,"name":"shotgun sam","steam_id":76561199160884713,"connected_time":1018000000000,"state":"active","ping":66},{"user_id":82,"name":"Jesus Burgess","steam_id":76561199343316814,"connected_time":764000000000,"state":"active","ping":47},{"user_id":83,"name":"TheMemeGod","steam_id":76561198953188716,"connected_time":686000000000,"state":"active","ping":60},{"user_id":58,"name":"Jasmine","steam_id":76561198046936813,"connected_time":2113000000000,"state":"active","ping":90},{"user_id":85,"name":"Jfrvl Gvl","steam_id":76561199013465852,"connected_time":586000000000,"state":"active","ping":63},{"user_id":20,"name":"Mungo","steam_id":76561198353597289,"connected_time":3777000000000,"state":"active","ping":59},{"user_id":22,"name":"Kimble","steam_id":76561198051373930,"connected_time":3736000000000,"state":"active","ping":75},{"user_id":80,"name":"OgualdZem","steam_id":76561198389747656,"connected_time":1009000000000,"state":"active","ping":99},{"user_id":96,"name":"Radium","steam_id":76561198195881339,"connected_time":186000000000,"state":"active","ping":55},{"user_id":87,"name":"Acro","steam_id":76561198092451804,"connected_time":503000000000,"state":"active","ping":62},{"user_id":47,"name":"Rin \"Hindwing\" Redtail","steam_id":76561199074865638,"connected_time":2630000000000,"state":"active","ping":61},{"user_id":88,"name":"Zeelidox","steam_id":76561198110613375,"connected_time":486000000000,"state":"active","ping":76},{"user_id":94,"name":"Leeous","steam_id":76561198081083248,"connected_time":304000000000,"state":"active","ping":71},{"user_id":55,"name":"Baydawn","steam_id":76561198330009339,"connected_time":2234000000000,"state":"active","ping":111},{"user_id":97,"name":"Blaze","steam_id":76561198043797702,"connected_time":151000000000,"state":"active","ping":81},{"user_id":98,"name":"Pinky","steam_id":76561199019483777,"connected_time":63000000000,"state":"spawning","ping":46},{"user_id":77,"name":"Zing","steam_id":76561198379302861,"connected_time":1193000000000,"state":"active","ping":114},{"user_id":78,"name":"codyxander","steam_id":76561198043713299,"connected_time":1192000000000,"state":"active","ping":60}]},{"server_id":401,"name":"Uncletopia | Atlanta | 4 | Community","name_short":"atl-4","host":"atl-1.us.uncletopia.com","port":27045,"enabled":true,"region":"us-east","cc":"us","latitude":33.753746,"longitude":-84.38633,"reserved":0,"last_update":"0001-01-01T00:00:00Z","name_a2s":"Uncletopia | Atlanta | 4 | Community","protocol":17,"map":"workshop/pl_phoenix_b4a.ugc2969509359","folder":"tf","game":"Team Fortress","app_id":440,"player_count":0,"max_players":24,"Bots":0,"server_type":"Dedicated","server_os":"Linux","password":true,"vac":true,"version":"7961495","steam_id":85568392924515188,"keywords":["nocrits","nodmgspread","payload","uncletopia"],"game_id":440,"stv_port":27046,"stv_name":"Uncletopia | Atlanta | 4 | Community | STV","players":null},{"server_id":2,"name":"Uncletopia | Chicago | 1 | All Maps","name_short":"chi-1","host":"chi-1.us.uncletopia.com","port":27015,"enabled":true,"region":"us-central","cc":"us","latitude":41.881832,"longitude":-87.62318,"reserved":0,"last_update":"0001-01-01T00:00:00Z","name_a2s":"Uncletopia | Chicago | 1 | All Maps","protocol":17,"map":"koth_harvest_final","folder":"tf","game":"Team Fortress","app_id":440,"player_count":0,"max_players":24,"Bots":0,"server_type":"Dedicated","server_os":"Linux","password":true,"vac":true,"version":"7961495","steam_id":85568392924469984,"keywords":["cp","nocrits","nodmgspread","uncletopia"],"game_id":440,"stv_port":27016,"stv_name":"Uncletopia | Chicago | 1 | All Maps | STV","players":null},{"server_id":106,"name":"Uncletopia | Chicago | 2 | All Maps","name_short":"chi-2","host":"chi-1.us.uncletopia.com","port":27025,"enabled":true,"region":"us-central","cc":"us","latitude":41.881832,"longitude":-87.62318,"reserved":0,"last_update":"0001-01-01T00:00:00Z","name_a2s":"Uncletopia | Chicago | 2 | All Maps","protocol":17,"map":"pl_snowycoast","folder":"tf","game":"Team Fortress","app_id":440,"player_count":24,"max_players":24,"Bots":0,"server_type":"Dedicated","server_os":"Linux","password":true,"vac":true,"version":"7961495","steam_id":85568392924469985,"keywords":["nocrits","nodmgspread","payload","uncletopia"],"game_id":440,"stv_port":27026,"stv_name":"Uncletopia | Chicago | 2 | All Maps | STV","players":[{"user_id":198,"name":"Gotta Move That Gear Up","steam_id":76561197993467034,"connected_time":2711000000000,"state":"active","ping":53},{"user_id":197,"name":"‡∏∏","steam_id":76561198118480346,"connected_time":2733000000000,"state":"active","ping":89},{"user_id":208,"name":"BiggFoot","steam_id":76561197998605599,"connected_time":1613000000000,"state":"active","ping":79},{"user_id":217,"name":"PowerGem3000","steam_id":76561198944644691,"connected_time":381000000000,"state":"active","ping":105},{"user_id":175,"name":"kermitcreeper(ZAZA)","steam_id":76561199222829972,"connected_time":3721000000000,"state":"active","ping":55},{"user_id":219,"name":"Jack","steam_id":76561198079575891,"connected_time":108000000000,"state":"active","ping":142},{"user_id":125,"name":"Zero","steam_id":76561198033384990,"connected_time":7730000000000,"state":"active","ping":57},{"user_id":185,"name":"‚úß.*Remzy‚úß.*","steam_id":76561199239412094,"connected_time":3338000000000,"state":"active","ping":147},{"user_id":191,"name":"Mr. Luggy","steam_id":76561198072723392,"connected_time":3036000000000,"state":"active","ping":91},{"user_id":210,"name":"Ta5K","steam_id":76561198939558155,"connected_time":1358000000000,"state":"active","ping":46},{"user_id":218,"name":"bart","steam_id":76561198025395216,"connected_time":352000000000,"state":"active","ping":144},{"user_id":212,"name":"AMD Ryzen #SaveTF2","steam_id":76561198181028110,"connected_time":1001000000000,"state":"active","ping":62},{"user_id":205,"name":"DeadErebus","steam_id":76561198286117045,"connected_time":2223000000000,"state":"active","ping":40},{"user_id":189,"name":"kevlarorc","steam_id":76561197996133603,"connected_time":3133000000000,"state":"active","ping":73},{"user_id":216,"name":"baconiumo","steam_id":76561198966160534,"connected_time":623000000000,"state":"active","ping":71},{"user_id":209,"name":"Zeek","steam_id":76561197987204351,"connected_time":1522000000000,"state":"active","ping":60},{"user_id":204,"name":"Drinkable Milk","steam_id":76561199418706430,"connected_time":2344000000000,"state":"active","ping":82},{"user_id":199,"name":"poggerchamp","steam_id":76561199145124973,"connected_time":2665000000000,"state":"active","ping":80},{"user_id":213,"name":"Slauvy","steam_id":76561198001479663,"connected_time":913000000000,"state":"active","ping":63},{"user_id":215,"name":"ironchep","steam_id":76561199156140020,"connected_time":706000000000,"state":"active","ping":114},{"user_id":201,"name":"·µê·µâ·µí ∑","steam_id":76561199200969139,"connected_time":2455000000000,"state":"active","ping":74},{"user_id":194,"name":"Cooki","steam_id":76561198051705314,"connected_time":3000000000000,"state":"active","ping":78},{"user_id":220,"name":"fun destroyer","steam_id":76561199187231964,"connected_time":69000000000,"state":"active","ping":68},{"user_id":96,"name":"beats leave me alone","steam_id":76561199245717718,"connected_time":11211000000000,"state":"active","ping":47}]},{"server_id":402,"name":"Uncletopia | Chicago | 3 | All Maps","name_short":"chi-3","host":"chi-1.us.uncletopia.com","port":27035,"enabled":true,"region":"us-central","cc":"us","latitude":41.881832,"longitude":-87.62318,"reserved":0,"last_update":"0001-01-01T00:00:00Z","name_a2s":"Uncletopia | Chicago | 3 | All Maps","protocol":17,"map":"cp_snakewater_final1","folder":"tf","game":"Team Fortress","app_id":440,"player_count":0,"max_players":24,"Bots":0,"server_type":"Dedicated","server_os":"Linux","password":true,"vac":true,"version":"7961495","steam_id":85568392924515191,"keywords":["cp","nocrits","nodmgspread","uncletopia"],"game_id":440,"stv_port":27036,"stv_name":"Uncletopia | Chicago | 3 | All Maps | STV","players":null},{"server_id":403,"name":"Uncletopia | Chicago | 4 | All Maps","name_short":"chi-4","host":"chi-1.us.uncletopia.com","port":27045,"enabled":true,"region":"us-central","cc":"us","latitude":41.881832,"longitude":-87.62318,"reserved":0,"last_update":"0001-01-01T00:00:00Z","name_a2s":"Uncletopia | Chicago | 4 | All Maps","protocol":17,"map":"koth_viaduct","folder":"tf","game":"Team Fortress","app_id":440,"player_count":0,"max_players":24,"Bots":0,"server_type":"Dedicated","server_os":"Linux","password":true,"vac":true,"version":"7961495","steam_id":85568392924515193,"keywords":["cp","nocrits","nodmgspread","uncletopia"],"game_id":440,"stv_port":27046,"stv_name":"Uncletopia | Chicago | 4 | All Maps | STV","players":null},{"server_id":36,"name":"Uncletopia | Chicago | 5 | All Maps","name_short":"chi-5","host":"chi-2.us.uncletopia.com","port":27015,"enabled":true,"region":"us-central","cc":"us","latitude":41.881832,"longitude":-87.62318,"reserved":0,"last_update":"0001-01-01T00:00:00Z","name_a2s":"Uncletopia | Chicago | 5 | All Maps","protocol":17,"map":"cp_mercenarypark","folder":"tf","game":"Team Fortress","app_id":440,"player_count":0,"max_players":24,"Bots":0,"server_type":"Dedicated","server_os":"Linux","password":true,"vac":true,"version":"7961495","steam_id":85568392924866362,"keywords":["cp","nocrits","nodmgspread","uncletopia"],"game_id":440,"stv_port":27016,"stv_name":"Uncletopia | Chicago | 5 | All Maps | STV","players":null},{"server_id":37,"name":"Uncletopia | Chicago | 6 | All Maps","name_short":"chi-6","host":"chi-2.us.uncletopia.com","port":27025,"enabled":true,"region":"us-central","cc":"us","latitude":41.881832,"longitude":-87.62318,"reserved":0,"last_update":"0001-01-01T00:00:00Z","name_a2s":"Uncletopia | Chicago | 6 | All Maps","protocol":17,"map":"cp_sunshine","folder":"tf","game":"Team Fortress","app_id":440,"player_count":0,"max_players":24,"Bots":0,"server_type":"Dedicated","server_os":"Linux","password":true,"vac":true,"version":"7961495","steam_id":85568392924866363,"keywords":["cp","nocrits","nodmgspread","uncletopia"],"game_id":440,"stv_port":27026,"stv_name":"Uncletopia | Chicago | 6 | All Maps | STV","players":null},{"server_id":38,"name":"Uncletopia | Chicago | 7 | Stopwatch","name_short":"chi-7","host":"chi-2.us.uncletopia.com","port":27035,"enabled":true,"region":"us-central","cc":"us","latitude":41.881832,"longitude":-87.62318,"reserved":0,"last_update":"0001-01-01T00:00:00Z","name_a2s":"Uncletopia | Chicago | 7 | Stopwatch","protocol":17,"map":"cp_snakewater_final1","folder":"tf","game":"Team Fortress","app_id":440,"player_count":0,"max_players":24,"Bots":0,"server_type":"Dedicated","server_os":"Linux","password":true,"vac":true,"version":"7961495","steam_id":85568392924866364,"keywords":["cp","nocrits","nodmgspread","uncletopia"],"game_id":440,"stv_port":27036,"stv_name":"Uncletopia | Chicago | 7 | Stopwatch | STV","players":null},{"server_id":39,"name":"Uncletopia | Chicago | 8 | Community","name_short":"chi-8","host":"chi-2.us.uncletopia.com","port":27045,"enabled":true,"region":"us-central","cc":"us","latitude":41.881832,"longitude":-87.62318,"reserved":0,"last_update":"0001-01-01T00:00:00Z","name_a2s":"Uncletopia | Chicago | 8 | Community","protocol":17,"map":"workshop/cp_caldera_rc3.ugc2834196889","folder":"tf","game":"Team Fortress","app_id":440,"player_count":0,"max_players":24,"Bots":0,"server_type":"Dedicated","server_os":"Linux","password":true,"vac":true,"version":"7961495","steam_id":85568392924866365,"keywords":["cp","nocrits","nodmgspread","uncletopia"],"game_id":440,"stv_port":27046,"stv_name":"Uncletopia | Chicago | 8 | Community | STV","players":null},{"server_id":8,"name":"Uncletopia | Dallas | 1 | All Maps","name_short":"dal-1","host":"dal-1.us.uncletopia.com","port":27015,"enabled":true,"region":"us-central","cc":"us","latitude":32.779167,"longitude":-96.80889,"reserved":0,"last_update":"0001-01-01T00:00:00Z","name_a2s":"Uncletopia | Dallas | 1 | All Maps","protocol":17,"map":"cp_sunshine","folder":"tf","game":"Team Fortress","app_id":440,"player_count":0,"max_players":24,"Bots":0,"server_type":"Dedicated","server_os":"Linux","password":true,"vac":true,"version":"7961495","steam_id":85568392924469986,"keywords":["cp","nocrits","nodmgspread","uncletopia"],"game_id":440,"stv_port":27016,"stv_name":"Uncletopia | Dallas | 1 | All Maps | STV","players":null},{"server_id":108,"name":"Uncletopia | Dallas | 2 | All Maps","name_short":"dal-2","host":"dal-1.us.uncletopia.com","port":27025,"enabled":true,"region":"us-central","cc":"us","latitude":32.779167,"longitude":-96.80889,"reserved":0,"last_update":"0001-01-01T00:00:00Z","name_a2s":"Uncletopia | Dallas | 2 | All Maps","protocol":17,"map":"cp_freight_final1","folder":"tf","game":"Team Fortress","app_id":440,"player_count":0,"max_players":24,"Bots":0,"server_type":"Dedicated","server_os":"Linux","password":true,"vac":true,"version":"7961495","steam_id":85568392924469988,"keywords":["cp","nocrits","nodmgspread","uncletopia"],"game_id":440,"stv_port":27026,"stv_name":"Uncletopia | Dallas | 2 | All Maps | STV","players":null},{"server_id":404,"name":"Uncletopia | Dallas | 3 | All Maps","name_short":"dal-3","host":"dal-1.us.uncletopia.com","port":27035,"enabled":true,"region":"us-central","cc":"us","latitude":32.779167,"longitude":-96.80889,"reserved":0,"last_update":"0001-01-01T00:00:00Z","name_a2s":"Uncletopia | Dallas | 3 | All Maps","protocol":17,"map":"cp_process_final","folder":"tf","game":"Team Fortress","app_id":440,"player_count":0,"max_players":24,"Bots":0,"server_type":"Dedicated","server_os":"Linux","password":true,"vac":true,"version":"7961495","steam_id":85568392924515219,"keywords":["cp","nocrits","nodmgspread","uncletopia"],"game_id":440,"stv_port":27036,"stv_name":"Uncletopia | Dallas | 3 | All Maps | STV","players":null},{"server_id":405,"name":"Uncletopia | Dallas | 4 | Community","name_short":"dal-4","host":"dal-1.us.uncletopia.com","port":27045,"enabled":true,"region":"us-central","cc":"us","latitude":32.779167,"longitude":-96.80889,"reserved":0,"last_update":"0001-01-01T00:00:00Z","name_a2s":"Uncletopia | Dallas | 4 | Community","protocol":17,"map":"workshop/pl_badwater_pro_v12.ugc2142942074","folder":"tf","game":"Team Fortress","app_id":440,"player_count":22,"max_players":24,"Bots":0,"server_type":"Dedicated","server_os":"Linux","password":true,"vac":true,"version":"7961495","steam_id":85568392924515220,"keywords":["nocrits","nodmgspread","payload","uncletopia"],"game_id":440,"stv_port":27046,"stv_name":"Uncletopia | Dallas | 4 | Community | STV","players":[{"user_id":35,"name":"DeeAyche.TTV","steam_id":76561198881909299,"connected_time":28000000000,"state":"active","ping":88},{"user_id":36,"name":"sofia \u003c3","steam_id":76561198982584470,"connected_time":25000000000,"state":"active","ping":60},{"user_id":5,"name":"TanukiTycho","steam_id":76561199161303194,"connected_time":2627000000000,"state":"active","ping":74},{"user_id":6,"name":"Fishmonger","steam_id":76561198372237027,"connected_time":2162000000000,"state":"active","ping":89},{"user_id":7,"name":"Bobletoob","steam_id":76561199184464900,"connected_time":2159000000000,"state":"active","ping":84},{"user_id":9,"name":"toolem","steam_id":76561198075312872,"connected_time":1673000000000,"state":"active","ping":61},{"user_id":20,"name":"DiegoVal12","steam_id":76561198408509079,"connected_time":695000000000,"state":"active","ping":78},{"user_id":11,"name":"Quibl","steam_id":76561199110591930,"connected_time":1598000000000,"state":"active","ping":128},{"user_id":12,"name":"victorzans","steam_id":76561198009675301,"connected_time":1420000000000,"state":"active","ping":127},{"user_id":13,"name":"ShadowWasUhOh","steam_id":76561198400361935,"connected_time":1162000000000,"state":"active","ping":75},{"user_id":18,"name":"koth_harvest_event","steam_id":76561198832838786,"connected_time":1023000000000,"state":"active","ping":83},{"user_id":15,"name":"Starkiller","steam_id":76561198101643120,"connected_time":1125000000000,"state":"active","ping":106},{"user_id":17,"name":"Psychosis","steam_id":76561198078659070,"connected_time":1087000000000,"state":"active","ping":73},{"user_id":32,"name":"Space Captainface","steam_id":76561197995103493,"connected_time":175000000000,"state":"active","ping":83},{"user_id":23,"name":"have blue","steam_id":76561198054260599,"connected_time":396000000000,"state":"active","ping":60},{"user_id":24,"name":"-_-","steam_id":76561198302976864,"connected_time":331000000000,"state":"active","ping":76},{"user_id":28,"name":"i er uh","steam_id":76561198045964573,"connected_time":250000000000,"state":"active","ping":75},{"user_id":26,"name":"Zoratunictoon","steam_id":76561199475066871,"connected_time":306000000000,"state":"active","ping":92},{"user_id":27,"name":"Chip","steam_id":76561198182205245,"connected_time":282000000000,"state":"active","ping":87},{"user_id":30,"name":"Boring","steam_id":76561198827219701,"connected_time":224000000000,"state":"active","ping":189},{"user_id":33,"name":"Scum!","steam_id":76561198051805219,"connected_time":159000000000,"state":"active","ping":74},{"user_id":34,"name":"DrankDuck","steam_id":76561198063146716,"connected_time":153000000000,"state":"active","ping":72}]},{"server_id":5,"name":"Uncletopia | Frankfurt | 1 | All Maps","name_short":"frk-1","host":"frk-1.de.uncletopia.com","port":27015,"enabled":true,"region":"eu","cc":"de","latitude":50.110924,"longitude":8.682127,"reserved":0,"last_update":"0001-01-01T00:00:00Z","name_a2s":"Uncletopia | Frankfurt | 1 | All Maps","protocol":17,"map":"pl_barnblitz","folder":"tf","game":"Team Fortress","app_id":440,"player_count":24,"max_players":24,"Bots":0,"server_type":"Dedicated","server_os":"Linux","password":true,"vac":true,"version":"7961495","steam_id":85568392924469989,"keywords":["nocrits","nodmgspread","payload","uncletopia"],"game_id":440,"stv_port":27016,"stv_name":"Uncletopia | Frankfurt | 1 | All Maps | STV","players":[{"user_id":239,"name":"vaditel'","steam_id":76561198828327628,"connected_time":1232000000000,"state":"active","ping":144},{"user_id":236,"name":"King Vamp","steam_id":76561198306010760,"connected_time":1506000000000,"state":"active","ping":60},{"user_id":194,"name":"Suppiluliuma II","steam_id":76561198297345549,"connected_time":4509000000000,"state":"active","ping":66},{"user_id":176,"name":"Zulik92","steam_id":76561198152442373,"connected_time":5696000000000,"state":"active","ping":67},{"user_id":254,"name":"red‚ãÜmits","steam_id":76561198015590113,"connected_time":426000000000,"state":"active","ping":49},{"user_id":223,"name":"Janosik","steam_id":76561198013528365,"connected_time":2533000000000,"state":"active","ping":51},{"user_id":240,"name":"Hyppy ja liipasin pohjaan :D","steam_id":76561198080669698,"connected_time":1190000000000,"state":"active","ping":101},{"user_id":224,"name":"ex stacy","steam_id":76561198271949990,"connected_time":2465000000000,"state":"active","ping":130},{"user_id":241,"name":"The Potato","steam_id":76561198797301216,"connected_time":1157000000000,"state":"active","ping":179},{"user_id":243,"name":"Ketamine Goblin","steam_id":76561198060638325,"connected_time":1109000000000,"state":"active","ping":42},{"user_id":228,"name":"Umme","steam_id":76561198053809566,"connected_time":2195000000000,"state":"active","ping":77},{"user_id":244,"name":"MasaRektaa69","steam_id":76561198964988151,"connected_time":1101000000000,"state":"active","ping":61},{"user_id":208,"name":"GuyWithoutAPie","steam_id":76561198054512149,"connected_time":3781000000000,"state":"active","ping":58},{"user_id":256,"name":"retzerbil","steam_id":76561198015304794,"connected_time":1000000000,"state":"spawning","ping":34},{"user_id":255,"name":"Herra.Nipi","steam_id":76561198259277331,"connected_time":14000000000,"state":"spawning","ping":330},{"user_id":193,"name":"Extra Gay Italian","steam_id":76561198118064038,"connected_time":4536000000000,"state":"active","ping":54},{"user_id":253,"name":"Jack The Ripper","steam_id":76561199094277509,"connected_time":480000000000,"state":"active","ping":64},{"user_id":225,"name":"Gamer_Night","steam_id":76561199241944472,"connected_time":2451000000000,"state":"active","ping":154},{"user_id":247,"name":"Jude!","steam_id":76561197983597798,"connected_time":1039000000000,"state":"active","ping":49},{"user_id":233,"name":"Siegmeyer","steam_id":76561198328543549,"connected_time":2115000000000,"state":"active","ping":87},{"user_id":248,"name":"dog?","steam_id":76561199232839385,"connected_time":1018000000000,"state":"active","ping":89},{"user_id":220,"name":"Wife left me for a Romanian","steam_id":76561198992352692,"connected_time":2817000000000,"state":"active","ping":66},{"user_id":249,"name":"wheelie bin","steam_id":76561198040040328,"connected_time":991000000000,"state":"active","ping":60},{"user_id":250,"name":"Bucz","steam_id":76561198006089285,"connected_time":983000000000,"state":"active","ping":74}]},{"server_id":110,"name":"Uncletopia | Frankfurt | 2 | All Maps","name_short":"frk-2","host":"frk-1.de.uncletopia.com","port":27025,"enabled":true,"region":"eu","cc":"de","latitude":50.110924,"longitude":8.682127,"reserved":0,"last_update":"0001-01-01T00:00:00Z","name_a2s":"Uncletopia | Frankfurt | 2 | All Maps","protocol":17,"map":"pl_barnblitz","folder":"tf","game":"Team Fortress","app_id":440,"player_count":24,"max_players":24,"Bots":0,"server_type":"Dedicated","server_os":"Linux","password":true,"vac":true,"version":"7961495","steam_id":85568392924469990,"keywords":["nocrits","nodmgspread","payload","uncletopia"],"game_id":440,"stv_port":27026,"stv_name":"Uncletopia | Frankfurt | 2 | All Maps | STV","players":[{"user_id":75,"name":"das boot","steam_id":76561198953844914,"connected_time":1009000000000,"state":"active","ping":60},{"user_id":70,"name":"._.","steam_id":76561199228698213,"connected_time":1642000000000,"state":"active","ping":111},{"user_id":62,"name":"\u003c=Itachi uchiha=\u003e","steam_id":76561199162355715,"connected_time":2226000000000,"state":"active","ping":154},{"user_id":26,"name":"DarkMelody","steam_id":76561198063225937,"connected_time":3850000000000,"state":"active","ping":119},{"user_id":27,"name":"Hott","steam_id":76561198120339101,"connected_time":3788000000000,"state":"active","ping":89},{"user_id":64,"name":"Pabs :D","steam_id":76561198000016962,"connected_time":2065000000000,"state":"active","ping":52},{"user_id":37,"name":"ReNat71","steam_id":76561198061147031,"connected_time":3403000000000,"state":"active","ping":75},{"user_id":59,"name":"Xx_LudZip_xX","steam_id":76561198321008764,"connected_time":2322000000000,"state":"active","ping":59},{"user_id":31,"name":"Batman Beyond","steam_id":76561198102091599,"connected_time":3659000000000,"state":"active","ping":100},{"user_id":76,"name":"Gordon Birdman","steam_id":76561198013382324,"connected_time":937000000000,"state":"active","ping":65},{"user_id":45,"name":"waluigi","steam_id":76561198215809251,"connected_time":2871000000000,"state":"active","ping":50},{"user_id":73,"name":"Mr.Shpee","steam_id":76561198158701474,"connected_time":1370000000000,"state":"active","ping":75},{"user_id":34,"name":"omony","steam_id":76561197983750025,"connected_time":3515000000000,"state":"active","ping":75},{"user_id":65,"name":"AlfonsoM","steam_id":76561198138832894,"connected_time":2059000000000,"state":"active","ping":104},{"user_id":82,"name":"Akis—è–Ω","steam_id":76561198078706435,"connected_time":588000000000,"state":"active","ping":62},{"user_id":58,"name":"Steve, from HR","steam_id":76561198072088365,"connected_time":2394000000000,"state":"active","ping":64},{"user_id":74,"name":"KindWind","steam_id":76561199227793973,"connected_time":1083000000000,"state":"active","ping":117},{"user_id":63,"name":"Gator","steam_id":76561198065624683,"connected_time":2215000000000,"state":"active","ping":91},{"user_id":84,"name":"TF2 Ham","steam_id":76561199024930552,"connected_time":195000000000,"state":"active","ping":135},{"user_id":61,"name":"SCRAMMMBLED","steam_id":76561197998307746,"connected_time":2241000000000,"state":"active","ping":70},{"user_id":68,"name":"Uselss Joe","steam_id":76561198275853629,"connected_time":1873000000000,"state":"active","ping":53},{"user_id":83,"name":"Anti-Capitalist Weapon","steam_id":76561198143526071,"connected_time":575000000000,"state":"active","ping":68},{"user_id":52,"name":"üíúüíöNikoNakataüíöüíú","steam_id":76561198323709564,"connected_time":2668000000000,"state":"active","ping":97},{"user_id":67,"name":"Fr√∂gg-K√§t","steam_id":76561198263561004,"connected_time":1994000000000,"state":"active","ping":68}]},{"server_id":308,"name":"Uncletopia | Frankfurt | 3 | All Maps","name_short":"frk-3","host":"frk-1.de.uncletopia.com","port":27035,"enabled":true,"region":"eu","cc":"de","latitude":50.110924,"longitude":8.682127,"reserved":0,"last_update":"0001-01-01T00:00:00Z","name_a2s":"Uncletopia | Frankfurt | 3 | All Maps","protocol":17,"map":"cp_dustbowl","folder":"tf","game":"Team Fortress","app_id":440,"player_count":24,"max_players":24,"Bots":0,"server_type":"Dedicated","server_os":"Linux","password":true,"vac":true,"version":"7961495","steam_id":85568392924504274,"keywords":["cp","nocrits","nodmgspread","uncletopia"],"game_id":440,"stv_port":27036,"stv_name":"Uncletopia | Frankfurt | 3 | All Maps | STV","players":[{"user_id":138,"name":"Jim RocketFinger","steam_id":76561198011690583,"connected_time":368000000000,"state":"active","ping":81},{"user_id":123,"name":"Syd","steam_id":76561198020515027,"connected_time":1061000000000,"state":"active","ping":73},{"user_id":124,"name":"Peat","steam_id":76561197992168067,"connected_time":950000000000,"state":"active","ping":70},{"user_id":139,"name":"LuckyHappyGuy","steam_id":76561198353023996,"connected_time":358000000000,"state":"active","ping":70},{"user_id":114,"name":"Pip","steam_id":76561198049587565,"connected_time":1463000000000,"state":"active","ping":57},{"user_id":18,"name":"Chopperson_","steam_id":76561198873728497,"connected_time":8718000000000,"state":"active","ping":114},{"user_id":71,"name":"jaru≈õ","steam_id":76561198118900480,"connected_time":4806000000000,"state":"active","ping":62},{"user_id":144,"name":"The legendery balls","steam_id":76561199139344747,"connected_time":194000000000,"state":"active","ping":104},{"user_id":129,"name":"the grongle","steam_id":76561198989398023,"connected_time":858000000000,"state":"active","ping":104},{"user_id":59,"name":"hasansaeedifar","steam_id":76561198974563618,"connected_time":5985000000000,"state":"active","ping":155},{"user_id":103,"name":"jjkun786","steam_id":76561199438517484,"connected_time":2504000000000,"state":"active","ping":68},{"user_id":61,"name":"Miito","steam_id":76561198188000642,"connected_time":5904000000000,"state":"active","ping":77},{"user_id":133,"name":"Ledge","steam_id":76561198132803838,"connected_time":604000000000,"state":"active","ping":69},{"user_id":141,"name":"shr1mple","steam_id":76561198173537027,"connected_time":348000000000,"state":"active","ping":35},{"user_id":105,"name":"Hox","steam_id":76561198977801115,"connected_time":2448000000000,"state":"active","ping":75},{"user_id":112,"name":"monocle chicken","steam_id":76561199020106029,"connected_time":1692000000000,"state":"active","ping":101},{"user_id":142,"name":"Akira","steam_id":76561198323636432,"connected_time":340000000000,"state":"active","ping":60},{"user_id":143,"name":"ùï∂ùñöùñôùñéùï∫ùï≤ùï±","steam_id":76561198246304828,"connected_time":251000000000,"state":"active","ping":61},{"user_id":145,"name":"Tha Carter","steam_id":76561198202741199,"connected_time":149000000000,"state":"active","ping":63},{"user_id":131,"name":"Pikdy","steam_id":76561199492395972,"connected_time":729000000000,"state":"active","ping":64},{"user_id":135,"name":"Piss Man","steam_id":76561199079493666,"connected_time":566000000000,"state":"active","ping":75},{"user_id":146,"name":"{TPF}Badaabing","steam_id":76561197996161449,"connected_time":93000000000,"state":"active","ping":46},{"user_id":132,"name":"mishuta2014krutiy","steam_id":76561199012274799,"connected_time":729000000000,"state":"active","ping":59},{"user_id":73,"name":"Darko","steam_id":76561198057826930,"connected_time":4624000000000,"state":"active","ping":51}]},{"server_id":309,"name":"Uncletopia | Frankfurt | 4 | All Maps","name_short":"frk-4","host":"frk-1.de.uncletopia.com","port":27045,"enabled":true,"region":"eu","cc":"de","latitude":50.110924,"longitude":8.682127,"reserved":0,"last_update":"0001-01-01T00:00:00Z","name_a2s":"Uncletopia | Frankfurt | 4 | All Maps","protocol":17,"map":"koth_lakeside_final","folder":"tf","game":"Team Fortress","app_id":440,"player_count":0,"max_players":24,"Bots":0,"server_type":"Dedicated","server_os":"Linux","password":true,"vac":true,"version":"7961495","steam_id":85568392924504275,"keywords":["cp","nocrits","nodmgspread","uncletopia"],"game_id":440,"stv_port":27046,"stv_name":"Uncletopia | Frankfurt | 4 | All Maps | STV","players":null},{"server_id":310,"name":"Uncletopia | Frankfurt | 5 | All Maps","name_short":"frk-5","host":"frk-1.de.uncletopia.com","port":27055,"enabled":true,"region":"eu","cc":"de","latitude":50.110924,"longitude":8.682127,"reserved":0,"last_update":"0001-01-01T00:00:00Z","name_a2s":"Uncletopia | Frankfurt | 5 | All Maps","protocol":17,"map":"pl_badwater","folder":"tf","game":"Team Fortress","app_id":440,"player_count":24,"max_players":24,"Bots":0,"server_type":"Dedicated","server_os":"Linux","password":true,"vac":true,"version":"7961495","steam_id":85568392924504277,"keywords":["nocrits","nodmgspread","payload","uncletopia"],"game_id":440,"stv_port":27056,"stv_name":"Uncletopia | Frankfurt | 5 | All Maps | STV","players":[{"user_id":541,"name":"HUGO","steam_id":76561198317134996,"connected_time":1256000000000,"state":"active","ping":86},{"user_id":558,"name":"‚ú¶ Xayira ‚ú¶","steam_id":76561198079566786,"connected_time":258000000000,"state":"active","ping":52},{"user_id":553,"name":"Keroz1n","steam_id":76561197998681491,"connected_time":593000000000,"state":"active","ping":62},{"user_id":542,"name":"TryX","steam_id":76561199356781475,"connected_time":1202000000000,"state":"active","ping":79},{"user_id":555,"name":"engineer gaming","steam_id":76561198127534755,"connected_time":381000000000,"state":"active","ping":101},{"user_id":559,"name":"krozewski","steam_id":76561198035540483,"connected_time":202000000000,"state":"active","ping":105},{"user_id":535,"name":"qwq","steam_id":76561198121348714,"connected_time":1747000000000,"state":"active","ping":66},{"user_id":565,"name":"Hoovy :]","steam_id":76561198418767816,"connected_time":19000000000,"state":"spawning","ping":74},{"user_id":513,"name":"Vlad","steam_id":76561198048605526,"connected_time":3291000000000,"state":"active","ping":90},{"user_id":519,"name":"1/1 OJ","steam_id":76561198054745133,"connected_time":2761000000000,"state":"active","ping":74},{"user_id":550,"name":"Loky","steam_id":76561198129738366,"connected_time":705000000000,"state":"active","ping":103},{"user_id":536,"name":"H√≥≈àa","steam_id":76561198096006081,"connected_time":1737000000000,"state":"active","ping":46},{"user_id":544,"name":"hipster_doofus","steam_id":76561197970902697,"connected_time":1190000000000,"state":"active","ping":70},{"user_id":560,"name":"God is serb","steam_id":76561198966246028,"connected_time":163000000000,"state":"active","ping":96},{"user_id":561,"name":"Shamaii","steam_id":76561198057833343,"connected_time":148000000000,"state":"active","ping":63},{"user_id":551,"name":"Dolcelatte","steam_id":76561198038501770,"connected_time":672000000000,"state":"active","ping":59},{"user_id":539,"name":"minecraft steve","steam_id":76561198368688348,"connected_time":1388000000000,"state":"active","ping":48},{"user_id":556,"name":"JepCabestany","steam_id":76561198123812578,"connected_time":317000000000,"state":"active","ping":96},{"user_id":566,"name":"Spinya","steam_id":76561198086653667,"connected_time":9000000000,"state":"spawning","ping":61},{"user_id":529,"name":"EasyName","steam_id":76561198351836689,"connected_time":2126000000000,"state":"active","ping":71},{"user_id":552,"name":"AsuX","steam_id":76561197990333289,"connected_time":654000000000,"state":"active","ping":60},{"user_id":530,"name":"tokss","steam_id":76561198033084982,"connected_time":1931000000000,"state":"active","ping":90},{"user_id":563,"name":"–ú—è—Å–∫–æ","steam_id":76561198016648154,"connected_time":129000000000,"state":"active","ping":61},{"user_id":564,"name":"BurningJoke","steam_id":76561199014358707,"connected_time":104000000000,"state":"active","ping":48}]},{"server_id":311,"name":"Uncletopia | Frankfurt | 6 | All Maps","name_short":"frk-6","host":"frk-1.de.uncletopia.com","port":27065,"enabled":true,"region":"eu","cc":"de","latitude":50.110924,"longitude":8.682127,"reserved":0,"last_update":"0001-01-01T00:00:00Z","name_a2s":"Uncletopia | Frankfurt | 6 | All Maps","protocol":17,"map":"koth_highpass","folder":"tf","game":"Team Fortress","app_id":440,"player_count":0,"max_players":24,"Bots":0,"server_type":"Dedicated","server_os":"Linux","password":true,"vac":true,"version":"7961495","steam_id":85568392924504278,"keywords":["cp","nocrits","nodmgspread","uncletopia"],"game_id":440,"stv_port":27066,"stv_name":"Uncletopia | Frankfurt | 6 | All Maps | STV","players":null},{"server_id":23,"name":"Uncletopia | Frankfurt | 7 | Stopwatch","name_short":"frk-7","host":"frk-1.de.uncletopia.com","port":27075,"enabled":true,"region":"eu","cc":"de","latitude":50.110924,"longitude":8.682127,"reserved":0,"last_update":"0001-01-01T00:00:00Z","name_a2s":"Uncletopia | Frankfurt | 7 | Stopwatch","protocol":17,"map":"workshop/cp_process_f12.ugc2302948105","folder":"tf","game":"Team Fortress","app_id":440,"player_count":0,"max_players":24,"Bots":0,"server_type":"Dedicated","server_os":"Linux","password":true,"vac":true,"version":"7961495","steam_id":85568392924742827,"keywords":["cp","nocrits","nodmgspread","uncletopia"],"game_id":440,"stv_port":27076,"stv_name":"Uncletopia | Frankfurt | 7 | Stopwatch | STV","players":null},{"server_id":24,"name":"Uncletopia | Frankfurt | 8 | Community","name_short":"frk-8","host":"frk-1.de.uncletopia.com","port":27085,"enabled":true,"region":"eu","cc":"de","latitude":50.110924,"longitude":8.682127,"reserved":0,"last_update":"0001-01-01T00:00:00Z","name_a2s":"Uncletopia | Frankfurt | 8 | Community","protocol":17,"map":"workshop/cp_reckoner_rc6.ugc674719999","folder":"tf","game":"Team Fortress","app_id":440,"player_count":0,"max_players":24,"Bots":0,"server_type":"Dedicated","server_os":"Linux","password":true,"vac":true,"version":"7961495","steam_id":85568392924742828,"keywords":["cp","nocrits","nodmgspread","uncletopia"],"game_id":440,"stv_port":27086,"stv_name":"Uncletopia | Frankfurt | 8 | Community | STV","players":null},{"server_id":202,"name":"Uncletopia | Hong Kong | 1 | All Maps","name_short":"hgk-1","host":"hgk-1.hk.uncletopia.com","port":27015,"enabled":true,"region":"asia","cc":"hk","latitude":22.302711,"longitude":114.177216,"reserved":0,"last_update":"0001-01-01T00:00:00Z","name_a2s":"Uncletopia | Hong Kong | 1 | All Maps","protocol":17,"map":"pl_barnblitz","folder":"tf","game":"Team Fortress","app_id":440,"player_count":24,"max_players":24,"Bots":0,"server_type":"Dedicated","server_os":"Linux","password":true,"vac":true,"version":"7961495","steam_id":85568392924494504,"keywords":["nocrits","nodmgspread","payload","uncletopia"],"game_id":440,"stv_port":27016,"stv_name":"Uncletopia | Hong Kong | 1 | All Maps | STV","players":[{"user_id":312,"name":"Beef Wellington","steam_id":76561197995635241,"connected_time":2579000000000,"state":"active","ping":109},{"user_id":249,"name":"xPhid","steam_id":76561199080808930,"connected_time":9511000000000,"state":"active","ping":66},{"user_id":329,"name":"Duckzilla","steam_id":76561199223984880,"connected_time":949000000000,"state":"active","ping":72},{"user_id":294,"name":"ArcticDolphin","steam_id":76561198203626319,"connected_time":5352000000000,"state":"active","ping":141},{"user_id":306,"name":"cocksucker479","steam_id":76561198055553140,"connected_time":3440000000000,"state":"active","ping":78},{"user_id":318,"name":"GAMA","steam_id":76561198049755630,"connected_time":2112000000000,"state":"active","ping":110},{"user_id":316,"name":"toad‚ô°","steam_id":76561198082199290,"connected_time":2222000000000,"state":"active","ping":41},{"user_id":325,"name":"Morolian","steam_id":76561198015568343,"connected_time":1665000000000,"state":"active","ping":106},{"user_id":301,"name":"Pillboi","steam_id":76561198011172886,"connected_time":4363000000000,"state":"active","ping":39},{"user_id":263,"name":"Dell Conagher","steam_id":76561198853001370,"connected_time":8737000000000,"state":"active","ping":69},{"user_id":332,"name":"ËÑàÁµ°Èõû","steam_id":76561198060730307,"connected_time":873000000000,"state":"active","ping":56},{"user_id":305,"name":"elite anarchest","steam_id":76561198411982822,"connected_time":3551000000000,"state":"active","ping":86},{"user_id":288,"name":"le goon","steam_id":76561198797699056,"connected_time":6051000000000,"state":"active","ping":104},{"user_id":181,"name":"Impetus","steam_id":76561198213031155,"connected_time":15026000000000,"state":"active","ping":97},{"user_id":326,"name":"Augheurghauehg?!","steam_id":76561198180675483,"connected_time":1314000000000,"state":"active","ping":115},{"user_id":273,"name":"Momoxhien","steam_id":76561198414997429,"connected_time":7260000000000,"state":"active","ping":67},{"user_id":295,"name":"Ïø†ÌÇ§","steam_id":76561197997220367,"connected_time":5331000000000,"state":"active","ping":53},{"user_id":315,"name":"boom","steam_id":76561199084484236,"connected_time":2516000000000,"state":"active","ping":61},{"user_id":331,"name":"Ivy","steam_id":76561198400698408,"connected_time":906000000000,"state":"active","ping":98},{"user_id":284,"name":"StewB„ÉÑ","steam_id":76561198131423270,"connected_time":6468000000000,"state":"active","ping":66},{"user_id":342,"name":"P The Unspeakable Horror","steam_id":76561198304514505,"connected_time":713000000000,"state":"active","ping":74},{"user_id":330,"name":"screamer","steam_id":76561198147950041,"connected_time":949000000000,"state":"active","ping":86},{"user_id":321,"name":"Hatless Hatman","steam_id":76561198377541105,"connected_time":1849000000000,"state":"active","ping":58},{"user_id":304,"name":"average 2fort enjoyer","steam_id":76561198062112214,"connected_time":3858000000000,"state":"active","ping":118}]},{"server_id":1,"name":"Uncletopia | Los Angeles | 1 | All Maps","name_short":"lax-1","host":"lax-1.us.uncletopia.com","port":27015,"enabled":true,"region":"us-west","cc":"us","latitude":33.94279,"longitude":-118.41004,"reserved":0,"last_update":"0001-01-01T00:00:00Z","name_a2s":"Uncletopia | Los Angeles | 1 | All Maps","protocol":17,"map":"koth_lakeside_final","folder":"tf","game":"Team Fortress","app_id":440,"player_count":0,"max_players":24,"Bots":0,"server_type":"Dedicated","server_os":"Linux","password":true,"vac":true,"version":"7961495","steam_id":85568392924469991,"keywords":["cp","nocrits","nodmgspread","uncletopia"],"game_id":440,"stv_port":27016,"stv_name":"Uncletopia | Los Angeles | 1 | All Maps | STV","players":null},{"server_id":112,"name":"Uncletopia | Los Angeles | 2 | All Maps","name_short":"lax-2","host":"lax-1.us.uncletopia.com","port":27025,"enabled":true,"region":"us-west","cc":"us","latitude":33.94279,"longitude":-118.41004,"reserved":0,"last_update":"0001-01-01T00:00:00Z","name_a2s":"Uncletopia | Los Angeles | 2 | All Maps","protocol":17,"map":"koth_lazarus","folder":"tf","game":"Team Fortress","app_id":440,"player_count":0,"max_players":24,"Bots":0,"server_type":"Dedicated","server_os":"Linux","password":true,"vac":true,"version":"7961495","steam_id":85568392924469992,"keywords":["cp","nocrits","nodmgspread","uncletopia"],"game_id":440,"stv_port":27026,"stv_name":"Uncletopia | Los Angeles | 2 | All Maps | STV","players":null},{"server_id":324,"name":"Uncletopia | Los Angeles | 3 | All Maps","name_short":"lax-3","host":"lax-1.us.uncletopia.com","port":27035,"enabled":true,"region":"us-west","cc":"us","latitude":33.94279,"longitude":-118.41004,"reserved":0,"last_update":"0001-01-01T00:00:00Z","name_a2s":"Uncletopia | Los Angeles | 3 | All Maps","protocol":17,"map":"pl_frontier_final","folder":"tf","game":"Team Fortress","app_id":440,"player_count":0,"max_players":24,"Bots":0,"server_type":"Dedicated","server_os":"Linux","password":true,"vac":true,"version":"7961495","steam_id":85568392924510198,"keywords":["nocrits","nodmgspread","payload","uncletopia"],"game_id":440,"stv_port":27036,"stv_name":"Uncletopia | Los Angeles | 3 | All Maps | STV","players":null},{"server_id":25,"name":"Uncletopia | Los Angeles | 4 | Stopwatch","name_short":"lax-4","host":"lax-1.us.uncletopia.com","port":27045,"enabled":true,"region":"us-west","cc":"us","latitude":33.94279,"longitude":-118.41004,"reserved":0,"last_update":"0001-01-01T00:00:00Z","name_a2s":"Uncletopia | Los Angeles | 4 | Stopwatch","protocol":17,"map":"pl_upward","folder":"tf","game":"Team Fortress","app_id":440,"player_count":0,"max_players":24,"Bots":0,"server_type":"Dedicated","server_os":"Linux","password":true,"vac":true,"version":"7961495","steam_id":85568392924510199,"keywords":["nocrits","nodmgspread","payload","uncletopia"],"game_id":440,"stv_port":27046,"stv_name":"Uncletopia | Los Angeles | 4 | Stopwatch | STV","players":null},{"server_id":11,"name":"Uncletopia | London | 1 | All Maps","name_short":"lon-1","host":"lon-1.uk.uncletopia.com","port":27015,"enabled":true,"region":"eu","cc":"gb","latitude":51.509865,"longitude":-0.118092,"reserved":0,"last_update":"0001-01-01T00:00:00Z","name_a2s":"Uncletopia | London | 1 | All Maps","protocol":17,"map":"pl_pier","folder":"tf","game":"Team Fortress","app_id":440,"player_count":24,"max_players":24,"Bots":0,"server_type":"Dedicated","server_os":"Linux","password":true,"vac":true,"version":"7961495","steam_id":85568392924367362,"keywords":["nocrits","nodmgspread","payload","uncletopia"],"game_id":440,"stv_port":27016,"stv_name":"Uncletopia | London | 1 | All Maps | STV","players":[{"user_id":359,"name":"fidget","steam_id":76561198363479340,"connected_time":1578000000000,"state":"active","ping":77},{"user_id":344,"name":"Archer","steam_id":76561197994239444,"connected_time":2826000000000,"state":"active","ping":121},{"user_id":290,"name":"waitrose gaming","steam_id":76561198011450253,"connected_time":6227000000000,"state":"active","ping":49},{"user_id":354,"name":"lugi","steam_id":76561198026903673,"connected_time":2056000000000,"state":"active","ping":71},{"user_id":355,"name":"tired","steam_id":76561198046838168,"connected_time":2015000000000,"state":"active","ping":60},{"user_id":362,"name":"not poggers","steam_id":76561198237631092,"connected_time":723000000000,"state":"active","ping":86},{"user_id":293,"name":"bolsonaro","steam_id":76561198074917015,"connected_time":5962000000000,"state":"active","ping":77},{"user_id":342,"name":"mikeh38","steam_id":76561198130698781,"connected_time":3081000000000,"state":"active","ping":64},{"user_id":360,"name":"Toomanynames","steam_id":76561199071235509,"connected_time":1559000000000,"state":"active","ping":46},{"user_id":346,"name":"cumslut","steam_id":76561198086780251,"connected_time":2522000000000,"state":"active","ping":53},{"user_id":363,"name":"DONK","steam_id":76561198109679698,"connected_time":682000000000,"state":"active","ping":70},{"user_id":361,"name":"Inky (she/her)","steam_id":76561198334042273,"connected_time":1556000000000,"state":"active","ping":33},{"user_id":352,"name":"Acekeni‚Ñ¢","steam_id":76561198352700499,"connected_time":2205000000000,"state":"active","ping":88},{"user_id":358,"name":"wowize","steam_id":76561199187255193,"connected_time":1607000000000,"state":"active","ping":86},{"user_id":336,"name":"Femboy Butt","steam_id":76561198115496457,"connected_time":3301000000000,"state":"active","ping":63},{"user_id":337,"name":"I I | #SaveTF2","steam_id":76561199101935057,"connected_time":3284000000000,"state":"active","ping":99},{"user_id":262,"name":"Pride moth","steam_id":76561198799133372,"connected_time":8857000000000,"state":"active","ping":96},{"user_id":348,"name":"ChAr1i3","steam_id":76561199086804988,"connected_time":2449000000000,"state":"active","ping":114},{"user_id":322,"name":"willus212","steam_id":76561199182615246,"connected_time":4168000000000,"state":"active","ping":81},{"user_id":357,"name":"Johnson","steam_id":76561199382978934,"connected_time":1611000000000,"state":"active","ping":90},{"user_id":356,"name":"Medieval Doktor","steam_id":76561198075373362,"connected_time":1773000000000,"state":"active","ping":44},{"user_id":350,"name":"ZANNABLUKE","steam_id":76561198013534336,"connected_time":2340000000000,"state":"active","ping":60},{"user_id":365,"name":"wk ohw","steam_id":76561198106049954,"connected_time":103000000000,"state":"active","ping":72}]},{"server_id":114,"name":"Uncletopia | London | 2 | All Maps","name_short":"lon-2","host":"lon-1.uk.uncletopia.com","port":27025,"enabled":true,"region":"eu","cc":"gb","latitude":51.509865,"longitude":-0.118092,"reserved":0,"last_update":"0001-01-01T00:00:00Z","name_a2s":"Uncletopia | London | 2 | All Maps","protocol":17,"map":"cp_mountainlab","folder":"tf","game":"Team Fortress","app_id":440,"player_count":0,"max_players":24,"Bots":0,"server_type":"Dedicated","server_os":"Linux","password":true,"vac":true,"version":"7961495","steam_id":85568392924470941,"keywords":["cp","nocrits","nodmgspread","uncletopia"],"game_id":440,"stv_port":27026,"stv_name":"Uncletopia | London | 2 | All Maps | STV","players":null},{"server_id":320,"name":"Uncletopia | London | 3 | All Maps","name_short":"lon-3","host":"lon-1.uk.uncletopia.com","port":27035,"enabled":true,"region":"eu","cc":"gb","latitude":51.509865,"longitude":-0.118092,"reserved":0,"last_update":"0001-01-01T00:00:00Z","name_a2s":"Uncletopia | London | 3 | All Maps","protocol":17,"map":"pl_upward","folder":"tf","game":"Team Fortress","app_id":440,"player_count":24,"max_players":24,"Bots":0,"server_type":"Dedicated","server_os":"Linux","password":true,"vac":true,"version":"7961495","steam_id":85568392924510192,"keywords":["nocrits","nodmgspread","payload","uncletopia"],"game_id":440,"stv_port":27036,"stv_name":"Uncletopia | London | 3 | All Maps | STV","players":[{"user_id":164,"name":"bassax01","steam_id":76561198299900228,"connected_time":3535000000000,"state":"active","ping":61},{"user_id":175,"name":"Theskillmaster32734","steam_id":76561198845682486,"connected_time":2576000000000,"state":"active","ping":87},{"user_id":213,"name":"RedBee (Femboy Nurse Èõô)","steam_id":76561198976736971,"connected_time":136000000000,"state":"active","ping":48},{"user_id":209,"name":"I use Vim btw","steam_id":76561198016042113,"connected_time":767000000000,"state":"active","ping":65},{"user_id":196,"name":"Michael","steam_id":76561198003146906,"connected_time":1626000000000,"state":"active","ping":44},{"user_id":204,"name":"LeWiwinSauvage","steam_id":76561198169278821,"connected_time":860000000000,"state":"active","ping":45},{"user_id":198,"name":"Vel0city","steam_id":76561198049687798,"connected_time":1591000000000,"state":"active","ping":46},{"user_id":200,"name":"Gabeyboy321","steam_id":76561199379213615,"connected_time":1272000000000,"state":"active","ping":173},{"user_id":214,"name":"[Sheep] Tomco","steam_id":76561198388549261,"connected_time":12000000000,"state":"spawning","ping":123},{"user_id":211,"name":"dashboy4","steam_id":76561199485360555,"connected_time":607000000000,"state":"active","ping":148},{"user_id":142,"name":"silicon based life form","steam_id":76561199127121346,"connected_time":4510000000000,"state":"active","ping":50},{"user_id":184,"name":"yugodaboi","steam_id":76561199387130263,"connected_time":2044000000000,"state":"active","ping":151},{"user_id":202,"name":"DXD Tech","steam_id":76561198358379587,"connected_time":1135000000000,"state":"active","ping":71},{"user_id":187,"name":"Deez nuts","steam_id":76561199429562693,"connected_time":1981000000000,"state":"active","ping":70},{"user_id":163,"name":"marvi444","steam_id":76561198431534139,"connected_time":3559000000000,"state":"active","ping":63},{"user_id":160,"name":"heddwch","steam_id":76561198076097983,"connected_time":3902000000000,"state":"active","ping":80},{"user_id":167,"name":"Marukuso","steam_id":76561198154229845,"connected_time":3381000000000,"state":"active","ping":61},{"user_id":206,"name":"magma core enjoyer","steam_id":76561199042470246,"connected_time":846000000000,"state":"active","ping":61},{"user_id":212,"name":"Purplenoogie","steam_id":76561198081872160,"connected_time":318000000000,"state":"active","ping":37},{"user_id":168,"name":"Sham!","steam_id":76561198050434275,"connected_time":3364000000000,"state":"active","ping":55},{"user_id":189,"name":"Kenny_killer_69","steam_id":76561199465207725,"connected_time":1976000000000,"state":"active","ping":79},{"user_id":194,"name":"Daykayn","steam_id":76561199138533622,"connected_time":1805000000000,"state":"active","ping":113},{"user_id":170,"name":"El_Kommadante","steam_id":76561198079551685,"connected_time":3298000000000,"state":"active","ping":56},{"user_id":199,"name":"Sylenth","steam_id":76561198281811535,"connected_time":1589000000000,"state":"active","ping":41}]},{"server_id":321,"name":"Uncletopia | London | 4 | All Maps","name_short":"lon-4","host":"lon-1.uk.uncletopia.com","port":27045,"enabled":true,"region":"eu","cc":"gb","latitude":51.509865,"longitude":-0.118092,"reserved":0,"last_update":"0001-01-01T00:00:00Z","name_a2s":"Uncletopia | London | 4 | All Maps","protocol":17,"map":"cp_altitude","folder":"tf","game":"Team Fortress","app_id":440,"player_count":24,"max_players":24,"Bots":0,"server_type":"Dedicated","server_os":"Linux","password":true,"vac":true,"version":"7961495","steam_id":85568392924510193,"keywords":["cp","nocrits","nodmgspread","uncletopia"],"game_id":440,"stv_port":27046,"stv_name":"Uncletopia | London | 4 | All Maps | STV","players":[{"user_id":134,"name":"v0ddo","steam_id":76561198092745537,"connected_time":2072000000000,"state":"active","ping":59},{"user_id":146,"name":"bAdmon","steam_id":76561197961785793,"connected_time":1395000000000,"state":"active","ping":56},{"user_id":127,"name":"Gorgeous George","steam_id":76561198144256544,"connected_time":2575000000000,"state":"active","ping":47},{"user_id":154,"name":"abra-kablam","steam_id":76561198195857751,"connected_time":924000000000,"state":"active","ping":70},{"user_id":145,"name":"JustACoomer","steam_id":76561198151433181,"connected_time":1403000000000,"state":"active","ping":42},{"user_id":84,"name":"azzy","steam_id":76561198061293740,"connected_time":6244000000000,"state":"active","ping":76},{"user_id":66,"name":"Warrior555MainsGanon","steam_id":76561198388627786,"connected_time":7070000000000,"state":"active","ping":63},{"user_id":113,"name":"CJ_from_Groove","steam_id":76561198889928743,"connected_time":3274000000000,"state":"active","ping":106},{"user_id":121,"name":"Pimpin' \u0026 Blimpin'","steam_id":76561198326776107,"connected_time":2780000000000,"state":"active","ping":103},{"user_id":128,"name":"Zratogas","steam_id":76561198803330799,"connected_time":2414000000000,"state":"active","ping":104},{"user_id":159,"name":"Zinc and Sodium!","steam_id":76561198094726098,"connected_time":681000000000,"state":"active","ping":122},{"user_id":149,"name":"steck","steam_id":76561197973948113,"connected_time":1350000000000,"state":"active","ping":56},{"user_id":164,"name":"denzell05","steam_id":76561198086987061,"connected_time":436000000000,"state":"active","ping":181},{"user_id":169,"name":"oupa pepe","steam_id":76561198079254320,"connected_time":114000000000,"state":"active","ping":84},{"user_id":162,"name":"adil jay","steam_id":76561198182233723,"connected_time":557000000000,"state":"active","ping":147},{"user_id":141,"name":"–î–µ–Ω–∏—Å –ë–∞–∑—É–∫–∞","steam_id":76561198835849082,"connected_time":1568000000000,"state":"active","ping":88},{"user_id":107,"name":"Bond7o6","steam_id":76561198155718787,"connected_time":3898000000000,"state":"active","ping":56},{"user_id":163,"name":"Homeless Man","steam_id":76561198925306032,"connected_time":510000000000,"state":"active","ping":70},{"user_id":150,"name":"Onions","steam_id":76561198150195195,"connected_time":1319000000000,"state":"active","ping":49},{"user_id":140,"name":"TrashVerN","steam_id":76561197977444051,"connected_time":1688000000000,"state":"active","ping":59},{"user_id":165,"name":"the scoot","steam_id":76561199186172253,"connected_time":416000000000,"state":"active","ping":77},{"user_id":151,"name":"pardner","steam_id":76561198451471161,"connected_time":1294000000000,"state":"active","ping":60},{"user_id":168,"name":"Bmo","steam_id":76561198158818775,"connected_time":301000000000,"state":"active","ping":57},{"user_id":166,"name":"13","steam_id":76561198394345037,"connected_time":399000000000,"state":"active","ping":94}]},{"server_id":21,"name":"Uncletopia | London | 5 | All Maps","name_short":"lon-5","host":"lon-1.uk.uncletopia.com","port":27055,"enabled":true,"region":"eu","cc":"gb","latitude":51.509865,"longitude":-0.118092,"reserved":0,"last_update":"0001-01-01T00:00:00Z","name_a2s":"Uncletopia | London | 5 | All Maps","protocol":17,"map":"koth_viaduct","folder":"tf","game":"Team Fortress","app_id":440,"player_count":0,"max_players":24,"Bots":0,"server_type":"Dedicated","server_os":"Linux","password":true,"vac":true,"version":"7961495","steam_id":85568392924742829,"keywords":["cp","nocrits","nodmgspread","uncletopia"],"game_id":440,"stv_port":27056,"stv_name":"Uncletopia | London | 5 | All Maps | STV","players":null},{"server_id":22,"name":"Uncletopia | London | 6 | All Maps","name_short":"lon-6","host":"lon-1.uk.uncletopia.com","port":27065,"enabled":true,"region":"eu","cc":"gb","latitude":51.509865,"longitude":-0.118092,"reserved":0,"last_update":"0001-01-01T00:00:00Z","name_a2s":"Uncletopia | London | 6 | All Maps","protocol":17,"map":"koth_viaduct","folder":"tf","game":"Team Fortress","app_id":440,"player_count":0,"max_players":24,"Bots":0,"server_type":"Dedicated","server_os":"Linux","password":true,"vac":true,"version":"7961495","steam_id":85568392924742830,"keywords":["cp","nocrits","nodmgspread","uncletopia"],"game_id":440,"stv_port":27066,"stv_name":"Uncletopia | London | 6 | All Maps | STV","players":null},{"server_id":40,"name":"Uncletopia | London | 7 | Stopwatch","name_short":"lon-7","host":"lon-1.uk.uncletopia.com","port":27075,"enabled":true,"region":"eu","cc":"gb","latitude":51.509865,"longitude":-0.118092,"reserved":0,"last_update":"0001-01-01T00:00:00Z","name_a2s":"Uncletopia | London | 7 | Stopwatch","protocol":17,"map":"cp_granary","folder":"tf","game":"Team Fortress","app_id":440,"player_count":0,"max_players":24,"Bots":0,"server_type":"Dedicated","server_os":"Linux","password":true,"vac":true,"version":"7961495","steam_id":85568392924964314,"keywords":["cp","nocrits","nodmgspread","uncletopia"],"game_id":440,"stv_port":27076,"stv_name":"Uncletopia | London | 7 | Stopwatch | STV","players":null},{"server_id":41,"name":"Uncletopia | London | 8 | Community","name_short":"lon-8","host":"lon-1.uk.uncletopia.com","port":27085,"enabled":true,"region":"eu","cc":"gb","latitude":51.509865,"longitude":-0.118092,"reserved":0,"last_update":"0001-01-01T00:00:00Z","name_a2s":"Uncletopia | London | 8 | Community","protocol":17,"map":"workshop/pl_jinn_rc2.ugc2964570577","folder":"tf","game":"Team Fortress","app_id":440,"player_count":0,"max_players":24,"Bots":0,"server_type":"Dedicated","server_os":"Linux","password":true,"vac":true,"version":"7961495","steam_id":85568392924964315,"keywords":["nocrits","nodmgspread","payload","uncletopia"],"game_id":440,"stv_port":27086,"stv_name":"Uncletopia | London | 8 | Community | STV","players":null},{"server_id":300,"name":"Uncletopia | Montr√©al | 1 | One Thousand Uncles","name_short":"mtl-1","host":"mtl-1.ca.uncletopia.com","port":27015,"enabled":true,"region":"us-east","cc":"ca","latitude":45.50889,"longitude":-73.56167,"reserved":0,"last_update":"0001-01-01T00:00:00Z","name_a2s":"Uncletopia | Montr√©al | 1 | One Thousand Uncles","protocol":17,"map":"pl_barnblitz","folder":"tf","game":"Team Fortress","app_id":440,"player_count":0,"max_players":32,"Bots":0,"server_type":"Dedicated","server_os":"Linux","password":true,"vac":true,"version":"7961495","steam_id":85568392924500087,"keywords":["alltalk","danepve","increased_maxplayers","norespawntime","payload","uncletopia"],"game_id":440,"stv_port":0,"stv_name":"","players":null},{"server_id":301,"name":"Uncletopia | Montr√©al | 2 | One Thousand Uncles","name_short":"mtl-2","host":"mtl-1.ca.uncletopia.com","port":27025,"enabled":true,"region":"us-east","cc":"ca","latitude":45.50889,"longitude":-73.56167,"reserved":0,"last_update":"0001-01-01T00:00:00Z","name_a2s":"Uncletopia | Montr√©al | 2 | One Thousand Uncles","protocol":17,"map":"cp_mossrock","folder":"tf","game":"Team Fortress","app_id":440,"player_count":0,"max_players":32,"Bots":0,"server_type":"Dedicated","server_os":"Linux","password":true,"vac":true,"version":"7961495","steam_id":85568392924500088,"keywords":["alltalk","cp","danepve","increased_maxplayers","norespawntime","uncletopia"],"game_id":440,"stv_port":0,"stv_name":"","players":null},{"server_id":302,"name":"Uncletopia | Montr√©al | 3 | One Thousand Uncles","name_short":"mtl-3","host":"mtl-1.ca.uncletopia.com","port":27035,"enabled":true,"region":"us-east","cc":"ca","latitude":45.50889,"longitude":-73.56167,"reserved":0,"last_update":"0001-01-01T00:00:00Z","name_a2s":"Uncletopia | Montr√©al | 3 | One Thousand Uncles","protocol":17,"map":"pl_pier","folder":"tf","game":"Team Fortress","app_id":440,"player_count":0,"max_players":32,"Bots":0,"server_type":"Dedicated","server_os":"Linux","password":true,"vac":true,"version":"7961495","steam_id":85568392924500089,"keywords":["alltalk","danepve","increased_maxplayers","norespawntime","payload","uncletopia"],"game_id":440,"stv_port":0,"stv_name":"","players":null},{"server_id":13,"name":"Uncletopia | New York City | 1 | All Maps","name_short":"nyc-1","host":"nyc-1.us.uncletopia.com","port":27015,"enabled":true,"region":"us-east","cc":"us","latitude":40.73061,"longitude":-73.93524,"reserved":0,"last_update":"0001-01-01T00:00:00Z","name_a2s":"Uncletopia | New York City | 1 | All Maps","protocol":17,"map":"pl_swiftwater_final1","folder":"tf","game":"Team Fortress","app_id":440,"player_count":0,"max_players":24,"Bots":0,"server_type":"Dedicated","server_os":"Linux","password":true,"vac":true,"version":"7961495","steam_id":85568392924469993,"keywords":["nocrits","nodmgspread","payload","uncletopia"],"game_id":440,"stv_port":27016,"stv_name":"Uncletopia | New York City | 1 | All Maps | STV","players":null},{"server_id":14,"name":"Uncletopia | New York City | 2 | All Maps","name_short":"nyc-2","host":"nyc-1.us.uncletopia.com","port":27025,"enabled":true,"region":"us-east","cc":"us","latitude":40.73061,"longitude":-73.93524,"reserved":0,"last_update":"0001-01-01T00:00:00Z","name_a2s":"Uncletopia | New York City | 2 | All Maps","protocol":17,"map":"koth_suijin","folder":"tf","game":"Team Fortress","app_id":440,"player_count":2,"max_players":24,"Bots":0,"server_type":"Dedicated","server_os":"Linux","password":true,"vac":true,"version":"7961495","steam_id":85568392924469994,"keywords":["cp","nocrits","nodmgspread","uncletopia"],"game_id":440,"stv_port":27026,"stv_name":"Uncletopia | New York City | 2 | All Maps | STV","players":[{"user_id":6,"name":"javanderford","steam_id":76561198300798685,"connected_time":28000000000,"state":"active","ping":74},{"user_id":7,"name":"Bulk","steam_id":76561199009814535,"connected_time":4000000000,"state":"spawning","ping":44}]},{"server_id":15,"name":"Uncletopia | New York City | 3 | Stopwatch","name_short":"nyc-3","host":"nyc-1.us.uncletopia.com","port":27035,"enabled":true,"region":"us-east","cc":"us","latitude":40.73061,"longitude":-73.93524,"reserved":0,"last_update":"0001-01-01T00:00:00Z","name_a2s":"Uncletopia | New York City | 3 | Stopwatch","protocol":17,"map":"workshop/koth_jamram_rc1a.ugc2964065613","folder":"tf","game":"Team Fortress","app_id":440,"player_count":0,"max_players":24,"Bots":0,"server_type":"Dedicated","server_os":"Linux","password":true,"vac":true,"version":"7961495","steam_id":85568392924742820,"keywords":["cp","nocrits","nodmgspread","uncletopia"],"game_id":440,"stv_port":27036,"stv_name":"Uncletopia | New York City | 3 | Stopwatch | STV","players":null},{"server_id":16,"name":"Uncletopia | New York City | 4 | Community","name_short":"nyc-4","host":"nyc-1.us.uncletopia.com","port":27045,"enabled":true,"region":"us-east","cc":"us","latitude":40.73061,"longitude":-73.93524,"reserved":0,"last_update":"0001-01-01T00:00:00Z","name_a2s":"Uncletopia | New York City | 4 | Community","protocol":17,"map":"workshop/cp_reckoner_rc6.ugc674719999","folder":"tf","game":"Team Fortress","app_id":440,"player_count":0,"max_players":24,"Bots":0,"server_type":"Dedicated","server_os":"Linux","password":true,"vac":true,"version":"7961495","steam_id":85568392924742821,"keywords":["cp","nocrits","nodmgspread","uncletopia"],"game_id":440,"stv_port":27046,"stv_name":"Uncletopia | New York City | 4 | Community | STV","players":null},{"server_id":142,"name":"Uncletopia | S√£o Paulo | 1 | All Maps","name_short":"sao-1","host":"sao-1.br.uncletopia.com","port":27015,"enabled":true,"region":"sa","cc":"br","latitude":-23.533773,"longitude":-46.62529,"reserved":0,"last_update":"0001-01-01T00:00:00Z","name_a2s":"Uncletopia | S√£o Paulo | 1 | All Maps","protocol":17,"map":"cp_mountainlab","folder":"tf","game":"Team Fortress","app_id":440,"player_count":0,"max_players":24,"Bots":0,"server_type":"Dedicated","server_os":"Linux","password":true,"vac":true,"version":"7961495","steam_id":85568392924469996,"keywords":["cp","nocrits","nodmgspread","uncletopia"],"game_id":440,"stv_port":27016,"stv_name":"Uncletopia | S√£o Paulo | 1 | All Maps | STV","players":null},{"server_id":143,"name":"Uncletopia | S√£o Paulo | 2 | Community","name_short":"sao-2","host":"sao-2.br.uncletopia.com","port":27015,"enabled":true,"region":"sa","cc":"br","latitude":-23.533773,"longitude":-46.62529,"reserved":0,"last_update":"0001-01-01T00:00:00Z","name_a2s":"Uncletopia | S√£o Paulo | 2 | Community","protocol":17,"map":"workshop/koth_slaughter_rc1.ugc1712845210","folder":"tf","game":"Team Fortress","app_id":440,"player_count":0,"max_players":24,"Bots":0,"server_type":"Dedicated","server_os":"Linux","password":true,"vac":true,"version":"7961495","steam_id":85568392924485349,"keywords":["cp","nocrits","nodmgspread","uncletopia"],"game_id":440,"stv_port":27016,"stv_name":"Uncletopia | S√£o Paulo | 2 | Community | STV","players":null},{"server_id":7,"name":"Uncletopia | Seattle | 1 | All Maps","name_short":"sea-1","host":"sea-1.us.uncletopia.com","port":27015,"enabled":true,"region":"us-west","cc":"us","latitude":47.608013,"longitude":-122.33517,"reserved":0,"last_update":"0001-01-01T00:00:00Z","name_a2s":"Uncletopia | Seattle | 1 | All Maps","protocol":17,"map":"pl_badwater","folder":"tf","game":"Team Fortress","app_id":440,"player_count":17,"max_players":24,"Bots":0,"server_type":"Dedicated","server_os":"Linux","password":true,"vac":true,"version":"7961495","steam_id":85568392924469997,"keywords":["nocrits","nodmgspread","payload","uncletopia"],"game_id":440,"stv_port":27016,"stv_name":"Uncletopia | Seattle | 1 | All Maps | STV","players":[{"user_id":3,"name":"dust | it/she","steam_id":76561198045218909,"connected_time":6950000000000,"state":"active","ping":36},{"user_id":113,"name":"Gaio","steam_id":76561198136293406,"connected_time":205000000000,"state":"active","ping":90},{"user_id":110,"name":"devn | trade.tf","steam_id":76561199202420894,"connected_time":324000000000,"state":"active","ping":45},{"user_id":114,"name":"Biggus Wiiggus","steam_id":76561198078379719,"connected_time":85000000000,"state":"active","ping":83},{"user_id":115,"name":"Mr. Noodle","steam_id":76561198037803087,"connected_time":63000000000,"state":"active","ping":76},{"user_id":92,"name":"SibilantSerpent","steam_id":76561198154488754,"connected_time":2176000000000,"state":"active","ping":42},{"user_id":116,"name":"confield","steam_id":76561198004322265,"connected_time":61000000000,"state":"active","ping":117},{"user_id":79,"name":"MR_KRABS_SOCCER","steam_id":76561199364746412,"connected_time":3420000000000,"state":"active","ping":74},{"user_id":117,"name":"Shark Sandwich","steam_id":76561198025007938,"connected_time":28000000000,"state":"active","ping":45},{"user_id":98,"name":"Jupiter","steam_id":76561198109455396,"connected_time":1819000000000,"state":"active","ping":113},{"user_id":82,"name":"Trips","steam_id":76561198054581597,"connected_time":3363000000000,"state":"active","ping":62},{"user_id":109,"name":"pjrock101","steam_id":76561198070616561,"connected_time":328000000000,"state":"active","ping":51},{"user_id":111,"name":"Muscle Man","steam_id":76561198248325252,"connected_time":323000000000,"state":"active","ping":71},{"user_id":108,"name":"sqnguine","steam_id":76561199481839224,"connected_time":429000000000,"state":"active","ping":74},{"user_id":104,"name":"Oktayey","steam_id":76561198143213426,"connected_time":1416000000000,"state":"active","ping":61},{"user_id":105,"name":"joebot","steam_id":76561197975606100,"connected_time":1410000000000,"state":"active","ping":116},{"user_id":106,"name":"green rain 57","steam_id":76561199404849068,"connected_time":1398000000000,"state":"active","ping":81}]},{"server_id":119,"name":"Uncletopia | Seattle | 2 | All Maps","name_short":"sea-2","host":"sea-1.us.uncletopia.com","port":27025,"enabled":true,"region":"us-west","cc":"us","latitude":47.608013,"longitude":-122.33517,"reserved":0,"last_update":"0001-01-01T00:00:00Z","name_a2s":"Uncletopia | Seattle | 2 | All Maps","protocol":17,"map":"cp_mountainlab","folder":"tf","game":"Team Fortress","app_id":440,"player_count":0,"max_players":24,"Bots":0,"server_type":"Dedicated","server_os":"Linux","password":true,"vac":true,"version":"7961495","steam_id":85568392924469998,"keywords":["cp","nocrits","nodmgspread","uncletopia"],"game_id":440,"stv_port":27026,"stv_name":"Uncletopia | Seattle | 2 | All Maps | STV","players":null},{"server_id":406,"name":"Uncletopia | Seattle | 3 | Stopwatch","name_short":"sea-3","host":"sea-1.us.uncletopia.com","port":27035,"enabled":true,"region":"us-west","cc":"us","latitude":47.608013,"longitude":-122.33517,"reserved":0,"last_update":"0001-01-01T00:00:00Z","name_a2s":"Uncletopia | Seattle | 3 | Stopwatch","protocol":17,"map":"cp_gullywash_final1","folder":"tf","game":"Team Fortress","app_id":440,"player_count":0,"max_players":24,"Bots":0,"server_type":"Dedicated","server_os":"Linux","password":true,"vac":true,"version":"7961495","steam_id":85568392924515217,"keywords":["cp","nocrits","nodmgspread","uncletopia"],"game_id":440,"stv_port":27036,"stv_name":"Uncletopia | Seattle | 3 | Stopwatch | STV","players":null},{"server_id":17,"name":"Uncletopia | San Francisco | 1 | All Maps","name_short":"sfo-1","host":"sfo-1.us.uncletopia.com","port":27015,"enabled":true,"region":"us-west","cc":"us","latitude":37.77397,"longitude":-122.4313,"reserved":0,"last_update":"0001-01-01T00:00:00Z","name_a2s":"Uncletopia | San Francisco | 1 | All Maps","protocol":17,"map":"cp_gullywash_final1","folder":"tf","game":"Team Fortress","app_id":440,"player_count":0,"max_players":24,"Bots":0,"server_type":"Dedicated","server_os":"Linux","password":true,"vac":true,"version":"7961495","steam_id":85568392924469999,"keywords":["cp","nocrits","nodmgspread","uncletopia"],"game_id":440,"stv_port":27016,"stv_name":"Uncletopia | San Francisco | 1 | All Maps | STV","players":null},{"server_id":18,"name":"Uncletopia | San Francisco | 2 | All Maps","name_short":"sfo-2","host":"sfo-1.us.uncletopia.com","port":27025,"enabled":true,"region":"us-west","cc":"us","latitude":37.77397,"longitude":-122.4313,"reserved":0,"last_update":"0001-01-01T00:00:00Z","name_a2s":"Uncletopia | San Francisco | 2 | All Maps","protocol":17,"map":"pl_hoodoo_final","folder":"tf","game":"Team Fortress","app_id":440,"player_count":0,"max_players":24,"Bots":0,"server_type":"Dedicated","server_os":"Linux","password":true,"vac":true,"version":"7961495","steam_id":85568392924470000,"keywords":["nocrits","nodmgspread","payload","uncletopia"],"game_id":440,"stv_port":27026,"stv_name":"Uncletopia | San Francisco | 2 | All Maps | STV","players":null},{"server_id":19,"name":"Uncletopia | San Francisco | 3 | Stopwatch","name_short":"sfo-3","host":"sfo-1.us.uncletopia.com","port":27035,"enabled":true,"region":"us-west","cc":"us","latitude":37.77397,"longitude":-122.4313,"reserved":0,"last_update":"0001-01-01T00:00:00Z","name_a2s":"Uncletopia | San Francisco | 3 | Stopwatch","protocol":17,"map":"workshop/koth_clearcut_b15.ugc2107050255","folder":"tf","game":"Team Fortress","app_id":440,"player_count":0,"max_players":24,"Bots":0,"server_type":"Dedicated","server_os":"Linux","password":true,"vac":true,"version":"7961495","steam_id":85568392924742824,"keywords":["cp","nocrits","nodmgspread","uncletopia"],"game_id":440,"stv_port":27036,"stv_name":"Uncletopia | San Francisco | 3 | Stopwatch | STV","players":null},{"server_id":20,"name":"Uncletopia | San Francisco | 4 | Community","name_short":"sfo-4","host":"sfo-1.us.uncletopia.com","port":27045,"enabled":true,"region":"us-west","cc":"us","latitude":37.77397,"longitude":-122.4313,"reserved":0,"last_update":"0001-01-01T00:00:00Z","name_a2s":"Uncletopia | San Francisco | 4 | Community","protocol":17,"map":"workshop/cp_reckoner_rc6.ugc674719999","folder":"tf","game":"Team Fortress","app_id":440,"player_count":0,"max_players":24,"Bots":0,"server_type":"Dedicated","server_os":"Linux","password":true,"vac":true,"version":"7961495","steam_id":85568392924742826,"keywords":["cp","nocrits","nodmgspread","uncletopia"],"game_id":440,"stv_port":27046,"stv_name":"Uncletopia | San Francisco | 4 | Community | STV","players":null},{"server_id":141,"name":"Uncletopia | Sydney | 1 | All Maps","name_short":"syd-1","host":"syd-1.au.uncletopia.com","port":27015,"enabled":true,"region":"au","cc":"au","latitude":-33.865143,"longitude":151.2099,"reserved":0,"last_update":"0001-01-01T00:00:00Z","name_a2s":"Uncletopia | Sydney | 1 | All Maps","protocol":17,"map":"cp_dustbowl","folder":"tf","game":"Team Fortress","app_id":440,"player_count":0,"max_players":24,"Bots":0,"server_type":"Dedicated","server_os":"Linux","password":true,"vac":true,"version":"7961495","steam_id":85568392924470001,"keywords":["cp","nocrits","nodmgspread","uncletopia"],"game_id":440,"stv_port":27016,"stv_name":"Uncletopia | Sydney | 1 | All Maps | STV","players":null},{"server_id":123,"name":"Uncletopia | Sydney | 2 | All Maps","name_short":"syd-2","host":"syd-1.au.uncletopia.com","port":27025,"enabled":true,"region":"au","cc":"au","latitude":-33.865143,"longitude":151.2099,"reserved":0,"last_update":"0001-01-01T00:00:00Z","name_a2s":"Uncletopia | Sydney | 2 | All Maps","protocol":17,"map":"koth_highpass","folder":"tf","game":"Team Fortress","app_id":440,"player_count":0,"max_players":24,"Bots":0,"server_type":"Dedicated","server_os":"Linux","password":true,"vac":true,"version":"7961495","steam_id":85568392924470002,"keywords":["cp","nocrits","nodmgspread","uncletopia"],"game_id":440,"stv_port":27026,"stv_name":"Uncletopia | Sydney | 2 | All Maps | STV","players":null},{"server_id":395,"name":"Uncletopia | Sydney | 3 | All Maps","name_short":"syd-3","host":"syd-1.au.uncletopia.com","port":27035,"enabled":true,"region":"au","cc":"au","latitude":-33.865143,"longitude":151.2099,"reserved":0,"last_update":"0001-01-01T00:00:00Z","name_a2s":"Uncletopia | Sydney | 3 | All Maps","protocol":17,"map":"cp_process_final","folder":"tf","game":"Team Fortress","app_id":440,"player_count":0,"max_players":24,"Bots":0,"server_type":"Dedicated","server_os":"Linux","password":true,"vac":true,"version":"7961495","steam_id":85568392925194467,"keywords":["cp","nocrits","nodmgspread","uncletopia"],"game_id":440,"stv_port":27036,"stv_name":"Uncletopia | Sydney | 3 | All Maps | STV","players":null},{"server_id":396,"name":"Uncletopia | Sydney | 4 | All Maps","name_short":"syd-4","host":"syd-1.au.uncletopia.com","port":27045,"enabled":true,"region":"au","cc":"au","latitude":-33.865143,"longitude":151.2099,"reserved":0,"last_update":"0001-01-01T00:00:00Z","name_a2s":"Uncletopia | Sydney | 4 | All Maps","protocol":17,"map":"plr_bananabay","folder":"tf","game":"Team Fortress","app_id":440,"player_count":0,"max_players":24,"Bots":0,"server_type":"Dedicated","server_os":"Linux","password":true,"vac":true,"version":"7961495","steam_id":85568392925397958,"keywords":["nocrits","nodmgspread","payload","uncletopia"],"game_id":440,"stv_port":27046,"stv_name":"Uncletopia | Sydney | 4 | All Maps | STV","players":null},{"server_id":58,"name":"Uncletopia | Sydney | 5 | Stopwatch","name_short":"syd-5","host":"syd-1.au.uncletopia.com","port":27055,"enabled":true,"region":"au","cc":"au","latitude":-33.865143,"longitude":151.2099,"reserved":0,"last_update":"0001-01-01T00:00:00Z","name_a2s":"Uncletopia | Sydney | 5 | Stopwatch","protocol":17,"map":"workshop/pl_barnblitz_pro7.ugc582280235","folder":"tf","game":"Team Fortress","app_id":440,"player_count":0,"max_players":24,"Bots":0,"server_type":"Dedicated","server_os":"Linux","password":true,"vac":true,"version":"7961495","steam_id":85568392925397959,"keywords":["nocrits","nodmgspread","payload","uncletopia"],"game_id":440,"stv_port":27056,"stv_name":"Uncletopia | Sydney | 5 | Stopwatch | STV","players":null},{"server_id":59,"name":"Uncletopia | Sydney | 6 | Community","name_short":"syd-6","host":"syd-1.au.uncletopia.com","port":27065,"enabled":true,"region":"au","cc":"au","latitude":-33.865143,"longitude":151.2099,"reserved":0,"last_update":"0001-01-01T00:00:00Z","name_a2s":"Uncletopia | Sydney | 6 | Community","protocol":17,"map":"workshop/koth_soot_final1.ugc2969540689","folder":"tf","game":"Team Fortress","app_id":440,"player_count":0,"max_players":24,"Bots":0,"server_type":"Dedicated","server_os":"Linux","password":true,"vac":true,"version":"7961495","steam_id":85568392925397960,"keywords":["cp","nocrits","nodmgspread","uncletopia"],"game_id":440,"stv_port":27066,"stv_name":"Uncletopia | Sydney | 6 | Community | STV","players":null},{"server_id":49,"name":"Uncletopia | Warsaw | 1 | One Thousand Uncles","name_short":"waw-1","host":"waw-1.pl.uncletopia.com","port":27015,"enabled":true,"region":"eu","cc":"pl","latitude":52.2297,"longitude":21.017532,"reserved":0,"last_update":"0001-01-01T00:00:00Z","name_a2s":"Uncletopia | Warsaw | 1 | One Thousand Uncles","protocol":17,"map":"pl_barnblitz","folder":"tf","game":"Team Fortress","app_id":440,"player_count":24,"max_players":32,"Bots":20,"server_type":"Dedicated","server_os":"Linux","password":true,"vac":true,"version":"7961495","steam_id":85568392925397850,"keywords":["alltalk","bots","danepve","increased_maxplayers","norespawntime","payload","uncletopia"],"game_id":440,"stv_port":0,"stv_name":"","players":[{"user_id":333,"name":"SK√öTER","steam_id":76561199262157623,"connected_time":1017000000000,"state":"active","ping":79},{"user_id":272,"name":"PuPuruPuruPumPu","steam_id":76561198391950490,"connected_time":5454000000000,"state":"active","ping":99},{"user_id":334,"name":"Luki","steam_id":76561198180609107,"connected_time":321000000000,"state":"active","ping":215},{"user_id":335,"name":"zontov.leha","steam_id":76561199380178297,"connected_time":262000000000,"state":"active","ping":91}]},{"server_id":50,"name":"Uncletopia | Warsaw | 2 | One Thousand Uncles","name_short":"waw-2","host":"waw-1.pl.uncletopia.com","port":27025,"enabled":true,"region":"eu","cc":"pl","latitude":52.2297,"longitude":21.017532,"reserved":0,"last_update":"0001-01-01T00:00:00Z","name_a2s":"Uncletopia | Warsaw | 2 | One Thousand Uncles","protocol":17,"map":"pl_chilly","folder":"tf","game":"Team Fortress","app_id":440,"player_count":0,"max_players":32,"Bots":0,"server_type":"Dedicated","server_os":"Linux","password":true,"vac":true,"version":"7961495","steam_id":85568392925397851,"keywords":["alltalk","danepve","increased_maxplayers","norespawntime","payload","uncletopia"],"game_id":440,"stv_port":0,"stv_name":"","players":null},{"server_id":51,"name":"Uncletopia | Warsaw | 3 | All Maps","name_short":"waw-3","host":"waw-1.pl.uncletopia.com","port":27035,"enabled":true,"region":"eu","cc":"pl","latitude":52.2297,"longitude":21.017532,"reserved":0,"last_update":"0001-01-01T00:00:00Z","name_a2s":"Uncletopia | Warsaw | 3 | All Maps","protocol":17,"map":"cp_dustbowl","folder":"tf","game":"Team Fortress","app_id":440,"player_count":0,"max_players":24,"Bots":0,"server_type":"Dedicated","server_os":"Linux","password":true,"vac":true,"version":"7961495","steam_id":85568392925397852,"keywords":["cp","nocrits","nodmgspread","uncletopia"],"game_id":440,"stv_port":27036,"stv_name":"Uncletopia | Warsaw | 3 | All Maps | STV","players":null},{"server_id":52,"name":"Uncletopia | Warsaw | 4 | All Maps","name_short":"waw-4","host":"waw-1.pl.uncletopia.com","port":27045,"enabled":true,"region":"eu","cc":"pl","latitude":52.2297,"longitude":21.017532,"reserved":0,"last_update":"0001-01-01T00:00:00Z","name_a2s":"Uncletopia | Warsaw | 4 | All Maps","protocol":17,"map":"cp_dustbowl","folder":"tf","game":"Team Fortress","app_id":440,"player_count":11,"max_players":24,"Bots":0,"server_type":"Dedicated","server_os":"Linux","password":true,"vac":true,"version":"7961495","steam_id":85568392925397853,"keywords":["cp","nocrits","nodmgspread","uncletopia"],"game_id":440,"stv_port":27046,"stv_name":"Uncletopia | Warsaw | 4 | All Maps | STV","players":[{"user_id":9,"name":"Pepe the Frog","steam_id":76561199500477314,"connected_time":7259000000000,"state":"active","ping":134},{"user_id":18,"name":"whocares1950","steam_id":76561198328084701,"connected_time":4468000000000,"state":"active","ping":103},{"user_id":22,"name":"snowfox","steam_id":76561199126908211,"connected_time":2789000000000,"state":"active","ping":97},{"user_id":29,"name":"–ü—Ä–∏–≤–µ—Ç","steam_id":76561199267283109,"connected_time":1528000000000,"state":"active","ping":94},{"user_id":28,"name":"ICE_IS_NICE","steam_id":76561199267970356,"connected_time":1548000000000,"state":"active","ping":69},{"user_id":27,"name":"N","steam_id":76561199094237497,"connected_time":1581000000000,"state":"active","ping":70},{"user_id":30,"name":"spy hater","steam_id":76561198366954330,"connected_time":927000000000,"state":"active","ping":79},{"user_id":32,"name":"‚ô† ‚ô• asetils ‚ô£ ‚ô¶","steam_id":76561198897732673,"connected_time":466000000000,"state":"active","ping":90},{"user_id":33,"name":"Al_Paca","steam_id":76561198881073504,"connected_time":423000000000,"state":"active","ping":75},{"user_id":34,"name":"Backstreet Badger","steam_id":76561199024411975,"connected_time":282000000000,"state":"active","ping":118},{"user_id":35,"name":"SkifSam0g0n","steam_id":76561199508607501,"connected_time":143000000000,"state":"active","ping":70}]},{"server_id":53,"name":"Uncletopia | Warsaw | 5 | Stopwatch","name_short":"waw-5","host":"waw-1.pl.uncletopia.com","port":27055,"enabled":true,"region":"eu","cc":"pl","latitude":52.2297,"longitude":21.017532,"reserved":0,"last_update":"0001-01-01T00:00:00Z","name_a2s":"Uncletopia | Warsaw | 5 | Stopwatch","protocol":17,"map":"koth_lakeside_final","folder":"tf","game":"Team Fortress","app_id":440,"player_count":0,"max_players":24,"Bots":0,"server_type":"Dedicated","server_os":"Linux","password":true,"vac":true,"version":"7961495","steam_id":85568392925397854,"keywords":["cp","nocrits","nodmgspread","uncletopia"],"game_id":440,"stv_port":27056,"stv_name":"Uncletopia | Warsaw | 5 | Stopwatch | STV","players":null},{"server_id":54,"name":"Uncletopia | Warsaw | 6 | Community","name_short":"waw-6","host":"waw-1.pl.uncletopia.com","port":27065,"enabled":true,"region":"eu","cc":"pl","latitude":52.2297,"longitude":21.017532,"reserved":0,"last_update":"0001-01-01T00:00:00Z","name_a2s":"Uncletopia | Warsaw | 6 | Community","protocol":17,"map":"workshop/pl_highwood_b19.ugc1769496557","folder":"tf","game":"Team Fortress","app_id":440,"player_count":0,"max_players":24,"Bots":0,"server_type":"Dedicated","server_os":"Linux","password":true,"vac":true,"version":"7961495","steam_id":85568392925397856,"keywords":["nocrits","nodmgspread","payload","uncletopia"],"game_id":440,"stv_port":27066,"stv_name":"Uncletopia | Warsaw | 6 | Community | STV","players":null}]}