{"status":true,"message":"","result":[{"server_id":9,"name":"Uncletopia | Atlanta | 1 | All Maps","name_short":"atl-1","host":"atl-1.us.uncletopia.com","port":27015,"enabled":true,"region":"us-east","cc":"us","latitude":33.753746,"longitude":-84.38633,"reserved":0,"last_update":"0001-01-01T00:00:00Z","name_a2s":"Uncletopia | Atlanta | 1 | All Maps","protocol":17,"map":"pl_snowycoast","folder":"tf","game":"Team Fortress","app_id":440,"player_count":24,"max_players":24,"Bots":0,"server_type":"Dedicated","server_os":"Linux","password":true,"vac":true,"version":"7757534","steam_id":85568392924469982,"keywords":["nocrits","nodmgspread","payload","uncletopia"],"game_id":440,"stv_port":27016,"stv_name":"Uncletopia | Atlanta | 1 | All Maps | STV","players":[{"user_id":306,"name":"Cooki","steam_id":76561198051705314,"connected_time":1188000000000,"state":"active","ping":98},{"user_id":307,"name":"Trisbone","steam_id":76561198119826352,"connected_time":1143000000000,"state":"active","ping":69},{"user_id":311,"name":"Command574","steam_id":76561198151017290,"connected_time":854000000000,"state":"active","ping":95},{"user_id":279,"name":"RED1 | BeastRyder","steam_id":76561198330281584,"connected_time":5002000000000,"state":"active","ping":76},{"user_id":296,"name":"melancholy","steam_id":76561198024301465,"connected_time":2636000000000,"state":"active","ping":82},{"user_id":310,"name":"squaggles!","steam_id":76561197994995011,"connected_time":956000000000,"state":"active","ping":30},{"user_id":138,"name":"eish","steam_id":76561198089463603,"connected_time":20445000000000,"state":"active","ping":117},{"user_id":290,"name":"RED1 | Lancer Fan Club","steam_id":76561198355495948,"connected_time":2671000000000,"state":"active","ping":82},{"user_id":308,"name":"Laura Palmer Gaming","steam_id":76561198282965733,"connected_time":1125000000000,"state":"active","ping":59},{"user_id":294,"name":"RED1 | Avo","steam_id":76561197993340494,"connected_time":2652000000000,"state":"active","ping":58},{"user_id":303,"name":"RED1 | Pharaxer‚Ñ¢","steam_id":76561198051236069,"connected_time":1897000000000,"state":"active","ping":152},{"user_id":316,"name":"hippo mode","steam_id":76561198073455521,"connected_time":275000000000,"state":"active","ping":48},{"user_id":99,"name":"{[F.H]} Hydroida","steam_id":76561197999797274,"connected_time":23607000000000,"state":"active","ping":78},{"user_id":196,"name":"Mage","steam_id":76561198285026879,"connected_time":13815000000000,"state":"active","ping":85},{"user_id":305,"name":"MOTORTREND TRUCK OF THE YEAR","steam_id":76561198077654131,"connected_time":1214000000000,"state":"active","ping":81},{"user_id":301,"name":"LadyAnon","steam_id":76561198014709418,"connected_time":2282000000000,"state":"active","ping":47},{"user_id":302,"name":"BLU1 | cola","steam_id":76561198374390458,"connected_time":2110000000000,"state":"active","ping":52},{"user_id":297,"name":"Alkivo","steam_id":76561198315999766,"connected_time":2633000000000,"state":"active","ping":78},{"user_id":288,"name":"Im High","steam_id":76561198049954886,"connected_time":3421000000000,"state":"active","ping":72},{"user_id":309,"name":"CyberSoc","steam_id":76561198000570258,"connected_time":1118000000000,"state":"active","ping":95},{"user_id":315,"name":"Lord Headass","steam_id":76561198182813630,"connected_time":366000000000,"state":"active","ping":124},{"user_id":299,"name":"nomad","steam_id":76561197998740399,"connected_time":2569000000000,"state":"active","ping":74},{"user_id":277,"name":"RED1 | ma0re","steam_id":76561199231971506,"connected_time":5034000000000,"state":"active","ping":69}]},{"server_id":400,"name":"Uncletopia | Atlanta | 3 | Stopwatch Beta","name_short":"atl-3","host":"atl-1.us.uncletopia.com","port":27035,"enabled":true,"region":"us-east","cc":"us","latitude":33.753746,"longitude":-84.38633,"reserved":0,"last_update":"0001-01-01T00:00:00Z","name_a2s":"Uncletopia | Atlanta | 3 | Stopwatch Beta","protocol":17,"map":"pl_borneo","folder":"tf","game":"Team Fortress","app_id":440,"player_count":17,"max_players":24,"Bots":0,"server_type":"Dedicated","server_os":"Linux","password":true,"vac":true,"version":"7757534","steam_id":85568392924515187,"keywords":["nocrits","nodmgspread","payload","uncletopia"],"game_id":440,"stv_port":27036,"stv_name":"Uncletopia | Atlanta | 3 | Stopwatch Beta | STV","players":[{"user_id":143,"name":"Yoru","steam_id":76561198119698950,"connected_time":239000000000,"state":"active","ping":117},{"user_id":144,"name":"Wiggee","steam_id":76561197972792989,"connected_time":143000000000,"state":"active","ping":62},{"user_id":148,"name":"ferris","steam_id":76561198005721879,"connected_time":23000000000,"state":"spawning","ping":36},{"user_id":149,"name":"Mall","steam_id":76561198436085386,"connected_time":7000000000,"state":"spawning","ping":158},{"user_id":95,"name":"Silverio","steam_id":76561197999425381,"connected_time":2646000000000,"state":"active","ping":59},{"user_id":126,"name":"Dr Frasier Crane","steam_id":76561198071790583,"connected_time":1018000000000,"state":"active","ping":81},{"user_id":145,"name":"TofuCat","steam_id":76561198416746118,"connected_time":142000000000,"state":"active","ping":59},{"user_id":73,"name":"MisterDanny8","steam_id":76561198048847182,"connected_time":4468000000000,"state":"active","ping":50},{"user_id":127,"name":"yoodle doodle","steam_id":76561198054897884,"connected_time":1015000000000,"state":"active","ping":65},{"user_id":129,"name":"schnedwob","steam_id":76561197999146588,"connected_time":1010000000000,"state":"active","ping":69},{"user_id":93,"name":"mush","steam_id":76561198310089797,"connected_time":2885000000000,"state":"active","ping":84},{"user_id":134,"name":"Johnny Lawrence #JohnnyMaxxing","steam_id":76561199367141671,"connected_time":925000000000,"state":"active","ping":70},{"user_id":131,"name":"LeeRoyJenks702","steam_id":76561199390027719,"connected_time":980000000000,"state":"active","ping":75},{"user_id":146,"name":"_fish_","steam_id":76561199010436232,"connected_time":120000000000,"state":"active","ping":116},{"user_id":71,"name":"bigconkeldurrfan3000","steam_id":76561198258062078,"connected_time":4545000000000,"state":"active","ping":69},{"user_id":137,"name":"LitlToast","steam_id":76561198353473171,"connected_time":831000000000,"state":"active","ping":74},{"user_id":136,"name":"Gongus","steam_id":76561199199194177,"connected_time":851000000000,"state":"active","ping":73}]},{"server_id":401,"name":"Uncletopia | Atlanta | 4 | No Payload","name_short":"atl-4","host":"atl-1.us.uncletopia.com","port":27045,"enabled":true,"region":"us-east","cc":"us","latitude":33.753746,"longitude":-84.38633,"reserved":0,"last_update":"0001-01-01T00:00:00Z","name_a2s":"Uncletopia | Atlanta | 4 | No Payload","protocol":17,"map":"pl_pier","folder":"tf","game":"Team Fortress","app_id":440,"player_count":0,"max_players":24,"Bots":0,"server_type":"Dedicated","server_os":"Linux","password":true,"vac":true,"version":"7723704","steam_id":85568392924515188,"keywords":["nocrits","nodmgspread","payload","uncletopia"],"game_id":440,"stv_port":27046,"stv_name":"Uncletopia | Atlanta | 4 | No Payload | STV","players":null},{"server_id":2,"name":"Uncletopia | Chicago | 1 | All Maps","name_short":"chi-1","host":"chi-1.us.uncletopia.com","port":27015,"enabled":true,"region":"us-central","cc":"us","latitude":41.881832,"longitude":-87.62318,"reserved":0,"last_update":"0001-01-01T00:00:00Z","name_a2s":"Uncletopia | Chicago | 1 | All Maps","protocol":17,"map":"pl_borneo","folder":"tf","game":"Team Fortress","app_id":440,"player_count":24,"max_players":24,"Bots":0,"server_type":"Dedicated","server_os":"Linux","password":true,"vac":true,"version":"7757534","steam_id":85568392924469984,"keywords":["nocrits","nodmgspread","payload","uncletopia"],"game_id":440,"stv_port":27016,"stv_name":"Uncletopia | Chicago | 1 | All Maps | STV","players":[{"user_id":456,"name":"Xavibite","steam_id":76561198209380493,"connected_time":672000000000,"state":"active","ping":58},{"user_id":460,"name":"Burks","steam_id":76561198134813531,"connected_time":330000000000,"state":"active","ping":48},{"user_id":450,"name":"slattydon","steam_id":76561198116572221,"connected_time":703000000000,"state":"active","ping":59},{"user_id":451,"name":"blob","steam_id":76561198122375328,"connected_time":693000000000,"state":"active","ping":65},{"user_id":442,"name":"Dieu-Sama","steam_id":76561198002075862,"connected_time":1226000000000,"state":"active","ping":82},{"user_id":398,"name":"‚ù§ Ashley ‚ù§","steam_id":76561198056428303,"connected_time":4359000000000,"state":"active","ping":105},{"user_id":446,"name":"PheebsyDeebsy","steam_id":76561198101509436,"connected_time":727000000000,"state":"active","ping":98},{"user_id":429,"name":"the deadliest pyroshark","steam_id":76561198374227766,"connected_time":2440000000000,"state":"active","ping":72},{"user_id":430,"name":"plastiquemonk","steam_id":76561198126035719,"connected_time":2393000000000,"state":"active","ping":105},{"user_id":431,"name":"ArnoldGaming","steam_id":76561198040140247,"connected_time":2232000000000,"state":"active","ping":106},{"user_id":321,"name":"tator171 (‚åê‚ñ†_‚ñ†)","steam_id":76561198047446121,"connected_time":9735000000000,"state":"active","ping":61},{"user_id":447,"name":"TallBit","steam_id":76561199059748976,"connected_time":725000000000,"state":"active","ping":52},{"user_id":448,"name":"legendary Trapper","steam_id":76561198299289062,"connected_time":722000000000,"state":"active","ping":48},{"user_id":433,"name":"St4pps","steam_id":76561198449842958,"connected_time":2088000000000,"state":"active","ping":75},{"user_id":457,"name":"Tienne","steam_id":76561198359050265,"connected_time":561000000000,"state":"active","ping":55},{"user_id":452,"name":"flora","steam_id":76561197994492154,"connected_time":691000000000,"state":"active","ping":169},{"user_id":458,"name":"checkswing","steam_id":76561198999816132,"connected_time":426000000000,"state":"active","ping":60},{"user_id":461,"name":"Baka!‚ë®‚ë®‚ë®‚ë®","steam_id":76561198152948254,"connected_time":288000000000,"state":"active","ping":66},{"user_id":401,"name":"eWVra2Vy","steam_id":76561198453565942,"connected_time":4350000000000,"state":"active","ping":79},{"user_id":428,"name":"kwout","steam_id":76561197997139225,"connected_time":2484000000000,"state":"active","ping":54},{"user_id":459,"name":"Oddball","steam_id":76561198040440984,"connected_time":393000000000,"state":"active","ping":75},{"user_id":445,"name":"PrinceGrotle","steam_id":76561198206131603,"connected_time":743000000000,"state":"active","ping":78},{"user_id":463,"name":"PinkLemonade","steam_id":76561198799286228,"connected_time":30000000000,"state":"active","ping":97},{"user_id":426,"name":"self sufficient kitten","steam_id":76561197960592612,"connected_time":2505000000000,"state":"active","ping":94}]},{"server_id":106,"name":"Uncletopia | Chicago | 2 | All Maps","name_short":"chi-2","host":"chi-1.us.uncletopia.com","port":27025,"enabled":true,"region":"us-central","cc":"us","latitude":41.881832,"longitude":-87.62318,"reserved":0,"last_update":"0001-01-01T00:00:00Z","name_a2s":"Uncletopia | Chicago | 2 | All Maps","protocol":17,"map":"koth_lakeside_final","folder":"tf","game":"Team Fortress","app_id":440,"player_count":23,"max_players":24,"Bots":0,"server_type":"Dedicated","server_os":"Linux","password":true,"vac":true,"version":"7757534","steam_id":85568392924469985,"keywords":["cp","nocrits","nodmgspread","uncletopia"],"game_id":440,"stv_port":27026,"stv_name":"Uncletopia | Chicago | 2 | All Maps | STV","players":[{"user_id":279,"name":"Nova","steam_id":76561198201444213,"connected_time":270000000000,"state":"active","ping":89},{"user_id":250,"name":"Athaz","steam_id":76561198296557673,"connected_time":782000000000,"state":"active","ping":69},{"user_id":237,"name":"eryn üó∫","steam_id":76561198004433070,"connected_time":1410000000000,"state":"active","ping":78},{"user_id":251,"name":"jiim jaam","steam_id":76561198069814977,"connected_time":779000000000,"state":"active","ping":71},{"user_id":252,"name":"Carpicious","steam_id":76561198426619665,"connected_time":778000000000,"state":"active","ping":113},{"user_id":245,"name":"Michi","steam_id":76561198807557607,"connected_time":842000000000,"state":"active","ping":102},{"user_id":246,"name":"Mr.Goldwing","steam_id":76561199139188813,"connected_time":815000000000,"state":"active","ping":133},{"user_id":270,"name":"weeb_whacker #Jenius","steam_id":76561198187098041,"connected_time":534000000000,"state":"active","ping":59},{"user_id":280,"name":"Dillon","steam_id":76561198191469611,"connected_time":147000000000,"state":"active","ping":114},{"user_id":247,"name":"Godfinger","steam_id":76561198426346549,"connected_time":814000000000,"state":"active","ping":74},{"user_id":267,"name":"SquirrelAway‚Ñ¢","steam_id":76561197998828619,"connected_time":558000000000,"state":"active","ping":72},{"user_id":249,"name":"Antknee","steam_id":76561198263793809,"connected_time":797000000000,"state":"active","ping":80},{"user_id":253,"name":"KingSteve42","steam_id":76561198409455888,"connected_time":767000000000,"state":"active","ping":104},{"user_id":273,"name":"SoWhich","steam_id":76561198237125842,"connected_time":461000000000,"state":"active","ping":55},{"user_id":274,"name":"ELO oak","steam_id":76561198092135570,"connected_time":442000000000,"state":"active","ping":60},{"user_id":275,"name":"Coosnut","steam_id":76561198061106216,"connected_time":410000000000,"state":"active","ping":76},{"user_id":266,"name":"Joe in the femur breaker","steam_id":76561199236177480,"connected_time":566000000000,"state":"active","ping":66},{"user_id":277,"name":"xZackAttack27x","steam_id":76561198035446639,"connected_time":375000000000,"state":"active","ping":67},{"user_id":260,"name":"MLG BOOTMAN","steam_id":76561198234179320,"connected_time":701000000000,"state":"active","ping":69},{"user_id":261,"name":"Wrench_Jocky","steam_id":76561199399733230,"connected_time":693000000000,"state":"active","ping":77},{"user_id":268,"name":"MidSobbes08","steam_id":76561199013101925,"connected_time":553000000000,"state":"active","ping":148},{"user_id":269,"name":"Lancewiu","steam_id":76561198010985573,"connected_time":551000000000,"state":"active","ping":52},{"user_id":276,"name":"scrapheap","steam_id":76561198202407087,"connected_time":408000000000,"state":"active","ping":77}]},{"server_id":402,"name":"Uncletopia | Chicago | 3 | All Maps","name_short":"chi-3","host":"chi-1.us.uncletopia.com","port":27035,"enabled":true,"region":"us-central","cc":"us","latitude":41.881832,"longitude":-87.62318,"reserved":0,"last_update":"0001-01-01T00:00:00Z","name_a2s":"Uncletopia | Chicago | 3 | All Maps","protocol":17,"map":"pl_barnblitz","folder":"tf","game":"Team Fortress","app_id":440,"player_count":24,"max_players":24,"Bots":0,"server_type":"Dedicated","server_os":"Linux","password":true,"vac":true,"version":"7757534","steam_id":85568392924515191,"keywords":["nocrits","nodmgspread","payload","uncletopia"],"game_id":440,"stv_port":27036,"stv_name":"Uncletopia | Chicago | 3 | All Maps | STV","players":[{"user_id":766,"name":"Aerguera","steam_id":76561198117613222,"connected_time":119000000000,"state":"active","ping":63},{"user_id":751,"name":"Coach McFish","steam_id":76561198210456405,"connected_time":893000000000,"state":"active","ping":73},{"user_id":711,"name":"Cyber Cylon","steam_id":76561198048972781,"connected_time":3839000000000,"state":"active","ping":56},{"user_id":765,"name":"Molly Wapped","steam_id":76561199014046857,"connected_time":165000000000,"state":"active","ping":46},{"user_id":767,"name":"maS","steam_id":76561198033846407,"connected_time":117000000000,"state":"active","ping":66},{"user_id":768,"name":"Interrobang","steam_id":76561198385044529,"connected_time":115000000000,"state":"active","ping":155},{"user_id":713,"name":"Goku","steam_id":76561198064143198,"connected_time":3551000000000,"state":"active","ping":47},{"user_id":745,"name":"Pinkie Badger Honey Pie","steam_id":76561198049131281,"connected_time":1319000000000,"state":"active","ping":78},{"user_id":769,"name":"Average Apple Fritter Enjoyer","steam_id":76561198082351263,"connected_time":111000000000,"state":"active","ping":74},{"user_id":760,"name":"[Deep]GooeyGapedGrannys","steam_id":76561198089731303,"connected_time":482000000000,"state":"active","ping":72},{"user_id":717,"name":"Nodin","steam_id":76561198135757376,"connected_time":2945000000000,"state":"active","ping":55},{"user_id":757,"name":"wye420","steam_id":76561198796742939,"connected_time":677000000000,"state":"active","ping":69},{"user_id":770,"name":"Oryxgo","steam_id":76561198045115094,"connected_time":97000000000,"state":"active","ping":59},{"user_id":777,"name":"Luffy","steam_id":76561198120914343,"connected_time":14000000000,"state":"active","ping":105},{"user_id":739,"name":"MCHolden","steam_id":76561199142512034,"connected_time":1869000000000,"state":"active","ping":68},{"user_id":750,"name":"smugdoug","steam_id":76561198021381678,"connected_time":1049000000000,"state":"active","ping":69},{"user_id":772,"name":"MrLeftTurn","steam_id":76561198856743969,"connected_time":88000000000,"state":"active","ping":130},{"user_id":773,"name":"Rocky","steam_id":76561198048158539,"connected_time":84000000000,"state":"active","ping":75},{"user_id":774,"name":"deimos","steam_id":76561198148357768,"connected_time":80000000000,"state":"active","ping":74},{"user_id":740,"name":"TreyWarnerTheDestoryer","steam_id":76561198428598043,"connected_time":1842000000000,"state":"active","ping":69},{"user_id":775,"name":"Phillip Jeffries","steam_id":76561198064052174,"connected_time":65000000000,"state":"active","ping":62},{"user_id":741,"name":"Gyroic","steam_id":76561198063556027,"connected_time":1733000000000,"state":"active","ping":56},{"user_id":776,"name":"boy actress","steam_id":76561198106690989,"connected_time":30000000000,"state":"active","ping":72},{"user_id":743,"name":"ButterScotch","steam_id":76561199389314894,"connected_time":1646000000000,"state":"active","ping":117}]},{"server_id":403,"name":"Uncletopia | Chicago | 4 | All Maps","name_short":"chi-4","host":"chi-1.us.uncletopia.com","port":27045,"enabled":true,"region":"us-central","cc":"us","latitude":41.881832,"longitude":-87.62318,"reserved":0,"last_update":"0001-01-01T00:00:00Z","name_a2s":"Uncletopia | Chicago | 4 | All Maps","protocol":17,"map":"cp_egypt_final","folder":"tf","game":"Team Fortress","app_id":440,"player_count":24,"max_players":24,"Bots":0,"server_type":"Dedicated","server_os":"Linux","password":true,"vac":true,"version":"7757534","steam_id":85568392924515193,"keywords":["cp","nocrits","nodmgspread","uncletopia"],"game_id":440,"stv_port":27046,"stv_name":"Uncletopia | Chicago | 4 | All Maps | STV","players":[{"user_id":145,"name":"jambie!","steam_id":76561198296042477,"connected_time":267000000000,"state":"active","ping":30},{"user_id":97,"name":"meth","steam_id":76561198103347094,"connected_time":4978000000000,"state":"active","ping":45},{"user_id":147,"name":"Ash40000","steam_id":76561198092841526,"connected_time":244000000000,"state":"active","ping":73},{"user_id":126,"name":"OReally","steam_id":76561197974569241,"connected_time":1486000000000,"state":"active","ping":65},{"user_id":128,"name":"dan","steam_id":76561198061589465,"connected_time":1314000000000,"state":"active","ping":61},{"user_id":129,"name":"erwebomio","steam_id":76561198071152924,"connected_time":1220000000000,"state":"active","ping":126},{"user_id":139,"name":"LazyBones","steam_id":76561198302049667,"connected_time":1004000000000,"state":"active","ping":83},{"user_id":81,"name":"Todd Margreat","steam_id":76561198373106364,"connected_time":6050000000000,"state":"active","ping":87},{"user_id":153,"name":"ArcaneMil","steam_id":76561198281745268,"connected_time":82000000000,"state":"active","ping":76},{"user_id":130,"name":"Insurance Frog","steam_id":76561198067556825,"connected_time":1153000000000,"state":"active","ping":107},{"user_id":151,"name":"motherfucker 2.0","steam_id":76561198141189209,"connected_time":182000000000,"state":"active","ping":64},{"user_id":131,"name":"theTheSuzan","steam_id":76561198044181453,"connected_time":1152000000000,"state":"active","ping":137},{"user_id":132,"name":"Hellwolf123","steam_id":76561199079049865,"connected_time":1137000000000,"state":"active","ping":80},{"user_id":116,"name":"CraigHawksbill","steam_id":76561199000670185,"connected_time":2978000000000,"state":"active","ping":85},{"user_id":37,"name":"ghostyAlchemist","steam_id":76561198448078291,"connected_time":8315000000000,"state":"active","ping":80},{"user_id":149,"name":"cold","steam_id":76561199017901552,"connected_time":206000000000,"state":"active","ping":73},{"user_id":150,"name":"·πΩ‚ßâ  hank","steam_id":76561197977182378,"connected_time":203000000000,"state":"active","ping":45},{"user_id":146,"name":"www.lesbian.com","steam_id":76561198029274581,"connected_time":265000000000,"state":"active","ping":64},{"user_id":152,"name":"Majin Boo Radley","steam_id":76561198288471052,"connected_time":158000000000,"state":"active","ping":54},{"user_id":135,"name":"Sauce Hut","steam_id":76561198151922248,"connected_time":1087000000000,"state":"active","ping":73},{"user_id":136,"name":"Mr. Crumb","steam_id":76561198166409300,"connected_time":1032000000000,"state":"active","ping":61},{"user_id":154,"name":"Foul Tarnished","steam_id":76561198844810081,"connected_time":5000000000,"state":"spawning","ping":44},{"user_id":137,"name":"Fossil_Fuel","steam_id":76561198306781643,"connected_time":1022000000000,"state":"active","ping":83},{"user_id":144,"name":"Draco6257","steam_id":76561199147322448,"connected_time":625000000000,"state":"active","ping":57}]},{"server_id":36,"name":"Uncletopia | Chicago | 5 | All Maps","name_short":"chi-5","host":"chi-2.us.uncletopia.com","port":27015,"enabled":true,"region":"us-central","cc":"us","latitude":41.881832,"longitude":-87.62318,"reserved":0,"last_update":"0001-01-01T00:00:00Z","name_a2s":"Uncletopia | Chicago | 5 | All Maps","protocol":17,"map":"pl_pier","folder":"tf","game":"Team Fortress","app_id":440,"player_count":24,"max_players":24,"Bots":0,"server_type":"Dedicated","server_os":"Linux","password":true,"vac":true,"version":"7757534","steam_id":85568392924866362,"keywords":["nocrits","nodmgspread","payload","uncletopia"],"game_id":440,"stv_port":27016,"stv_name":"Uncletopia | Chicago | 5 | All Maps | STV","players":[{"user_id":55,"name":"ËìùÂÖâÁâà‰πîÊ±°Âû¢","steam_id":76561199088154401,"connected_time":675000000000,"state":"active","ping":64},{"user_id":52,"name":"SomeScuffedKid","steam_id":76561198086113234,"connected_time":2037000000000,"state":"active","ping":64},{"user_id":25,"name":"‚ú™TheGoldenTman‚ú™","steam_id":76561198118406066,"connected_time":3674000000000,"state":"active","ping":89},{"user_id":22,"name":"CheesyMint","steam_id":76561198084259383,"connected_time":4034000000000,"state":"active","ping":73},{"user_id":44,"name":"dracula's dad","steam_id":76561198005776959,"connected_time":3120000000000,"state":"active","ping":59},{"user_id":57,"name":"captainspatklz","steam_id":76561198432167270,"connected_time":646000000000,"state":"active","ping":84},{"user_id":23,"name":"Pie","steam_id":76561198062739993,"connected_time":3962000000000,"state":"active","ping":61},{"user_id":48,"name":"Moose","steam_id":76561198107207348,"connected_time":2661000000000,"state":"active","ping":78},{"user_id":26,"name":"Mr. Nope","steam_id":76561198043851703,"connected_time":3603000000000,"state":"active","ping":76},{"user_id":27,"name":"DeadFoxtail","steam_id":76561198071402515,"connected_time":3595000000000,"state":"active","ping":116},{"user_id":28,"name":"Zoey","steam_id":76561198071492875,"connected_time":3567000000000,"state":"active","ping":83},{"user_id":29,"name":"CardWhistle","steam_id":76561198328522503,"connected_time":3556000000000,"state":"active","ping":85},{"user_id":51,"name":"Amazingamerhawk","steam_id":76561199064935924,"connected_time":2340000000000,"state":"active","ping":71},{"user_id":31,"name":"poop scooper","steam_id":76561198324890672,"connected_time":3515000000000,"state":"active","ping":85},{"user_id":32,"name":"Milk","steam_id":76561198175903221,"connected_time":3511000000000,"state":"active","ping":86},{"user_id":33,"name":"Tok Hakaay","steam_id":76561199311828303,"connected_time":3505000000000,"state":"active","ping":91},{"user_id":59,"name":"katryna","steam_id":76561198023440304,"connected_time":469000000000,"state":"active","ping":60},{"user_id":58,"name":"p9 thunderous prophet","steam_id":76561198131166135,"connected_time":578000000000,"state":"active","ping":105},{"user_id":60,"name":"thundermuffin","steam_id":76561198067770965,"connected_time":83000000000,"state":"active","ping":58},{"user_id":53,"name":"Failsafe","steam_id":76561198090751331,"connected_time":1599000000000,"state":"active","ping":158},{"user_id":39,"name":"Bobbn","steam_id":76561198876124683,"connected_time":3447000000000,"state":"active","ping":86},{"user_id":54,"name":"daxter4hire","steam_id":76561198250722116,"connected_time":1493000000000,"state":"active","ping":75},{"user_id":41,"name":"Password is Taco","steam_id":76561198026092945,"connected_time":3433000000000,"state":"active","ping":92},{"user_id":56,"name":"gage","steam_id":76561197972937269,"connected_time":670000000000,"state":"active","ping":92}]},{"server_id":37,"name":"Uncletopia | Chicago | 6 | All Maps","name_short":"chi-6","host":"chi-2.us.uncletopia.com","port":27025,"enabled":true,"region":"us-central","cc":"us","latitude":41.881832,"longitude":-87.62318,"reserved":0,"last_update":"0001-01-01T00:00:00Z","name_a2s":"Uncletopia | Chicago | 6 | All Maps","protocol":17,"map":"pl_frontier_final","folder":"tf","game":"Team Fortress","app_id":440,"player_count":21,"max_players":24,"Bots":0,"server_type":"Dedicated","server_os":"Linux","password":true,"vac":true,"version":"7757534","steam_id":85568392924866363,"keywords":["nocrits","nodmgspread","payload","uncletopia"],"game_id":440,"stv_port":27026,"stv_name":"Uncletopia | Chicago | 6 | All Maps | STV","players":[{"user_id":383,"name":"fat","steam_id":76561198101352327,"connected_time":2421000000000,"state":"active","ping":59},{"user_id":342,"name":"Banana","steam_id":76561198321485249,"connected_time":5445000000000,"state":"active","ping":56},{"user_id":398,"name":"‚ù§ Brachydios ‚ù§","steam_id":76561198190288063,"connected_time":1684000000000,"state":"active","ping":88},{"user_id":376,"name":"The Lonely Croc","steam_id":76561198123241396,"connected_time":3370000000000,"state":"active","ping":73},{"user_id":397,"name":"AzuriousAlex","steam_id":76561198158026405,"connected_time":1813000000000,"state":"active","ping":80},{"user_id":359,"name":"poe","steam_id":76561198123668645,"connected_time":4924000000000,"state":"active","ping":68},{"user_id":362,"name":"aurumleo","steam_id":76561198072266302,"connected_time":4655000000000,"state":"active","ping":106},{"user_id":352,"name":"BillButtLicker69","steam_id":76561198070119268,"connected_time":4987000000000,"state":"active","ping":108},{"user_id":407,"name":"Who's Pablo","steam_id":76561198380533809,"connected_time":1178000000000,"state":"active","ping":56},{"user_id":408,"name":"bobby peanstalk","steam_id":76561198040495463,"connected_time":1134000000000,"state":"active","ping":75},{"user_id":418,"name":"high school art class","steam_id":76561198093829623,"connected_time":130000000000,"state":"active","ping":80},{"user_id":414,"name":"Censing Auto, The Challenger","steam_id":76561198060926681,"connected_time":697000000000,"state":"active","ping":66},{"user_id":413,"name":"TheClap (Gonnorhea)","steam_id":76561198068370276,"connected_time":943000000000,"state":"active","ping":60},{"user_id":419,"name":"ImJustARat","steam_id":76561198261256086,"connected_time":84000000000,"state":"active","ping":95},{"user_id":357,"name":"honked off the bobo","steam_id":76561198123287268,"connected_time":4973000000000,"state":"active","ping":47},{"user_id":420,"name":"Shoe‚Ñ¢","steam_id":76561199114397881,"connected_time":17000000000,"state":"active","ping":103},{"user_id":410,"name":"The_Skull_boy","steam_id":76561198227692664,"connected_time":1093000000000,"state":"active","ping":116},{"user_id":411,"name":"WARHAMMER","steam_id":76561198068097978,"connected_time":1072000000000,"state":"active","ping":184},{"user_id":402,"name":"Ka Xin Yu","steam_id":76561198057116531,"connected_time":1607000000000,"state":"active","ping":52},{"user_id":412,"name":"Scared Duck","steam_id":76561198081348409,"connected_time":1041000000000,"state":"active","ping":63},{"user_id":416,"name":"‚ö°Lagiacrus‚ö°","steam_id":76561198189176634,"connected_time":582000000000,"state":"active","ping":92}]},{"server_id":38,"name":"Uncletopia | Chicago | 7 | Stopwatch Beta","name_short":"chi-7","host":"chi-2.us.uncletopia.com","port":27035,"enabled":true,"region":"us-central","cc":"us","latitude":41.881832,"longitude":-87.62318,"reserved":0,"last_update":"0001-01-01T00:00:00Z","name_a2s":"Uncletopia | Chicago | 7 | Stopwatch Beta","protocol":17,"map":"pl_upward","folder":"tf","game":"Team Fortress","app_id":440,"player_count":0,"max_players":24,"Bots":0,"server_type":"Dedicated","server_os":"Linux","password":true,"vac":true,"version":"7757534","steam_id":85568392924866364,"keywords":["nocrits","nodmgspread","payload","uncletopia"],"game_id":440,"stv_port":27036,"stv_name":"Uncletopia | Chicago | 7 | Stopwatch Beta | STV","players":null},{"server_id":39,"name":"Uncletopia | Chicago | 8 | Community","name_short":"chi-8","host":"chi-2.us.uncletopia.com","port":27045,"enabled":true,"region":"us-central","cc":"us","latitude":41.881832,"longitude":-87.62318,"reserved":0,"last_update":"0001-01-01T00:00:00Z","name_a2s":"Uncletopia | Chicago | 8 | Community","protocol":17,"map":"workshop/koth_ashville_final.ugc2130459942","folder":"tf","game":"Team Fortress","app_id":440,"player_count":0,"max_players":24,"Bots":0,"server_type":"Dedicated","server_os":"Linux","password":true,"vac":true,"version":"7757534","steam_id":85568392924866365,"keywords":["cp","nocrits","nodmgspread","uncletopia"],"game_id":440,"stv_port":27046,"stv_name":"Uncletopia | Chicago | 8 | Community | STV","players":null},{"server_id":8,"name":"Uncletopia | Dallas | 1 | All Maps","name_short":"dal-1","host":"dal-1.us.uncletopia.com","port":27015,"enabled":true,"region":"us-central","cc":"us","latitude":32.779167,"longitude":-96.80889,"reserved":0,"last_update":"0001-01-01T00:00:00Z","name_a2s":"Uncletopia | Dallas | 1 | All Maps","protocol":17,"map":"pl_frontier_final","folder":"tf","game":"Team Fortress","app_id":440,"player_count":24,"max_players":24,"Bots":0,"server_type":"Dedicated","server_os":"Linux","password":true,"vac":true,"version":"7757534","steam_id":85568392924469986,"keywords":["nocrits","nodmgspread","payload","uncletopia"],"game_id":440,"stv_port":27016,"stv_name":"Uncletopia | Dallas | 1 | All Maps | STV","players":[{"user_id":522,"name":"xMystic_Fire","steam_id":76561198189961543,"connected_time":1876000000000,"state":"active","ping":59},{"user_id":547,"name":"yeyoi","steam_id":76561198069821885,"connected_time":463000000000,"state":"active","ping":43},{"user_id":542,"name":"Aggressive Expansion","steam_id":76561198060029617,"connected_time":1030000000000,"state":"active","ping":68},{"user_id":532,"name":"Domini Inferi","steam_id":76561198041622168,"connected_time":1632000000000,"state":"active","ping":121},{"user_id":550,"name":"Astro","steam_id":76561198035676106,"connected_time":189000000000,"state":"active","ping":58},{"user_id":526,"name":"bolainassr0","steam_id":76561199079078845,"connected_time":1806000000000,"state":"active","ping":109},{"user_id":476,"name":"ice spice","steam_id":76561198072657891,"connected_time":5413000000000,"state":"active","ping":73},{"user_id":541,"name":"Aonator","steam_id":76561198252312446,"connected_time":1074000000000,"state":"active","ping":98},{"user_id":521,"name":"karbomb","steam_id":76561198120744480,"connected_time":1880000000000,"state":"active","ping":45},{"user_id":496,"name":"chunkysquare","steam_id":76561199076468383,"connected_time":4586000000000,"state":"active","ping":87},{"user_id":519,"name":"Zeemii","steam_id":76561198809299581,"connected_time":2394000000000,"state":"active","ping":75},{"user_id":551,"name":"Not a Can","steam_id":76561198064264767,"connected_time":43000000000,"state":"active","ping":121},{"user_id":527,"name":"SHADOW (he/him)","steam_id":76561198207768148,"connected_time":1793000000000,"state":"active","ping":98},{"user_id":528,"name":"Walter Sobchak's Insecurity","steam_id":76561197987025017,"connected_time":1770000000000,"state":"active","ping":66},{"user_id":529,"name":"Source Enjoyer","steam_id":76561198105663173,"connected_time":1766000000000,"state":"active","ping":75},{"user_id":530,"name":"Holy Dwight","steam_id":76561198012334980,"connected_time":1747000000000,"state":"active","ping":97},{"user_id":548,"name":"7ate9 | trade.tf","steam_id":76561198077678836,"connected_time":295000000000,"state":"active","ping":54},{"user_id":533,"name":"Espresso Enjoyer","steam_id":76561198254238409,"connected_time":1612000000000,"state":"active","ping":78},{"user_id":545,"name":"Average OW lover","steam_id":76561198139024918,"connected_time":506000000000,"state":"active","ping":68},{"user_id":546,"name":"Dog","steam_id":76561198450992953,"connected_time":489000000000,"state":"active","ping":105},{"user_id":505,"name":"President Mocha","steam_id":76561198072769262,"connected_time":4159000000000,"state":"active","ping":72},{"user_id":544,"name":"Hot Apple Cider","steam_id":76561198094641783,"connected_time":815000000000,"state":"active","ping":114},{"user_id":535,"name":"bigbob","steam_id":76561198841840455,"connected_time":1522000000000,"state":"active","ping":64},{"user_id":538,"name":"AverageCrusader","steam_id":76561198395796519,"connected_time":1442000000000,"state":"active","ping":76}]},{"server_id":108,"name":"Uncletopia | Dallas | 2 | All Maps","name_short":"dal-2","host":"dal-1.us.uncletopia.com","port":27025,"enabled":true,"region":"us-central","cc":"us","latitude":32.779167,"longitude":-96.80889,"reserved":0,"last_update":"0001-01-01T00:00:00Z","name_a2s":"Uncletopia | Dallas | 2 | All Maps","protocol":17,"map":"pl_upward","folder":"tf","game":"Team Fortress","app_id":440,"player_count":24,"max_players":24,"Bots":0,"server_type":"Dedicated","server_os":"Linux","password":true,"vac":true,"version":"7757534","steam_id":85568392924469988,"keywords":["nocrits","nodmgspread","payload","uncletopia"],"game_id":440,"stv_port":27026,"stv_name":"Uncletopia | Dallas | 2 | All Maps | STV","players":[{"user_id":178,"name":"real trucks","steam_id":76561198233984300,"connected_time":3750000000000,"state":"active","ping":68},{"user_id":157,"name":"jello","steam_id":76561198094320477,"connected_time":5162000000000,"state":"active","ping":60},{"user_id":177,"name":"real goblin videos","steam_id":76561198119536224,"connected_time":3825000000000,"state":"active","ping":75},{"user_id":219,"name":"Mad dog of Shimano","steam_id":76561198797266817,"connected_time":740000000000,"state":"active","ping":72},{"user_id":224,"name":"Room","steam_id":76561199174579733,"connected_time":298000000000,"state":"active","ping":99},{"user_id":198,"name":"Red","steam_id":76561198031865869,"connected_time":1339000000000,"state":"active","ping":60},{"user_id":170,"name":"hunky dory","steam_id":76561198030422254,"connected_time":4200000000000,"state":"active","ping":123},{"user_id":226,"name":"Democratic Socialism Enjoyer","steam_id":76561198412786186,"connected_time":67000000000,"state":"active","ping":60},{"user_id":213,"name":"ryfith","steam_id":76561198878986398,"connected_time":922000000000,"state":"active","ping":45},{"user_id":191,"name":"butch cowboy monkey","steam_id":76561198097175164,"connected_time":2042000000000,"state":"active","ping":101},{"user_id":143,"name":"spot","steam_id":76561198151135298,"connected_time":5870000000000,"state":"active","ping":90},{"user_id":223,"name":"hanako with a gun","steam_id":76561199105729447,"connected_time":397000000000,"state":"active","ping":55},{"user_id":225,"name":"La Chancla","steam_id":76561198971528917,"connected_time":218000000000,"state":"active","ping":46},{"user_id":144,"name":"pandora da king","steam_id":76561198075490385,"connected_time":5860000000000,"state":"active","ping":91},{"user_id":214,"name":"Rudy","steam_id":76561198013456828,"connected_time":905000000000,"state":"active","ping":75},{"user_id":222,"name":"AlphaBenson","steam_id":76561198042595987,"connected_time":501000000000,"state":"active","ping":44},{"user_id":134,"name":"Sherry","steam_id":76561198006939068,"connected_time":6911000000000,"state":"active","ping":84},{"user_id":204,"name":"AtomLao","steam_id":76561198886167680,"connected_time":1211000000000,"state":"active","ping":63},{"user_id":192,"name":"tiamat ff fourteen","steam_id":76561198028396095,"connected_time":2040000000000,"state":"active","ping":43},{"user_id":135,"name":"red + blue","steam_id":76561198048331113,"connected_time":6905000000000,"state":"active","ping":85},{"user_id":220,"name":"Yung Lui","steam_id":76561199085041535,"connected_time":738000000000,"state":"active","ping":51},{"user_id":221,"name":"teatimesukka","steam_id":76561198978749594,"connected_time":615000000000,"state":"active","ping":36},{"user_id":189,"name":"Tribute","steam_id":76561198081594043,"connected_time":2478000000000,"state":"active","ping":63},{"user_id":166,"name":"real zingers","steam_id":76561198097160898,"connected_time":4554000000000,"state":"active","ping":67}]},{"server_id":5,"name":"Uncletopia | Frankfurt | 1 | All Maps","name_short":"frk-1","host":"frk-1.de.uncletopia.com","port":27015,"enabled":true,"region":"eu","cc":"de","latitude":50.110924,"longitude":8.682127,"reserved":0,"last_update":"0001-01-01T00:00:00Z","name_a2s":"Uncletopia | Frankfurt | 1 | All Maps","protocol":17,"map":"pl_barnblitz","folder":"tf","game":"Team Fortress","app_id":440,"player_count":24,"max_players":24,"Bots":0,"server_type":"Dedicated","server_os":"Linux","password":true,"vac":true,"version":"7757534","steam_id":85568392924469989,"keywords":["nocrits","nodmgspread","payload","uncletopia"],"game_id":440,"stv_port":27016,"stv_name":"Uncletopia | Frankfurt | 1 | All Maps | STV","players":[{"user_id":829,"name":"wasps","steam_id":76561198049485054,"connected_time":2746000000000,"state":"active","ping":75},{"user_id":831,"name":"Jellyfish","steam_id":76561198034055703,"connected_time":2325000000000,"state":"active","ping":56},{"user_id":847,"name":"George_Hunterman","steam_id":76561198408012399,"connected_time":1820000000000,"state":"active","ping":47},{"user_id":832,"name":"Kalypso","steam_id":76561198241519562,"connected_time":2255000000000,"state":"active","ping":90},{"user_id":845,"name":"joachym","steam_id":76561198428579761,"connected_time":1914000000000,"state":"active","ping":57},{"user_id":730,"name":"rodeybodey","steam_id":76561198165351355,"connected_time":9500000000000,"state":"active","ping":87},{"user_id":862,"name":"Bodhi","steam_id":76561198000606642,"connected_time":558000000000,"state":"active","ping":121},{"user_id":834,"name":"You From The Future","steam_id":76561198109595290,"connected_time":2165000000000,"state":"active","ping":93},{"user_id":838,"name":"Freeman","steam_id":76561198094288793,"connected_time":2099000000000,"state":"active","ping":63},{"user_id":821,"name":"gwa≈Çt wƒÖtroby 0,7 i 5 piw","steam_id":76561199038973360,"connected_time":3286000000000,"state":"active","ping":99},{"user_id":860,"name":"travis","steam_id":76561198138119811,"connected_time":743000000000,"state":"active","ping":50},{"user_id":859,"name":"Bob's your Uncle","steam_id":76561197995230744,"connected_time":787000000000,"state":"active","ping":154},{"user_id":837,"name":"Suetolog","steam_id":76561199053090212,"connected_time":2123000000000,"state":"active","ping":54},{"user_id":863,"name":"Dee","steam_id":76561198257836694,"connected_time":475000000000,"state":"active","ping":52},{"user_id":864,"name":"GogsCrunchyNuts","steam_id":76561198150599213,"connected_time":456000000000,"state":"active","ping":103},{"user_id":840,"name":"kevin is free","steam_id":76561198293005289,"connected_time":2061000000000,"state":"active","ping":64},{"user_id":851,"name":"ricky pee pee","steam_id":76561198152620745,"connected_time":1780000000000,"state":"active","ping":71},{"user_id":791,"name":"dirty rascal","steam_id":76561198000871038,"connected_time":6064000000000,"state":"active","ping":58},{"user_id":841,"name":"TaiDni","steam_id":76561198087750392,"connected_time":1997000000000,"state":"active","ping":71},{"user_id":842,"name":"Bochan","steam_id":76561198229071660,"connected_time":1996000000000,"state":"active","ping":83},{"user_id":865,"name":"dangdut koplo vs chutney soca","steam_id":76561198051852765,"connected_time":440000000000,"state":"active","ping":70},{"user_id":818,"name":"CyberBuddha [RU/EN]","steam_id":76561198075853329,"connected_time":4121000000000,"state":"active","ping":152},{"user_id":866,"name":"Negurescu","steam_id":76561198128777349,"connected_time":140000000000,"state":"active","ping":97},{"user_id":854,"name":"MGE Scout","steam_id":76561198109420850,"connected_time":1726000000000,"state":"active","ping":73}]},{"server_id":110,"name":"Uncletopia | Frankfurt | 2 | All Maps","name_short":"frk-2","host":"frk-1.de.uncletopia.com","port":27025,"enabled":true,"region":"eu","cc":"de","latitude":50.110924,"longitude":8.682127,"reserved":0,"last_update":"0001-01-01T00:00:00Z","name_a2s":"Uncletopia | Frankfurt | 2 | All Maps","protocol":17,"map":"pl_frontier_final","folder":"tf","game":"Team Fortress","app_id":440,"player_count":1,"max_players":24,"Bots":0,"server_type":"Dedicated","server_os":"Linux","password":true,"vac":true,"version":"7757534","steam_id":85568392924469990,"keywords":["nocrits","nodmgspread","payload","uncletopia"],"game_id":440,"stv_port":27026,"stv_name":"Uncletopia | Frankfurt | 2 | All Maps | STV","players":[{"user_id":508,"name":"Lot2","steam_id":76561197969550194,"connected_time":1437000000000,"state":"active","ping":77}]},{"server_id":308,"name":"Uncletopia | Frankfurt | 3 | All Maps","name_short":"frk-3","host":"frk-1.de.uncletopia.com","port":27035,"enabled":true,"region":"eu","cc":"de","latitude":50.110924,"longitude":8.682127,"reserved":0,"last_update":"0001-01-01T00:00:00Z","name_a2s":"Uncletopia | Frankfurt | 3 | All Maps","protocol":17,"map":"pl_frontier_final","folder":"tf","game":"Team Fortress","app_id":440,"player_count":0,"max_players":24,"Bots":0,"server_type":"Dedicated","server_os":"Linux","password":true,"vac":true,"version":"7757534","steam_id":85568392924504274,"keywords":["nocrits","nodmgspread","payload","uncletopia"],"game_id":440,"stv_port":27036,"stv_name":"Uncletopia | Frankfurt | 3 | All Maps | STV","players":null},{"server_id":309,"name":"Uncletopia | Frankfurt | 4 | All Maps","name_short":"frk-4","host":"frk-1.de.uncletopia.com","port":27045,"enabled":true,"region":"eu","cc":"de","latitude":50.110924,"longitude":8.682127,"reserved":0,"last_update":"0001-01-01T00:00:00Z","name_a2s":"Uncletopia | Frankfurt | 4 | All Maps","protocol":17,"map":"pl_frontier_final","folder":"tf","game":"Team Fortress","app_id":440,"player_count":0,"max_players":24,"Bots":0,"server_type":"Dedicated","server_os":"Linux","password":true,"vac":true,"version":"7757534","steam_id":85568392924504275,"keywords":["nocrits","nodmgspread","payload","uncletopia"],"game_id":440,"stv_port":27046,"stv_name":"Uncletopia | Frankfurt | 4 | All Maps | STV","players":null},{"server_id":310,"name":"Uncletopia | Frankfurt | 5 | All Maps","name_short":"frk-5","host":"frk-1.de.uncletopia.com","port":27055,"enabled":true,"region":"eu","cc":"de","latitude":50.110924,"longitude":8.682127,"reserved":0,"last_update":"0001-01-01T00:00:00Z","name_a2s":"Uncletopia | Frankfurt | 5 | All Maps","protocol":17,"map":"pl_borneo","folder":"tf","game":"Team Fortress","app_id":440,"player_count":0,"max_players":24,"Bots":0,"server_type":"Dedicated","server_os":"Linux","password":true,"vac":true,"version":"7757534","steam_id":85568392924504277,"keywords":["nocrits","nodmgspread","payload","uncletopia"],"game_id":440,"stv_port":27056,"stv_name":"Uncletopia | Frankfurt | 5 | All Maps | STV","players":null},{"server_id":311,"name":"Uncletopia | Frankfurt | 6 | All Maps","name_short":"frk-6","host":"frk-1.de.uncletopia.com","port":27065,"enabled":true,"region":"eu","cc":"de","latitude":50.110924,"longitude":8.682127,"reserved":0,"last_update":"0001-01-01T00:00:00Z","name_a2s":"Uncletopia | Frankfurt | 6 | All Maps","protocol":17,"map":"koth_lakeside_final","folder":"tf","game":"Team Fortress","app_id":440,"player_count":0,"max_players":24,"Bots":0,"server_type":"Dedicated","server_os":"Linux","password":true,"vac":true,"version":"7757534","steam_id":85568392924504278,"keywords":["cp","nocrits","nodmgspread","uncletopia"],"game_id":440,"stv_port":27066,"stv_name":"Uncletopia | Frankfurt | 6 | All Maps | STV","players":null},{"server_id":23,"name":"Uncletopia | Frankfurt | 7 | Stopwatch Beta","name_short":"frk-7","host":"frk-1.de.uncletopia.com","port":27075,"enabled":true,"region":"eu","cc":"de","latitude":50.110924,"longitude":8.682127,"reserved":0,"last_update":"0001-01-01T00:00:00Z","name_a2s":"Uncletopia | Frankfurt | 7 | Stopwatch Beta","protocol":17,"map":"pl_borneo","folder":"tf","game":"Team Fortress","app_id":440,"player_count":0,"max_players":24,"Bots":0,"server_type":"Dedicated","server_os":"Linux","password":true,"vac":true,"version":"7757534","steam_id":85568392924742827,"keywords":["nocrits","nodmgspread","payload","uncletopia"],"game_id":440,"stv_port":27076,"stv_name":"Uncletopia | Frankfurt | 7 | Stopwatch Beta | STV","players":null},{"server_id":24,"name":"Uncletopia | Frankfurt | 8 | Community","name_short":"frk-8","host":"frk-1.de.uncletopia.com","port":27085,"enabled":true,"region":"eu","cc":"de","latitude":50.110924,"longitude":8.682127,"reserved":0,"last_update":"0001-01-01T00:00:00Z","name_a2s":"Uncletopia | Frankfurt | 8 | Community","protocol":17,"map":"workshop/rd_asteroid_redux_b1.ugc2154902912","folder":"tf","game":"Team Fortress","app_id":440,"player_count":0,"max_players":24,"Bots":0,"server_type":"Dedicated","server_os":"Linux","password":true,"vac":true,"version":"7757534","steam_id":85568392924742828,"keywords":["beta","nocrits","nodmgspread","rd","uncletopia"],"game_id":440,"stv_port":27086,"stv_name":"Uncletopia | Frankfurt | 8 | Community | STV","players":null},{"server_id":202,"name":"Uncletopia | Hong Kong | 1 | All Maps","name_short":"hgk-1","host":"hgk-1.hk.uncletopia.com","port":27015,"enabled":true,"region":"asia","cc":"hk","latitude":22.302711,"longitude":114.177216,"reserved":0,"last_update":"0001-01-01T00:00:00Z","name_a2s":"Uncletopia | Hong Kong | 1 | All Maps","protocol":17,"map":"pl_barnblitz","folder":"tf","game":"Team Fortress","app_id":440,"player_count":0,"max_players":24,"Bots":0,"server_type":"Dedicated","server_os":"Linux","password":true,"vac":true,"version":"7757534","steam_id":85568392924494504,"keywords":["nocrits","nodmgspread","payload","uncletopia"],"game_id":440,"stv_port":27016,"stv_name":"Uncletopia | Hong Kong | 1 | All Maps | STV","players":null},{"server_id":1,"name":"Uncletopia | Los Angeles | 1 | All Maps","name_short":"lax-1","host":"lax-1.us.uncletopia.com","port":27015,"enabled":true,"region":"us-west","cc":"us","latitude":33.94279,"longitude":-118.41004,"reserved":0,"last_update":"0001-01-01T00:00:00Z","name_a2s":"Uncletopia | Los Angeles | 1 | All Maps","protocol":17,"map":"plr_nightfall_final","folder":"tf","game":"Team Fortress","app_id":440,"player_count":0,"max_players":24,"Bots":0,"server_type":"Dedicated","server_os":"Linux","password":true,"vac":true,"version":"7757534","steam_id":85568392924469991,"keywords":["nocrits","nodmgspread","payload","uncletopia"],"game_id":440,"stv_port":27016,"stv_name":"Uncletopia | Los Angeles | 1 | All Maps | STV","players":null},{"server_id":112,"name":"Uncletopia | Los Angeles | 2 | All Maps","name_short":"lax-2","host":"lax-1.us.uncletopia.com","port":27025,"enabled":true,"region":"us-west","cc":"us","latitude":33.94279,"longitude":-118.41004,"reserved":0,"last_update":"0001-01-01T00:00:00Z","name_a2s":"Uncletopia | Los Angeles | 2 | All Maps","protocol":17,"map":"pl_upward","folder":"tf","game":"Team Fortress","app_id":440,"player_count":24,"max_players":24,"Bots":0,"server_type":"Dedicated","server_os":"Linux","password":true,"vac":true,"version":"7757534","steam_id":85568392924469992,"keywords":["nocrits","nodmgspread","payload","uncletopia"],"game_id":440,"stv_port":27026,"stv_name":"Uncletopia | Los Angeles | 2 | All Maps | STV","players":[{"user_id":109,"name":"ThePirateKenway","steam_id":76561198115156181,"connected_time":584000000000,"state":"active","ping":90},{"user_id":101,"name":"DistantJragon","steam_id":76561198117563641,"connected_time":931000000000,"state":"active","ping":102},{"user_id":102,"name":"Gnome Chompski","steam_id":76561198003130703,"connected_time":905000000000,"state":"active","ping":95},{"user_id":79,"name":"Dietrich","steam_id":76561198028163840,"connected_time":2525000000000,"state":"active","ping":57},{"user_id":66,"name":"Reyloko","steam_id":76561198172480913,"connected_time":3175000000000,"state":"active","ping":122},{"user_id":110,"name":"Canned Bottled Water","steam_id":76561198044362988,"connected_time":509000000000,"state":"active","ping":106},{"user_id":111,"name":"HumFreY","steam_id":76561198076639682,"connected_time":503000000000,"state":"active","ping":121},{"user_id":89,"name":"Dangerous_Dave76","steam_id":76561199230056550,"connected_time":2165000000000,"state":"active","ping":62},{"user_id":122,"name":"Ogre Commander","steam_id":76561198124066405,"connected_time":150000000000,"state":"active","ping":45},{"user_id":97,"name":"truck freak [enemy]","steam_id":76561198062712676,"connected_time":1132000000000,"state":"active","ping":71},{"user_id":113,"name":"lukednoob","steam_id":76561199158872193,"connected_time":430000000000,"state":"active","ping":56},{"user_id":32,"name":"agenda","steam_id":76561198046650995,"connected_time":4594000000000,"state":"active","ping":115},{"user_id":71,"name":"GoofyWitDaSketti","steam_id":76561198167871675,"connected_time":2949000000000,"state":"active","ping":90},{"user_id":59,"name":"Clockworker","steam_id":76561198879078276,"connected_time":3722000000000,"state":"active","ping":149},{"user_id":98,"name":"GIRTH GOBLIN","steam_id":76561198963055824,"connected_time":1123000000000,"state":"active","ping":40},{"user_id":99,"name":"jturner1nm","steam_id":76561198344493652,"connected_time":1002000000000,"state":"active","ping":114},{"user_id":114,"name":"Rich Money McNickelson","steam_id":76561198352427247,"connected_time":430000000000,"state":"active","ping":65},{"user_id":116,"name":"Hobbes","steam_id":76561198087956236,"connected_time":378000000000,"state":"active","ping":52},{"user_id":117,"name":"poey","steam_id":76561198865346767,"connected_time":369000000000,"state":"active","ping":50},{"user_id":93,"name":"Camden","steam_id":76561198060172263,"connected_time":1728000000000,"state":"active","ping":63},{"user_id":103,"name":"Meepster","steam_id":76561198146305159,"connected_time":903000000000,"state":"active","ping":58},{"user_id":104,"name":"Saulce","steam_id":76561198066142119,"connected_time":861000000000,"state":"active","ping":76},{"user_id":73,"name":"Open Mailbox","steam_id":76561198051933580,"connected_time":2943000000000,"state":"active","ping":128},{"user_id":119,"name":"Some Octopus Wizard","steam_id":76561198005470354,"connected_time":321000000000,"state":"active","ping":113}]},{"server_id":324,"name":"Uncletopia | Los Angeles | 3 | All Maps","name_short":"lax-3","host":"lax-1.us.uncletopia.com","port":27035,"enabled":true,"region":"us-west","cc":"us","latitude":33.94279,"longitude":-118.41004,"reserved":0,"last_update":"0001-01-01T00:00:00Z","name_a2s":"Uncletopia | Los Angeles | 3 | All Maps","protocol":17,"map":"koth_highpass","folder":"tf","game":"Team Fortress","app_id":440,"player_count":0,"max_players":24,"Bots":0,"server_type":"Dedicated","server_os":"Linux","password":true,"vac":true,"version":"7757534","steam_id":85568392924510198,"keywords":["cp","nocrits","nodmgspread","uncletopia"],"game_id":440,"stv_port":27036,"stv_name":"Uncletopia | Los Angeles | 3 | All Maps | STV","players":null},{"server_id":25,"name":"Uncletopia | Los Angeles | 4 | Stopwatch Beta","name_short":"lax-4","host":"lax-1.us.uncletopia.com","port":27045,"enabled":true,"region":"us-west","cc":"us","latitude":33.94279,"longitude":-118.41004,"reserved":0,"last_update":"0001-01-01T00:00:00Z","name_a2s":"Uncletopia | Los Angeles | 4 | Stopwatch Beta","protocol":17,"map":"koth_viaduct","folder":"tf","game":"Team Fortress","app_id":440,"player_count":0,"max_players":24,"Bots":0,"server_type":"Dedicated","server_os":"Linux","password":true,"vac":true,"version":"7757534","steam_id":85568392924510199,"keywords":["cp","nocrits","nodmgspread","uncletopia"],"game_id":440,"stv_port":27046,"stv_name":"Uncletopia | Los Angeles | 4 | Stopwatch Beta | STV","players":null},{"server_id":11,"name":"Uncletopia | London | 1 | All Maps","name_short":"lon-1","host":"lon-1.uk.uncletopia.com","port":27015,"enabled":true,"region":"eu","cc":"gb","latitude":51.509865,"longitude":-0.118092,"reserved":0,"last_update":"0001-01-01T00:00:00Z","name_a2s":"Uncletopia | London | 1 | All Maps","protocol":17,"map":"koth_viaduct","folder":"tf","game":"Team Fortress","app_id":440,"player_count":24,"max_players":24,"Bots":0,"server_type":"Dedicated","server_os":"Linux","password":true,"vac":true,"version":"7757534","steam_id":85568392924367362,"keywords":["cp","nocrits","nodmgspread","uncletopia"],"game_id":440,"stv_port":27016,"stv_name":"Uncletopia | London | 1 | All Maps | STV","players":[{"user_id":944,"name":"Shlongulator","steam_id":76561198149779201,"connected_time":9367000000000,"state":"active","ping":57},{"user_id":972,"name":"joecalmatt","steam_id":76561198172552015,"connected_time":7156000000000,"state":"active","ping":41},{"user_id":1025,"name":"JustPlayer72","steam_id":76561198427690477,"connected_time":3133000000000,"state":"active","ping":95},{"user_id":1060,"name":"Fred","steam_id":76561198107137362,"connected_time":1508000000000,"state":"active","ping":46},{"user_id":1073,"name":"ev1lboyo","steam_id":76561199199499453,"connected_time":295000000000,"state":"active","ping":79},{"user_id":1061,"name":"Bert","steam_id":76561198070206096,"connected_time":1310000000000,"state":"active","ping":122},{"user_id":1072,"name":"Suspicious Cabin","steam_id":76561198083261198,"connected_time":388000000000,"state":"active","ping":51},{"user_id":1020,"name":"S_ApplePie","steam_id":76561198106947669,"connected_time":4042000000000,"state":"active","ping":72},{"user_id":1067,"name":"Drawing 4 hurts","steam_id":76561198846784757,"connected_time":679000000000,"state":"active","ping":55},{"user_id":1063,"name":"tomikberanek","steam_id":76561198275234383,"connected_time":1084000000000,"state":"active","ping":63},{"user_id":1068,"name":"Funi","steam_id":76561198237603082,"connected_time":645000000000,"state":"active","ping":102},{"user_id":1069,"name":"Sh3ba Spaniel","steam_id":76561198047412394,"connected_time":578000000000,"state":"active","ping":145},{"user_id":1050,"name":"Thalgorock","steam_id":76561198195315022,"connected_time":1856000000000,"state":"active","ping":76},{"user_id":1082,"name":"Tsuruko","steam_id":76561198063618114,"connected_time":39000000000,"state":"active","ping":55},{"user_id":1077,"name":"rev up the bugatti wahey","steam_id":76561198079589665,"connected_time":159000000000,"state":"active","ping":52},{"user_id":1048,"name":"New","steam_id":76561198402195911,"connected_time":2360000000000,"state":"active","ping":115},{"user_id":1078,"name":"‚Ñ≠‚ÑòœÑ. KarolHippyman","steam_id":76561198148118029,"connected_time":155000000000,"state":"active","ping":67},{"user_id":1079,"name":".grand","steam_id":76561198066714060,"connected_time":143000000000,"state":"active","ping":75},{"user_id":1081,"name":"Hollow","steam_id":76561198315485935,"connected_time":93000000000,"state":"active","ping":63},{"user_id":997,"name":"eddiehobbs","steam_id":76561198384635410,"connected_time":6069000000000,"state":"active","ping":88},{"user_id":1044,"name":"the meme lord","steam_id":76561198279369377,"connected_time":2478000000000,"state":"active","ping":57},{"user_id":1083,"name":"Mafour","steam_id":76561197994581337,"connected_time":29000000000,"state":"active","ping":96},{"user_id":1049,"name":"Kolle129","steam_id":76561198070386336,"connected_time":2036000000000,"state":"active","ping":59},{"user_id":1084,"name":"6CO2 + 6H2O ‚Üí C6H12O6 + 6O2","steam_id":76561198981516715,"connected_time":26000000000,"state":"spawning","ping":40}]},{"server_id":114,"name":"Uncletopia | London | 2 | All Maps","name_short":"lon-2","host":"lon-1.uk.uncletopia.com","port":27025,"enabled":true,"region":"eu","cc":"gb","latitude":51.509865,"longitude":-0.118092,"reserved":0,"last_update":"0001-01-01T00:00:00Z","name_a2s":"Uncletopia | London | 2 | All Maps","protocol":17,"map":"pl_upward","folder":"tf","game":"Team Fortress","app_id":440,"player_count":1,"max_players":24,"Bots":0,"server_type":"Dedicated","server_os":"Linux","password":true,"vac":true,"version":"7757534","steam_id":85568392924470941,"keywords":["nocrits","nodmgspread","payload","uncletopia"],"game_id":440,"stv_port":27026,"stv_name":"Uncletopia | London | 2 | All Maps | STV","players":[{"user_id":1015,"name":"David Random","steam_id":76561198144497918,"connected_time":3229000000000,"state":"active","ping":60}]},{"server_id":320,"name":"Uncletopia | London | 3 | All Maps","name_short":"lon-3","host":"lon-1.uk.uncletopia.com","port":27035,"enabled":true,"region":"eu","cc":"gb","latitude":51.509865,"longitude":-0.118092,"reserved":0,"last_update":"0001-01-01T00:00:00Z","name_a2s":"Uncletopia | London | 3 | All Maps","protocol":17,"map":"koth_harvest_final","folder":"tf","game":"Team Fortress","app_id":440,"player_count":10,"max_players":24,"Bots":0,"server_type":"Dedicated","server_os":"Linux","password":true,"vac":true,"version":"7757534","steam_id":85568392924510192,"keywords":["cp","nocrits","nodmgspread","uncletopia"],"game_id":440,"stv_port":27036,"stv_name":"Uncletopia | London | 3 | All Maps | STV","players":[{"user_id":368,"name":"Ahmed Al-Batemani","steam_id":76561199353849515,"connected_time":9000000000,"state":"spawning","ping":98},{"user_id":364,"name":"LEL≈êNI MINDENKIT A WESTENDBEN","steam_id":76561198315642032,"connected_time":297000000000,"state":"active","ping":68},{"user_id":367,"name":"sirbush","steam_id":76561198308441724,"connected_time":152000000000,"state":"active","ping":57},{"user_id":356,"name":"timon.ua gaming","steam_id":76561198916306059,"connected_time":1354000000000,"state":"active","ping":74},{"user_id":323,"name":"Taste","steam_id":76561197994506978,"connected_time":5153000000000,"state":"active","ping":52},{"user_id":354,"name":"Wolff","steam_id":76561198032646554,"connected_time":1928000000000,"state":"active","ping":73},{"user_id":358,"name":"Tayta Inti","steam_id":76561198128063628,"connected_time":976000000000,"state":"active","ping":55},{"user_id":305,"name":"Sgreff","steam_id":76561198036304365,"connected_time":6426000000000,"state":"active","ping":38},{"user_id":361,"name":"det","steam_id":76561198261505536,"connected_time":553000000000,"state":"active","ping":66},{"user_id":340,"name":"‚ù§ Akira ‚ù§","steam_id":76561198387275404,"connected_time":2810000000000,"state":"active","ping":89}]},{"server_id":321,"name":"Uncletopia | London | 4 | All Maps","name_short":"lon-4","host":"lon-1.uk.uncletopia.com","port":27045,"enabled":true,"region":"eu","cc":"gb","latitude":51.509865,"longitude":-0.118092,"reserved":0,"last_update":"0001-01-01T00:00:00Z","name_a2s":"Uncletopia | London | 4 | All Maps","protocol":17,"map":"cp_dustbowl","folder":"tf","game":"Team Fortress","app_id":440,"player_count":0,"max_players":24,"Bots":0,"server_type":"Dedicated","server_os":"Linux","password":true,"vac":true,"version":"7757534","steam_id":85568392924510193,"keywords":["cp","nocrits","nodmgspread","uncletopia"],"game_id":440,"stv_port":27046,"stv_name":"Uncletopia | London | 4 | All Maps | STV","players":null},{"server_id":21,"name":"Uncletopia | London | 5 | All Maps","name_short":"lon-5","host":"lon-1.uk.uncletopia.com","port":27055,"enabled":true,"region":"eu","cc":"gb","latitude":51.509865,"longitude":-0.118092,"reserved":0,"last_update":"0001-01-01T00:00:00Z","name_a2s":"Uncletopia | London | 5 | All Maps","protocol":17,"map":"cp_sunshine","folder":"tf","game":"Team Fortress","app_id":440,"player_count":0,"max_players":24,"Bots":0,"server_type":"Dedicated","server_os":"Linux","password":true,"vac":true,"version":"7757534","steam_id":85568392924742829,"keywords":["cp","nocrits","nodmgspread","uncletopia"],"game_id":440,"stv_port":27056,"stv_name":"Uncletopia | London | 5 | All Maps | STV","players":null},{"server_id":22,"name":"Uncletopia | London | 6 | All Maps","name_short":"lon-6","host":"lon-1.uk.uncletopia.com","port":27065,"enabled":true,"region":"eu","cc":"gb","latitude":51.509865,"longitude":-0.118092,"reserved":0,"last_update":"0001-01-01T00:00:00Z","name_a2s":"Uncletopia | London | 6 | All Maps","protocol":17,"map":"cp_dustbowl","folder":"tf","game":"Team Fortress","app_id":440,"player_count":0,"max_players":24,"Bots":0,"server_type":"Dedicated","server_os":"Linux","password":true,"vac":true,"version":"7757534","steam_id":85568392924742830,"keywords":["cp","nocrits","nodmgspread","uncletopia"],"game_id":440,"stv_port":27066,"stv_name":"Uncletopia | London | 6 | All Maps | STV","players":null},{"server_id":40,"name":"Uncletopia | London | 7 | No Payload","name_short":"lon-7","host":"lon-1.uk.uncletopia.com","port":27075,"enabled":true,"region":"eu","cc":"gb","latitude":51.509865,"longitude":-0.118092,"reserved":0,"last_update":"0001-01-01T00:00:00Z","name_a2s":"Uncletopia | London | 7 | No Payload","protocol":17,"map":"ctf_well","folder":"tf","game":"Team Fortress","app_id":440,"player_count":0,"max_players":24,"Bots":0,"server_type":"Dedicated","server_os":"Linux","password":true,"vac":true,"version":"7757534","steam_id":85568392924964314,"keywords":["ctf","nocrits","nodmgspread","uncletopia"],"game_id":440,"stv_port":27076,"stv_name":"Uncletopia | London | 7 | No Payload | STV","players":null},{"server_id":41,"name":"Uncletopia | London | 8 | Community","name_short":"lon-8","host":"lon-1.uk.uncletopia.com","port":27085,"enabled":true,"region":"eu","cc":"gb","latitude":51.509865,"longitude":-0.118092,"reserved":0,"last_update":"0001-01-01T00:00:00Z","name_a2s":"Uncletopia | London | 8 | Community","protocol":17,"map":"workshop/koth_bagel_rc5.ugc2514036946","folder":"tf","game":"Team Fortress","app_id":440,"player_count":0,"max_players":24,"Bots":0,"server_type":"Dedicated","server_os":"Linux","password":true,"vac":true,"version":"7757534","steam_id":85568392924964315,"keywords":["cp","nocrits","nodmgspread","uncletopia"],"game_id":440,"stv_port":27086,"stv_name":"Uncletopia | London | 8 | Community | STV","players":null},{"server_id":300,"name":"Uncletopia | Montr√©al | 1 | All Maps","name_short":"mtl-1","host":"mtl-1.ca.uncletopia.com","port":27015,"enabled":true,"region":"us-east","cc":"ca","latitude":45.50889,"longitude":-73.56167,"reserved":0,"last_update":"0001-01-01T00:00:00Z","name_a2s":"Uncletopia | Montr√©al | 1 | All Maps","protocol":17,"map":"koth_cascade","folder":"tf","game":"Team Fortress","app_id":440,"player_count":2,"max_players":24,"Bots":0,"server_type":"Dedicated","server_os":"Linux","password":true,"vac":true,"version":"7757534","steam_id":85568392924500087,"keywords":["cp","nocrits","nodmgspread","uncletopia"],"game_id":440,"stv_port":27016,"stv_name":"Uncletopia | Montr√©al | 1 | All Maps | STV","players":[{"user_id":5,"name":"smoose","steam_id":76561198134321792,"connected_time":794000000000,"state":"active","ping":45},{"user_id":6,"name":"Catboy Extraordinaire","steam_id":76561198141314142,"connected_time":785000000000,"state":"active","ping":36}]},{"server_id":301,"name":"Uncletopia | Montr√©al | 2 | All Maps","name_short":"mtl-2","host":"mtl-1.ca.uncletopia.com","port":27025,"enabled":true,"region":"us-east","cc":"ca","latitude":45.50889,"longitude":-73.56167,"reserved":0,"last_update":"0001-01-01T00:00:00Z","name_a2s":"Uncletopia | Montr√©al | 2 | All Maps","protocol":17,"map":"koth_viaduct","folder":"tf","game":"Team Fortress","app_id":440,"player_count":0,"max_players":24,"Bots":0,"server_type":"Dedicated","server_os":"Linux","password":true,"vac":true,"version":"7757534","steam_id":85568392924500088,"keywords":["cp","nocrits","nodmgspread","uncletopia"],"game_id":440,"stv_port":27026,"stv_name":"Uncletopia | Montr√©al | 2 | All Maps | STV","players":null},{"server_id":302,"name":"Uncletopia | Montr√©al | 3 | All Maps","name_short":"mtl-3","host":"mtl-1.ca.uncletopia.com","port":27035,"enabled":true,"region":"us-east","cc":"ca","latitude":45.50889,"longitude":-73.56167,"reserved":0,"last_update":"0001-01-01T00:00:00Z","name_a2s":"Uncletopia | Montr√©al | 3 | All Maps","protocol":17,"map":"koth_viaduct","folder":"tf","game":"Team Fortress","app_id":440,"player_count":20,"max_players":24,"Bots":0,"server_type":"Dedicated","server_os":"Linux","password":true,"vac":true,"version":"7757534","steam_id":85568392924500089,"keywords":["cp","nocrits","nodmgspread","uncletopia"],"game_id":440,"stv_port":27036,"stv_name":"Uncletopia | Montr√©al | 3 | All Maps | STV","players":[{"user_id":177,"name":"siah","steam_id":76561198051881047,"connected_time":95000000000,"state":"active","ping":54},{"user_id":178,"name":"Slithering Snake Creature","steam_id":76561198071599736,"connected_time":78000000000,"state":"active","ping":71},{"user_id":139,"name":"AnonWithAHatOn","steam_id":76561199199586340,"connected_time":2925000000000,"state":"active","ping":132},{"user_id":152,"name":"Snackrifice","steam_id":76561198336220893,"connected_time":1539000000000,"state":"active","ping":55},{"user_id":169,"name":"simplyhere141","steam_id":76561199204117948,"connected_time":601000000000,"state":"active","ping":56},{"user_id":179,"name":"john","steam_id":76561198305291693,"connected_time":45000000000,"state":"active","ping":81},{"user_id":102,"name":"Amogus The Sussy Baka ‡∂û","steam_id":76561198008577961,"connected_time":5518000000000,"state":"active","ping":40},{"user_id":138,"name":"King_L","steam_id":76561199166718863,"connected_time":2942000000000,"state":"active","ping":59},{"user_id":153,"name":"Yoshimelon","steam_id":76561198253054325,"connected_time":1522000000000,"state":"active","ping":75},{"user_id":175,"name":"GreenApples","steam_id":76561198120559543,"connected_time":306000000000,"state":"active","ping":113},{"user_id":134,"name":"Sly Fox Lemmy","steam_id":76561198069225954,"connected_time":3705000000000,"state":"active","ping":56},{"user_id":163,"name":"$200 Shirt","steam_id":76561197977329534,"connected_time":782000000000,"state":"active","ping":31},{"user_id":155,"name":"deathtth","steam_id":76561199469493203,"connected_time":1398000000000,"state":"active","ping":63},{"user_id":28,"name":"AgentCitrus","steam_id":76561198153277184,"connected_time":10466000000000,"state":"active","ping":48},{"user_id":165,"name":"elyk37","steam_id":76561198124135253,"connected_time":764000000000,"state":"active","ping":142},{"user_id":176,"name":"Dullahan","steam_id":76561198119668908,"connected_time":272000000000,"state":"active","ping":105},{"user_id":167,"name":"The Skinny One","steam_id":76561198031430046,"connected_time":711000000000,"state":"active","ping":117},{"user_id":117,"name":"jolo","steam_id":76561198042831480,"connected_time":4794000000000,"state":"active","ping":66},{"user_id":118,"name":"the zoo","steam_id":76561198013732450,"connected_time":4701000000000,"state":"active","ping":69},{"user_id":157,"name":"Lord of the Moon","steam_id":76561198014115769,"connected_time":1022000000000,"state":"active","ping":134}]},{"server_id":303,"name":"Uncletopia | Montr√©al | 4 | No Payload","name_short":"mtl-4","host":"mtl-1.ca.uncletopia.com","port":27045,"enabled":true,"region":"us-east","cc":"ca","latitude":45.50889,"longitude":-73.56167,"reserved":0,"last_update":"0001-01-01T00:00:00Z","name_a2s":"Uncletopia | Montr√©al | 4 | No Payload","protocol":17,"map":"koth_lakeside_final","folder":"tf","game":"Team Fortress","app_id":440,"player_count":0,"max_players":24,"Bots":0,"server_type":"Dedicated","server_os":"Linux","password":true,"vac":true,"version":"7757534","steam_id":85568392924500090,"keywords":["cp","nocrits","nodmgspread","uncletopia"],"game_id":440,"stv_port":27046,"stv_name":"Uncletopia | Montr√©al | 4 | No Payload | STV","players":null},{"server_id":13,"name":"Uncletopia | New York City | 1 | All Maps","name_short":"nyc-1","host":"nyc-1.us.uncletopia.com","port":27015,"enabled":true,"region":"us-east","cc":"us","latitude":40.73061,"longitude":-73.93524,"reserved":0,"last_update":"0001-01-01T00:00:00Z","name_a2s":"Uncletopia | New York City | 1 | All Maps","protocol":17,"map":"cp_gravelpit","folder":"tf","game":"Team Fortress","app_id":440,"player_count":24,"max_players":24,"Bots":0,"server_type":"Dedicated","server_os":"Linux","password":true,"vac":true,"version":"7757534","steam_id":85568392924469993,"keywords":["cp","nocrits","nodmgspread","uncletopia"],"game_id":440,"stv_port":27016,"stv_name":"Uncletopia | New York City | 1 | All Maps | STV","players":[{"user_id":284,"name":"Chase McCain","steam_id":76561198314538469,"connected_time":1858000000000,"state":"active","ping":56},{"user_id":270,"name":"fi_ji","steam_id":76561198126087725,"connected_time":2881000000000,"state":"active","ping":53},{"user_id":296,"name":"Lataluleela","steam_id":76561198077800698,"connected_time":403000000000,"state":"active","ping":81},{"user_id":307,"name":"Lord of The Lockerroom","steam_id":76561198025975003,"connected_time":215000000000,"state":"active","ping":71},{"user_id":279,"name":"Morbi","steam_id":76561198126853838,"connected_time":1920000000000,"state":"active","ping":57},{"user_id":206,"name":"Heropon","steam_id":76561198105224481,"connected_time":7052000000000,"state":"active","ping":59},{"user_id":298,"name":"Cooldog","steam_id":76561198155754968,"connected_time":394000000000,"state":"active","ping":71},{"user_id":299,"name":"beaconstrips","steam_id":76561198120177660,"connected_time":391000000000,"state":"active","ping":57},{"user_id":289,"name":"trippingbull419","steam_id":76561199111639935,"connected_time":1402000000000,"state":"active","ping":81},{"user_id":303,"name":"MILF Gaming","steam_id":76561198155378170,"connected_time":302000000000,"state":"active","ping":55},{"user_id":291,"name":"Hope","steam_id":76561199201900779,"connected_time":1367000000000,"state":"active","ping":63},{"user_id":300,"name":"Zigzota","steam_id":76561198070858484,"connected_time":381000000000,"state":"active","ping":64},{"user_id":293,"name":"Do Moose go Moo?","steam_id":76561198073550620,"connected_time":894000000000,"state":"active","ping":60},{"user_id":285,"name":"Billosky Time Lord","steam_id":76561199159626560,"connected_time":1848000000000,"state":"active","ping":145},{"user_id":217,"name":"Disambiguation","steam_id":76561198133963270,"connected_time":6238000000000,"state":"active","ping":62},{"user_id":292,"name":"Wallish","steam_id":76561198057175636,"connected_time":1242000000000,"state":"active","ping":92},{"user_id":280,"name":"Gnilkaew","steam_id":76561198202093367,"connected_time":1912000000000,"state":"active","ping":73},{"user_id":309,"name":"ZOME","steam_id":76561198098035337,"connected_time":107000000000,"state":"active","ping":72},{"user_id":304,"name":"Soldie","steam_id":76561198118414372,"connected_time":291000000000,"state":"active","ping":69},{"user_id":295,"name":"A Puppy","steam_id":76561198828184456,"connected_time":422000000000,"state":"active","ping":47},{"user_id":274,"name":"Cake Baking Pagan Woman","steam_id":76561198055627017,"connected_time":2492000000000,"state":"active","ping":80},{"user_id":305,"name":"CapnKris22","steam_id":76561198049010994,"connected_time":280000000000,"state":"active","ping":72},{"user_id":306,"name":"=FAZE= Fernandinho the Eggplant","steam_id":76561198042988373,"connected_time":277000000000,"state":"active","ping":52}]},{"server_id":14,"name":"Uncletopia | New York City | 2 | All Maps","name_short":"nyc-2","host":"nyc-1.us.uncletopia.com","port":27025,"enabled":true,"region":"us-east","cc":"us","latitude":40.73061,"longitude":-73.93524,"reserved":0,"last_update":"0001-01-01T00:00:00Z","name_a2s":"Uncletopia | New York City | 2 | All Maps","protocol":17,"map":"pl_pier","folder":"tf","game":"Team Fortress","app_id":440,"player_count":24,"max_players":24,"Bots":0,"server_type":"Dedicated","server_os":"Linux","password":true,"vac":true,"version":"7757534","steam_id":85568392924469994,"keywords":["nocrits","nodmgspread","payload","uncletopia"],"game_id":440,"stv_port":27026,"stv_name":"Uncletopia | New York City | 2 | All Maps | STV","players":[{"user_id":116,"name":"wack","steam_id":76561198095697330,"connected_time":4813000000000,"state":"active","ping":81},{"user_id":150,"name":"Fawful's Minion","steam_id":76561198090120779,"connected_time":1810000000000,"state":"active","ping":130},{"user_id":162,"name":"drdoofus123","steam_id":76561198016826181,"connected_time":667000000000,"state":"active","ping":70},{"user_id":163,"name":"LegaC SK","steam_id":76561198103324832,"connected_time":640000000000,"state":"active","ping":91},{"user_id":127,"name":"[Metal Fingers - Myrtle Leaf]","steam_id":76561198294013916,"connected_time":4023000000000,"state":"active","ping":40},{"user_id":104,"name":"Lifial","steam_id":76561198271885819,"connected_time":5549000000000,"state":"active","ping":59},{"user_id":155,"name":"Brobespierre","steam_id":76561198022225667,"connected_time":1544000000000,"state":"active","ping":74},{"user_id":159,"name":"bobbyreinman2009","steam_id":76561198804763186,"connected_time":1173000000000,"state":"active","ping":46},{"user_id":160,"name":"*Karin's laugh*","steam_id":76561198040186048,"connected_time":1093000000000,"state":"active","ping":60},{"user_id":151,"name":"Nico","steam_id":76561198125701869,"connected_time":1809000000000,"state":"active","ping":59},{"user_id":158,"name":"punishing bird","steam_id":76561198447797146,"connected_time":1204000000000,"state":"active","ping":48},{"user_id":173,"name":"Pooola","steam_id":76561198807352623,"connected_time":360000000000,"state":"active","ping":158},{"user_id":68,"name":"StrangeSaus","steam_id":76561198147790758,"connected_time":7519000000000,"state":"active","ping":62},{"user_id":164,"name":"Autumn Clover","steam_id":76561198012295314,"connected_time":635000000000,"state":"active","ping":65},{"user_id":143,"name":"SoapKnight","steam_id":76561198993730843,"connected_time":2763000000000,"state":"active","ping":104},{"user_id":83,"name":"hyuck","steam_id":76561198319990195,"connected_time":6521000000000,"state":"active","ping":76},{"user_id":175,"name":"Rylee","steam_id":76561198069735013,"connected_time":101000000000,"state":"active","ping":52},{"user_id":165,"name":"gunnar","steam_id":76561198409761557,"connected_time":618000000000,"state":"active","ping":89},{"user_id":168,"name":"Tots","steam_id":76561198027485007,"connected_time":614000000000,"state":"active","ping":59},{"user_id":167,"name":"TH-1","steam_id":76561197993467034,"connected_time":617000000000,"state":"active","ping":69},{"user_id":54,"name":"Constellar Nova","steam_id":76561198868215392,"connected_time":8056000000000,"state":"active","ping":60},{"user_id":148,"name":"TuxTheAstronaut","steam_id":76561198249141126,"connected_time":2218000000000,"state":"active","ping":52},{"user_id":169,"name":"Murrdogg","steam_id":76561198210491188,"connected_time":613000000000,"state":"active","ping":84},{"user_id":171,"name":"Homeless Street Artist","steam_id":76561199027576969,"connected_time":535000000000,"state":"active","ping":183}]},{"server_id":15,"name":"Uncletopia | New York City | 3 | Stopwatch Beta","name_short":"nyc-3","host":"nyc-1.us.uncletopia.com","port":27035,"enabled":true,"region":"us-east","cc":"us","latitude":40.73061,"longitude":-73.93524,"reserved":0,"last_update":"0001-01-01T00:00:00Z","name_a2s":"Uncletopia | New York City | 3 | Stopwatch Beta","protocol":17,"map":"workshop/pl_barnblitz_pro7.ugc582280235","folder":"tf","game":"Team Fortress","app_id":440,"player_count":0,"max_players":24,"Bots":0,"server_type":"Dedicated","server_os":"Linux","password":true,"vac":true,"version":"7757534","steam_id":85568392924742820,"keywords":["nocrits","nodmgspread","payload","uncletopia"],"game_id":440,"stv_port":27036,"stv_name":"Uncletopia | New York City | 3 | Stopwatch Beta | STV","players":null},{"server_id":16,"name":"Uncletopia | New York City | 4 | Community","name_short":"nyc-4","host":"nyc-1.us.uncletopia.com","port":27045,"enabled":true,"region":"us-east","cc":"us","latitude":40.73061,"longitude":-73.93524,"reserved":0,"last_update":"0001-01-01T00:00:00Z","name_a2s":"Uncletopia | New York City | 4 | Community","protocol":17,"map":"workshop/koth_ashville_final.ugc2130459942","folder":"tf","game":"Team Fortress","app_id":440,"player_count":2,"max_players":24,"Bots":0,"server_type":"Dedicated","server_os":"Linux","password":true,"vac":true,"version":"7757534","steam_id":85568392924742821,"keywords":["cp","nocrits","nodmgspread","uncletopia"],"game_id":440,"stv_port":27046,"stv_name":"Uncletopia | New York City | 4 | Community | STV","players":[{"user_id":41,"name":"Jitters","steam_id":76561198078898336,"connected_time":201000000000,"state":"active","ping":64},{"user_id":42,"name":"MichaelScopic","steam_id":76561198440602177,"connected_time":200000000000,"state":"active","ping":84}]},{"server_id":142,"name":"Uncletopia | S√£o Paulo | 1 | All Maps","name_short":"sao-1","host":"sao-1.br.uncletopia.com","port":27015,"enabled":true,"region":"sa","cc":"br","latitude":-23.533773,"longitude":-46.62529,"reserved":0,"last_update":"0001-01-01T00:00:00Z","name_a2s":"Uncletopia | S√£o Paulo | 1 | All Maps","protocol":17,"map":"cp_snakewater_final1","folder":"tf","game":"Team Fortress","app_id":440,"player_count":0,"max_players":24,"Bots":0,"server_type":"Dedicated","server_os":"Linux","password":true,"vac":true,"version":"7757534","steam_id":85568392924469996,"keywords":["cp","nocrits","nodmgspread","uncletopia"],"game_id":440,"stv_port":27016,"stv_name":"Uncletopia | S√£o Paulo | 1 | All Maps | STV","players":null},{"server_id":143,"name":"Uncletopia | S√£o Paulo | 2 | All Maps","name_short":"sao-2","host":"sao-2.br.uncletopia.com","port":27015,"enabled":true,"region":"sa","cc":"br","latitude":-23.533773,"longitude":-46.62529,"reserved":0,"last_update":"0001-01-01T00:00:00Z","name_a2s":"Uncletopia | S√£o Paulo | 2 | All Maps","protocol":17,"map":"koth_highpass","folder":"tf","game":"Team Fortress","app_id":440,"player_count":0,"max_players":24,"Bots":0,"server_type":"Dedicated","server_os":"Linux","password":true,"vac":true,"version":"7757534","steam_id":85568392924485349,"keywords":["cp","nocrits","nodmgspread","uncletopia"],"game_id":440,"stv_port":27016,"stv_name":"Uncletopia | S√£o Paulo | 2 | All Maps | STV","players":null},{"server_id":7,"name":"Uncletopia | Seattle | 1 | All Maps","name_short":"sea-1","host":"sea-1.us.uncletopia.com","port":27015,"enabled":true,"region":"us-west","cc":"us","latitude":47.608013,"longitude":-122.33517,"reserved":0,"last_update":"0001-01-01T00:00:00Z","name_a2s":"Uncletopia | Seattle | 1 | All Maps","protocol":17,"map":"pl_borneo","folder":"tf","game":"Team Fortress","app_id":440,"player_count":24,"max_players":24,"Bots":0,"server_type":"Dedicated","server_os":"Linux","password":true,"vac":true,"version":"7757534","steam_id":85568392924469997,"keywords":["nocrits","nodmgspread","payload","uncletopia"],"game_id":440,"stv_port":27016,"stv_name":"Uncletopia | Seattle | 1 | All Maps | STV","players":[{"user_id":622,"name":"rare breed","steam_id":76561198113149951,"connected_time":523000000000,"state":"active","ping":52},{"user_id":575,"name":"[DATS‚û°] Sugar Meowth","steam_id":76561197995251793,"connected_time":2648000000000,"state":"active","ping":43},{"user_id":602,"name":"Saint Pablo","steam_id":76561198083300159,"connected_time":1718000000000,"state":"active","ping":74},{"user_id":624,"name":"oh god i'm gonna CHUM","steam_id":76561198019210187,"connected_time":505000000000,"state":"active","ping":102},{"user_id":620,"name":"trackpad gaming | f2p","steam_id":76561198840414371,"connected_time":677000000000,"state":"active","ping":50},{"user_id":604,"name":"rat gets the cheese","steam_id":76561198031234032,"connected_time":1698000000000,"state":"active","ping":95},{"user_id":610,"name":"surrealist neophyte","steam_id":76561198325306660,"connected_time":1566000000000,"state":"active","ping":51},{"user_id":623,"name":"Bryce Gobo","steam_id":76561199411560141,"connected_time":517000000000,"state":"active","ping":52},{"user_id":630,"name":"Samiho","steam_id":76561198984374561,"connected_time":269000000000,"state":"active","ping":61},{"user_id":619,"name":"Yellow Hat Guy","steam_id":76561199144302768,"connected_time":1168000000000,"state":"active","ping":140},{"user_id":621,"name":"jawnymac","steam_id":76561198179529599,"connected_time":533000000000,"state":"active","ping":73},{"user_id":612,"name":"Dog","steam_id":76561197979056451,"connected_time":1500000000000,"state":"active","ping":50},{"user_id":613,"name":"walter white","steam_id":76561198072156623,"connected_time":1382000000000,"state":"active","ping":63},{"user_id":554,"name":"TheGrassMan (He/Him)","steam_id":76561198118984048,"connected_time":4642000000000,"state":"active","ping":126},{"user_id":601,"name":"mumbles","steam_id":76561197994528974,"connected_time":1851000000000,"state":"active","ping":77},{"user_id":633,"name":"bodie._.","steam_id":76561198079474904,"connected_time":225000000000,"state":"active","ping":61},{"user_id":614,"name":"Futanari of the Amazon Enjoyer","steam_id":76561198074294849,"connected_time":1367000000000,"state":"active","ping":63},{"user_id":528,"name":"soup","steam_id":76561198043209046,"connected_time":6366000000000,"state":"active","ping":93},{"user_id":618,"name":"KingTinkerer","steam_id":76561198226856548,"connected_time":1174000000000,"state":"active","ping":76},{"user_id":631,"name":"level 7 firemancer","steam_id":76561198209571677,"connected_time":257000000000,"state":"active","ping":152},{"user_id":625,"name":"sibling derpins","steam_id":76561198125261443,"connected_time":484000000000,"state":"active","ping":60},{"user_id":608,"name":"dodecadron","steam_id":76561198027397222,"connected_time":1615000000000,"state":"active","ping":73},{"user_id":626,"name":"wesker can hit it tbh","steam_id":76561197968351430,"connected_time":474000000000,"state":"active","ping":84},{"user_id":629,"name":"bullet man","steam_id":76561198080058079,"connected_time":273000000000,"state":"active","ping":50}]},{"server_id":119,"name":"Uncletopia | Seattle | 2 | All Maps","name_short":"sea-2","host":"sea-1.us.uncletopia.com","port":27025,"enabled":true,"region":"us-west","cc":"us","latitude":47.608013,"longitude":-122.33517,"reserved":0,"last_update":"0001-01-01T00:00:00Z","name_a2s":"Uncletopia | Seattle | 2 | All Maps","protocol":17,"map":"pl_frontier_final","folder":"tf","game":"Team Fortress","app_id":440,"player_count":21,"max_players":24,"Bots":0,"server_type":"Dedicated","server_os":"Linux","password":true,"vac":true,"version":"7757534","steam_id":85568392924469998,"keywords":["nocrits","nodmgspread","payload","uncletopia"],"game_id":440,"stv_port":27026,"stv_name":"Uncletopia | Seattle | 2 | All Maps | STV","players":[{"user_id":358,"name":"gaming","steam_id":76561198338610196,"connected_time":2352000000000,"state":"active","ping":86},{"user_id":395,"name":"Frogzilla","steam_id":76561198077657538,"connected_time":360000000000,"state":"active","ping":70},{"user_id":379,"name":"Julien","steam_id":76561199389584938,"connected_time":1504000000000,"state":"active","ping":45},{"user_id":393,"name":"Greensinger","steam_id":76561199210933955,"connected_time":452000000000,"state":"active","ping":103},{"user_id":376,"name":"Mr. Call You Back","steam_id":76561198025172811,"connected_time":1806000000000,"state":"active","ping":76},{"user_id":396,"name":"Jasmine Rice","steam_id":76561198163163590,"connected_time":326000000000,"state":"active","ping":71},{"user_id":361,"name":"tN|SpiritofLight","steam_id":76561197967936643,"connected_time":2277000000000,"state":"active","ping":73},{"user_id":377,"name":"Mophy","steam_id":76561198201678098,"connected_time":1803000000000,"state":"active","ping":78},{"user_id":365,"name":"rockandroll805","steam_id":76561198062568700,"connected_time":2067000000000,"state":"active","ping":80},{"user_id":366,"name":"Quaziz49","steam_id":76561198325695886,"connected_time":2064000000000,"state":"active","ping":116},{"user_id":349,"name":"pizzaguy4","steam_id":76561198058821622,"connected_time":3287000000000,"state":"active","ping":91},{"user_id":392,"name":"sword lesbian","steam_id":76561198019735460,"connected_time":519000000000,"state":"active","ping":89},{"user_id":386,"name":"MonteJT","steam_id":76561198055409360,"connected_time":1021000000000,"state":"active","ping":31},{"user_id":371,"name":"teh mummy","steam_id":76561198044123636,"connected_time":1998000000000,"state":"active","ping":70},{"user_id":388,"name":"Mysteryred12","steam_id":76561199206772814,"connected_time":768000000000,"state":"active","ping":62},{"user_id":355,"name":"InfernoFlower64","steam_id":76561198181097391,"connected_time":2614000000000,"state":"active","ping":110},{"user_id":398,"name":"Type Three Dabeetus","steam_id":76561198062710038,"connected_time":117000000000,"state":"active","ping":87},{"user_id":384,"name":"mudunit","steam_id":76561198811544015,"connected_time":1101000000000,"state":"active","ping":54},{"user_id":369,"name":"dave strider","steam_id":76561198065112186,"connected_time":2027000000000,"state":"active","ping":68},{"user_id":397,"name":"ItchyThunder111","steam_id":76561199149907692,"connected_time":317000000000,"state":"active","ping":53},{"user_id":350,"name":"Nobuunga","steam_id":76561198100614981,"connected_time":3263000000000,"state":"active","ping":51}]},{"server_id":406,"name":"Uncletopia | Seattle | 3 | Stopwatch Beta","name_short":"sea-3","host":"sea-1.us.uncletopia.com","port":27035,"enabled":true,"region":"us-west","cc":"us","latitude":47.608013,"longitude":-122.33517,"reserved":0,"last_update":"0001-01-01T00:00:00Z","name_a2s":"Uncletopia | Seattle | 3 | Stopwatch Beta","protocol":17,"map":"workshop/koth_ramjam_rc1.ugc459778887","folder":"tf","game":"Team Fortress","app_id":440,"player_count":0,"max_players":24,"Bots":0,"server_type":"Dedicated","server_os":"Linux","password":true,"vac":true,"version":"7757534","steam_id":85568392924515217,"keywords":["cp","nocrits","nodmgspread","uncletopia"],"game_id":440,"stv_port":27036,"stv_name":"Uncletopia | Seattle | 3 | Stopwatch Beta | STV","players":null},{"server_id":17,"name":"Uncletopia | San Francisco | 1 | All Maps","name_short":"sfo-1","host":"sfo-1.us.uncletopia.com","port":27015,"enabled":true,"region":"us-west","cc":"us","latitude":37.77397,"longitude":-122.4313,"reserved":0,"last_update":"0001-01-01T00:00:00Z","name_a2s":"Uncletopia | San Francisco | 1 | All Maps","protocol":17,"map":"cp_altitude","folder":"tf","game":"Team Fortress","app_id":440,"player_count":0,"max_players":24,"Bots":0,"server_type":"Dedicated","server_os":"Linux","password":true,"vac":true,"version":"7757534","steam_id":85568392924469999,"keywords":["cp","nocrits","nodmgspread","uncletopia"],"game_id":440,"stv_port":27016,"stv_name":"Uncletopia | San Francisco | 1 | All Maps | STV","players":null},{"server_id":18,"name":"Uncletopia | San Francisco | 2 | All Maps","name_short":"sfo-2","host":"sfo-1.us.uncletopia.com","port":27025,"enabled":true,"region":"us-west","cc":"us","latitude":37.77397,"longitude":-122.4313,"reserved":0,"last_update":"0001-01-01T00:00:00Z","name_a2s":"Uncletopia | San Francisco | 2 | All Maps","protocol":17,"map":"cp_steel","folder":"tf","game":"Team Fortress","app_id":440,"player_count":24,"max_players":24,"Bots":0,"server_type":"Dedicated","server_os":"Linux","password":true,"vac":true,"version":"7757534","steam_id":85568392924470000,"keywords":["cp","nocrits","nodmgspread","uncletopia"],"game_id":440,"stv_port":27026,"stv_name":"Uncletopia | San Francisco | 2 | All Maps | STV","players":[{"user_id":226,"name":"GinTheAlcoholicBeverage","steam_id":76561198020478634,"connected_time":1721000000000,"state":"active","ping":86},{"user_id":255,"name":"car gas is yummy","steam_id":76561199045901994,"connected_time":356000000000,"state":"active","ping":68},{"user_id":218,"name":"Kopenich","steam_id":76561198066205245,"connected_time":2438000000000,"state":"active","ping":60},{"user_id":254,"name":"[S]Mr. X [No Monitor]","steam_id":76561197963746035,"connected_time":508000000000,"state":"active","ping":86},{"user_id":257,"name":"Magikarp_Gamer","steam_id":76561198143910511,"connected_time":340000000000,"state":"active","ping":66},{"user_id":258,"name":"Crustiest_Bill","steam_id":76561198842722858,"connected_time":331000000000,"state":"active","ping":53},{"user_id":227,"name":"Kiminator99","steam_id":76561198298945680,"connected_time":1704000000000,"state":"active","ping":94},{"user_id":259,"name":"Ranger Lugi","steam_id":76561198143611016,"connected_time":329000000000,"state":"active","ping":69},{"user_id":260,"name":"EXPERIENCED INDIVIDUAL","steam_id":76561198140231083,"connected_time":306000000000,"state":"active","ping":73},{"user_id":235,"name":"Professor Peppermint","steam_id":76561198184017082,"connected_time":1237000000000,"state":"active","ping":75},{"user_id":224,"name":"bigman1","steam_id":76561198050225055,"connected_time":1778000000000,"state":"active","ping":54},{"user_id":237,"name":"Flyingcat9000","steam_id":76561198179561797,"connected_time":1216000000000,"state":"active","ping":42},{"user_id":253,"name":"duck tale","steam_id":76561198042662104,"connected_time":543000000000,"state":"active","ping":58},{"user_id":262,"name":"Cheese","steam_id":76561199435683727,"connected_time":270000000000,"state":"active","ping":116},{"user_id":176,"name":"Sparkly Venice","steam_id":76561198056445740,"connected_time":6703000000000,"state":"active","ping":114},{"user_id":247,"name":"the pizza","steam_id":76561198221331476,"connected_time":838000000000,"state":"active","ping":35},{"user_id":233,"name":"Marty Byrde IRL","steam_id":76561199427269098,"connected_time":1443000000000,"state":"active","ping":116},{"user_id":248,"name":"SilvaDefault","steam_id":76561198155255282,"connected_time":837000000000,"state":"active","ping":83},{"user_id":232,"name":"Rae \u003c3","steam_id":76561199082727505,"connected_time":1576000000000,"state":"active","ping":60},{"user_id":263,"name":"pl_downward","steam_id":76561198043187719,"connected_time":198000000000,"state":"active","ping":58},{"user_id":217,"name":"Jax O'Gaytor","steam_id":76561198288922168,"connected_time":2466000000000,"state":"active","ping":72},{"user_id":206,"name":"Amogous Supreme","steam_id":76561198025476774,"connected_time":3242000000000,"state":"active","ping":56},{"user_id":249,"name":"SpockterWho","steam_id":76561198146653460,"connected_time":836000000000,"state":"active","ping":53},{"user_id":251,"name":"Lack of skelebone","steam_id":76561198102175328,"connected_time":747000000000,"state":"active","ping":58}]},{"server_id":19,"name":"Uncletopia | San Francisco | 3 | Stopwatch Beta","name_short":"sfo-3","host":"sfo-1.us.uncletopia.com","port":27035,"enabled":true,"region":"us-west","cc":"us","latitude":37.77397,"longitude":-122.4313,"reserved":0,"last_update":"0001-01-01T00:00:00Z","name_a2s":"Uncletopia | San Francisco | 3 | Stopwatch Beta","protocol":17,"map":"koth_viaduct","folder":"tf","game":"Team Fortress","app_id":440,"player_count":0,"max_players":24,"Bots":0,"server_type":"Dedicated","server_os":"Linux","password":true,"vac":true,"version":"7757534","steam_id":85568392924742824,"keywords":["cp","nocrits","nodmgspread","uncletopia"],"game_id":440,"stv_port":27036,"stv_name":"Uncletopia | San Francisco | 3 | Stopwatch Beta | STV","players":null},{"server_id":20,"name":"Uncletopia | San Francisco | 4 | Community","name_short":"sfo-4","host":"sfo-1.us.uncletopia.com","port":27045,"enabled":true,"region":"us-west","cc":"us","latitude":37.77397,"longitude":-122.4313,"reserved":0,"last_update":"0001-01-01T00:00:00Z","name_a2s":"Uncletopia | San Francisco | 4 | Community","protocol":17,"map":"workshop/rd_asteroid_redux_b1.ugc2154902912","folder":"tf","game":"Team Fortress","app_id":440,"player_count":0,"max_players":24,"Bots":0,"server_type":"Dedicated","server_os":"Linux","password":true,"vac":true,"version":"7757534","steam_id":85568392924742826,"keywords":["beta","nocrits","nodmgspread","rd","uncletopia"],"game_id":440,"stv_port":27046,"stv_name":"Uncletopia | San Francisco | 4 | Community | STV","players":null},{"server_id":141,"name":"Uncletopia | Sydney | 1 | All Maps","name_short":"syd-1","host":"syd-1.au.uncletopia.com","port":27015,"enabled":true,"region":"au","cc":"au","latitude":-33.865143,"longitude":151.2099,"reserved":0,"last_update":"0001-01-01T00:00:00Z","name_a2s":"Uncletopia | Sydney | 1 | All Maps","protocol":17,"map":"pl_pier","folder":"tf","game":"Team Fortress","app_id":440,"player_count":0,"max_players":24,"Bots":0,"server_type":"Dedicated","server_os":"Linux","password":true,"vac":true,"version":"7757534","steam_id":85568392924470001,"keywords":["nocrits","nodmgspread","payload","uncletopia"],"game_id":440,"stv_port":27016,"stv_name":"Uncletopia | Sydney | 1 | All Maps | STV","players":null},{"server_id":123,"name":"Uncletopia | Sydney | 2 | All Maps","name_short":"syd-2","host":"syd-1.au.uncletopia.com","port":27025,"enabled":true,"region":"au","cc":"au","latitude":-33.865143,"longitude":151.2099,"reserved":0,"last_update":"0001-01-01T00:00:00Z","name_a2s":"Uncletopia | Sydney | 2 | All Maps","protocol":17,"map":"koth_suijin","folder":"tf","game":"Team Fortress","app_id":440,"player_count":14,"max_players":24,"Bots":0,"server_type":"Dedicated","server_os":"Linux","password":true,"vac":true,"version":"7757534","steam_id":85568392924470002,"keywords":["cp","nocrits","nodmgspread","uncletopia"],"game_id":440,"stv_port":27026,"stv_name":"Uncletopia | Sydney | 2 | All Maps | STV","players":[{"user_id":33,"name":"Honored Military Spy","steam_id":76561199089277019,"connected_time":1764000000000,"state":"active","ping":58},{"user_id":52,"name":"bagurgher","steam_id":76561198198491197,"connected_time":121000000000,"state":"active","ping":55},{"user_id":39,"name":"scubasteve","steam_id":76561198101975391,"connected_time":664000000000,"state":"active","ping":49},{"user_id":34,"name":"blaze","steam_id":76561198241303512,"connected_time":1482000000000,"state":"active","ping":52},{"user_id":51,"name":"DKC","steam_id":76561198313578155,"connected_time":227000000000,"state":"active","ping":34},{"user_id":36,"name":"Ashes","steam_id":76561198105820742,"connected_time":992000000000,"state":"active","ping":70},{"user_id":53,"name":"Emerald the Snake","steam_id":76561199013344853,"connected_time":120000000000,"state":"active","ping":65},{"user_id":46,"name":"mochi(buying strange warpaints)","steam_id":76561198204590389,"connected_time":470000000000,"state":"active","ping":62},{"user_id":26,"name":"I can't aim","steam_id":76561198855153068,"connected_time":3702000000000,"state":"active","ping":56},{"user_id":40,"name":"The Cake Is A Pie","steam_id":76561198043068402,"connected_time":617000000000,"state":"active","ping":77},{"user_id":41,"name":"Puueds","steam_id":76561198313324562,"connected_time":599000000000,"state":"active","ping":54},{"user_id":42,"name":"Painfully Average","steam_id":76561198119409653,"connected_time":595000000000,"state":"active","ping":77},{"user_id":47,"name":"Absol","steam_id":76561199045059964,"connected_time":424000000000,"state":"active","ping":105},{"user_id":44,"name":"Microsoft Edge","steam_id":76561198384235576,"connected_time":503000000000,"state":"active","ping":141}]},{"server_id":395,"name":"Uncletopia | Sydney | 3 | All Maps","name_short":"syd-3","host":"syd-1.au.uncletopia.com","port":27035,"enabled":true,"region":"au","cc":"au","latitude":-33.865143,"longitude":151.2099,"reserved":0,"last_update":"0001-01-01T00:00:00Z","name_a2s":"Uncletopia | Sydney | 3 | All Maps","protocol":17,"map":"koth_viaduct","folder":"tf","game":"Team Fortress","app_id":440,"player_count":0,"max_players":24,"Bots":0,"server_type":"Dedicated","server_os":"Linux","password":true,"vac":true,"version":"7757534","steam_id":85568392925194467,"keywords":["cp","nocrits","nodmgspread","uncletopia"],"game_id":440,"stv_port":27036,"stv_name":"Uncletopia | Sydney | 3 | All Maps | STV","players":null},{"server_id":396,"name":"Uncletopia | Sydney | 4 | All Maps","name_short":"syd-4","host":"syd-1.au.uncletopia.com","port":27045,"enabled":true,"region":"au","cc":"au","latitude":-33.865143,"longitude":151.2099,"reserved":0,"last_update":"0001-01-01T00:00:00Z","name_a2s":"Uncletopia | Sydney | 4 | All Maps","protocol":17,"map":"pl_upward","folder":"tf","game":"Team Fortress","app_id":440,"player_count":0,"max_players":24,"Bots":0,"server_type":"Dedicated","server_os":"Linux","password":true,"vac":true,"version":"7757534","steam_id":85568392925397958,"keywords":["nocrits","nodmgspread","payload","uncletopia"],"game_id":440,"stv_port":27046,"stv_name":"Uncletopia | Sydney | 4 | All Maps | STV","players":null},{"server_id":58,"name":"Uncletopia | Sydney | 5 | Stopwatch Beta","name_short":"syd-5","host":"syd-1.au.uncletopia.com","port":27055,"enabled":true,"region":"au","cc":"au","latitude":-33.865143,"longitude":151.2099,"reserved":0,"last_update":"0001-01-01T00:00:00Z","name_a2s":"Uncletopia | Sydney | 5 | Stopwatch Beta","protocol":17,"map":"pl_barnblitz","folder":"tf","game":"Team Fortress","app_id":440,"player_count":0,"max_players":24,"Bots":0,"server_type":"Dedicated","server_os":"Linux","password":true,"vac":true,"version":"7757534","steam_id":85568392925397959,"keywords":["nocrits","nodmgspread","payload","uncletopia"],"game_id":440,"stv_port":27056,"stv_name":"Uncletopia | Sydney | 5 | Stopwatch Beta | STV","players":null},{"server_id":59,"name":"Uncletopia | Sydney | 6 | Community","name_short":"syd-6","host":"syd-1.au.uncletopia.com","port":27065,"enabled":true,"region":"au","cc":"au","latitude":-33.865143,"longitude":151.2099,"reserved":0,"last_update":"0001-01-01T00:00:00Z","name_a2s":"Uncletopia | Sydney | 6 | Community","protocol":17,"map":"cp_mountainlab","folder":"tf","game":"Team Fortress","app_id":440,"player_count":0,"max_players":24,"Bots":0,"server_type":"Dedicated","server_os":"Linux","password":true,"vac":true,"version":"7757534","steam_id":85568392925397960,"keywords":["cp","nocrits","nodmgspread","uncletopia"],"game_id":440,"stv_port":27066,"stv_name":"Uncletopia | Sydney | 6 | Community | STV","players":null},{"server_id":49,"name":"Uncletopia | Warsaw | 1 | All Maps","name_short":"waw-1","host":"waw-1.pl.uncletopia.com","port":27015,"enabled":true,"region":"eu","cc":"pl","latitude":52.2297,"longitude":21.017532,"reserved":0,"last_update":"0001-01-01T00:00:00Z","name_a2s":"","protocol":0,"map":"","folder":"","game":"","app_id":0,"player_count":0,"max_players":0,"Bots":0,"server_type":"","server_os":"","password":false,"vac":false,"version":"","steam_id":0,"keywords":null,"game_id":0,"stv_port":0,"stv_name":"","players":null},{"server_id":50,"name":"Uncletopia | Warsaw | 2 | All Maps","name_short":"waw-2","host":"waw-1.pl.uncletopia.com","port":27025,"enabled":true,"region":"eu","cc":"pl","latitude":52.2297,"longitude":21.017532,"reserved":0,"last_update":"0001-01-01T00:00:00Z","name_a2s":"Uncletopia | Warsaw | 2 | All Maps","protocol":17,"map":"pl_frontier_final","folder":"tf","game":"Team Fortress","app_id":440,"player_count":0,"max_players":24,"Bots":0,"server_type":"Dedicated","server_os":"Linux","password":true,"vac":true,"version":"7757534","steam_id":85568392925397851,"keywords":["nocrits","nodmgspread","payload","uncletopia"],"game_id":440,"stv_port":27026,"stv_name":"Uncletopia | Warsaw | 2 | All Maps | STV","players":null},{"server_id":51,"name":"Uncletopia | Warsaw | 3 | All Maps","name_short":"waw-3","host":"waw-1.pl.uncletopia.com","port":27035,"enabled":true,"region":"eu","cc":"pl","latitude":52.2297,"longitude":21.017532,"reserved":0,"last_update":"0001-01-01T00:00:00Z","name_a2s":"Uncletopia | Warsaw | 3 | All Maps","protocol":17,"map":"cp_process_final","folder":"tf","game":"Team Fortress","app_id":440,"player_count":0,"max_players":24,"Bots":0,"server_type":"Dedicated","server_os":"Linux","password":true,"vac":true,"version":"7757534","steam_id":85568392925397852,"keywords":["cp","nocrits","nodmgspread","uncletopia"],"game_id":440,"stv_port":27036,"stv_name":"Uncletopia | Warsaw | 3 | All Maps | STV","players":null},{"server_id":52,"name":"Uncletopia | Warsaw | 4 | All Maps","name_short":"waw-4","host":"waw-1.pl.uncletopia.com","port":27045,"enabled":true,"region":"eu","cc":"pl","latitude":52.2297,"longitude":21.017532,"reserved":0,"last_update":"0001-01-01T00:00:00Z","name_a2s":"Uncletopia | Warsaw | 4 | All Maps","protocol":17,"map":"koth_cascade","folder":"tf","game":"Team Fortress","app_id":440,"player_count":0,"max_players":24,"Bots":0,"server_type":"Dedicated","server_os":"Linux","password":true,"vac":true,"version":"7757534","steam_id":85568392925397853,"keywords":["cp","nocrits","nodmgspread","uncletopia"],"game_id":440,"stv_port":27046,"stv_name":"Uncletopia | Warsaw | 4 | All Maps | STV","players":null},{"server_id":53,"name":"Uncletopia | Warsaw | 5 | Stopwatch Beta","name_short":"waw-5","host":"waw-1.pl.uncletopia.com","port":27055,"enabled":true,"region":"eu","cc":"pl","latitude":52.2297,"longitude":21.017532,"reserved":0,"last_update":"0001-01-01T00:00:00Z","name_a2s":"Uncletopia | Warsaw | 5 | Stopwatch Beta","protocol":17,"map":"workshop/koth_ashville_final.ugc2130459942","folder":"tf","game":"Team Fortress","app_id":440,"player_count":0,"max_players":24,"Bots":0,"server_type":"Dedicated","server_os":"Linux","password":true,"vac":true,"version":"7757534","steam_id":85568392925397854,"keywords":["cp","nocrits","nodmgspread","uncletopia"],"game_id":440,"stv_port":27056,"stv_name":"Uncletopia | Warsaw | 5 | Stopwatch Beta | STV","players":null},{"server_id":54,"name":"Uncletopia | Warsaw | 6 | Community","name_short":"waw-6","host":"waw-1.pl.uncletopia.com","port":27065,"enabled":true,"region":"eu","cc":"pl","latitude":52.2297,"longitude":21.017532,"reserved":0,"last_update":"0001-01-01T00:00:00Z","name_a2s":"Uncletopia | Warsaw | 6 | Community","protocol":17,"map":"workshop/pl_barnblitz_pro7.ugc582280235","folder":"tf","game":"Team Fortress","app_id":440,"player_count":0,"max_players":24,"Bots":0,"server_type":"Dedicated","server_os":"Linux","password":true,"vac":true,"version":"7757534","steam_id":85568392925397856,"keywords":["nocrits","nodmgspread","payload","uncletopia"],"game_id":440,"stv_port":27066,"stv_name":"Uncletopia | Warsaw | 6 | Community | STV","players":null}]}