{"status":true,"message":"","result":[{"server_id":9,"name":"Uncletopia | Atlanta | 1 | All Maps","name_short":"atl-1","host":"atl-1.us.uncletopia.com","port":27015,"enabled":true,"region":"us-east","cc":"us","latitude":33.753746,"longitude":-84.38633,"reserved":0,"last_update":"0001-01-01T00:00:00Z","name_a2s":"Uncletopia | Atlanta | 1 | All Maps","protocol":17,"map":"cp_dustbowl","folder":"tf","game":"Team Fortress","app_id":440,"player_count":0,"max_players":24,"Bots":0,"server_type":"Dedicated","server_os":"Linux","password":true,"vac":true,"version":"7757534","steam_id":85568392924469982,"keywords":["cp","nocrits","nodmgspread","uncletopia"],"game_id":440,"stv_port":27016,"stv_name":"Uncletopia | Atlanta | 1 | All Maps | STV","players":null},{"server_id":400,"name":"Uncletopia | Atlanta | 3 | Stopwatch Beta","name_short":"atl-3","host":"atl-1.us.uncletopia.com","port":27035,"enabled":true,"region":"us-east","cc":"us","latitude":33.753746,"longitude":-84.38633,"reserved":0,"last_update":"0001-01-01T00:00:00Z","name_a2s":"Uncletopia | Atlanta | 3 | Stopwatch Beta","protocol":17,"map":"pl_upward","folder":"tf","game":"Team Fortress","app_id":440,"player_count":0,"max_players":24,"Bots":0,"server_type":"Dedicated","server_os":"Linux","password":true,"vac":true,"version":"7757534","steam_id":85568392924515187,"keywords":["nocrits","nodmgspread","payload","uncletopia"],"game_id":440,"stv_port":27036,"stv_name":"Uncletopia | Atlanta | 3 | Stopwatch Beta | STV","players":null},{"server_id":401,"name":"Uncletopia | Atlanta | 4 | No Payload","name_short":"atl-4","host":"atl-1.us.uncletopia.com","port":27045,"enabled":true,"region":"us-east","cc":"us","latitude":33.753746,"longitude":-84.38633,"reserved":0,"last_update":"0001-01-01T00:00:00Z","name_a2s":"Uncletopia | Atlanta | 4 | No Payload","protocol":17,"map":"pl_pier","folder":"tf","game":"Team Fortress","app_id":440,"player_count":0,"max_players":24,"Bots":0,"server_type":"Dedicated","server_os":"Linux","password":true,"vac":true,"version":"7723704","steam_id":85568392924515188,"keywords":["nocrits","nodmgspread","payload","uncletopia"],"game_id":440,"stv_port":27046,"stv_name":"Uncletopia | Atlanta | 4 | No Payload | STV","players":null},{"server_id":2,"name":"Uncletopia | Chicago | 1 | All Maps","name_short":"chi-1","host":"chi-1.us.uncletopia.com","port":27015,"enabled":true,"region":"us-central","cc":"us","latitude":41.881832,"longitude":-87.62318,"reserved":0,"last_update":"0001-01-01T00:00:00Z","name_a2s":"Uncletopia | Chicago | 1 | All Maps","protocol":17,"map":"pl_frontier_final","folder":"tf","game":"Team Fortress","app_id":440,"player_count":24,"max_players":24,"Bots":0,"server_type":"Dedicated","server_os":"Linux","password":true,"vac":true,"version":"7757534","steam_id":85568392924469984,"keywords":["nocrits","nodmgspread","payload","uncletopia"],"game_id":440,"stv_port":27016,"stv_name":"Uncletopia | Chicago | 1 | All Maps | STV","players":[{"user_id":544,"name":"JakeRTurbo","steam_id":76561198327532181,"connected_time":2003000000000,"state":"active","ping":66},{"user_id":517,"name":"burial","steam_id":76561198069431694,"connected_time":3457000000000,"state":"active","ping":99},{"user_id":526,"name":"Rinbyul","steam_id":76561198049361675,"connected_time":3087000000000,"state":"active","ping":69},{"user_id":553,"name":"Night of the Living Boobs™","steam_id":76561198086447265,"connected_time":1129000000000,"state":"active","ping":111},{"user_id":505,"name":"twitter vibrator advertisement","steam_id":76561198081220016,"connected_time":3950000000000,"state":"active","ping":51},{"user_id":555,"name":"Oak","steam_id":76561198127309023,"connected_time":938000000000,"state":"active","ping":88},{"user_id":556,"name":"MEDIC!","steam_id":76561198149344029,"connected_time":865000000000,"state":"active","ping":76},{"user_id":562,"name":"Saldaña","steam_id":76561198214473001,"connected_time":600000000000,"state":"active","ping":86},{"user_id":543,"name":"Mostro","steam_id":76561199121981748,"connected_time":2044000000000,"state":"active","ping":162},{"user_id":542,"name":"i will salt your canker sores","steam_id":76561198067994868,"connected_time":2173000000000,"state":"active","ping":69},{"user_id":514,"name":"Kantamoe","steam_id":76561198046661611,"connected_time":3501000000000,"state":"active","ping":83},{"user_id":552,"name":"Jimmy Two-Times","steam_id":76561198013308693,"connected_time":1404000000000,"state":"active","ping":60},{"user_id":557,"name":"CheeseCake488","steam_id":76561199407617942,"connected_time":850000000000,"state":"active","ping":142},{"user_id":561,"name":"græy","steam_id":76561198024987293,"connected_time":745000000000,"state":"active","ping":145},{"user_id":523,"name":"Tommy Pickles (Very Cool)","steam_id":76561198391261463,"connected_time":3285000000000,"state":"active","ping":72},{"user_id":546,"name":"catgirl","steam_id":76561199057269867,"connected_time":1881000000000,"state":"active","ping":128},{"user_id":554,"name":"Salium","steam_id":76561197961546093,"connected_time":1031000000000,"state":"active","ping":104},{"user_id":559,"name":"cAssBlaster","steam_id":76561198138488101,"connected_time":821000000000,"state":"active","ping":69},{"user_id":547,"name":"Faraday","steam_id":76561198089928357,"connected_time":1880000000000,"state":"active","ping":65},{"user_id":536,"name":"scrapheap","steam_id":76561198202407087,"connected_time":2664000000000,"state":"active","ping":71},{"user_id":560,"name":"Mothership","steam_id":76561198044029501,"connected_time":812000000000,"state":"active","ping":150},{"user_id":538,"name":"PapaCody","steam_id":76561197999150445,"connected_time":2452000000000,"state":"active","ping":75},{"user_id":563,"name":"Kartyac","steam_id":76561197991069005,"connected_time":260000000000,"state":"active","ping":82},{"user_id":540,"name":"lokiroyce","steam_id":76561198087647251,"connected_time":2424000000000,"state":"active","ping":48}]},{"server_id":106,"name":"Uncletopia | Chicago | 2 | All Maps","name_short":"chi-2","host":"chi-1.us.uncletopia.com","port":27025,"enabled":true,"region":"us-central","cc":"us","latitude":41.881832,"longitude":-87.62318,"reserved":0,"last_update":"0001-01-01T00:00:00Z","name_a2s":"Uncletopia | Chicago | 2 | All Maps","protocol":17,"map":"koth_cascade","folder":"tf","game":"Team Fortress","app_id":440,"player_count":0,"max_players":24,"Bots":0,"server_type":"Dedicated","server_os":"Linux","password":true,"vac":true,"version":"7757534","steam_id":85568392924469985,"keywords":["cp","nocrits","nodmgspread","uncletopia"],"game_id":440,"stv_port":27026,"stv_name":"Uncletopia | Chicago | 2 | All Maps | STV","players":null},{"server_id":402,"name":"Uncletopia | Chicago | 3 | All Maps","name_short":"chi-3","host":"chi-1.us.uncletopia.com","port":27035,"enabled":true,"region":"us-central","cc":"us","latitude":41.881832,"longitude":-87.62318,"reserved":0,"last_update":"0001-01-01T00:00:00Z","name_a2s":"Uncletopia | Chicago | 3 | All Maps","protocol":17,"map":"koth_highpass","folder":"tf","game":"Team Fortress","app_id":440,"player_count":0,"max_players":24,"Bots":0,"server_type":"Dedicated","server_os":"Linux","password":true,"vac":true,"version":"7757534","steam_id":85568392924515191,"keywords":["cp","nocrits","nodmgspread","uncletopia"],"game_id":440,"stv_port":27036,"stv_name":"Uncletopia | Chicago | 3 | All Maps | STV","players":null},{"server_id":403,"name":"Uncletopia | Chicago | 4 | All Maps","name_short":"chi-4","host":"chi-1.us.uncletopia.com","port":27045,"enabled":true,"region":"us-central","cc":"us","latitude":41.881832,"longitude":-87.62318,"reserved":0,"last_update":"0001-01-01T00:00:00Z","name_a2s":"Uncletopia | Chicago | 4 | All Maps","protocol":17,"map":"koth_highpass","folder":"tf","game":"Team Fortress","app_id":440,"player_count":0,"max_players":24,"Bots":0,"server_type":"Dedicated","server_os":"Linux","password":true,"vac":true,"version":"7757534","steam_id":85568392924515193,"keywords":["cp","nocrits","nodmgspread","uncletopia"],"game_id":440,"stv_port":27046,"stv_name":"Uncletopia | Chicago | 4 | All Maps | STV","players":null},{"server_id":36,"name":"Uncletopia | Chicago | 5 | All Maps","name_short":"chi-5","host":"chi-2.us.uncletopia.com","port":27015,"enabled":true,"region":"us-central","cc":"us","latitude":41.881832,"longitude":-87.62318,"reserved":0,"last_update":"0001-01-01T00:00:00Z","name_a2s":"Uncletopia | Chicago | 5 | All Maps","protocol":17,"map":"pl_snowycoast","folder":"tf","game":"Team Fortress","app_id":440,"player_count":0,"max_players":24,"Bots":0,"server_type":"Dedicated","server_os":"Linux","password":true,"vac":true,"version":"7757534","steam_id":85568392924866362,"keywords":["nocrits","nodmgspread","payload","uncletopia"],"game_id":440,"stv_port":27016,"stv_name":"Uncletopia | Chicago | 5 | All Maps | STV","players":null},{"server_id":37,"name":"Uncletopia | Chicago | 6 | All Maps","name_short":"chi-6","host":"chi-2.us.uncletopia.com","port":27025,"enabled":true,"region":"us-central","cc":"us","latitude":41.881832,"longitude":-87.62318,"reserved":0,"last_update":"0001-01-01T00:00:00Z","name_a2s":"Uncletopia | Chicago | 6 | All Maps","protocol":17,"map":"koth_viaduct","folder":"tf","game":"Team Fortress","app_id":440,"player_count":0,"max_players":24,"Bots":0,"server_type":"Dedicated","server_os":"Linux","password":true,"vac":true,"version":"7757534","steam_id":85568392924866363,"keywords":["cp","nocrits","nodmgspread","uncletopia"],"game_id":440,"stv_port":27026,"stv_name":"Uncletopia | Chicago | 6 | All Maps | STV","players":null},{"server_id":38,"name":"Uncletopia | Chicago | 7 | Stopwatch Beta","name_short":"chi-7","host":"chi-2.us.uncletopia.com","port":27035,"enabled":true,"region":"us-central","cc":"us","latitude":41.881832,"longitude":-87.62318,"reserved":0,"last_update":"0001-01-01T00:00:00Z","name_a2s":"Uncletopia | Chicago | 7 | Stopwatch Beta","protocol":17,"map":"workshop/pl_badwater_pro_v12.ugc2142942074","folder":"tf","game":"Team Fortress","app_id":440,"player_count":0,"max_players":24,"Bots":0,"server_type":"Dedicated","server_os":"Linux","password":true,"vac":true,"version":"7757534","steam_id":85568392924866364,"keywords":["nocrits","nodmgspread","payload","uncletopia"],"game_id":440,"stv_port":27036,"stv_name":"Uncletopia | Chicago | 7 | Stopwatch Beta | STV","players":null},{"server_id":39,"name":"Uncletopia | Chicago | 8 | Community","name_short":"chi-8","host":"chi-2.us.uncletopia.com","port":27045,"enabled":true,"region":"us-central","cc":"us","latitude":41.881832,"longitude":-87.62318,"reserved":0,"last_update":"0001-01-01T00:00:00Z","name_a2s":"Uncletopia | Chicago | 8 | Community","protocol":17,"map":"workshop/koth_ramjam_rc1.ugc459778887","folder":"tf","game":"Team Fortress","app_id":440,"player_count":0,"max_players":24,"Bots":0,"server_type":"Dedicated","server_os":"Linux","password":true,"vac":true,"version":"7757534","steam_id":85568392924866365,"keywords":["cp","nocrits","nodmgspread","uncletopia"],"game_id":440,"stv_port":27046,"stv_name":"Uncletopia | Chicago | 8 | Community | STV","players":null},{"server_id":8,"name":"Uncletopia | Dallas | 1 | All Maps","name_short":"dal-1","host":"dal-1.us.uncletopia.com","port":27015,"enabled":true,"region":"us-central","cc":"us","latitude":32.779167,"longitude":-96.80889,"reserved":0,"last_update":"0001-01-01T00:00:00Z","name_a2s":"Uncletopia | Dallas | 1 | All Maps","protocol":17,"map":"cp_snakewater_final1","folder":"tf","game":"Team Fortress","app_id":440,"player_count":0,"max_players":24,"Bots":0,"server_type":"Dedicated","server_os":"Linux","password":true,"vac":true,"version":"7757534","steam_id":85568392924469986,"keywords":["cp","nocrits","nodmgspread","uncletopia"],"game_id":440,"stv_port":27016,"stv_name":"Uncletopia | Dallas | 1 | All Maps | STV","players":null},{"server_id":108,"name":"Uncletopia | Dallas | 2 | All Maps","name_short":"dal-2","host":"dal-1.us.uncletopia.com","port":27025,"enabled":true,"region":"us-central","cc":"us","latitude":32.779167,"longitude":-96.80889,"reserved":0,"last_update":"0001-01-01T00:00:00Z","name_a2s":"Uncletopia | Dallas | 2 | All Maps","protocol":17,"map":"cp_sunshine","folder":"tf","game":"Team Fortress","app_id":440,"player_count":0,"max_players":24,"Bots":0,"server_type":"Dedicated","server_os":"Linux","password":true,"vac":true,"version":"7757534","steam_id":85568392924469988,"keywords":["cp","nocrits","nodmgspread","uncletopia"],"game_id":440,"stv_port":27026,"stv_name":"Uncletopia | Dallas | 2 | All Maps | STV","players":null},{"server_id":5,"name":"Uncletopia | Frankfurt | 1 | All Maps","name_short":"frk-1","host":"frk-1.de.uncletopia.com","port":27015,"enabled":true,"region":"eu","cc":"de","latitude":50.110924,"longitude":8.682127,"reserved":0,"last_update":"0001-01-01T00:00:00Z","name_a2s":"Uncletopia | Frankfurt | 1 | All Maps","protocol":17,"map":"pl_goldrush","folder":"tf","game":"Team Fortress","app_id":440,"player_count":24,"max_players":24,"Bots":0,"server_type":"Dedicated","server_os":"Linux","password":true,"vac":true,"version":"7757534","steam_id":85568392924469989,"keywords":["nocrits","nodmgspread","payload","uncletopia"],"game_id":440,"stv_port":27016,"stv_name":"Uncletopia | Frankfurt | 1 | All Maps | STV","players":[{"user_id":87,"name":"2004 Kanye","steam_id":76561198189000841,"connected_time":1123000000000,"state":"active","ping":89},{"user_id":96,"name":"Čamuga⚜","steam_id":76561198324252599,"connected_time":836000000000,"state":"active","ping":75},{"user_id":95,"name":"иван","steam_id":76561198072730591,"connected_time":840000000000,"state":"active","ping":60},{"user_id":112,"name":"Buenos Días!","steam_id":76561198417999443,"connected_time":103000000000,"state":"active","ping":92},{"user_id":113,"name":"zaleek69","steam_id":76561198058877595,"connected_time":94000000000,"state":"active","ping":64},{"user_id":107,"name":"xulera","steam_id":76561198080736030,"connected_time":218000000000,"state":"active","ping":69},{"user_id":93,"name":"Sunvaar","steam_id":76561198871313459,"connected_time":987000000000,"state":"active","ping":81},{"user_id":45,"name":"suna militisto","steam_id":76561198352926998,"connected_time":4123000000000,"state":"active","ping":90},{"user_id":109,"name":"CrAzY BG","steam_id":76561199134636724,"connected_time":128000000000,"state":"active","ping":60},{"user_id":85,"name":"Evilton","steam_id":76561198844263922,"connected_time":1150000000000,"state":"active","ping":79},{"user_id":110,"name":"futu","steam_id":76561199246725367,"connected_time":116000000000,"state":"active","ping":116},{"user_id":106,"name":"The Ghost of Rizz-mas Past","steam_id":76561198119547399,"connected_time":416000000000,"state":"active","ping":51},{"user_id":73,"name":"rock","steam_id":76561198093488870,"connected_time":2293000000000,"state":"active","ping":64},{"user_id":77,"name":"Dmitry Kerman","steam_id":76561198300020540,"connected_time":1736000000000,"state":"active","ping":105},{"user_id":114,"name":"SantiThePug #ReviveTheCaber","steam_id":76561199049615996,"connected_time":52000000000,"state":"active","ping":70},{"user_id":108,"name":"FIR0NIX","steam_id":76561198962349048,"connected_time":185000000000,"state":"active","ping":69},{"user_id":52,"name":"Poppy Stingray","steam_id":76561198049673783,"connected_time":3401000000000,"state":"active","ping":74},{"user_id":88,"name":"Jedi Knight","steam_id":76561198039030709,"connected_time":1072000000000,"state":"active","ping":52},{"user_id":104,"name":"Beef","steam_id":76561198026790289,"connected_time":497000000000,"state":"active","ping":69},{"user_id":33,"name":"ambatukam","steam_id":76561198175433731,"connected_time":5133000000000,"state":"active","ping":81},{"user_id":101,"name":"TylowStar","steam_id":76561198357107806,"connected_time":800000000000,"state":"active","ping":63},{"user_id":116,"name":"Speedwagon","steam_id":76561198387667243,"connected_time":3000000000,"state":"spawning","ping":117},{"user_id":117,"name":"♫★Xriasp★♫","steam_id":76561198104721321,"connected_time":0,"state":"spawning","ping":49},{"user_id":92,"name":"cockwater","steam_id":76561198209101861,"connected_time":1007000000000,"state":"active","ping":73}]},{"server_id":110,"name":"Uncletopia | Frankfurt | 2 | All Maps","name_short":"frk-2","host":"frk-1.de.uncletopia.com","port":27025,"enabled":true,"region":"eu","cc":"de","latitude":50.110924,"longitude":8.682127,"reserved":0,"last_update":"0001-01-01T00:00:00Z","name_a2s":"Uncletopia | Frankfurt | 2 | All Maps","protocol":17,"map":"pl_borneo","folder":"tf","game":"Team Fortress","app_id":440,"player_count":24,"max_players":24,"Bots":0,"server_type":"Dedicated","server_os":"Linux","password":true,"vac":true,"version":"7757534","steam_id":85568392924469990,"keywords":["nocrits","nodmgspread","payload","uncletopia"],"game_id":440,"stv_port":27026,"stv_name":"Uncletopia | Frankfurt | 2 | All Maps | STV","players":[{"user_id":59,"name":"Youtube MaxtaZ","steam_id":76561198108211926,"connected_time":174000000000,"state":"active","ping":128},{"user_id":54,"name":"Noodle","steam_id":76561197997208006,"connected_time":524000000000,"state":"active","ping":48},{"user_id":12,"name":"Bilaterial Newt","steam_id":76561198074655679,"connected_time":2904000000000,"state":"active","ping":75},{"user_id":21,"name":"Joro_Kudo","steam_id":76561198954912403,"connected_time":2387000000000,"state":"active","ping":68},{"user_id":64,"name":"2D","steam_id":76561199113659141,"connected_time":51000000000,"state":"active","ping":129},{"user_id":40,"name":"catboy trickster","steam_id":76561198075665211,"connected_time":1766000000000,"state":"active","ping":33},{"user_id":25,"name":"banyesz","steam_id":76561198152997658,"connected_time":2213000000000,"state":"active","ping":77},{"user_id":24,"name":"Poland final boss","steam_id":76561198340344220,"connected_time":2259000000000,"state":"active","ping":65},{"user_id":57,"name":"Banana","steam_id":76561198155118706,"connected_time":409000000000,"state":"active","ping":96},{"user_id":47,"name":"JorapAt","steam_id":76561199244749887,"connected_time":1505000000000,"state":"active","ping":103},{"user_id":22,"name":"Sakura","steam_id":76561198892631275,"connected_time":2325000000000,"state":"active","ping":37},{"user_id":58,"name":"tm","steam_id":76561198256619964,"connected_time":232000000000,"state":"active","ping":74},{"user_id":26,"name":"MK-Ultra Violence","steam_id":76561198081328238,"connected_time":2193000000000,"state":"active","ping":72},{"user_id":27,"name":"CosminSL","steam_id":76561198055827684,"connected_time":2192000000000,"state":"active","ping":65},{"user_id":46,"name":"joe fishington","steam_id":76561198261250961,"connected_time":1509000000000,"state":"active","ping":94},{"user_id":45,"name":"RII","steam_id":76561198350826913,"connected_time":1523000000000,"state":"active","ping":68},{"user_id":30,"name":"marcus","steam_id":76561198053429589,"connected_time":2178000000000,"state":"active","ping":62},{"user_id":31,"name":"dmdr1969","steam_id":76561198080469611,"connected_time":2146000000000,"state":"active","ping":158},{"user_id":32,"name":"bmbmbm","steam_id":76561199064350902,"connected_time":2125000000000,"state":"active","ping":104},{"user_id":60,"name":"Ale1199","steam_id":76561198994871986,"connected_time":171000000000,"state":"active","ping":77},{"user_id":48,"name":"Pastoss","steam_id":76561198379098260,"connected_time":1497000000000,"state":"active","ping":60},{"user_id":65,"name":"Hey, I´m Andy!","steam_id":76561198060337777,"connected_time":18000000000,"state":"spawning","ping":47},{"user_id":37,"name":"Españaa","steam_id":76561198879587832,"connected_time":2046000000000,"state":"active","ping":88},{"user_id":63,"name":"SKÚTER","steam_id":76561199262157623,"connected_time":91000000000,"state":"active","ping":66}]},{"server_id":308,"name":"Uncletopia | Frankfurt | 3 | All Maps","name_short":"frk-3","host":"frk-1.de.uncletopia.com","port":27035,"enabled":true,"region":"eu","cc":"de","latitude":50.110924,"longitude":8.682127,"reserved":0,"last_update":"0001-01-01T00:00:00Z","name_a2s":"Uncletopia | Frankfurt | 3 | All Maps","protocol":17,"map":"cp_snakewater_final1","folder":"tf","game":"Team Fortress","app_id":440,"player_count":0,"max_players":24,"Bots":0,"server_type":"Dedicated","server_os":"Linux","password":true,"vac":true,"version":"7757534","steam_id":85568392924504274,"keywords":["cp","nocrits","nodmgspread","uncletopia"],"game_id":440,"stv_port":27036,"stv_name":"Uncletopia | Frankfurt | 3 | All Maps | STV","players":null},{"server_id":309,"name":"Uncletopia | Frankfurt | 4 | All Maps","name_short":"frk-4","host":"frk-1.de.uncletopia.com","port":27045,"enabled":true,"region":"eu","cc":"de","latitude":50.110924,"longitude":8.682127,"reserved":0,"last_update":"0001-01-01T00:00:00Z","name_a2s":"Uncletopia | Frankfurt | 4 | All Maps","protocol":17,"map":"pl_swiftwater_final1","folder":"tf","game":"Team Fortress","app_id":440,"player_count":23,"max_players":24,"Bots":0,"server_type":"Dedicated","server_os":"Linux","password":true,"vac":true,"version":"7757534","steam_id":85568392924504275,"keywords":["nocrits","nodmgspread","payload","uncletopia"],"game_id":440,"stv_port":27046,"stv_name":"Uncletopia | Frankfurt | 4 | All Maps | STV","players":[{"user_id":109,"name":"Asgaard","steam_id":76561198026516905,"connected_time":1726000000000,"state":"active","ping":100},{"user_id":64,"name":"Krisszboss1","steam_id":76561198020464075,"connected_time":4045000000000,"state":"active","ping":87},{"user_id":86,"name":"maika","steam_id":76561198027172275,"connected_time":3163000000000,"state":"active","ping":61},{"user_id":85,"name":"hshs","steam_id":76561198314562513,"connected_time":3227000000000,"state":"active","ping":65},{"user_id":101,"name":"V","steam_id":76561198200704209,"connected_time":1944000000000,"state":"active","ping":95},{"user_id":65,"name":"soopeli","steam_id":76561198003350251,"connected_time":4023000000000,"state":"active","ping":62},{"user_id":113,"name":"dunduu","steam_id":76561198875240717,"connected_time":1159000000000,"state":"active","ping":61},{"user_id":121,"name":"Andy","steam_id":76561198136364381,"connected_time":560000000000,"state":"active","ping":88},{"user_id":71,"name":"Rambi","steam_id":76561199058078505,"connected_time":3754000000000,"state":"active","ping":154},{"user_id":98,"name":"Papa sniper","steam_id":76561198941117244,"connected_time":2327000000000,"state":"active","ping":101},{"user_id":90,"name":"grig_83","steam_id":76561198963325441,"connected_time":2869000000000,"state":"active","ping":98},{"user_id":111,"name":"Yassine","steam_id":76561198140565712,"connected_time":1636000000000,"state":"active","ping":58},{"user_id":114,"name":"Cobb Salads","steam_id":76561197971140507,"connected_time":1141000000000,"state":"active","ping":72},{"user_id":96,"name":"strahphic","steam_id":76561199279295106,"connected_time":2439000000000,"state":"active","ping":118},{"user_id":119,"name":"P-47 Thunderbolt","steam_id":76561198153197815,"connected_time":684000000000,"state":"active","ping":64},{"user_id":117,"name":"Welder","steam_id":76561198355300561,"connected_time":913000000000,"state":"active","ping":66},{"user_id":112,"name":"☢ Stalker ☢","steam_id":76561198147879113,"connected_time":1632000000000,"state":"active","ping":72},{"user_id":34,"name":"ZazyLou_","steam_id":76561198411134617,"connected_time":6131000000000,"state":"active","ping":60},{"user_id":122,"name":"cherry","steam_id":76561199006915718,"connected_time":545000000000,"state":"active","ping":72},{"user_id":125,"name":"BabyYodaIsMySoda","steam_id":76561198321846861,"connected_time":113000000000,"state":"active","ping":78},{"user_id":124,"name":"Vinhal Keller","steam_id":76561198145589528,"connected_time":328000000000,"state":"active","ping":37},{"user_id":50,"name":"rizzley bear","steam_id":76561198890409949,"connected_time":5557000000000,"state":"active","ping":102},{"user_id":82,"name":"dotdotdot","steam_id":76561198057628751,"connected_time":3468000000000,"state":"active","ping":59}]},{"server_id":310,"name":"Uncletopia | Frankfurt | 5 | All Maps","name_short":"frk-5","host":"frk-1.de.uncletopia.com","port":27055,"enabled":true,"region":"eu","cc":"de","latitude":50.110924,"longitude":8.682127,"reserved":0,"last_update":"0001-01-01T00:00:00Z","name_a2s":"Uncletopia | Frankfurt | 5 | All Maps","protocol":17,"map":"pl_badwater","folder":"tf","game":"Team Fortress","app_id":440,"player_count":0,"max_players":24,"Bots":0,"server_type":"Dedicated","server_os":"Linux","password":true,"vac":true,"version":"7757534","steam_id":85568392924504277,"keywords":["nocrits","nodmgspread","payload","uncletopia"],"game_id":440,"stv_port":27056,"stv_name":"Uncletopia | Frankfurt | 5 | All Maps | STV","players":null},{"server_id":311,"name":"Uncletopia | Frankfurt | 6 | All Maps","name_short":"frk-6","host":"frk-1.de.uncletopia.com","port":27065,"enabled":true,"region":"eu","cc":"de","latitude":50.110924,"longitude":8.682127,"reserved":0,"last_update":"0001-01-01T00:00:00Z","name_a2s":"Uncletopia | Frankfurt | 6 | All Maps","protocol":17,"map":"koth_highpass","folder":"tf","game":"Team Fortress","app_id":440,"player_count":0,"max_players":24,"Bots":0,"server_type":"Dedicated","server_os":"Linux","password":true,"vac":true,"version":"7757534","steam_id":85568392924504278,"keywords":["cp","nocrits","nodmgspread","uncletopia"],"game_id":440,"stv_port":27066,"stv_name":"Uncletopia | Frankfurt | 6 | All Maps | STV","players":null},{"server_id":23,"name":"Uncletopia | Frankfurt | 7 | Stopwatch Beta","name_short":"frk-7","host":"frk-1.de.uncletopia.com","port":27075,"enabled":true,"region":"eu","cc":"de","latitude":50.110924,"longitude":8.682127,"reserved":0,"last_update":"0001-01-01T00:00:00Z","name_a2s":"Uncletopia | Frankfurt | 7 | Stopwatch Beta","protocol":17,"map":"pl_borneo","folder":"tf","game":"Team Fortress","app_id":440,"player_count":0,"max_players":24,"Bots":0,"server_type":"Dedicated","server_os":"Linux","password":true,"vac":true,"version":"7757534","steam_id":85568392924742827,"keywords":["nocrits","nodmgspread","payload","uncletopia"],"game_id":440,"stv_port":27076,"stv_name":"Uncletopia | Frankfurt | 7 | Stopwatch Beta | STV","players":null},{"server_id":24,"name":"Uncletopia | Frankfurt | 8 | Community","name_short":"frk-8","host":"frk-1.de.uncletopia.com","port":27085,"enabled":true,"region":"eu","cc":"de","latitude":50.110924,"longitude":8.682127,"reserved":0,"last_update":"0001-01-01T00:00:00Z","name_a2s":"Uncletopia | Frankfurt | 8 | Community","protocol":17,"map":"koth_cascade","folder":"tf","game":"Team Fortress","app_id":440,"player_count":0,"max_players":24,"Bots":0,"server_type":"Dedicated","server_os":"Linux","password":true,"vac":true,"version":"7757534","steam_id":85568392924742828,"keywords":["cp","nocrits","nodmgspread","uncletopia"],"game_id":440,"stv_port":27086,"stv_name":"Uncletopia | Frankfurt | 8 | Community | STV","players":null},{"server_id":202,"name":"Uncletopia | Hong Kong | 1 | All Maps","name_short":"hgk-1","host":"hgk-1.hk.uncletopia.com","port":27015,"enabled":true,"region":"asia","cc":"hk","latitude":22.302711,"longitude":114.177216,"reserved":0,"last_update":"0001-01-01T00:00:00Z","name_a2s":"Uncletopia | Hong Kong | 1 | All Maps","protocol":17,"map":"cp_process_final","folder":"tf","game":"Team Fortress","app_id":440,"player_count":24,"max_players":24,"Bots":0,"server_type":"Dedicated","server_os":"Linux","password":true,"vac":true,"version":"7757534","steam_id":85568392924494504,"keywords":["cp","nocrits","nodmgspread","uncletopia"],"game_id":440,"stv_port":27016,"stv_name":"Uncletopia | Hong Kong | 1 | All Maps | STV","players":[{"user_id":259,"name":"TomCat","steam_id":76561198133744053,"connected_time":6566000000000,"state":"active","ping":113},{"user_id":310,"name":"Sex","steam_id":76561198871697359,"connected_time":2408000000000,"state":"active","ping":74},{"user_id":332,"name":"cellum95","steam_id":76561198172146871,"connected_time":339000000000,"state":"active","ping":82},{"user_id":314,"name":"Dominique Toretto","steam_id":76561197999553390,"connected_time":2239000000000,"state":"active","ping":75},{"user_id":324,"name":"turd","steam_id":76561199006212966,"connected_time":764000000000,"state":"active","ping":86},{"user_id":185,"name":"pardo","steam_id":76561198230213828,"connected_time":12951000000000,"state":"active","ping":61},{"user_id":275,"name":"About","steam_id":76561198198273477,"connected_time":4452000000000,"state":"active","ping":169},{"user_id":290,"name":"i'm hungry","steam_id":76561198339657566,"connected_time":3385000000000,"state":"active","ping":147},{"user_id":330,"name":"Corey","steam_id":76561198055202938,"connected_time":487000000000,"state":"active","ping":110},{"user_id":260,"name":"Bertengkar","steam_id":76561198213031155,"connected_time":6562000000000,"state":"active","ping":93},{"user_id":299,"name":"Du57Y","steam_id":76561198120973476,"connected_time":2993000000000,"state":"active","ping":87},{"user_id":334,"name":"ふわふわ毛布","steam_id":76561198088403016,"connected_time":312000000000,"state":"active","ping":101},{"user_id":325,"name":"derek.patriarca30","steam_id":76561199427230206,"connected_time":680000000000,"state":"active","ping":69},{"user_id":264,"name":"i like cheese","steam_id":76561198085893796,"connected_time":5767000000000,"state":"active","ping":99},{"user_id":331,"name":"Sai","steam_id":76561199069225036,"connected_time":486000000000,"state":"active","ping":51},{"user_id":266,"name":"spinach hero","steam_id":76561198042539541,"connected_time":5293000000000,"state":"active","ping":79},{"user_id":295,"name":"jerrybel","steam_id":76561198055553140,"connected_time":3167000000000,"state":"active","ping":75},{"user_id":337,"name":"moguizhong","steam_id":76561198152588681,"connected_time":9000000000,"state":"spawning","ping":95},{"user_id":257,"name":"qb","steam_id":76561198412329672,"connected_time":7223000000000,"state":"active","ping":89},{"user_id":294,"name":"Lu","steam_id":76561198320532821,"connected_time":3177000000000,"state":"active","ping":67},{"user_id":313,"name":"Mobslayer","steam_id":76561199068636639,"connected_time":2318000000000,"state":"active","ping":173},{"user_id":311,"name":"Diavolo Diablo","steam_id":76561198166295333,"connected_time":2406000000000,"state":"active","ping":79},{"user_id":315,"name":"Juju Shortbow","steam_id":76561198349807521,"connected_time":1896000000000,"state":"active","ping":91},{"user_id":321,"name":"niceguy6785","steam_id":76561199442589750,"connected_time":1154000000000,"state":"active","ping":57}]},{"server_id":1,"name":"Uncletopia | Los Angeles | 1 | All Maps","name_short":"lax-1","host":"lax-1.us.uncletopia.com","port":27015,"enabled":true,"region":"us-west","cc":"us","latitude":33.94279,"longitude":-118.41004,"reserved":0,"last_update":"0001-01-01T00:00:00Z","name_a2s":"Uncletopia | Los Angeles | 1 | All Maps","protocol":17,"map":"cp_snakewater_final1","folder":"tf","game":"Team Fortress","app_id":440,"player_count":0,"max_players":24,"Bots":0,"server_type":"Dedicated","server_os":"Linux","password":true,"vac":true,"version":"7757534","steam_id":85568392924469991,"keywords":["cp","nocrits","nodmgspread","uncletopia"],"game_id":440,"stv_port":27016,"stv_name":"Uncletopia | Los Angeles | 1 | All Maps | STV","players":null},{"server_id":112,"name":"Uncletopia | Los Angeles | 2 | All Maps","name_short":"lax-2","host":"lax-1.us.uncletopia.com","port":27025,"enabled":true,"region":"us-west","cc":"us","latitude":33.94279,"longitude":-118.41004,"reserved":0,"last_update":"0001-01-01T00:00:00Z","name_a2s":"Uncletopia | Los Angeles | 2 | All Maps","protocol":17,"map":"pl_pier","folder":"tf","game":"Team Fortress","app_id":440,"player_count":19,"max_players":24,"Bots":0,"server_type":"Dedicated","server_os":"Linux","password":true,"vac":true,"version":"7757534","steam_id":85568392924469992,"keywords":["nocrits","nodmgspread","payload","uncletopia"],"game_id":440,"stv_port":27026,"stv_name":"Uncletopia | Los Angeles | 2 | All Maps | STV","players":[{"user_id":459,"name":"defcon","steam_id":76561198100656328,"connected_time":370000000000,"state":"active","ping":112},{"user_id":345,"name":"Lemon of oog","steam_id":76561198861851551,"connected_time":10188000000000,"state":"active","ping":116},{"user_id":460,"name":"❤Graphite Muncher❤","steam_id":76561199200969139,"connected_time":354000000000,"state":"active","ping":134},{"user_id":461,"name":"HASH Yellow Mellow","steam_id":76561198089697360,"connected_time":239000000000,"state":"active","ping":71},{"user_id":445,"name":"space cadet","steam_id":76561198046847315,"connected_time":1455000000000,"state":"active","ping":55},{"user_id":394,"name":"Soap Man","steam_id":76561198000490235,"connected_time":6775000000000,"state":"active","ping":97},{"user_id":446,"name":"Xylemon","steam_id":76561197965297420,"connected_time":1426000000000,"state":"active","ping":75},{"user_id":458,"name":"GGeo","steam_id":76561198063318851,"connected_time":529000000000,"state":"active","ping":84},{"user_id":353,"name":"Malmart_Employee","steam_id":76561198320388704,"connected_time":9089000000000,"state":"active","ping":84},{"user_id":449,"name":"-TL- swarm","steam_id":76561198019435762,"connected_time":1086000000000,"state":"active","ping":53},{"user_id":428,"name":"banana101asdf","steam_id":76561198213367064,"connected_time":3603000000000,"state":"active","ping":82},{"user_id":462,"name":"ShuBee","steam_id":76561198039976216,"connected_time":139000000000,"state":"active","ping":55},{"user_id":430,"name":"GeneticTitan","steam_id":76561198842654995,"connected_time":3550000000000,"state":"active","ping":96},{"user_id":452,"name":"teh mummy","steam_id":76561198044123636,"connected_time":969000000000,"state":"active","ping":32},{"user_id":378,"name":"cringe","steam_id":76561198104086771,"connected_time":7258000000000,"state":"active","ping":46},{"user_id":453,"name":"milk #savetf2","steam_id":76561199054144269,"connected_time":960000000000,"state":"active","ping":124},{"user_id":444,"name":"Literally a Trans Woman","steam_id":76561198054639925,"connected_time":1580000000000,"state":"active","ping":104},{"user_id":443,"name":"whimmu","steam_id":76561198370839794,"connected_time":1795000000000,"state":"active","ping":130},{"user_id":455,"name":"bob1444","steam_id":76561198110258432,"connected_time":902000000000,"state":"active","ping":84}]},{"server_id":324,"name":"Uncletopia | Los Angeles | 3 | All Maps","name_short":"lax-3","host":"lax-1.us.uncletopia.com","port":27035,"enabled":true,"region":"us-west","cc":"us","latitude":33.94279,"longitude":-118.41004,"reserved":0,"last_update":"0001-01-01T00:00:00Z","name_a2s":"Uncletopia | Los Angeles | 3 | All Maps","protocol":17,"map":"koth_cascade","folder":"tf","game":"Team Fortress","app_id":440,"player_count":0,"max_players":24,"Bots":0,"server_type":"Dedicated","server_os":"Linux","password":true,"vac":true,"version":"7757534","steam_id":85568392924510198,"keywords":["cp","nocrits","nodmgspread","uncletopia"],"game_id":440,"stv_port":27036,"stv_name":"Uncletopia | Los Angeles | 3 | All Maps | STV","players":null},{"server_id":25,"name":"Uncletopia | Los Angeles | 4 | Stopwatch Beta","name_short":"lax-4","host":"lax-1.us.uncletopia.com","port":27045,"enabled":true,"region":"us-west","cc":"us","latitude":33.94279,"longitude":-118.41004,"reserved":0,"last_update":"0001-01-01T00:00:00Z","name_a2s":"Uncletopia | Los Angeles | 4 | Stopwatch Beta","protocol":17,"map":"koth_viaduct","folder":"tf","game":"Team Fortress","app_id":440,"player_count":0,"max_players":24,"Bots":0,"server_type":"Dedicated","server_os":"Linux","password":true,"vac":true,"version":"7757534","steam_id":85568392924510199,"keywords":["cp","nocrits","nodmgspread","uncletopia"],"game_id":440,"stv_port":27046,"stv_name":"Uncletopia | Los Angeles | 4 | Stopwatch Beta | STV","players":null},{"server_id":11,"name":"Uncletopia | London | 1 | All Maps","name_short":"lon-1","host":"lon-1.uk.uncletopia.com","port":27015,"enabled":true,"region":"eu","cc":"gb","latitude":51.509865,"longitude":-0.118092,"reserved":0,"last_update":"0001-01-01T00:00:00Z","name_a2s":"Uncletopia | London | 1 | All Maps","protocol":17,"map":"pl_upward","folder":"tf","game":"Team Fortress","app_id":440,"player_count":24,"max_players":24,"Bots":0,"server_type":"Dedicated","server_os":"Linux","password":true,"vac":true,"version":"7757534","steam_id":85568392924367362,"keywords":["nocrits","nodmgspread","payload","uncletopia"],"game_id":440,"stv_port":27016,"stv_name":"Uncletopia | London | 1 | All Maps | STV","players":[{"user_id":240,"name":"can you smell","steam_id":76561198133532980,"connected_time":4675000000000,"state":"active","ping":44},{"user_id":273,"name":"Milk","steam_id":76561198125876588,"connected_time":2156000000000,"state":"active","ping":37},{"user_id":274,"name":"ᴍɪʟᴋ Cryspoeth47","steam_id":76561198892776023,"connected_time":2130000000000,"state":"active","ping":130},{"user_id":295,"name":"Ged","steam_id":76561198079288943,"connected_time":821000000000,"state":"active","ping":139},{"user_id":281,"name":"Joy","steam_id":76561198155314925,"connected_time":1732000000000,"state":"active","ping":59},{"user_id":275,"name":"Zoran Snajper","steam_id":76561198312564061,"connected_time":2104000000000,"state":"active","ping":74},{"user_id":279,"name":"abigail","steam_id":76561198132932617,"connected_time":1875000000000,"state":"active","ping":61},{"user_id":252,"name":"cosmetical","steam_id":76561198444036574,"connected_time":3931000000000,"state":"active","ping":63},{"user_id":300,"name":"RiX","steam_id":76561197969053733,"connected_time":117000000000,"state":"active","ping":57},{"user_id":282,"name":"john fortress","steam_id":76561198202668788,"connected_time":1657000000000,"state":"active","ping":89},{"user_id":284,"name":"im in your wallas","steam_id":76561198971389390,"connected_time":1650000000000,"state":"active","ping":74},{"user_id":301,"name":"twin","steam_id":76561198055626638,"connected_time":74000000000,"state":"active","ping":140},{"user_id":251,"name":"Ivan the Terrible","steam_id":76561198139595241,"connected_time":4078000000000,"state":"active","ping":85},{"user_id":293,"name":"Lazulura","steam_id":76561198103569919,"connected_time":837000000000,"state":"active","ping":87},{"user_id":220,"name":"A-Sir","steam_id":76561197997910642,"connected_time":6775000000000,"state":"active","ping":59},{"user_id":242,"name":"AwterSix","steam_id":76561198042561678,"connected_time":4526000000000,"state":"active","ping":63},{"user_id":292,"name":"Munibe","steam_id":76561198107967904,"connected_time":1001000000000,"state":"active","ping":66},{"user_id":261,"name":"Mr.killer","steam_id":76561198290584189,"connected_time":3143000000000,"state":"active","ping":86},{"user_id":290,"name":"Sacreshiea","steam_id":76561198169853697,"connected_time":1270000000000,"state":"active","ping":68},{"user_id":299,"name":"IKARUS","steam_id":76561198850898422,"connected_time":390000000000,"state":"active","ping":71},{"user_id":280,"name":"Asfreild","steam_id":76561198055901120,"connected_time":1820000000000,"state":"active","ping":72},{"user_id":289,"name":"Saken","steam_id":76561198049075295,"connected_time":1347000000000,"state":"active","ping":68},{"user_id":294,"name":"Chikapu Xek #savetf2","steam_id":76561198428023493,"connected_time":836000000000,"state":"active","ping":82},{"user_id":270,"name":"Real (Real)","steam_id":76561198323425034,"connected_time":2602000000000,"state":"active","ping":72}]},{"server_id":114,"name":"Uncletopia | London | 2 | All Maps","name_short":"lon-2","host":"lon-1.uk.uncletopia.com","port":27025,"enabled":true,"region":"eu","cc":"gb","latitude":51.509865,"longitude":-0.118092,"reserved":0,"last_update":"0001-01-01T00:00:00Z","name_a2s":"Uncletopia | London | 2 | All Maps","protocol":17,"map":"pl_upward","folder":"tf","game":"Team Fortress","app_id":440,"player_count":24,"max_players":24,"Bots":0,"server_type":"Dedicated","server_os":"Linux","password":true,"vac":true,"version":"7757534","steam_id":85568392924470941,"keywords":["nocrits","nodmgspread","payload","uncletopia"],"game_id":440,"stv_port":27026,"stv_name":"Uncletopia | London | 2 | All Maps | STV","players":[{"user_id":119,"name":"the","steam_id":76561198059535856,"connected_time":1203000000000,"state":"active","ping":156},{"user_id":94,"name":"Cat Poop","steam_id":76561198149986505,"connected_time":3394000000000,"state":"active","ping":84},{"user_id":128,"name":"kpn","steam_id":76561198063512694,"connected_time":673000000000,"state":"active","ping":55},{"user_id":130,"name":"primordial soup enjoyer","steam_id":76561199163260578,"connected_time":380000000000,"state":"active","ping":73},{"user_id":120,"name":"JGV","steam_id":76561198094654971,"connected_time":1200000000000,"state":"active","ping":77},{"user_id":133,"name":"Femboy Gaming","steam_id":76561199230209215,"connected_time":117000000000,"state":"spawning","ping":68},{"user_id":131,"name":"DocTwoEight","steam_id":76561198153488940,"connected_time":350000000000,"state":"active","ping":74},{"user_id":127,"name":"Volcazar","steam_id":76561198072870631,"connected_time":768000000000,"state":"active","ping":75},{"user_id":122,"name":"Sweetcheesus","steam_id":76561198022299033,"connected_time":1186000000000,"state":"active","ping":54},{"user_id":117,"name":"MatesThePlayer","steam_id":76561198066156449,"connected_time":1211000000000,"state":"active","ping":63},{"user_id":93,"name":"Kvadrat","steam_id":76561198022834916,"connected_time":3548000000000,"state":"active","ping":126},{"user_id":69,"name":"wickEd_","steam_id":76561198048068999,"connected_time":5378000000000,"state":"active","ping":157},{"user_id":108,"name":"WiiSportKing","steam_id":76561198114139081,"connected_time":2649000000000,"state":"active","ping":48},{"user_id":40,"name":"The Wolf Leader","steam_id":76561198038007462,"connected_time":7412000000000,"state":"active","ping":78},{"user_id":123,"name":"ayu","steam_id":76561198871342329,"connected_time":1166000000000,"state":"active","ping":101},{"user_id":83,"name":"Jeg","steam_id":76561198405291408,"connected_time":4539000000000,"state":"active","ping":65},{"user_id":70,"name":"Memesus","steam_id":76561199362236174,"connected_time":5356000000000,"state":"active","ping":71},{"user_id":110,"name":".::[SerafeTTiN]::.","steam_id":76561198009471724,"connected_time":2530000000000,"state":"active","ping":92},{"user_id":125,"name":"isaku","steam_id":76561198092648865,"connected_time":985000000000,"state":"active","ping":75},{"user_id":106,"name":"Garden Freeman","steam_id":76561199073314677,"connected_time":3178000000000,"state":"active","ping":81},{"user_id":129,"name":"RoXeUr-KaMiKaZe","steam_id":76561197998204782,"connected_time":439000000000,"state":"active","ping":54},{"user_id":132,"name":"BalSock","steam_id":76561198165339392,"connected_time":342000000000,"state":"active","ping":87},{"user_id":118,"name":"ToniGAM3S","steam_id":76561198128605351,"connected_time":1208000000000,"state":"active","ping":71},{"user_id":114,"name":"Wuffington","steam_id":76561198033762881,"connected_time":1297000000000,"state":"active","ping":48}]},{"server_id":320,"name":"Uncletopia | London | 3 | All Maps","name_short":"lon-3","host":"lon-1.uk.uncletopia.com","port":27035,"enabled":true,"region":"eu","cc":"gb","latitude":51.509865,"longitude":-0.118092,"reserved":0,"last_update":"0001-01-01T00:00:00Z","name_a2s":"Uncletopia | London | 3 | All Maps","protocol":17,"map":"pl_badwater","folder":"tf","game":"Team Fortress","app_id":440,"player_count":19,"max_players":24,"Bots":0,"server_type":"Dedicated","server_os":"Linux","password":true,"vac":true,"version":"7757534","steam_id":85568392924510192,"keywords":["nocrits","nodmgspread","payload","uncletopia"],"game_id":440,"stv_port":27036,"stv_name":"Uncletopia | London | 3 | All Maps | STV","players":[{"user_id":18,"name":"Slazaa","steam_id":76561197993252446,"connected_time":828000000000,"state":"active","ping":46},{"user_id":5,"name":"Artock","steam_id":76561198808599713,"connected_time":1284000000000,"state":"active","ping":101},{"user_id":12,"name":"peter gaming","steam_id":76561198984102084,"connected_time":879000000000,"state":"active","ping":120},{"user_id":15,"name":"CanineCaribou52","steam_id":76561198869623946,"connected_time":859000000000,"state":"active","ping":61},{"user_id":22,"name":"Ted Kaczynski","steam_id":76561198064795519,"connected_time":645000000000,"state":"active","ping":61},{"user_id":9,"name":"Karate Joe","steam_id":76561198412017408,"connected_time":1164000000000,"state":"active","ping":114},{"user_id":28,"name":"avewszystkim","steam_id":76561199382492530,"connected_time":573000000000,"state":"active","ping":75},{"user_id":43,"name":"baijro","steam_id":76561198061001376,"connected_time":84000000000,"state":"active","ping":75},{"user_id":21,"name":"BêteChien","steam_id":76561198405559437,"connected_time":673000000000,"state":"active","ping":76},{"user_id":23,"name":"Pls.do.it!","steam_id":76561198211638119,"connected_time":639000000000,"state":"active","ping":100},{"user_id":30,"name":"Vonk","steam_id":76561199080400526,"connected_time":516000000000,"state":"active","ping":76},{"user_id":25,"name":"subway vergil","steam_id":76561199110064166,"connected_time":627000000000,"state":"active","ping":71},{"user_id":44,"name":"clean carp","steam_id":76561198127053294,"connected_time":47000000000,"state":"active","ping":75},{"user_id":27,"name":"big hoops","steam_id":76561198004703799,"connected_time":575000000000,"state":"active","ping":46},{"user_id":31,"name":"fried","steam_id":76561198307522022,"connected_time":513000000000,"state":"active","ping":46},{"user_id":33,"name":"Economic crisis","steam_id":76561198063562843,"connected_time":420000000000,"state":"active","ping":63},{"user_id":34,"name":"Graggle Simpson","steam_id":76561198388750592,"connected_time":417000000000,"state":"active","ping":72},{"user_id":41,"name":"OrionSmoker","steam_id":76561198090778270,"connected_time":239000000000,"state":"active","ping":148},{"user_id":42,"name":"sHIFTINGvORTEX","steam_id":76561198231648332,"connected_time":207000000000,"state":"active","ping":58}]},{"server_id":321,"name":"Uncletopia | London | 4 | All Maps","name_short":"lon-4","host":"lon-1.uk.uncletopia.com","port":27045,"enabled":true,"region":"eu","cc":"gb","latitude":51.509865,"longitude":-0.118092,"reserved":0,"last_update":"0001-01-01T00:00:00Z","name_a2s":"Uncletopia | London | 4 | All Maps","protocol":17,"map":"pl_pier","folder":"tf","game":"Team Fortress","app_id":440,"player_count":0,"max_players":24,"Bots":0,"server_type":"Dedicated","server_os":"Linux","password":true,"vac":true,"version":"7757534","steam_id":85568392924510193,"keywords":["nocrits","nodmgspread","payload","uncletopia"],"game_id":440,"stv_port":27046,"stv_name":"Uncletopia | London | 4 | All Maps | STV","players":null},{"server_id":21,"name":"Uncletopia | London | 5 | All Maps","name_short":"lon-5","host":"lon-1.uk.uncletopia.com","port":27055,"enabled":true,"region":"eu","cc":"gb","latitude":51.509865,"longitude":-0.118092,"reserved":0,"last_update":"0001-01-01T00:00:00Z","name_a2s":"Uncletopia | London | 5 | All Maps","protocol":17,"map":"koth_lakeside_final","folder":"tf","game":"Team Fortress","app_id":440,"player_count":0,"max_players":24,"Bots":0,"server_type":"Dedicated","server_os":"Linux","password":true,"vac":true,"version":"7757534","steam_id":85568392924742829,"keywords":["cp","nocrits","nodmgspread","uncletopia"],"game_id":440,"stv_port":27056,"stv_name":"Uncletopia | London | 5 | All Maps | STV","players":null},{"server_id":22,"name":"Uncletopia | London | 6 | All Maps","name_short":"lon-6","host":"lon-1.uk.uncletopia.com","port":27065,"enabled":true,"region":"eu","cc":"gb","latitude":51.509865,"longitude":-0.118092,"reserved":0,"last_update":"0001-01-01T00:00:00Z","name_a2s":"Uncletopia | London | 6 | All Maps","protocol":17,"map":"koth_cascade","folder":"tf","game":"Team Fortress","app_id":440,"player_count":0,"max_players":24,"Bots":0,"server_type":"Dedicated","server_os":"Linux","password":true,"vac":true,"version":"7757534","steam_id":85568392924742830,"keywords":["cp","nocrits","nodmgspread","uncletopia"],"game_id":440,"stv_port":27066,"stv_name":"Uncletopia | London | 6 | All Maps | STV","players":null},{"server_id":40,"name":"Uncletopia | London | 7 | No Payload","name_short":"lon-7","host":"lon-1.uk.uncletopia.com","port":27075,"enabled":true,"region":"eu","cc":"gb","latitude":51.509865,"longitude":-0.118092,"reserved":0,"last_update":"0001-01-01T00:00:00Z","name_a2s":"Uncletopia | London | 7 | No Payload","protocol":17,"map":"koth_king","folder":"tf","game":"Team Fortress","app_id":440,"player_count":0,"max_players":24,"Bots":0,"server_type":"Dedicated","server_os":"Linux","password":true,"vac":true,"version":"7757534","steam_id":85568392924964314,"keywords":["cp","nocrits","nodmgspread","uncletopia"],"game_id":440,"stv_port":27076,"stv_name":"Uncletopia | London | 7 | No Payload | STV","players":null},{"server_id":41,"name":"Uncletopia | London | 8 | Community","name_short":"lon-8","host":"lon-1.uk.uncletopia.com","port":27085,"enabled":true,"region":"eu","cc":"gb","latitude":51.509865,"longitude":-0.118092,"reserved":0,"last_update":"0001-01-01T00:00:00Z","name_a2s":"Uncletopia | London | 8 | Community","protocol":17,"map":"workshop/koth_product_final.ugc454272353","folder":"tf","game":"Team Fortress","app_id":440,"player_count":0,"max_players":24,"Bots":0,"server_type":"Dedicated","server_os":"Linux","password":true,"vac":true,"version":"7757534","steam_id":85568392924964315,"keywords":["cp","nocrits","nodmgspread","uncletopia"],"game_id":440,"stv_port":27086,"stv_name":"Uncletopia | London | 8 | Community | STV","players":null},{"server_id":300,"name":"Uncletopia | Montréal | 1 | All Maps","name_short":"mtl-1","host":"mtl-1.ca.uncletopia.com","port":27015,"enabled":true,"region":"us-east","cc":"ca","latitude":45.50889,"longitude":-73.56167,"reserved":0,"last_update":"0001-01-01T00:00:00Z","name_a2s":"Uncletopia | Montréal | 1 | All Maps","protocol":17,"map":"koth_cascade","folder":"tf","game":"Team Fortress","app_id":440,"player_count":0,"max_players":24,"Bots":0,"server_type":"Dedicated","server_os":"Linux","password":true,"vac":true,"version":"7757534","steam_id":85568392924500087,"keywords":["cp","nocrits","nodmgspread","uncletopia"],"game_id":440,"stv_port":27016,"stv_name":"Uncletopia | Montréal | 1 | All Maps | STV","players":null},{"server_id":301,"name":"Uncletopia | Montréal | 2 | All Maps","name_short":"mtl-2","host":"mtl-1.ca.uncletopia.com","port":27025,"enabled":true,"region":"us-east","cc":"ca","latitude":45.50889,"longitude":-73.56167,"reserved":0,"last_update":"0001-01-01T00:00:00Z","name_a2s":"Uncletopia | Montréal | 2 | All Maps","protocol":17,"map":"pl_borneo","folder":"tf","game":"Team Fortress","app_id":440,"player_count":0,"max_players":24,"Bots":0,"server_type":"Dedicated","server_os":"Linux","password":true,"vac":true,"version":"7757534","steam_id":85568392924500088,"keywords":["nocrits","nodmgspread","payload","uncletopia"],"game_id":440,"stv_port":27026,"stv_name":"Uncletopia | Montréal | 2 | All Maps | STV","players":null},{"server_id":302,"name":"Uncletopia | Montréal | 3 | All Maps","name_short":"mtl-3","host":"mtl-1.ca.uncletopia.com","port":27035,"enabled":true,"region":"us-east","cc":"ca","latitude":45.50889,"longitude":-73.56167,"reserved":0,"last_update":"0001-01-01T00:00:00Z","name_a2s":"Uncletopia | Montréal | 3 | All Maps","protocol":17,"map":"cp_sunshine","folder":"tf","game":"Team Fortress","app_id":440,"player_count":0,"max_players":24,"Bots":0,"server_type":"Dedicated","server_os":"Linux","password":true,"vac":true,"version":"7757534","steam_id":85568392924500089,"keywords":["cp","nocrits","nodmgspread","uncletopia"],"game_id":440,"stv_port":27036,"stv_name":"Uncletopia | Montréal | 3 | All Maps | STV","players":null},{"server_id":303,"name":"Uncletopia | Montréal | 4 | No Payload","name_short":"mtl-4","host":"mtl-1.ca.uncletopia.com","port":27045,"enabled":true,"region":"us-east","cc":"ca","latitude":45.50889,"longitude":-73.56167,"reserved":0,"last_update":"0001-01-01T00:00:00Z","name_a2s":"Uncletopia | Montréal | 4 | No Payload","protocol":17,"map":"koth_lakeside_final","folder":"tf","game":"Team Fortress","app_id":440,"player_count":0,"max_players":24,"Bots":0,"server_type":"Dedicated","server_os":"Linux","password":true,"vac":true,"version":"7757534","steam_id":85568392924500090,"keywords":["cp","nocrits","nodmgspread","uncletopia"],"game_id":440,"stv_port":27046,"stv_name":"Uncletopia | Montréal | 4 | No Payload | STV","players":null},{"server_id":13,"name":"Uncletopia | New York City | 1 | All Maps","name_short":"nyc-1","host":"nyc-1.us.uncletopia.com","port":27015,"enabled":true,"region":"us-east","cc":"us","latitude":40.73061,"longitude":-73.93524,"reserved":0,"last_update":"0001-01-01T00:00:00Z","name_a2s":"Uncletopia | New York City | 1 | All Maps","protocol":17,"map":"pl_borneo","folder":"tf","game":"Team Fortress","app_id":440,"player_count":0,"max_players":24,"Bots":0,"server_type":"Dedicated","server_os":"Linux","password":true,"vac":true,"version":"7757534","steam_id":85568392924469993,"keywords":["nocrits","nodmgspread","payload","uncletopia"],"game_id":440,"stv_port":27016,"stv_name":"Uncletopia | New York City | 1 | All Maps | STV","players":null},{"server_id":14,"name":"Uncletopia | New York City | 2 | All Maps","name_short":"nyc-2","host":"nyc-1.us.uncletopia.com","port":27025,"enabled":true,"region":"us-east","cc":"us","latitude":40.73061,"longitude":-73.93524,"reserved":0,"last_update":"0001-01-01T00:00:00Z","name_a2s":"Uncletopia | New York City | 2 | All Maps","protocol":17,"map":"pl_snowycoast","folder":"tf","game":"Team Fortress","app_id":440,"player_count":0,"max_players":24,"Bots":0,"server_type":"Dedicated","server_os":"Linux","password":true,"vac":true,"version":"7757534","steam_id":85568392924469994,"keywords":["nocrits","nodmgspread","payload","uncletopia"],"game_id":440,"stv_port":27026,"stv_name":"Uncletopia | New York City | 2 | All Maps | STV","players":null},{"server_id":15,"name":"Uncletopia | New York City | 3 | Stopwatch Beta","name_short":"nyc-3","host":"nyc-1.us.uncletopia.com","port":27035,"enabled":true,"region":"us-east","cc":"us","latitude":40.73061,"longitude":-73.93524,"reserved":0,"last_update":"0001-01-01T00:00:00Z","name_a2s":"Uncletopia | New York City | 3 | Stopwatch Beta","protocol":17,"map":"koth_lakeside_final","folder":"tf","game":"Team Fortress","app_id":440,"player_count":0,"max_players":24,"Bots":0,"server_type":"Dedicated","server_os":"Linux","password":true,"vac":true,"version":"7757534","steam_id":85568392924742820,"keywords":["cp","nocrits","nodmgspread","uncletopia"],"game_id":440,"stv_port":27036,"stv_name":"Uncletopia | New York City | 3 | Stopwatch Beta | STV","players":null},{"server_id":16,"name":"Uncletopia | New York City | 4 | Community","name_short":"nyc-4","host":"nyc-1.us.uncletopia.com","port":27045,"enabled":true,"region":"us-east","cc":"us","latitude":40.73061,"longitude":-73.93524,"reserved":0,"last_update":"0001-01-01T00:00:00Z","name_a2s":"Uncletopia | New York City | 4 | Community","protocol":17,"map":"pl_borneo","folder":"tf","game":"Team Fortress","app_id":440,"player_count":0,"max_players":24,"Bots":0,"server_type":"Dedicated","server_os":"Linux","password":true,"vac":true,"version":"7757534","steam_id":85568392924742821,"keywords":["nocrits","nodmgspread","payload","uncletopia"],"game_id":440,"stv_port":27046,"stv_name":"Uncletopia | New York City | 4 | Community | STV","players":null},{"server_id":142,"name":"Uncletopia | São Paulo | 1 | All Maps","name_short":"sao-1","host":"sao-1.br.uncletopia.com","port":27015,"enabled":true,"region":"sa","cc":"br","latitude":-23.533773,"longitude":-46.62529,"reserved":0,"last_update":"0001-01-01T00:00:00Z","name_a2s":"Uncletopia | São Paulo | 1 | All Maps","protocol":17,"map":"pl_snowycoast","folder":"tf","game":"Team Fortress","app_id":440,"player_count":0,"max_players":24,"Bots":0,"server_type":"Dedicated","server_os":"Linux","password":true,"vac":true,"version":"7757534","steam_id":85568392924469996,"keywords":["nocrits","nodmgspread","payload","uncletopia"],"game_id":440,"stv_port":27016,"stv_name":"Uncletopia | São Paulo | 1 | All Maps | STV","players":null},{"server_id":143,"name":"Uncletopia | São Paulo | 2 | All Maps","name_short":"sao-2","host":"sao-2.br.uncletopia.com","port":27015,"enabled":true,"region":"sa","cc":"br","latitude":-23.533773,"longitude":-46.62529,"reserved":0,"last_update":"0001-01-01T00:00:00Z","name_a2s":"Uncletopia | São Paulo | 2 | All Maps","protocol":17,"map":"pl_barnblitz","folder":"tf","game":"Team Fortress","app_id":440,"player_count":0,"max_players":24,"Bots":0,"server_type":"Dedicated","server_os":"Linux","password":true,"vac":true,"version":"7757534","steam_id":85568392924485349,"keywords":["nocrits","nodmgspread","payload","uncletopia"],"game_id":440,"stv_port":27016,"stv_name":"Uncletopia | São Paulo | 2 | All Maps | STV","players":null},{"server_id":7,"name":"Uncletopia | Seattle | 1 | All Maps","name_short":"sea-1","host":"sea-1.us.uncletopia.com","port":27015,"enabled":true,"region":"us-west","cc":"us","latitude":47.608013,"longitude":-122.33517,"reserved":0,"last_update":"0001-01-01T00:00:00Z","name_a2s":"Uncletopia | Seattle | 1 | All Maps","protocol":17,"map":"pl_frontier_final","folder":"tf","game":"Team Fortress","app_id":440,"player_count":0,"max_players":24,"Bots":0,"server_type":"Dedicated","server_os":"Linux","password":true,"vac":true,"version":"7757534","steam_id":85568392924469997,"keywords":["nocrits","nodmgspread","payload","uncletopia"],"game_id":440,"stv_port":27016,"stv_name":"Uncletopia | Seattle | 1 | All Maps | STV","players":null},{"server_id":119,"name":"Uncletopia | Seattle | 2 | All Maps","name_short":"sea-2","host":"sea-1.us.uncletopia.com","port":27025,"enabled":true,"region":"us-west","cc":"us","latitude":47.608013,"longitude":-122.33517,"reserved":0,"last_update":"0001-01-01T00:00:00Z","name_a2s":"Uncletopia | Seattle | 2 | All Maps","protocol":17,"map":"pl_swiftwater_final1","folder":"tf","game":"Team Fortress","app_id":440,"player_count":0,"max_players":24,"Bots":0,"server_type":"Dedicated","server_os":"Linux","password":true,"vac":true,"version":"7757534","steam_id":85568392924469998,"keywords":["nocrits","nodmgspread","payload","uncletopia"],"game_id":440,"stv_port":27026,"stv_name":"Uncletopia | Seattle | 2 | All Maps | STV","players":null},{"server_id":406,"name":"Uncletopia | Seattle | 3 | Stopwatch Beta","name_short":"sea-3","host":"sea-1.us.uncletopia.com","port":27035,"enabled":true,"region":"us-west","cc":"us","latitude":47.608013,"longitude":-122.33517,"reserved":0,"last_update":"0001-01-01T00:00:00Z","name_a2s":"Uncletopia | Seattle | 3 | Stopwatch Beta","protocol":17,"map":"workshop/koth_clearcut_b15.ugc2107050255","folder":"tf","game":"Team Fortress","app_id":440,"player_count":0,"max_players":24,"Bots":0,"server_type":"Dedicated","server_os":"Linux","password":true,"vac":true,"version":"7757534","steam_id":85568392924515217,"keywords":["cp","nocrits","nodmgspread","uncletopia"],"game_id":440,"stv_port":27036,"stv_name":"Uncletopia | Seattle | 3 | Stopwatch Beta | STV","players":null},{"server_id":17,"name":"Uncletopia | San Francisco | 1 | All Maps","name_short":"sfo-1","host":"sfo-1.us.uncletopia.com","port":27015,"enabled":true,"region":"us-west","cc":"us","latitude":37.77397,"longitude":-122.4313,"reserved":0,"last_update":"0001-01-01T00:00:00Z","name_a2s":"Uncletopia | San Francisco | 1 | All Maps","protocol":17,"map":"cp_altitude","folder":"tf","game":"Team Fortress","app_id":440,"player_count":0,"max_players":24,"Bots":0,"server_type":"Dedicated","server_os":"Linux","password":true,"vac":true,"version":"7757534","steam_id":85568392924469999,"keywords":["cp","nocrits","nodmgspread","uncletopia"],"game_id":440,"stv_port":27016,"stv_name":"Uncletopia | San Francisco | 1 | All Maps | STV","players":null},{"server_id":18,"name":"Uncletopia | San Francisco | 2 | All Maps","name_short":"sfo-2","host":"sfo-1.us.uncletopia.com","port":27025,"enabled":true,"region":"us-west","cc":"us","latitude":37.77397,"longitude":-122.4313,"reserved":0,"last_update":"0001-01-01T00:00:00Z","name_a2s":"Uncletopia | San Francisco | 2 | All Maps","protocol":17,"map":"koth_cascade","folder":"tf","game":"Team Fortress","app_id":440,"player_count":0,"max_players":24,"Bots":0,"server_type":"Dedicated","server_os":"Linux","password":true,"vac":true,"version":"7757534","steam_id":85568392924470000,"keywords":["cp","nocrits","nodmgspread","uncletopia"],"game_id":440,"stv_port":27026,"stv_name":"Uncletopia | San Francisco | 2 | All Maps | STV","players":null},{"server_id":19,"name":"Uncletopia | San Francisco | 3 | Stopwatch Beta","name_short":"sfo-3","host":"sfo-1.us.uncletopia.com","port":27035,"enabled":true,"region":"us-west","cc":"us","latitude":37.77397,"longitude":-122.4313,"reserved":0,"last_update":"0001-01-01T00:00:00Z","name_a2s":"Uncletopia | San Francisco | 3 | Stopwatch Beta","protocol":17,"map":"koth_viaduct","folder":"tf","game":"Team Fortress","app_id":440,"player_count":0,"max_players":24,"Bots":0,"server_type":"Dedicated","server_os":"Linux","password":true,"vac":true,"version":"7757534","steam_id":85568392924742824,"keywords":["cp","nocrits","nodmgspread","uncletopia"],"game_id":440,"stv_port":27036,"stv_name":"Uncletopia | San Francisco | 3 | Stopwatch Beta | STV","players":null},{"server_id":20,"name":"Uncletopia | San Francisco | 4 | Community","name_short":"sfo-4","host":"sfo-1.us.uncletopia.com","port":27045,"enabled":true,"region":"us-west","cc":"us","latitude":37.77397,"longitude":-122.4313,"reserved":0,"last_update":"0001-01-01T00:00:00Z","name_a2s":"Uncletopia | San Francisco | 4 | Community","protocol":17,"map":"workshop/koth_bagel_rc5.ugc2514036946","folder":"tf","game":"Team Fortress","app_id":440,"player_count":0,"max_players":24,"Bots":0,"server_type":"Dedicated","server_os":"Linux","password":true,"vac":true,"version":"7757534","steam_id":85568392924742826,"keywords":["cp","nocrits","nodmgspread","uncletopia"],"game_id":440,"stv_port":27046,"stv_name":"Uncletopia | San Francisco | 4 | Community | STV","players":null},{"server_id":141,"name":"Uncletopia | Sydney | 1 | All Maps","name_short":"syd-1","host":"syd-1.au.uncletopia.com","port":27015,"enabled":true,"region":"au","cc":"au","latitude":-33.865143,"longitude":151.2099,"reserved":0,"last_update":"0001-01-01T00:00:00Z","name_a2s":"Uncletopia | Sydney | 1 | All Maps","protocol":17,"map":"pl_badwater","folder":"tf","game":"Team Fortress","app_id":440,"player_count":24,"max_players":24,"Bots":0,"server_type":"Dedicated","server_os":"Linux","password":true,"vac":true,"version":"7757534","steam_id":85568392924470001,"keywords":["nocrits","nodmgspread","payload","uncletopia"],"game_id":440,"stv_port":27016,"stv_name":"Uncletopia | Sydney | 1 | All Maps | STV","players":[{"user_id":491,"name":"Apteryx","steam_id":76561197976460834,"connected_time":875000000000,"state":"active","ping":61},{"user_id":492,"name":"chom15#FURRYGANG","steam_id":76561198836003115,"connected_time":812000000000,"state":"active","ping":61},{"user_id":489,"name":"korpz","steam_id":76561197996888637,"connected_time":960000000000,"state":"active","ping":57},{"user_id":479,"name":"Turbo_dip","steam_id":76561198446508846,"connected_time":1250000000000,"state":"active","ping":67},{"user_id":495,"name":"Chooka","steam_id":76561197992307814,"connected_time":525000000000,"state":"active","ping":66},{"user_id":498,"name":"SchlaytoN","steam_id":76561198206793747,"connected_time":223000000000,"state":"active","ping":63},{"user_id":487,"name":"Corrupt","steam_id":76561198008567328,"connected_time":1028000000000,"state":"active","ping":97},{"user_id":467,"name":"Im the biggest bird","steam_id":76561198254754182,"connected_time":1690000000000,"state":"active","ping":78},{"user_id":472,"name":"Cafe","steam_id":76561198061587693,"connected_time":1516000000000,"state":"active","ping":111},{"user_id":482,"name":"Vanessa","steam_id":76561198077728992,"connected_time":1162000000000,"state":"active","ping":60},{"user_id":437,"name":"FrOStY","steam_id":76561198088155805,"connected_time":4593000000000,"state":"active","ping":77},{"user_id":499,"name":"krandlez` (Any/All)","steam_id":76561198044839726,"connected_time":99000000000,"state":"active","ping":44},{"user_id":459,"name":"Abraham Lincoln","steam_id":76561198095292515,"connected_time":2434000000000,"state":"active","ping":69},{"user_id":488,"name":"bread","steam_id":76561199405764106,"connected_time":976000000000,"state":"active","ping":40},{"user_id":464,"name":"freek","steam_id":76561198406237673,"connected_time":1876000000000,"state":"active","ping":54},{"user_id":478,"name":"SWAG DRAGON","steam_id":76561197960279341,"connected_time":1282000000000,"state":"active","ping":59},{"user_id":439,"name":"ree boy","steam_id":76561199024189820,"connected_time":3759000000000,"state":"active","ping":83},{"user_id":493,"name":"MR AUSTRALIUM","steam_id":76561198093828661,"connected_time":779000000000,"state":"active","ping":76},{"user_id":490,"name":"Vaconcovat","steam_id":76561198024284041,"connected_time":929000000000,"state":"active","ping":70},{"user_id":497,"name":"♠³","steam_id":76561199140616120,"connected_time":228000000000,"state":"active","ping":88},{"user_id":485,"name":"april","steam_id":76561198848287180,"connected_time":1061000000000,"state":"active","ping":50},{"user_id":361,"name":"EpicGuy4227","steam_id":76561198094132328,"connected_time":12405000000000,"state":"active","ping":53},{"user_id":483,"name":"ADUCK","steam_id":76561198249887912,"connected_time":1137000000000,"state":"active","ping":69},{"user_id":456,"name":"Yeehaw","steam_id":76561198039684922,"connected_time":2765000000000,"state":"active","ping":50}]},{"server_id":123,"name":"Uncletopia | Sydney | 2 | All Maps","name_short":"syd-2","host":"syd-1.au.uncletopia.com","port":27025,"enabled":true,"region":"au","cc":"au","latitude":-33.865143,"longitude":151.2099,"reserved":0,"last_update":"0001-01-01T00:00:00Z","name_a2s":"Uncletopia | Sydney | 2 | All Maps","protocol":17,"map":"pl_thundermountain","folder":"tf","game":"Team Fortress","app_id":440,"player_count":24,"max_players":24,"Bots":0,"server_type":"Dedicated","server_os":"Linux","password":true,"vac":true,"version":"7757534","steam_id":85568392924470002,"keywords":["nocrits","nodmgspread","payload","uncletopia"],"game_id":440,"stv_port":27026,"stv_name":"Uncletopia | Sydney | 2 | All Maps | STV","players":[{"user_id":184,"name":"Cedric Mord","steam_id":76561197997820614,"connected_time":1678000000000,"state":"active","ping":61},{"user_id":202,"name":"Omniv","steam_id":76561198442131543,"connected_time":729000000000,"state":"active","ping":65},{"user_id":172,"name":"pos1tve","steam_id":76561199087124672,"connected_time":2287000000000,"state":"active","ping":55},{"user_id":208,"name":"|SPQR| Broseph","steam_id":76561198114948512,"connected_time":319000000000,"state":"active","ping":89},{"user_id":209,"name":"busyfuredball39","steam_id":76561199169804427,"connected_time":309000000000,"state":"active","ping":56},{"user_id":206,"name":"Pug","steam_id":76561198136794372,"connected_time":528000000000,"state":"active","ping":52},{"user_id":185,"name":"MightyMistake","steam_id":76561198161196838,"connected_time":1662000000000,"state":"active","ping":69},{"user_id":203,"name":"Munted","steam_id":76561198220333335,"connected_time":725000000000,"state":"active","ping":55},{"user_id":199,"name":"Nugget","steam_id":76561197961747465,"connected_time":848000000000,"state":"active","ping":78},{"user_id":169,"name":"Big Lag","steam_id":76561198034630785,"connected_time":2508000000000,"state":"active","ping":63},{"user_id":204,"name":"Yeefishyboy","steam_id":76561198387822162,"connected_time":665000000000,"state":"active","ping":98},{"user_id":122,"name":"Rarity the Fabulous","steam_id":76561198077653287,"connected_time":5741000000000,"state":"active","ping":36},{"user_id":210,"name":"ducklover48","steam_id":76561198105815803,"connected_time":281000000000,"state":"active","ping":71},{"user_id":186,"name":"Shocklebuck","steam_id":76561197997863934,"connected_time":1652000000000,"state":"active","ping":67},{"user_id":211,"name":"juddmandeluxe_","steam_id":76561198044228552,"connected_time":279000000000,"state":"active","ping":68},{"user_id":212,"name":"Sancho","steam_id":76561197995288524,"connected_time":220000000000,"state":"active","ping":62},{"user_id":182,"name":"ETHICAL CONSUMPTION","steam_id":76561198035066643,"connected_time":1779000000000,"state":"active","ping":99},{"user_id":195,"name":"oldbie","steam_id":76561198053297711,"connected_time":1127000000000,"state":"active","ping":81},{"user_id":214,"name":"Ethos","steam_id":76561197970514852,"connected_time":167000000000,"state":"active","ping":58},{"user_id":87,"name":"ุbifcheg","steam_id":76561198319806610,"connected_time":7887000000000,"state":"active","ping":68},{"user_id":197,"name":"Wake","steam_id":76561197979850259,"connected_time":999000000000,"state":"active","ping":64},{"user_id":160,"name":"xbox720","steam_id":76561198452767008,"connected_time":3091000000000,"state":"active","ping":58},{"user_id":161,"name":"cat food xxl","steam_id":76561198042188786,"connected_time":3026000000000,"state":"active","ping":52},{"user_id":191,"name":"Bending Unit 22","steam_id":76561197963944556,"connected_time":1504000000000,"state":"active","ping":60}]},{"server_id":395,"name":"Uncletopia | Sydney | 3 | All Maps","name_short":"syd-3","host":"syd-1.au.uncletopia.com","port":27035,"enabled":true,"region":"au","cc":"au","latitude":-33.865143,"longitude":151.2099,"reserved":0,"last_update":"0001-01-01T00:00:00Z","name_a2s":"Uncletopia | Sydney | 3 | All Maps","protocol":17,"map":"cp_altitude","folder":"tf","game":"Team Fortress","app_id":440,"player_count":0,"max_players":24,"Bots":0,"server_type":"Dedicated","server_os":"Linux","password":true,"vac":true,"version":"7757534","steam_id":85568392925194467,"keywords":["cp","nocrits","nodmgspread","uncletopia"],"game_id":440,"stv_port":27036,"stv_name":"Uncletopia | Sydney | 3 | All Maps | STV","players":null},{"server_id":396,"name":"Uncletopia | Sydney | 4 | All Maps","name_short":"syd-4","host":"syd-1.au.uncletopia.com","port":27045,"enabled":true,"region":"au","cc":"au","latitude":-33.865143,"longitude":151.2099,"reserved":0,"last_update":"0001-01-01T00:00:00Z","name_a2s":"Uncletopia | Sydney | 4 | All Maps","protocol":17,"map":"cp_egypt_final","folder":"tf","game":"Team Fortress","app_id":440,"player_count":2,"max_players":24,"Bots":0,"server_type":"Dedicated","server_os":"Linux","password":true,"vac":true,"version":"7757534","steam_id":85568392925397958,"keywords":["cp","nocrits","nodmgspread","uncletopia"],"game_id":440,"stv_port":27046,"stv_name":"Uncletopia | Sydney | 4 | All Maps | STV","players":[{"user_id":16,"name":"fire14_legend2","steam_id":76561199367274853,"connected_time":1949000000000,"state":"active","ping":312},{"user_id":17,"name":"lolwhat","steam_id":76561199387628765,"connected_time":1948000000000,"state":"active","ping":166}]},{"server_id":58,"name":"Uncletopia | Sydney | 5 | Stopwatch Beta","name_short":"syd-5","host":"syd-1.au.uncletopia.com","port":27055,"enabled":true,"region":"au","cc":"au","latitude":-33.865143,"longitude":151.2099,"reserved":0,"last_update":"0001-01-01T00:00:00Z","name_a2s":"Uncletopia | Sydney | 5 | Stopwatch Beta","protocol":17,"map":"workshop/pl_barnblitz_pro7.ugc582280235","folder":"tf","game":"Team Fortress","app_id":440,"player_count":0,"max_players":24,"Bots":0,"server_type":"Dedicated","server_os":"Linux","password":true,"vac":true,"version":"7757534","steam_id":85568392925397959,"keywords":["nocrits","nodmgspread","payload","uncletopia"],"game_id":440,"stv_port":27056,"stv_name":"Uncletopia | Sydney | 5 | Stopwatch Beta | STV","players":null},{"server_id":59,"name":"Uncletopia | Sydney | 6 | Community","name_short":"syd-6","host":"syd-1.au.uncletopia.com","port":27065,"enabled":true,"region":"au","cc":"au","latitude":-33.865143,"longitude":151.2099,"reserved":0,"last_update":"0001-01-01T00:00:00Z","name_a2s":"Uncletopia | Sydney | 6 | Community","protocol":17,"map":"workshop/cp_caldera_rc2.ugc2834196889","folder":"tf","game":"Team Fortress","app_id":440,"player_count":0,"max_players":24,"Bots":0,"server_type":"Dedicated","server_os":"Linux","password":true,"vac":true,"version":"7757534","steam_id":85568392925397960,"keywords":["cp","nocrits","nodmgspread","uncletopia"],"game_id":440,"stv_port":27066,"stv_name":"Uncletopia | Sydney | 6 | Community | STV","players":null},{"server_id":49,"name":"Uncletopia | Warsaw | 1 | All Maps","name_short":"waw-1","host":"waw-1.pl.uncletopia.com","port":27015,"enabled":true,"region":"eu","cc":"pl","latitude":52.2297,"longitude":21.017532,"reserved":0,"last_update":"0001-01-01T00:00:00Z","name_a2s":"","protocol":0,"map":"","folder":"","game":"","app_id":0,"player_count":0,"max_players":0,"Bots":0,"server_type":"","server_os":"","password":false,"vac":false,"version":"","steam_id":0,"keywords":null,"game_id":0,"stv_port":0,"stv_name":"","players":null},{"server_id":50,"name":"Uncletopia | Warsaw | 2 | All Maps","name_short":"waw-2","host":"waw-1.pl.uncletopia.com","port":27025,"enabled":true,"region":"eu","cc":"pl","latitude":52.2297,"longitude":21.017532,"reserved":0,"last_update":"0001-01-01T00:00:00Z","name_a2s":"Uncletopia | Warsaw | 2 | All Maps","protocol":17,"map":"koth_viaduct","folder":"tf","game":"Team Fortress","app_id":440,"player_count":0,"max_players":24,"Bots":0,"server_type":"Dedicated","server_os":"Linux","password":true,"vac":true,"version":"7757534","steam_id":85568392925397851,"keywords":["cp","nocrits","nodmgspread","uncletopia"],"game_id":440,"stv_port":27026,"stv_name":"Uncletopia | Warsaw | 2 | All Maps | STV","players":null},{"server_id":51,"name":"Uncletopia | Warsaw | 3 | All Maps","name_short":"waw-3","host":"waw-1.pl.uncletopia.com","port":27035,"enabled":true,"region":"eu","cc":"pl","latitude":52.2297,"longitude":21.017532,"reserved":0,"last_update":"0001-01-01T00:00:00Z","name_a2s":"Uncletopia | Warsaw | 3 | All Maps","protocol":17,"map":"cp_snakewater_final1","folder":"tf","game":"Team Fortress","app_id":440,"player_count":0,"max_players":24,"Bots":0,"server_type":"Dedicated","server_os":"Linux","password":true,"vac":true,"version":"7757534","steam_id":85568392925397852,"keywords":["cp","nocrits","nodmgspread","uncletopia"],"game_id":440,"stv_port":27036,"stv_name":"Uncletopia | Warsaw | 3 | All Maps | STV","players":null},{"server_id":52,"name":"Uncletopia | Warsaw | 4 | All Maps","name_short":"waw-4","host":"waw-1.pl.uncletopia.com","port":27045,"enabled":true,"region":"eu","cc":"pl","latitude":52.2297,"longitude":21.017532,"reserved":0,"last_update":"0001-01-01T00:00:00Z","name_a2s":"Uncletopia | Warsaw | 4 | All Maps","protocol":17,"map":"pl_borneo","folder":"tf","game":"Team Fortress","app_id":440,"player_count":0,"max_players":24,"Bots":0,"server_type":"Dedicated","server_os":"Linux","password":true,"vac":true,"version":"7757534","steam_id":85568392925397853,"keywords":["nocrits","nodmgspread","payload","uncletopia"],"game_id":440,"stv_port":27046,"stv_name":"Uncletopia | Warsaw | 4 | All Maps | STV","players":null},{"server_id":53,"name":"Uncletopia | Warsaw | 5 | Stopwatch Beta","name_short":"waw-5","host":"waw-1.pl.uncletopia.com","port":27055,"enabled":true,"region":"eu","cc":"pl","latitude":52.2297,"longitude":21.017532,"reserved":0,"last_update":"0001-01-01T00:00:00Z","name_a2s":"Uncletopia | Warsaw | 5 | Stopwatch Beta","protocol":17,"map":"pl_upward","folder":"tf","game":"Team Fortress","app_id":440,"player_count":0,"max_players":24,"Bots":0,"server_type":"Dedicated","server_os":"Linux","password":true,"vac":true,"version":"7757534","steam_id":85568392925397854,"keywords":["nocrits","nodmgspread","payload","uncletopia"],"game_id":440,"stv_port":27056,"stv_name":"Uncletopia | Warsaw | 5 | Stopwatch Beta | STV","players":null},{"server_id":54,"name":"Uncletopia | Warsaw | 6 | Community","name_short":"waw-6","host":"waw-1.pl.uncletopia.com","port":27065,"enabled":true,"region":"eu","cc":"pl","latitude":52.2297,"longitude":21.017532,"reserved":0,"last_update":"0001-01-01T00:00:00Z","name_a2s":"Uncletopia | Warsaw | 6 | Community","protocol":17,"map":"pl_barnblitz","folder":"tf","game":"Team Fortress","app_id":440,"player_count":0,"max_players":24,"Bots":0,"server_type":"Dedicated","server_os":"Linux","password":true,"vac":true,"version":"7757534","steam_id":85568392925397856,"keywords":["nocrits","nodmgspread","payload","uncletopia"],"game_id":440,"stv_port":27066,"stv_name":"Uncletopia | Warsaw | 6 | Community | STV","players":null}]}