{"status":true,"message":"","result":[{"server_id":9,"name":"Uncletopia | Atlanta | 1 | All Maps","name_short":"atl-1","host":"atl-1.us.uncletopia.com","port":27015,"enabled":true,"region":"us-east","cc":"us","latitude":33.753746,"longitude":-84.38633,"reserved":0,"last_update":"0001-01-01T00:00:00Z","name_a2s":"Uncletopia | Atlanta | 1 | All Maps","protocol":17,"map":"koth_viaduct","folder":"tf","game":"Team Fortress","app_id":440,"player_count":0,"max_players":24,"Bots":0,"server_type":"Dedicated","server_os":"Linux","password":true,"vac":true,"version":"7932396","steam_id":85568392924469982,"keywords":["cp","nocrits","nodmgspread","uncletopia"],"game_id":440,"stv_port":27016,"stv_name":"Uncletopia | Atlanta | 1 | All Maps | STV","players":null},{"server_id":104,"name":"Uncletopia | Atlanta | 2 | All Maps","name_short":"atl-2","host":"atl-1.us.uncletopia.com","port":27025,"enabled":true,"region":"us-east","cc":"us","latitude":33.753746,"longitude":-84.38633,"reserved":0,"last_update":"0001-01-01T00:00:00Z","name_a2s":"Uncletopia | Atlanta | 2 | All Maps","protocol":17,"map":"pl_pier","folder":"tf","game":"Team Fortress","app_id":440,"player_count":0,"max_players":24,"Bots":0,"server_type":"Dedicated","server_os":"Linux","password":true,"vac":true,"version":"7932396","steam_id":85568392924469983,"keywords":["nocrits","nodmgspread","payload","uncletopia"],"game_id":440,"stv_port":27026,"stv_name":"Uncletopia | Atlanta | 2 | All Maps | STV","players":null},{"server_id":400,"name":"Uncletopia | Atlanta | 3 | Community","name_short":"atl-3","host":"atl-1.us.uncletopia.com","port":27035,"enabled":true,"region":"us-east","cc":"us","latitude":33.753746,"longitude":-84.38633,"reserved":0,"last_update":"0001-01-01T00:00:00Z","name_a2s":"Uncletopia | Atlanta | 3 | Community","protocol":17,"map":"workshop/koth_trenchfoot_b1a.ugc731436616","folder":"tf","game":"Team Fortress","app_id":440,"player_count":0,"max_players":24,"Bots":0,"server_type":"Dedicated","server_os":"Linux","password":true,"vac":true,"version":"7932396","steam_id":85568392924515187,"keywords":["cp","nocrits","nodmgspread","uncletopia"],"game_id":440,"stv_port":27036,"stv_name":"Uncletopia | Atlanta | 3 | Community | STV","players":null},{"server_id":401,"name":"Uncletopia | Atlanta | 4 | No Payload","name_short":"atl-4","host":"atl-1.us.uncletopia.com","port":27045,"enabled":true,"region":"us-east","cc":"us","latitude":33.753746,"longitude":-84.38633,"reserved":0,"last_update":"0001-01-01T00:00:00Z","name_a2s":"","protocol":0,"map":"","folder":"","game":"","app_id":0,"player_count":0,"max_players":0,"Bots":0,"server_type":"","server_os":"","password":false,"vac":false,"version":"","steam_id":0,"keywords":null,"game_id":0,"stv_port":0,"stv_name":"","players":null},{"server_id":2,"name":"Uncletopia | Chicago | 1 | All Maps","name_short":"chi-1","host":"chi-1.us.uncletopia.com","port":27015,"enabled":true,"region":"us-central","cc":"us","latitude":41.881832,"longitude":-87.62318,"reserved":0,"last_update":"0001-01-01T00:00:00Z","name_a2s":"Uncletopia | Chicago | 1 | All Maps","protocol":17,"map":"pl_frontier_final","folder":"tf","game":"Team Fortress","app_id":440,"player_count":0,"max_players":24,"Bots":0,"server_type":"Dedicated","server_os":"Linux","password":true,"vac":true,"version":"7932396","steam_id":85568392924469984,"keywords":["nocrits","nodmgspread","payload","uncletopia"],"game_id":440,"stv_port":27016,"stv_name":"Uncletopia | Chicago | 1 | All Maps | STV","players":null},{"server_id":106,"name":"Uncletopia | Chicago | 2 | All Maps","name_short":"chi-2","host":"chi-1.us.uncletopia.com","port":27025,"enabled":true,"region":"us-central","cc":"us","latitude":41.881832,"longitude":-87.62318,"reserved":0,"last_update":"0001-01-01T00:00:00Z","name_a2s":"Uncletopia | Chicago | 2 | All Maps","protocol":17,"map":"pl_thundermountain","folder":"tf","game":"Team Fortress","app_id":440,"player_count":22,"max_players":24,"Bots":0,"server_type":"Dedicated","server_os":"Linux","password":true,"vac":true,"version":"7932396","steam_id":85568392924469985,"keywords":["nocrits","nodmgspread","payload","uncletopia"],"game_id":440,"stv_port":27026,"stv_name":"Uncletopia | Chicago | 2 | All Maps | STV","players":[{"user_id":993,"name":"5unny PHD IN HATEOLOGY","steam_id":76561198133111058,"connected_time":1233000000000,"state":"active","ping":73},{"user_id":986,"name":"bobbymcbobington","steam_id":76561199089411172,"connected_time":1604000000000,"state":"active","ping":117},{"user_id":973,"name":"Deven","steam_id":76561199122858976,"connected_time":2630000000000,"state":"active","ping":161},{"user_id":1005,"name":"Captain Eagle Gun","steam_id":76561198049948219,"connected_time":79000000000,"state":"active","ping":73},{"user_id":980,"name":"Mank","steam_id":76561198189421005,"connected_time":1820000000000,"state":"active","ping":45},{"user_id":1002,"name":"braydent92 #TRUMP2024","steam_id":76561197983766742,"connected_time":380000000000,"state":"active","ping":74},{"user_id":984,"name":"fries your balls","steam_id":76561199143299669,"connected_time":1629000000000,"state":"active","ping":79},{"user_id":961,"name":"moopmop","steam_id":76561198065224965,"connected_time":4237000000000,"state":"active","ping":98},{"user_id":966,"name":"aleksei","steam_id":76561199061380038,"connected_time":3937000000000,"state":"active","ping":75},{"user_id":991,"name":"Cy4nideCutie","steam_id":76561198126686695,"connected_time":1253000000000,"state":"active","ping":59},{"user_id":994,"name":"WONDER.","steam_id":76561198092527854,"connected_time":1222000000000,"state":"active","ping":104},{"user_id":964,"name":"ONE HEART ONE FLOWER","steam_id":76561198016987402,"connected_time":4202000000000,"state":"active","ping":90},{"user_id":987,"name":"I eated it :3","steam_id":76561198059575962,"connected_time":1443000000000,"state":"active","ping":57},{"user_id":997,"name":"Isotope","steam_id":76561199480883504,"connected_time":995000000000,"state":"active","ping":57},{"user_id":995,"name":"VzlÃ¦d","steam_id":76561198044192839,"connected_time":1107000000000,"state":"active","ping":60},{"user_id":998,"name":"weeb_whacker","steam_id":76561198187098041,"connected_time":852000000000,"state":"active","ping":57},{"user_id":1006,"name":"Voltaire!","steam_id":76561198047528141,"connected_time":74000000000,"state":"active","ping":88},{"user_id":999,"name":"Tailsmonster12","steam_id":76561198399989261,"connected_time":843000000000,"state":"active","ping":63},{"user_id":988,"name":"sweaterfan","steam_id":76561199389567214,"connected_time":1443000000000,"state":"active","ping":68},{"user_id":979,"name":"Goth Spy Boyfriend","steam_id":76561198104086771,"connected_time":2374000000000,"state":"active","ping":101},{"user_id":1000,"name":"Kkendal","steam_id":76561198042878852,"connected_time":676000000000,"state":"active","ping":69},{"user_id":1007,"name":"ipanpokden04","steam_id":76561198855035130,"connected_time":25000000000,"state":"spawning","ping":287}]},{"server_id":402,"name":"Uncletopia | Chicago | 3 | All Maps","name_short":"chi-3","host":"chi-1.us.uncletopia.com","port":27035,"enabled":true,"region":"us-central","cc":"us","latitude":41.881832,"longitude":-87.62318,"reserved":0,"last_update":"0001-01-01T00:00:00Z","name_a2s":"Uncletopia | Chicago | 3 | All Maps","protocol":17,"map":"cp_process_final","folder":"tf","game":"Team Fortress","app_id":440,"player_count":10,"max_players":24,"Bots":0,"server_type":"Dedicated","server_os":"Linux","password":true,"vac":true,"version":"7932396","steam_id":85568392924515191,"keywords":["cp","nocrits","nodmgspread","uncletopia"],"game_id":440,"stv_port":27036,"stv_name":"Uncletopia | Chicago | 3 | All Maps | STV","players":[{"user_id":584,"name":"Spidoo","steam_id":76561198239746894,"connected_time":373000000000,"state":"active","ping":57},{"user_id":571,"name":"RELAX","steam_id":76561198080940210,"connected_time":2213000000000,"state":"active","ping":63},{"user_id":572,"name":"Dresden06","steam_id":76561199202616505,"connected_time":1920000000000,"state":"active","ping":113},{"user_id":573,"name":"uhooter","steam_id":76561198007829078,"connected_time":1871000000000,"state":"active","ping":46},{"user_id":574,"name":"Mengle","steam_id":76561198001953684,"connected_time":1378000000000,"state":"active","ping":57},{"user_id":585,"name":"DarkHero","steam_id":76561198197125710,"connected_time":343000000000,"state":"active","ping":54},{"user_id":576,"name":"firstlastmcgee","steam_id":76561198170187989,"connected_time":1187000000000,"state":"active","ping":59},{"user_id":583,"name":"ZenkoZSprite","steam_id":76561198190132250,"connected_time":576000000000,"state":"active","ping":71},{"user_id":578,"name":"A Possum","steam_id":76561199083147807,"connected_time":1036000000000,"state":"active","ping":147},{"user_id":555,"name":"Smoby","steam_id":76561198823256099,"connected_time":5227000000000,"state":"active","ping":153}]},{"server_id":403,"name":"Uncletopia | Chicago | 4 | All Maps","name_short":"chi-4","host":"chi-1.us.uncletopia.com","port":27045,"enabled":true,"region":"us-central","cc":"us","latitude":41.881832,"longitude":-87.62318,"reserved":0,"last_update":"0001-01-01T00:00:00Z","name_a2s":"Uncletopia | Chicago | 4 | All Maps","protocol":17,"map":"pl_upward","folder":"tf","game":"Team Fortress","app_id":440,"player_count":15,"max_players":24,"Bots":0,"server_type":"Dedicated","server_os":"Linux","password":true,"vac":true,"version":"7932396","steam_id":85568392924515193,"keywords":["nocrits","nodmgspread","payload","uncletopia"],"game_id":440,"stv_port":27046,"stv_name":"Uncletopia | Chicago | 4 | All Maps | STV","players":[{"user_id":569,"name":"Rave Blitz","steam_id":76561198019158476,"connected_time":408000000000,"state":"active","ping":106},{"user_id":565,"name":"MAYHEMâ˜…","steam_id":76561198448495596,"connected_time":590000000000,"state":"active","ping":86},{"user_id":559,"name":"gus","steam_id":76561199221202455,"connected_time":1402000000000,"state":"active","ping":100},{"user_id":571,"name":"Sychke","steam_id":76561198067144055,"connected_time":289000000000,"state":"active","ping":44},{"user_id":521,"name":"PapaYeager","steam_id":76561198072314524,"connected_time":6260000000000,"state":"active","ping":74},{"user_id":577,"name":"Ramlaal shastri","steam_id":76561198451457942,"connected_time":28000000000,"state":"spawning","ping":82},{"user_id":562,"name":"Stranger in a Strange Land","steam_id":76561198049843671,"connected_time":722000000000,"state":"active","ping":61},{"user_id":572,"name":":Closed.","steam_id":76561198212598967,"connected_time":279000000000,"state":"active","ping":115},{"user_id":438,"name":"Truffles","steam_id":76561198095868800,"connected_time":15365000000000,"state":"active","ping":78},{"user_id":462,"name":"Grand","steam_id":76561198290143399,"connected_time":13622000000000,"state":"active","ping":60},{"user_id":573,"name":"watchfull","steam_id":76561198433266742,"connected_time":162000000000,"state":"active","ping":97},{"user_id":575,"name":"Scorpianswag","steam_id":76561198260651036,"connected_time":133000000000,"state":"active","ping":89},{"user_id":546,"name":"Black Guy (REAL)","steam_id":76561199093824429,"connected_time":2823000000000,"state":"active","ping":78},{"user_id":483,"name":"Fred Durst","steam_id":76561198415850476,"connected_time":11633000000000,"state":"active","ping":56},{"user_id":537,"name":"LordOfTheNoobs","steam_id":76561197962697523,"connected_time":4183000000000,"state":"active","ping":72}]},{"server_id":36,"name":"Uncletopia | Chicago | 5 | All Maps","name_short":"chi-5","host":"chi-2.us.uncletopia.com","port":27015,"enabled":true,"region":"us-central","cc":"us","latitude":41.881832,"longitude":-87.62318,"reserved":0,"last_update":"0001-01-01T00:00:00Z","name_a2s":"Uncletopia | Chicago | 5 | All Maps","protocol":17,"map":"cp_mountainlab","folder":"tf","game":"Team Fortress","app_id":440,"player_count":1,"max_players":24,"Bots":0,"server_type":"Dedicated","server_os":"Linux","password":true,"vac":true,"version":"7932396","steam_id":85568392924866362,"keywords":["cp","nocrits","nodmgspread","uncletopia"],"game_id":440,"stv_port":27016,"stv_name":"Uncletopia | Chicago | 5 | All Maps | STV","players":[{"user_id":626,"name":"darjan69713","steam_id":76561199428131909,"connected_time":286000000000,"state":"active","ping":273}]},{"server_id":37,"name":"Uncletopia | Chicago | 6 | All Maps","name_short":"chi-6","host":"chi-2.us.uncletopia.com","port":27025,"enabled":true,"region":"us-central","cc":"us","latitude":41.881832,"longitude":-87.62318,"reserved":0,"last_update":"0001-01-01T00:00:00Z","name_a2s":"Uncletopia | Chicago | 6 | All Maps","protocol":17,"map":"koth_cascade","folder":"tf","game":"Team Fortress","app_id":440,"player_count":4,"max_players":24,"Bots":0,"server_type":"Dedicated","server_os":"Linux","password":true,"vac":true,"version":"7932396","steam_id":85568392924866363,"keywords":["cp","nocrits","nodmgspread","uncletopia"],"game_id":440,"stv_port":27026,"stv_name":"Uncletopia | Chicago | 6 | All Maps | STV","players":[{"user_id":639,"name":"limitspartan","steam_id":76561199166622021,"connected_time":1052000000000,"state":"active","ping":83},{"user_id":638,"name":"UrLocalPyroMain","steam_id":76561198075562180,"connected_time":1062000000000,"state":"active","ping":68},{"user_id":642,"name":"maxscout","steam_id":76561198448497948,"connected_time":700000000000,"state":"active","ping":81},{"user_id":641,"name":"Xyverle","steam_id":76561198799726415,"connected_time":1033000000000,"state":"active","ping":55}]},{"server_id":38,"name":"Uncletopia | Chicago | 7 | Stopwatch Beta","name_short":"chi-7","host":"chi-2.us.uncletopia.com","port":27035,"enabled":true,"region":"us-central","cc":"us","latitude":41.881832,"longitude":-87.62318,"reserved":0,"last_update":"0001-01-01T00:00:00Z","name_a2s":"Uncletopia | Chicago | 7 | Stopwatch Beta","protocol":17,"map":"pl_borneo","folder":"tf","game":"Team Fortress","app_id":440,"player_count":0,"max_players":24,"Bots":0,"server_type":"Dedicated","server_os":"Linux","password":true,"vac":true,"version":"7932396","steam_id":85568392924866364,"keywords":["nocrits","nodmgspread","payload","uncletopia"],"game_id":440,"stv_port":27036,"stv_name":"Uncletopia | Chicago | 7 | Stopwatch Beta | STV","players":null},{"server_id":39,"name":"Uncletopia | Chicago | 8 | Community","name_short":"chi-8","host":"chi-2.us.uncletopia.com","port":27045,"enabled":true,"region":"us-central","cc":"us","latitude":41.881832,"longitude":-87.62318,"reserved":0,"last_update":"0001-01-01T00:00:00Z","name_a2s":"Uncletopia | Chicago | 8 | Community","protocol":17,"map":"workshop/pl_emerge_rc2.ugc888027758","folder":"tf","game":"Team Fortress","app_id":440,"player_count":0,"max_players":24,"Bots":0,"server_type":"Dedicated","server_os":"Linux","password":true,"vac":true,"version":"7932396","steam_id":85568392924866365,"keywords":["nocrits","nodmgspread","payload","uncletopia"],"game_id":440,"stv_port":27046,"stv_name":"Uncletopia | Chicago | 8 | Community | STV","players":null},{"server_id":8,"name":"Uncletopia | Dallas | 1 | All Maps","name_short":"dal-1","host":"dal-1.us.uncletopia.com","port":27015,"enabled":true,"region":"us-central","cc":"us","latitude":32.779167,"longitude":-96.80889,"reserved":0,"last_update":"0001-01-01T00:00:00Z","name_a2s":"Uncletopia | Dallas | 1 | All Maps","protocol":17,"map":"pl_upward","folder":"tf","game":"Team Fortress","app_id":440,"player_count":24,"max_players":24,"Bots":0,"server_type":"Dedicated","server_os":"Linux","password":true,"vac":true,"version":"7932396","steam_id":85568392924469986,"keywords":["nocrits","nodmgspread","payload","uncletopia"],"game_id":440,"stv_port":27016,"stv_name":"Uncletopia | Dallas | 1 | All Maps | STV","players":[{"user_id":680,"name":"OddSlaush","steam_id":76561198043898488,"connected_time":1165000000000,"state":"active","ping":64},{"user_id":666,"name":"Saucy Boy","steam_id":76561198178332031,"connected_time":1517000000000,"state":"active","ping":90},{"user_id":645,"name":"mn","steam_id":76561198042357436,"connected_time":2243000000000,"state":"active","ping":91},{"user_id":623,"name":"Tweek Tweak","steam_id":76561198445739792,"connected_time":3025000000000,"state":"active","ping":95},{"user_id":624,"name":"GOLDIE","steam_id":76561199375258674,"connected_time":3006000000000,"state":"active","ping":84},{"user_id":647,"name":"ropesnek","steam_id":76561198140591498,"connected_time":2223000000000,"state":"active","ping":52},{"user_id":682,"name":"Khaiden","steam_id":76561198104454754,"connected_time":1029000000000,"state":"active","ping":178},{"user_id":589,"name":"scrub","steam_id":76561197968817208,"connected_time":6154000000000,"state":"active","ping":56},{"user_id":686,"name":"derdds","steam_id":76561198034339940,"connected_time":3000000000,"state":"spawning","ping":95},{"user_id":627,"name":"FineWine","steam_id":76561199122190694,"connected_time":2955000000000,"state":"active","ping":128},{"user_id":635,"name":".:MEGGIE:.","steam_id":76561198038291026,"connected_time":2412000000000,"state":"active","ping":35},{"user_id":683,"name":"Luna","steam_id":76561198023352750,"connected_time":943000000000,"state":"active","ping":90},{"user_id":638,"name":"DededeMain | trade.tf","steam_id":76561198310951632,"connected_time":2335000000000,"state":"active","ping":83},{"user_id":676,"name":"Celestia","steam_id":76561198046661611,"connected_time":1210000000000,"state":"active","ping":80},{"user_id":684,"name":"Yummy Kabobz","steam_id":76561198067661705,"connected_time":767000000000,"state":"active","ping":79},{"user_id":641,"name":"Fred","steam_id":76561197983870604,"connected_time":2273000000000,"state":"active","ping":68},{"user_id":650,"name":"PurplePanda","steam_id":76561198076484653,"connected_time":2165000000000,"state":"active","ping":45},{"user_id":671,"name":"xkatsuz","steam_id":76561199005104172,"connected_time":1367000000000,"state":"active","ping":62},{"user_id":651,"name":"little_neb","steam_id":76561198117396733,"connected_time":2156000000000,"state":"active","ping":62},{"user_id":652,"name":"7__2","steam_id":76561198074184077,"connected_time":2151000000000,"state":"active","ping":54},{"user_id":677,"name":"drifter","steam_id":76561197998271149,"connected_time":1189000000000,"state":"active","ping":181},{"user_id":656,"name":"rad killl raccoon","steam_id":76561198980975595,"connected_time":2101000000000,"state":"active","ping":127},{"user_id":662,"name":"cheeseball","steam_id":76561198107078963,"connected_time":1972000000000,"state":"active","ping":95},{"user_id":667,"name":"Swanky","steam_id":76561198056242899,"connected_time":1473000000000,"state":"active","ping":81}]},{"server_id":108,"name":"Uncletopia | Dallas | 2 | All Maps","name_short":"dal-2","host":"dal-1.us.uncletopia.com","port":27025,"enabled":true,"region":"us-central","cc":"us","latitude":32.779167,"longitude":-96.80889,"reserved":0,"last_update":"0001-01-01T00:00:00Z","name_a2s":"Uncletopia | Dallas | 2 | All Maps","protocol":17,"map":"pl_upward","folder":"tf","game":"Team Fortress","app_id":440,"player_count":23,"max_players":24,"Bots":0,"server_type":"Dedicated","server_os":"Linux","password":true,"vac":true,"version":"7932396","steam_id":85568392924469988,"keywords":["nocrits","nodmgspread","payload","uncletopia"],"game_id":440,"stv_port":27026,"stv_name":"Uncletopia | Dallas | 2 | All Maps | STV","players":[{"user_id":322,"name":"cat9","steam_id":76561198353456379,"connected_time":8337000000000,"state":"active","ping":60},{"user_id":395,"name":"maksym.purski","steam_id":76561199381038035,"connected_time":971000000000,"state":"active","ping":182},{"user_id":403,"name":"skrek","steam_id":76561198268260663,"connected_time":548000000000,"state":"active","ping":46},{"user_id":396,"name":"Raid Shadow Sections","steam_id":76561198050456248,"connected_time":922000000000,"state":"active","ping":78},{"user_id":385,"name":"Rilshrink","steam_id":76561198202586792,"connected_time":3205000000000,"state":"active","ping":53},{"user_id":397,"name":"Dinero","steam_id":76561198408922663,"connected_time":914000000000,"state":"active","ping":111},{"user_id":374,"name":"RapidWizzard","steam_id":76561199248097034,"connected_time":3802000000000,"state":"active","ping":58},{"user_id":389,"name":"chocolatkey","steam_id":76561198092466325,"connected_time":2907000000000,"state":"active","ping":98},{"user_id":392,"name":"Korporal_Kapuzen","steam_id":76561198281447704,"connected_time":2028000000000,"state":"active","ping":73},{"user_id":394,"name":"Nathontin","steam_id":76561198263545504,"connected_time":1169000000000,"state":"active","ping":75},{"user_id":398,"name":"Keirb","steam_id":76561198027031567,"connected_time":911000000000,"state":"active","ping":115},{"user_id":343,"name":"peebs","steam_id":76561198261319753,"connected_time":7008000000000,"state":"active","ping":54},{"user_id":372,"name":"Clubs","steam_id":76561198271133942,"connected_time":3851000000000,"state":"active","ping":56},{"user_id":366,"name":"Deadline","steam_id":76561199079078845,"connected_time":4267000000000,"state":"active","ping":80},{"user_id":399,"name":"battle gnome","steam_id":76561199466230542,"connected_time":855000000000,"state":"active","ping":86},{"user_id":400,"name":"Tomoscones","steam_id":76561198813586588,"connected_time":794000000000,"state":"active","ping":98},{"user_id":357,"name":".mp3","steam_id":76561198070710025,"connected_time":5719000000000,"state":"active","ping":56},{"user_id":387,"name":"KitKats","steam_id":76561198201069328,"connected_time":3127000000000,"state":"active","ping":134},{"user_id":375,"name":"Gglilboy","steam_id":76561198097556319,"connected_time":3779000000000,"state":"active","ping":98},{"user_id":401,"name":"Atlas","steam_id":76561198127975050,"connected_time":770000000000,"state":"active","ping":73},{"user_id":376,"name":"Boba","steam_id":76561198351093991,"connected_time":3777000000000,"state":"active","ping":48},{"user_id":404,"name":"Ekohtwo","steam_id":76561198067994868,"connected_time":247000000000,"state":"active","ping":90},{"user_id":388,"name":"Pitch is a Stick","steam_id":76561198800287853,"connected_time":3119000000000,"state":"active","ping":123}]},{"server_id":5,"name":"Uncletopia | Frankfurt | 1 | All Maps","name_short":"frk-1","host":"frk-1.de.uncletopia.com","port":27015,"enabled":true,"region":"eu","cc":"de","latitude":50.110924,"longitude":8.682127,"reserved":0,"last_update":"0001-01-01T00:00:00Z","name_a2s":"Uncletopia | Frankfurt | 1 | All Maps","protocol":17,"map":"cp_snakewater_final1","folder":"tf","game":"Team Fortress","app_id":440,"player_count":0,"max_players":24,"Bots":0,"server_type":"Dedicated","server_os":"Linux","password":true,"vac":true,"version":"7932396","steam_id":85568392924469989,"keywords":["cp","nocrits","nodmgspread","uncletopia"],"game_id":440,"stv_port":27016,"stv_name":"Uncletopia | Frankfurt | 1 | All Maps | STV","players":null},{"server_id":110,"name":"Uncletopia | Frankfurt | 2 | All Maps","name_short":"frk-2","host":"frk-1.de.uncletopia.com","port":27025,"enabled":true,"region":"eu","cc":"de","latitude":50.110924,"longitude":8.682127,"reserved":0,"last_update":"0001-01-01T00:00:00Z","name_a2s":"Uncletopia | Frankfurt | 2 | All Maps","protocol":17,"map":"pl_swiftwater_final1","folder":"tf","game":"Team Fortress","app_id":440,"player_count":0,"max_players":24,"Bots":0,"server_type":"Dedicated","server_os":"Linux","password":true,"vac":true,"version":"7932396","steam_id":85568392924469990,"keywords":["nocrits","nodmgspread","payload","uncletopia"],"game_id":440,"stv_port":27026,"stv_name":"Uncletopia | Frankfurt | 2 | All Maps | STV","players":null},{"server_id":308,"name":"Uncletopia | Frankfurt | 3 | All Maps","name_short":"frk-3","host":"frk-1.de.uncletopia.com","port":27035,"enabled":true,"region":"eu","cc":"de","latitude":50.110924,"longitude":8.682127,"reserved":0,"last_update":"0001-01-01T00:00:00Z","name_a2s":"Uncletopia | Frankfurt | 3 | All Maps","protocol":17,"map":"pl_swiftwater_final1","folder":"tf","game":"Team Fortress","app_id":440,"player_count":0,"max_players":24,"Bots":0,"server_type":"Dedicated","server_os":"Linux","password":true,"vac":true,"version":"7932396","steam_id":85568392924504274,"keywords":["nocrits","nodmgspread","payload","uncletopia"],"game_id":440,"stv_port":27036,"stv_name":"Uncletopia | Frankfurt | 3 | All Maps | STV","players":null},{"server_id":309,"name":"Uncletopia | Frankfurt | 4 | All Maps","name_short":"frk-4","host":"frk-1.de.uncletopia.com","port":27045,"enabled":true,"region":"eu","cc":"de","latitude":50.110924,"longitude":8.682127,"reserved":0,"last_update":"0001-01-01T00:00:00Z","name_a2s":"Uncletopia | Frankfurt | 4 | All Maps","protocol":17,"map":"pl_upward","folder":"tf","game":"Team Fortress","app_id":440,"player_count":0,"max_players":24,"Bots":0,"server_type":"Dedicated","server_os":"Linux","password":true,"vac":true,"version":"7932396","steam_id":85568392924504275,"keywords":["nocrits","nodmgspread","payload","uncletopia"],"game_id":440,"stv_port":27046,"stv_name":"Uncletopia | Frankfurt | 4 | All Maps | STV","players":null},{"server_id":310,"name":"Uncletopia | Frankfurt | 5 | All Maps","name_short":"frk-5","host":"frk-1.de.uncletopia.com","port":27055,"enabled":true,"region":"eu","cc":"de","latitude":50.110924,"longitude":8.682127,"reserved":0,"last_update":"0001-01-01T00:00:00Z","name_a2s":"Uncletopia | Frankfurt | 5 | All Maps","protocol":17,"map":"cp_mountainlab","folder":"tf","game":"Team Fortress","app_id":440,"player_count":24,"max_players":24,"Bots":0,"server_type":"Dedicated","server_os":"Linux","password":true,"vac":true,"version":"7932396","steam_id":85568392924504277,"keywords":["cp","nocrits","nodmgspread","uncletopia"],"game_id":440,"stv_port":27056,"stv_name":"Uncletopia | Frankfurt | 5 | All Maps | STV","players":[{"user_id":39,"name":"Jimmy's balls","steam_id":76561198841930820,"connected_time":1299000000000,"state":"active","ping":90},{"user_id":5,"name":"MichaÅ‚","steam_id":76561198320346362,"connected_time":2917000000000,"state":"active","ping":56},{"user_id":50,"name":"imfurix","steam_id":76561199488043349,"connected_time":271000000000,"state":"active","ping":183},{"user_id":48,"name":"rock","steam_id":76561198093488870,"connected_time":604000000000,"state":"active","ping":71},{"user_id":52,"name":"cof","steam_id":76561199128417805,"connected_time":138000000000,"state":"active","ping":69},{"user_id":9,"name":"Frylock","steam_id":76561198050292560,"connected_time":2700000000000,"state":"active","ping":42},{"user_id":14,"name":"Tamamo","steam_id":76561198116789623,"connected_time":2428000000000,"state":"active","ping":59},{"user_id":28,"name":"Zelascelar","steam_id":76561197974628666,"connected_time":1599000000000,"state":"active","ping":96},{"user_id":46,"name":"Basinox","steam_id":76561198019628384,"connected_time":682000000000,"state":"active","ping":68},{"user_id":16,"name":"-gunripp0r^be / Obelix^","steam_id":76561197999306879,"connected_time":2296000000000,"state":"active","ping":109},{"user_id":53,"name":"Monkey","steam_id":76561199486539346,"connected_time":22000000000,"state":"active","ping":66},{"user_id":22,"name":"angfan1","steam_id":76561198804681404,"connected_time":1977000000000,"state":"active","ping":74},{"user_id":30,"name":"Batman","steam_id":76561199041636597,"connected_time":1577000000000,"state":"active","ping":71},{"user_id":47,"name":"Wujek Cacek","steam_id":76561198010267943,"connected_time":607000000000,"state":"active","ping":74},{"user_id":24,"name":"markotrichko4238","steam_id":76561199125036759,"connected_time":1952000000000,"state":"active","ping":84},{"user_id":25,"name":"Chief Executive Officer of Sex","steam_id":76561198385989487,"connected_time":1941000000000,"state":"active","ping":111},{"user_id":32,"name":"The Funny Cat-Heaby","steam_id":76561198439978112,"connected_time":1499000000000,"state":"active","ping":124},{"user_id":45,"name":"Koli","steam_id":76561197992428783,"connected_time":706000000000,"state":"active","ping":56},{"user_id":42,"name":"killbind irl","steam_id":76561198180637374,"connected_time":936000000000,"state":"active","ping":87},{"user_id":49,"name":"â™¥","steam_id":76561198162858633,"connected_time":413000000000,"state":"active","ping":81},{"user_id":36,"name":"f.fred04 #save_tf2","steam_id":76561198311701465,"connected_time":1382000000000,"state":"active","ping":105},{"user_id":37,"name":"bleh","steam_id":76561198257158275,"connected_time":1322000000000,"state":"active","ping":158},{"user_id":38,"name":"Mr. Sandman","steam_id":76561198281209867,"connected_time":1317000000000,"state":"active","ping":49},{"user_id":40,"name":"night.s","steam_id":76561198326287823,"connected_time":1250000000000,"state":"active","ping":76}]},{"server_id":311,"name":"Uncletopia | Frankfurt | 6 | All Maps","name_short":"frk-6","host":"frk-1.de.uncletopia.com","port":27065,"enabled":true,"region":"eu","cc":"de","latitude":50.110924,"longitude":8.682127,"reserved":0,"last_update":"0001-01-01T00:00:00Z","name_a2s":"Uncletopia | Frankfurt | 6 | All Maps","protocol":17,"map":"koth_viaduct","folder":"tf","game":"Team Fortress","app_id":440,"player_count":0,"max_players":24,"Bots":0,"server_type":"Dedicated","server_os":"Linux","password":true,"vac":true,"version":"7932396","steam_id":85568392924504278,"keywords":["cp","nocrits","nodmgspread","uncletopia"],"game_id":440,"stv_port":27066,"stv_name":"Uncletopia | Frankfurt | 6 | All Maps | STV","players":null},{"server_id":23,"name":"Uncletopia | Frankfurt | 7 | Stopwatch Beta","name_short":"frk-7","host":"frk-1.de.uncletopia.com","port":27075,"enabled":true,"region":"eu","cc":"de","latitude":50.110924,"longitude":8.682127,"reserved":0,"last_update":"0001-01-01T00:00:00Z","name_a2s":"Uncletopia | Frankfurt | 7 | Stopwatch Beta","protocol":17,"map":"pl_snowycoast","folder":"tf","game":"Team Fortress","app_id":440,"player_count":0,"max_players":24,"Bots":0,"server_type":"Dedicated","server_os":"Linux","password":true,"vac":true,"version":"7932396","steam_id":85568392924742827,"keywords":["nocrits","nodmgspread","payload","uncletopia"],"game_id":440,"stv_port":27076,"stv_name":"Uncletopia | Frankfurt | 7 | Stopwatch Beta | STV","players":null},{"server_id":24,"name":"Uncletopia | Frankfurt | 8 | Community","name_short":"frk-8","host":"frk-1.de.uncletopia.com","port":27085,"enabled":true,"region":"eu","cc":"de","latitude":50.110924,"longitude":8.682127,"reserved":0,"last_update":"0001-01-01T00:00:00Z","name_a2s":"Uncletopia | Frankfurt | 8 | Community","protocol":17,"map":"pl_barnblitz","folder":"tf","game":"Team Fortress","app_id":440,"player_count":0,"max_players":24,"Bots":0,"server_type":"Dedicated","server_os":"Linux","password":true,"vac":true,"version":"7932396","steam_id":85568392924742828,"keywords":["nocrits","nodmgspread","payload","uncletopia"],"game_id":440,"stv_port":27086,"stv_name":"Uncletopia | Frankfurt | 8 | Community | STV","players":null},{"server_id":202,"name":"Uncletopia | Hong Kong | 1 | All Maps","name_short":"hgk-1","host":"hgk-1.hk.uncletopia.com","port":27015,"enabled":true,"region":"asia","cc":"hk","latitude":22.302711,"longitude":114.177216,"reserved":0,"last_update":"0001-01-01T00:00:00Z","name_a2s":"Uncletopia | Hong Kong | 1 | All Maps","protocol":17,"map":"cp_sunshine","folder":"tf","game":"Team Fortress","app_id":440,"player_count":23,"max_players":24,"Bots":0,"server_type":"Dedicated","server_os":"Linux","password":true,"vac":true,"version":"7932396","steam_id":85568392924494504,"keywords":["cp","nocrits","nodmgspread","uncletopia"],"game_id":440,"stv_port":27016,"stv_name":"Uncletopia | Hong Kong | 1 | All Maps | STV","players":[{"user_id":222,"name":"UZ","steam_id":76561198179320563,"connected_time":2400000000000,"state":"active","ping":144},{"user_id":225,"name":"7853","steam_id":76561199390507975,"connected_time":1663000000000,"state":"active","ping":51},{"user_id":217,"name":"Hay","steam_id":76561199438952901,"connected_time":2756000000000,"state":"active","ping":51},{"user_id":240,"name":"ç™½ç»™å¤©ä½¿","steam_id":76561198931069641,"connected_time":423000000000,"state":"active","ping":105},{"user_id":238,"name":"QWQ","steam_id":76561198886731650,"connected_time":480000000000,"state":"active","ping":111},{"user_id":26,"name":"KUZCO","steam_id":76561198115298835,"connected_time":13387000000000,"state":"active","ping":63},{"user_id":241,"name":"Kurtie","steam_id":76561198144737876,"connected_time":388000000000,"state":"active","ping":63},{"user_id":229,"name":"Lelouch","steam_id":76561198828840546,"connected_time":1287000000000,"state":"active","ping":81},{"user_id":54,"name":"17","steam_id":76561198241530712,"connected_time":11925000000000,"state":"active","ping":59},{"user_id":207,"name":"clori","steam_id":76561199146847474,"connected_time":4500000000000,"state":"active","ping":42},{"user_id":109,"name":"Milf (The fan O'Milk)","steam_id":76561198213031155,"connected_time":6507000000000,"state":"active","ping":91},{"user_id":218,"name":"im_0ff","steam_id":76561198339346695,"connected_time":2756000000000,"state":"active","ping":120},{"user_id":242,"name":"ballslover","steam_id":76561198353003282,"connected_time":354000000000,"state":"active","ping":87},{"user_id":227,"name":"Streety","steam_id":76561199098969003,"connected_time":1612000000000,"state":"active","ping":61},{"user_id":223,"name":"Talkk More","steam_id":76561198305424433,"connected_time":2386000000000,"state":"active","ping":82},{"user_id":206,"name":"Green","steam_id":76561198391718463,"connected_time":4512000000000,"state":"active","ping":56},{"user_id":87,"name":"spinach (old mouse)","steam_id":76561198042539541,"connected_time":9104000000000,"state":"active","ping":84},{"user_id":67,"name":"SICSIN","steam_id":76561198083923462,"connected_time":10836000000000,"state":"active","ping":75},{"user_id":236,"name":"ConHoshi","steam_id":76561199387718733,"connected_time":505000000000,"state":"active","ping":81},{"user_id":224,"name":"Stupid B","steam_id":76561198131423270,"connected_time":2033000000000,"state":"active","ping":88},{"user_id":232,"name":"Mystery cheese ðŸ§€","steam_id":76561198304002409,"connected_time":639000000000,"state":"active","ping":82},{"user_id":85,"name":"Háº±ng Ra Ä‘Æ¡","steam_id":76561199373637717,"connected_time":9129000000000,"state":"active","ping":68},{"user_id":244,"name":"jarell","steam_id":76561198271534653,"connected_time":252000000000,"state":"active","ping":57}]},{"server_id":1,"name":"Uncletopia | Los Angeles | 1 | All Maps","name_short":"lax-1","host":"lax-1.us.uncletopia.com","port":27015,"enabled":true,"region":"us-west","cc":"us","latitude":33.94279,"longitude":-118.41004,"reserved":0,"last_update":"0001-01-01T00:00:00Z","name_a2s":"Uncletopia | Los Angeles | 1 | All Maps","protocol":17,"map":"koth_nucleus","folder":"tf","game":"Team Fortress","app_id":440,"player_count":15,"max_players":24,"Bots":0,"server_type":"Dedicated","server_os":"Linux","password":true,"vac":true,"version":"7932396","steam_id":85568392924469991,"keywords":["cp","nocrits","nodmgspread","uncletopia"],"game_id":440,"stv_port":27016,"stv_name":"Uncletopia | Los Angeles | 1 | All Maps | STV","players":[{"user_id":440,"name":"Premium Bart","steam_id":76561198173255559,"connected_time":1683000000000,"state":"active","ping":49},{"user_id":454,"name":"Fernando","steam_id":76561198443038047,"connected_time":667000000000,"state":"active","ping":47},{"user_id":442,"name":"dannydobbs","steam_id":76561198062379343,"connected_time":1550000000000,"state":"active","ping":95},{"user_id":461,"name":"Gasly The Red","steam_id":76561198397898297,"connected_time":9000000000,"state":"active","ping":135},{"user_id":444,"name":"Deetchy","steam_id":76561198072091523,"connected_time":1483000000000,"state":"active","ping":76},{"user_id":452,"name":"LipLya","steam_id":76561198078386761,"connected_time":942000000000,"state":"active","ping":67},{"user_id":446,"name":"sweep57","steam_id":76561198158478685,"connected_time":1359000000000,"state":"active","ping":87},{"user_id":435,"name":"Tommy Salami","steam_id":76561198392514273,"connected_time":2606000000000,"state":"active","ping":65},{"user_id":391,"name":"werolat","steam_id":76561197960544784,"connected_time":6836000000000,"state":"active","ping":59},{"user_id":406,"name":"Intruder-TNL","steam_id":76561199467017102,"connected_time":4551000000000,"state":"active","ping":79},{"user_id":436,"name":"DerpinAroundâ„¢","steam_id":76561198073506539,"connected_time":2538000000000,"state":"active","ping":79},{"user_id":458,"name":"Mocha Josie","steam_id":76561198066452726,"connected_time":327000000000,"state":"active","ping":52},{"user_id":459,"name":"kevlarorc","steam_id":76561197996133603,"connected_time":178000000000,"state":"active","ping":81},{"user_id":460,"name":"Irony is pretty cringy","steam_id":76561198120391460,"connected_time":98000000000,"state":"active","ping":46},{"user_id":422,"name":"Born_In_Xixax","steam_id":76561197960464479,"connected_time":3602000000000,"state":"active","ping":90}]},{"server_id":112,"name":"Uncletopia | Los Angeles | 2 | All Maps","name_short":"lax-2","host":"lax-1.us.uncletopia.com","port":27025,"enabled":true,"region":"us-west","cc":"us","latitude":33.94279,"longitude":-118.41004,"reserved":0,"last_update":"0001-01-01T00:00:00Z","name_a2s":"Uncletopia | Los Angeles | 2 | All Maps","protocol":17,"map":"pl_snowycoast","folder":"tf","game":"Team Fortress","app_id":440,"player_count":0,"max_players":24,"Bots":0,"server_type":"Dedicated","server_os":"Linux","password":true,"vac":true,"version":"7932396","steam_id":85568392924469992,"keywords":["nocrits","nodmgspread","payload","uncletopia"],"game_id":440,"stv_port":27026,"stv_name":"Uncletopia | Los Angeles | 2 | All Maps | STV","players":null},{"server_id":324,"name":"Uncletopia | Los Angeles | 3 | All Maps","name_short":"lax-3","host":"lax-1.us.uncletopia.com","port":27035,"enabled":true,"region":"us-west","cc":"us","latitude":33.94279,"longitude":-118.41004,"reserved":0,"last_update":"0001-01-01T00:00:00Z","name_a2s":"Uncletopia | Los Angeles | 3 | All Maps","protocol":17,"map":"pl_frontier_final","folder":"tf","game":"Team Fortress","app_id":440,"player_count":23,"max_players":24,"Bots":0,"server_type":"Dedicated","server_os":"Linux","password":true,"vac":true,"version":"7932396","steam_id":85568392924510198,"keywords":["nocrits","nodmgspread","payload","uncletopia"],"game_id":440,"stv_port":27036,"stv_name":"Uncletopia | Los Angeles | 3 | All Maps | STV","players":[{"user_id":578,"name":"BeepBoop","steam_id":76561198138467345,"connected_time":542000000000,"state":"active","ping":67},{"user_id":569,"name":"zoiboi","steam_id":76561198069598590,"connected_time":1879000000000,"state":"active","ping":45},{"user_id":549,"name":"Reisen Udongein Inaba","steam_id":76561198051082314,"connected_time":4156000000000,"state":"active","ping":64},{"user_id":579,"name":"Galactamarx","steam_id":76561198028065755,"connected_time":520000000000,"state":"active","ping":96},{"user_id":487,"name":"Yoozer","steam_id":76561198420257694,"connected_time":9395000000000,"state":"active","ping":48},{"user_id":581,"name":"Ja","steam_id":76561198396340174,"connected_time":382000000000,"state":"active","ping":116},{"user_id":506,"name":"feel the bean","steam_id":76561198858328080,"connected_time":6903000000000,"state":"active","ping":43},{"user_id":565,"name":"Degreaser pyros arent real peop","steam_id":76561199093733603,"connected_time":2563000000000,"state":"active","ping":53},{"user_id":520,"name":"Schnitz","steam_id":76561198265484253,"connected_time":5614000000000,"state":"active","ping":62},{"user_id":518,"name":"CaiGaming","steam_id":76561198313023508,"connected_time":5659000000000,"state":"active","ping":65},{"user_id":546,"name":"assassincrazy18","steam_id":76561199465661561,"connected_time":4278000000000,"state":"active","ping":91},{"user_id":505,"name":"Bonkers","steam_id":76561198161835788,"connected_time":6905000000000,"state":"active","ping":74},{"user_id":566,"name":"dinocoder","steam_id":76561198311038263,"connected_time":1954000000000,"state":"active","ping":54},{"user_id":576,"name":"Junko","steam_id":76561198146089003,"connected_time":718000000000,"state":"active","ping":105},{"user_id":557,"name":"rimble","steam_id":76561198150137369,"connected_time":3615000000000,"state":"active","ping":58},{"user_id":571,"name":"YoZiggy","steam_id":76561198192485274,"connected_time":1842000000000,"state":"active","ping":45},{"user_id":577,"name":"Pyro-is-Magic","steam_id":76561198134590985,"connected_time":554000000000,"state":"active","ping":90},{"user_id":582,"name":"kwetzal","steam_id":76561198845749671,"connected_time":361000000000,"state":"active","ping":66},{"user_id":573,"name":"UltShuip","steam_id":76561198074339262,"connected_time":1699000000000,"state":"active","ping":61},{"user_id":486,"name":"SODA!!!!!!!!","steam_id":76561198837570484,"connected_time":9555000000000,"state":"active","ping":49},{"user_id":544,"name":"Dragonsalt","steam_id":76561198141927559,"connected_time":4448000000000,"state":"active","ping":75},{"user_id":574,"name":"The Great Karizma!","steam_id":76561198346191193,"connected_time":1688000000000,"state":"active","ping":99},{"user_id":513,"name":"Snooter","steam_id":76561198042435225,"connected_time":6685000000000,"state":"active","ping":66}]},{"server_id":25,"name":"Uncletopia | Los Angeles | 4 | Stopwatch Beta","name_short":"lax-4","host":"lax-1.us.uncletopia.com","port":27045,"enabled":true,"region":"us-west","cc":"us","latitude":33.94279,"longitude":-118.41004,"reserved":0,"last_update":"0001-01-01T00:00:00Z","name_a2s":"Uncletopia | Los Angeles | 4 | Stopwatch Beta","protocol":17,"map":"workshop/koth_product_final.ugc454272353","folder":"tf","game":"Team Fortress","app_id":440,"player_count":0,"max_players":24,"Bots":0,"server_type":"Dedicated","server_os":"Linux","password":true,"vac":true,"version":"7932396","steam_id":85568392924510199,"keywords":["cp","nocrits","nodmgspread","uncletopia"],"game_id":440,"stv_port":27046,"stv_name":"Uncletopia | Los Angeles | 4 | Stopwatch Beta | STV","players":null},{"server_id":11,"name":"Uncletopia | London | 1 | All Maps","name_short":"lon-1","host":"lon-1.uk.uncletopia.com","port":27015,"enabled":true,"region":"eu","cc":"gb","latitude":51.509865,"longitude":-0.118092,"reserved":0,"last_update":"0001-01-01T00:00:00Z","name_a2s":"Uncletopia | London | 1 | All Maps","protocol":17,"map":"cp_gorge","folder":"tf","game":"Team Fortress","app_id":440,"player_count":21,"max_players":24,"Bots":0,"server_type":"Dedicated","server_os":"Linux","password":true,"vac":true,"version":"7932396","steam_id":85568392924367362,"keywords":["cp","nocrits","nodmgspread","uncletopia"],"game_id":440,"stv_port":27016,"stv_name":"Uncletopia | London | 1 | All Maps | STV","players":[{"user_id":108,"name":"Cookies and Bakies","steam_id":76561198017442928,"connected_time":691000000000,"state":"active","ping":48},{"user_id":63,"name":"in the house like carpet","steam_id":76561199480942903,"connected_time":5493000000000,"state":"active","ping":70},{"user_id":90,"name":"Luxotrics","steam_id":76561198053455161,"connected_time":2093000000000,"state":"active","ping":79},{"user_id":72,"name":"Snaky","steam_id":76561199000954430,"connected_time":4580000000000,"state":"active","ping":108},{"user_id":75,"name":"K'aax Itzam","steam_id":76561198044024509,"connected_time":4081000000000,"state":"active","ping":70},{"user_id":109,"name":"rÃ¡k","steam_id":76561198175114914,"connected_time":313000000000,"state":"active","ping":70},{"user_id":95,"name":"JÃ¸rn","steam_id":76561199073257952,"connected_time":1888000000000,"state":"active","ping":81},{"user_id":84,"name":"GASH, RAT KING","steam_id":76561198986549968,"connected_time":2716000000000,"state":"active","ping":61},{"user_id":110,"name":"[O\u0026O]YaboiDucki","steam_id":76561198195976589,"connected_time":307000000000,"state":"active","ping":79},{"user_id":92,"name":"Loot Rat","steam_id":76561198154304193,"connected_time":2029000000000,"state":"active","ping":93},{"user_id":96,"name":"lieutenant meaw is down meming","steam_id":76561198054313942,"connected_time":1863000000000,"state":"active","ping":110},{"user_id":98,"name":"NI","steam_id":76561198941142018,"connected_time":1552000000000,"state":"active","ping":115},{"user_id":104,"name":"byrysym","steam_id":76561199171114052,"connected_time":905000000000,"state":"active","ping":78},{"user_id":103,"name":"black_Neko","steam_id":76561198090810084,"connected_time":986000000000,"state":"active","ping":68},{"user_id":81,"name":"dmEngineer_tf2 #SaveTF2","steam_id":76561199388956338,"connected_time":3253000000000,"state":"active","ping":91},{"user_id":23,"name":"MeBandae","steam_id":76561198910770432,"connected_time":8370000000000,"state":"active","ping":79},{"user_id":66,"name":"Lyncurion","steam_id":76561199260022725,"connected_time":5481000000000,"state":"active","ping":80},{"user_id":74,"name":"Barak93","steam_id":76561198044585705,"connected_time":4481000000000,"state":"active","ping":68},{"user_id":101,"name":"MrXtr","steam_id":76561198966247397,"connected_time":1286000000000,"state":"active","ping":69},{"user_id":94,"name":"unconditional love","steam_id":76561199026097466,"connected_time":1921000000000,"state":"active","ping":68},{"user_id":111,"name":"The Sex Defender","steam_id":76561198165732391,"connected_time":6000000000,"state":"spawning","ping":126}]},{"server_id":114,"name":"Uncletopia | London | 2 | All Maps","name_short":"lon-2","host":"lon-1.uk.uncletopia.com","port":27025,"enabled":true,"region":"eu","cc":"gb","latitude":51.509865,"longitude":-0.118092,"reserved":0,"last_update":"0001-01-01T00:00:00Z","name_a2s":"Uncletopia | London | 2 | All Maps","protocol":17,"map":"koth_highpass","folder":"tf","game":"Team Fortress","app_id":440,"player_count":0,"max_players":24,"Bots":0,"server_type":"Dedicated","server_os":"Linux","password":true,"vac":true,"version":"7932396","steam_id":85568392924470941,"keywords":["cp","nocrits","nodmgspread","uncletopia"],"game_id":440,"stv_port":27026,"stv_name":"Uncletopia | London | 2 | All Maps | STV","players":null},{"server_id":320,"name":"Uncletopia | London | 3 | All Maps","name_short":"lon-3","host":"lon-1.uk.uncletopia.com","port":27035,"enabled":true,"region":"eu","cc":"gb","latitude":51.509865,"longitude":-0.118092,"reserved":0,"last_update":"0001-01-01T00:00:00Z","name_a2s":"Uncletopia | London | 3 | All Maps","protocol":17,"map":"cp_altitude","folder":"tf","game":"Team Fortress","app_id":440,"player_count":0,"max_players":24,"Bots":0,"server_type":"Dedicated","server_os":"Linux","password":true,"vac":true,"version":"7932396","steam_id":85568392924510192,"keywords":["cp","nocrits","nodmgspread","uncletopia"],"game_id":440,"stv_port":27036,"stv_name":"Uncletopia | London | 3 | All Maps | STV","players":null},{"server_id":321,"name":"Uncletopia | London | 4 | All Maps","name_short":"lon-4","host":"lon-1.uk.uncletopia.com","port":27045,"enabled":true,"region":"eu","cc":"gb","latitude":51.509865,"longitude":-0.118092,"reserved":0,"last_update":"0001-01-01T00:00:00Z","name_a2s":"Uncletopia | London | 4 | All Maps","protocol":17,"map":"cp_snakewater_final1","folder":"tf","game":"Team Fortress","app_id":440,"player_count":0,"max_players":24,"Bots":0,"server_type":"Dedicated","server_os":"Linux","password":true,"vac":true,"version":"7932396","steam_id":85568392924510193,"keywords":["cp","nocrits","nodmgspread","uncletopia"],"game_id":440,"stv_port":27046,"stv_name":"Uncletopia | London | 4 | All Maps | STV","players":null},{"server_id":21,"name":"Uncletopia | London | 5 | All Maps","name_short":"lon-5","host":"lon-1.uk.uncletopia.com","port":27055,"enabled":true,"region":"eu","cc":"gb","latitude":51.509865,"longitude":-0.118092,"reserved":0,"last_update":"0001-01-01T00:00:00Z","name_a2s":"Uncletopia | London | 5 | All Maps","protocol":17,"map":"pl_borneo","folder":"tf","game":"Team Fortress","app_id":440,"player_count":0,"max_players":24,"Bots":0,"server_type":"Dedicated","server_os":"Linux","password":true,"vac":true,"version":"7932396","steam_id":85568392924742829,"keywords":["nocrits","nodmgspread","payload","uncletopia"],"game_id":440,"stv_port":27056,"stv_name":"Uncletopia | London | 5 | All Maps | STV","players":null},{"server_id":22,"name":"Uncletopia | London | 6 | All Maps","name_short":"lon-6","host":"lon-1.uk.uncletopia.com","port":27065,"enabled":true,"region":"eu","cc":"gb","latitude":51.509865,"longitude":-0.118092,"reserved":0,"last_update":"0001-01-01T00:00:00Z","name_a2s":"Uncletopia | London | 6 | All Maps","protocol":17,"map":"cp_mountainlab","folder":"tf","game":"Team Fortress","app_id":440,"player_count":0,"max_players":24,"Bots":0,"server_type":"Dedicated","server_os":"Linux","password":true,"vac":true,"version":"7932396","steam_id":85568392924742830,"keywords":["cp","nocrits","nodmgspread","uncletopia"],"game_id":440,"stv_port":27066,"stv_name":"Uncletopia | London | 6 | All Maps | STV","players":null},{"server_id":40,"name":"Uncletopia | London | 7 | No Payload","name_short":"lon-7","host":"lon-1.uk.uncletopia.com","port":27075,"enabled":true,"region":"eu","cc":"gb","latitude":51.509865,"longitude":-0.118092,"reserved":0,"last_update":"0001-01-01T00:00:00Z","name_a2s":"Uncletopia | London | 7 | No Payload","protocol":17,"map":"pl_snowycoast","folder":"tf","game":"Team Fortress","app_id":440,"player_count":0,"max_players":24,"Bots":0,"server_type":"Dedicated","server_os":"Linux","password":true,"vac":true,"version":"7932396","steam_id":85568392924964314,"keywords":["nocrits","nodmgspread","payload","uncletopia"],"game_id":440,"stv_port":27076,"stv_name":"Uncletopia | London | 7 | No Payload | STV","players":null},{"server_id":41,"name":"Uncletopia | London | 8 | Community","name_short":"lon-8","host":"lon-1.uk.uncletopia.com","port":27085,"enabled":true,"region":"eu","cc":"gb","latitude":51.509865,"longitude":-0.118092,"reserved":0,"last_update":"0001-01-01T00:00:00Z","name_a2s":"Uncletopia | London | 8 | Community","protocol":17,"map":"pl_barnblitz","folder":"tf","game":"Team Fortress","app_id":440,"player_count":0,"max_players":24,"Bots":0,"server_type":"Dedicated","server_os":"Linux","password":true,"vac":true,"version":"7932396","steam_id":85568392924964315,"keywords":["nocrits","nodmgspread","payload","uncletopia"],"game_id":440,"stv_port":27086,"stv_name":"Uncletopia | London | 8 | Community | STV","players":null},{"server_id":300,"name":"Uncletopia | MontrÃ©al | 1 | All Maps","name_short":"mtl-1","host":"mtl-1.ca.uncletopia.com","port":27015,"enabled":true,"region":"us-east","cc":"ca","latitude":45.50889,"longitude":-73.56167,"reserved":0,"last_update":"0001-01-01T00:00:00Z","name_a2s":"Uncletopia | MontrÃ©al | 1 | All Maps","protocol":17,"map":"koth_cascade","folder":"tf","game":"Team Fortress","app_id":440,"player_count":0,"max_players":24,"Bots":0,"server_type":"Dedicated","server_os":"Linux","password":true,"vac":true,"version":"7932396","steam_id":85568392924500087,"keywords":["cp","nocrits","nodmgspread","uncletopia"],"game_id":440,"stv_port":27016,"stv_name":"Uncletopia | MontrÃ©al | 1 | All Maps | STV","players":null},{"server_id":301,"name":"Uncletopia | MontrÃ©al | 2 | All Maps","name_short":"mtl-2","host":"mtl-1.ca.uncletopia.com","port":27025,"enabled":true,"region":"us-east","cc":"ca","latitude":45.50889,"longitude":-73.56167,"reserved":0,"last_update":"0001-01-01T00:00:00Z","name_a2s":"Uncletopia | MontrÃ©al | 2 | All Maps","protocol":17,"map":"koth_lakeside_final","folder":"tf","game":"Team Fortress","app_id":440,"player_count":0,"max_players":24,"Bots":0,"server_type":"Dedicated","server_os":"Linux","password":true,"vac":true,"version":"7932396","steam_id":85568392924500088,"keywords":["cp","nocrits","nodmgspread","uncletopia"],"game_id":440,"stv_port":27026,"stv_name":"Uncletopia | MontrÃ©al | 2 | All Maps | STV","players":null},{"server_id":302,"name":"Uncletopia | MontrÃ©al | 3 | All Maps","name_short":"mtl-3","host":"mtl-1.ca.uncletopia.com","port":27035,"enabled":true,"region":"us-east","cc":"ca","latitude":45.50889,"longitude":-73.56167,"reserved":0,"last_update":"0001-01-01T00:00:00Z","name_a2s":"Uncletopia | MontrÃ©al | 3 | All Maps","protocol":17,"map":"koth_cascade","folder":"tf","game":"Team Fortress","app_id":440,"player_count":0,"max_players":24,"Bots":0,"server_type":"Dedicated","server_os":"Linux","password":true,"vac":true,"version":"7932396","steam_id":85568392924500089,"keywords":["cp","nocrits","nodmgspread","uncletopia"],"game_id":440,"stv_port":27036,"stv_name":"Uncletopia | MontrÃ©al | 3 | All Maps | STV","players":null},{"server_id":303,"name":"Uncletopia | MontrÃ©al | 4 | No Payload","name_short":"mtl-4","host":"mtl-1.ca.uncletopia.com","port":27045,"enabled":true,"region":"us-east","cc":"ca","latitude":45.50889,"longitude":-73.56167,"reserved":0,"last_update":"0001-01-01T00:00:00Z","name_a2s":"Uncletopia | MontrÃ©al | 4 | No Payload","protocol":17,"map":"cp_dustbowl","folder":"tf","game":"Team Fortress","app_id":440,"player_count":0,"max_players":24,"Bots":0,"server_type":"Dedicated","server_os":"Linux","password":true,"vac":true,"version":"7932396","steam_id":85568392924500090,"keywords":["cp","nocrits","nodmgspread","uncletopia"],"game_id":440,"stv_port":27046,"stv_name":"Uncletopia | MontrÃ©al | 4 | No Payload | STV","players":null},{"server_id":13,"name":"Uncletopia | New York City | 1 | All Maps","name_short":"nyc-1","host":"nyc-1.us.uncletopia.com","port":27015,"enabled":true,"region":"us-east","cc":"us","latitude":40.73061,"longitude":-73.93524,"reserved":0,"last_update":"0001-01-01T00:00:00Z","name_a2s":"Uncletopia | New York City | 1 | All Maps","protocol":17,"map":"cp_sunshine","folder":"tf","game":"Team Fortress","app_id":440,"player_count":0,"max_players":24,"Bots":0,"server_type":"Dedicated","server_os":"Linux","password":true,"vac":true,"version":"7932396","steam_id":85568392924469993,"keywords":["cp","nocrits","nodmgspread","uncletopia"],"game_id":440,"stv_port":27016,"stv_name":"Uncletopia | New York City | 1 | All Maps | STV","players":null},{"server_id":14,"name":"Uncletopia | New York City | 2 | All Maps","name_short":"nyc-2","host":"nyc-1.us.uncletopia.com","port":27025,"enabled":true,"region":"us-east","cc":"us","latitude":40.73061,"longitude":-73.93524,"reserved":0,"last_update":"0001-01-01T00:00:00Z","name_a2s":"Uncletopia | New York City | 2 | All Maps","protocol":17,"map":"cp_mountainlab","folder":"tf","game":"Team Fortress","app_id":440,"player_count":0,"max_players":24,"Bots":0,"server_type":"Dedicated","server_os":"Linux","password":true,"vac":true,"version":"7932396","steam_id":85568392924469994,"keywords":["cp","nocrits","nodmgspread","uncletopia"],"game_id":440,"stv_port":27026,"stv_name":"Uncletopia | New York City | 2 | All Maps | STV","players":null},{"server_id":15,"name":"Uncletopia | New York City | 3 | Stopwatch Beta","name_short":"nyc-3","host":"nyc-1.us.uncletopia.com","port":27035,"enabled":true,"region":"us-east","cc":"us","latitude":40.73061,"longitude":-73.93524,"reserved":0,"last_update":"0001-01-01T00:00:00Z","name_a2s":"Uncletopia | New York City | 3 | Stopwatch Beta","protocol":17,"map":"workshop/koth_clearcut_b15.ugc2107050255","folder":"tf","game":"Team Fortress","app_id":440,"player_count":0,"max_players":24,"Bots":0,"server_type":"Dedicated","server_os":"Linux","password":true,"vac":true,"version":"7932396","steam_id":85568392924742820,"keywords":["cp","nocrits","nodmgspread","uncletopia"],"game_id":440,"stv_port":27036,"stv_name":"Uncletopia | New York City | 3 | Stopwatch Beta | STV","players":null},{"server_id":16,"name":"Uncletopia | New York City | 4 | Community","name_short":"nyc-4","host":"nyc-1.us.uncletopia.com","port":27045,"enabled":true,"region":"us-east","cc":"us","latitude":40.73061,"longitude":-73.93524,"reserved":0,"last_update":"0001-01-01T00:00:00Z","name_a2s":"Uncletopia | New York City | 4 | Community","protocol":17,"map":"workshop/koth_ramjam_rc1.ugc459778887","folder":"tf","game":"Team Fortress","app_id":440,"player_count":0,"max_players":24,"Bots":0,"server_type":"Dedicated","server_os":"Linux","password":true,"vac":true,"version":"7932396","steam_id":85568392924742821,"keywords":["cp","nocrits","nodmgspread","uncletopia"],"game_id":440,"stv_port":27046,"stv_name":"Uncletopia | New York City | 4 | Community | STV","players":null},{"server_id":142,"name":"Uncletopia | SÃ£o Paulo | 1 | All Maps","name_short":"sao-1","host":"sao-1.br.uncletopia.com","port":27015,"enabled":true,"region":"sa","cc":"br","latitude":-23.533773,"longitude":-46.62529,"reserved":0,"last_update":"0001-01-01T00:00:00Z","name_a2s":"Uncletopia | SÃ£o Paulo | 1 | All Maps","protocol":17,"map":"koth_cascade","folder":"tf","game":"Team Fortress","app_id":440,"player_count":0,"max_players":24,"Bots":0,"server_type":"Dedicated","server_os":"Linux","password":true,"vac":true,"version":"7932396","steam_id":85568392924469996,"keywords":["cp","nocrits","nodmgspread","uncletopia"],"game_id":440,"stv_port":27016,"stv_name":"Uncletopia | SÃ£o Paulo | 1 | All Maps | STV","players":null},{"server_id":143,"name":"Uncletopia | SÃ£o Paulo | 2 | All Maps","name_short":"sao-2","host":"sao-2.br.uncletopia.com","port":27015,"enabled":true,"region":"sa","cc":"br","latitude":-23.533773,"longitude":-46.62529,"reserved":0,"last_update":"0001-01-01T00:00:00Z","name_a2s":"Uncletopia | SÃ£o Paulo | 2 | All Maps","protocol":17,"map":"cp_sunshine","folder":"tf","game":"Team Fortress","app_id":440,"player_count":0,"max_players":24,"Bots":0,"server_type":"Dedicated","server_os":"Linux","password":true,"vac":true,"version":"7932396","steam_id":85568392924485349,"keywords":["cp","nocrits","nodmgspread","uncletopia"],"game_id":440,"stv_port":27016,"stv_name":"Uncletopia | SÃ£o Paulo | 2 | All Maps | STV","players":null},{"server_id":7,"name":"Uncletopia | Seattle | 1 | All Maps","name_short":"sea-1","host":"sea-1.us.uncletopia.com","port":27015,"enabled":true,"region":"us-west","cc":"us","latitude":47.608013,"longitude":-122.33517,"reserved":0,"last_update":"0001-01-01T00:00:00Z","name_a2s":"Uncletopia | Seattle | 1 | All Maps","protocol":17,"map":"pl_barnblitz","folder":"tf","game":"Team Fortress","app_id":440,"player_count":7,"max_players":24,"Bots":0,"server_type":"Dedicated","server_os":"Linux","password":true,"vac":true,"version":"7932396","steam_id":85568392924469997,"keywords":["nocrits","nodmgspread","payload","uncletopia"],"game_id":440,"stv_port":27016,"stv_name":"Uncletopia | Seattle | 1 | All Maps | STV","players":[{"user_id":613,"name":"jadeite","steam_id":76561198022298676,"connected_time":805000000000,"state":"active","ping":30},{"user_id":614,"name":"ï¼£ï¼¨ï¼¡ï¼­ï¼°ï¼©ï¼¯ï¼®","steam_id":76561198883157736,"connected_time":58000000000,"state":"active","ping":60},{"user_id":610,"name":"Lilith","steam_id":76561198120362654,"connected_time":1425000000000,"state":"active","ping":44},{"user_id":611,"name":"Allotrope","steam_id":76561197998450103,"connected_time":1393000000000,"state":"active","ping":82},{"user_id":603,"name":"Mossed Ball","steam_id":76561199031256509,"connected_time":1903000000000,"state":"active","ping":165},{"user_id":575,"name":"Tibetan Pop Star","steam_id":76561198844903984,"connected_time":4056000000000,"state":"active","ping":84},{"user_id":527,"name":"Cr0wD3r","steam_id":76561198153612764,"connected_time":6971000000000,"state":"active","ping":93}]},{"server_id":119,"name":"Uncletopia | Seattle | 2 | All Maps","name_short":"sea-2","host":"sea-1.us.uncletopia.com","port":27025,"enabled":true,"region":"us-west","cc":"us","latitude":47.608013,"longitude":-122.33517,"reserved":0,"last_update":"0001-01-01T00:00:00Z","name_a2s":"Uncletopia | Seattle | 2 | All Maps","protocol":17,"map":"pl_frontier_final","folder":"tf","game":"Team Fortress","app_id":440,"player_count":24,"max_players":24,"Bots":0,"server_type":"Dedicated","server_os":"Linux","password":true,"vac":true,"version":"7932396","steam_id":85568392924469998,"keywords":["nocrits","nodmgspread","payload","uncletopia"],"game_id":440,"stv_port":27026,"stv_name":"Uncletopia | Seattle | 2 | All Maps | STV","players":[{"user_id":945,"name":"Drapph","steam_id":76561199384213314,"connected_time":433000000000,"state":"active","ping":100},{"user_id":947,"name":"NEBULA","steam_id":76561198086878595,"connected_time":267000000000,"state":"active","ping":71},{"user_id":941,"name":"you think you know me","steam_id":76561198131166135,"connected_time":536000000000,"state":"active","ping":38},{"user_id":921,"name":"JTuu","steam_id":76561198030606396,"connected_time":2357000000000,"state":"active","ping":40},{"user_id":931,"name":"Zorlovo","steam_id":76561198006443283,"connected_time":1542000000000,"state":"active","ping":85},{"user_id":939,"name":"Defeat","steam_id":76561198065203818,"connected_time":982000000000,"state":"active","ping":44},{"user_id":912,"name":"Rise for the National Spamton","steam_id":76561198138468982,"connected_time":3675000000000,"state":"active","ping":44},{"user_id":949,"name":"Thank Todd","steam_id":76561199417044011,"connected_time":238000000000,"state":"active","ping":100},{"user_id":932,"name":"drunk juice -rng","steam_id":76561198093829623,"connected_time":1371000000000,"state":"active","ping":52},{"user_id":942,"name":"DoubleTee","steam_id":76561198018980347,"connected_time":518000000000,"state":"active","ping":134},{"user_id":859,"name":"lasky","steam_id":76561198017030029,"connected_time":10914000000000,"state":"active","ping":69},{"user_id":950,"name":"hotguy6pack","steam_id":76561198881665250,"connected_time":10000000000,"state":"active","ping":46},{"user_id":940,"name":"Chili","steam_id":76561198042942046,"connected_time":867000000000,"state":"active","ping":95},{"user_id":861,"name":"Ayayayayayahuasca","steam_id":76561199002906056,"connected_time":10545000000000,"state":"active","ping":46},{"user_id":944,"name":"primordial","steam_id":76561198058836750,"connected_time":469000000000,"state":"active","ping":63},{"user_id":857,"name":"delight","steam_id":76561197980280272,"connected_time":11026000000000,"state":"active","ping":45},{"user_id":933,"name":"rorywashere /á  - Ë• -ãƒž â³Š","steam_id":76561198065825165,"connected_time":1297000000000,"state":"active","ping":102},{"user_id":934,"name":"Boomboombop","steam_id":76561198267531538,"connected_time":1253000000000,"state":"active","ping":145},{"user_id":938,"name":"Garf","steam_id":76561198109445099,"connected_time":1150000000000,"state":"active","ping":49},{"user_id":948,"name":"styles","steam_id":76561198149443710,"connected_time":267000000000,"state":"active","ping":73},{"user_id":896,"name":"jorts","steam_id":76561199041179985,"connected_time":6113000000000,"state":"active","ping":52},{"user_id":885,"name":"squash","steam_id":76561198150281353,"connected_time":7007000000000,"state":"active","ping":57},{"user_id":889,"name":"Reaptiles","steam_id":76561198414817784,"connected_time":6719000000000,"state":"active","ping":38},{"user_id":916,"name":"Mentle","steam_id":76561198097756829,"connected_time":3372000000000,"state":"active","ping":55}]},{"server_id":406,"name":"Uncletopia | Seattle | 3 | Stopwatch Beta","name_short":"sea-3","host":"sea-1.us.uncletopia.com","port":27035,"enabled":true,"region":"us-west","cc":"us","latitude":47.608013,"longitude":-122.33517,"reserved":0,"last_update":"0001-01-01T00:00:00Z","name_a2s":"Uncletopia | Seattle | 3 | Stopwatch Beta","protocol":17,"map":"workshop/koth_bagel_rc6.ugc2514036946","folder":"tf","game":"Team Fortress","app_id":440,"player_count":0,"max_players":24,"Bots":0,"server_type":"Dedicated","server_os":"Linux","password":true,"vac":true,"version":"7932396","steam_id":85568392924515217,"keywords":["cp","nocrits","nodmgspread","uncletopia"],"game_id":440,"stv_port":27036,"stv_name":"Uncletopia | Seattle | 3 | Stopwatch Beta | STV","players":null},{"server_id":17,"name":"Uncletopia | San Francisco | 1 | All Maps","name_short":"sfo-1","host":"sfo-1.us.uncletopia.com","port":27015,"enabled":true,"region":"us-west","cc":"us","latitude":37.77397,"longitude":-122.4313,"reserved":0,"last_update":"0001-01-01T00:00:00Z","name_a2s":"Uncletopia | San Francisco | 1 | All Maps","protocol":17,"map":"koth_cascade","folder":"tf","game":"Team Fortress","app_id":440,"player_count":14,"max_players":24,"Bots":0,"server_type":"Dedicated","server_os":"Linux","password":true,"vac":true,"version":"7932396","steam_id":85568392924469999,"keywords":["cp","nocrits","nodmgspread","uncletopia"],"game_id":440,"stv_port":27016,"stv_name":"Uncletopia | San Francisco | 1 | All Maps | STV","players":[{"user_id":391,"name":"-_-","steam_id":76561198048754646,"connected_time":1885000000000,"state":"active","ping":55},{"user_id":404,"name":"Yankee Doodle Ass MF","steam_id":76561198450013572,"connected_time":634000000000,"state":"active","ping":55},{"user_id":373,"name":"shitass | troutsupply.net","steam_id":76561198210572481,"connected_time":3312000000000,"state":"active","ping":46},{"user_id":346,"name":"..flop","steam_id":76561197989058876,"connected_time":5685000000000,"state":"active","ping":79},{"user_id":363,"name":"naturia","steam_id":76561198092317849,"connected_time":4087000000000,"state":"active","ping":47},{"user_id":388,"name":"Stoofy","steam_id":76561198280750328,"connected_time":1993000000000,"state":"active","ping":68},{"user_id":414,"name":"Biggest Dude In Town 4U","steam_id":76561198070281464,"connected_time":133000000000,"state":"active","ping":103},{"user_id":392,"name":"porksoda","steam_id":76561198021451377,"connected_time":1704000000000,"state":"active","ping":60},{"user_id":394,"name":"Starkiller","steam_id":76561198101643120,"connected_time":1551000000000,"state":"active","ping":82},{"user_id":382,"name":"Talulah","steam_id":76561198348354629,"connected_time":2290000000000,"state":"active","ping":52},{"user_id":377,"name":"HIDEN","steam_id":76561199024853268,"connected_time":3084000000000,"state":"active","ping":90},{"user_id":411,"name":"Jack Horner in a F-16","steam_id":76561198062438923,"connected_time":269000000000,"state":"active","ping":99},{"user_id":400,"name":"monkeycake","steam_id":76561198272061915,"connected_time":916000000000,"state":"active","ping":92},{"user_id":401,"name":"19AKIRA","steam_id":76561198833085585,"connected_time":899000000000,"state":"active","ping":90}]},{"server_id":18,"name":"Uncletopia | San Francisco | 2 | All Maps","name_short":"sfo-2","host":"sfo-1.us.uncletopia.com","port":27025,"enabled":true,"region":"us-west","cc":"us","latitude":37.77397,"longitude":-122.4313,"reserved":0,"last_update":"0001-01-01T00:00:00Z","name_a2s":"Uncletopia | San Francisco | 2 | All Maps","protocol":17,"map":"koth_highpass","folder":"tf","game":"Team Fortress","app_id":440,"player_count":0,"max_players":24,"Bots":0,"server_type":"Dedicated","server_os":"Linux","password":true,"vac":true,"version":"7932396","steam_id":85568392924470000,"keywords":["cp","nocrits","nodmgspread","uncletopia"],"game_id":440,"stv_port":27026,"stv_name":"Uncletopia | San Francisco | 2 | All Maps | STV","players":null},{"server_id":19,"name":"Uncletopia | San Francisco | 3 | Stopwatch Beta","name_short":"sfo-3","host":"sfo-1.us.uncletopia.com","port":27035,"enabled":true,"region":"us-west","cc":"us","latitude":37.77397,"longitude":-122.4313,"reserved":0,"last_update":"0001-01-01T00:00:00Z","name_a2s":"Uncletopia | San Francisco | 3 | Stopwatch Beta","protocol":17,"map":"workshop/pl_vigil_rc9.ugc1266210012","folder":"tf","game":"Team Fortress","app_id":440,"player_count":0,"max_players":24,"Bots":0,"server_type":"Dedicated","server_os":"Linux","password":true,"vac":true,"version":"7932396","steam_id":85568392924742824,"keywords":["nocrits","nodmgspread","payload","uncletopia"],"game_id":440,"stv_port":27036,"stv_name":"Uncletopia | San Francisco | 3 | Stopwatch Beta | STV","players":null},{"server_id":20,"name":"Uncletopia | San Francisco | 4 | Community","name_short":"sfo-4","host":"sfo-1.us.uncletopia.com","port":27045,"enabled":true,"region":"us-west","cc":"us","latitude":37.77397,"longitude":-122.4313,"reserved":0,"last_update":"0001-01-01T00:00:00Z","name_a2s":"Uncletopia | San Francisco | 4 | Community","protocol":17,"map":"workshop/koth_kemptown_rc1.ugc767410655","folder":"tf","game":"Team Fortress","app_id":440,"player_count":0,"max_players":24,"Bots":0,"server_type":"Dedicated","server_os":"Linux","password":true,"vac":true,"version":"7932396","steam_id":85568392924742826,"keywords":["cp","nocrits","nodmgspread","uncletopia"],"game_id":440,"stv_port":27046,"stv_name":"Uncletopia | San Francisco | 4 | Community | STV","players":null},{"server_id":141,"name":"Uncletopia | Sydney | 1 | All Maps","name_short":"syd-1","host":"syd-1.au.uncletopia.com","port":27015,"enabled":true,"region":"au","cc":"au","latitude":-33.865143,"longitude":151.2099,"reserved":0,"last_update":"0001-01-01T00:00:00Z","name_a2s":"Uncletopia | Sydney | 1 | All Maps","protocol":17,"map":"pl_upward","folder":"tf","game":"Team Fortress","app_id":440,"player_count":0,"max_players":24,"Bots":0,"server_type":"Dedicated","server_os":"Linux","password":true,"vac":true,"version":"7932396","steam_id":85568392924470001,"keywords":["nocrits","nodmgspread","payload","uncletopia"],"game_id":440,"stv_port":27016,"stv_name":"Uncletopia | Sydney | 1 | All Maps | STV","players":null},{"server_id":123,"name":"Uncletopia | Sydney | 2 | All Maps","name_short":"syd-2","host":"syd-1.au.uncletopia.com","port":27025,"enabled":true,"region":"au","cc":"au","latitude":-33.865143,"longitude":151.2099,"reserved":0,"last_update":"0001-01-01T00:00:00Z","name_a2s":"Uncletopia | Sydney | 2 | All Maps","protocol":17,"map":"koth_viaduct","folder":"tf","game":"Team Fortress","app_id":440,"player_count":24,"max_players":24,"Bots":0,"server_type":"Dedicated","server_os":"Linux","password":true,"vac":true,"version":"7932396","steam_id":85568392924470002,"keywords":["cp","nocrits","nodmgspread","uncletopia"],"game_id":440,"stv_port":27026,"stv_name":"Uncletopia | Sydney | 2 | All Maps | STV","players":[{"user_id":466,"name":"Killing","steam_id":76561198107392931,"connected_time":3992000000000,"state":"active","ping":61},{"user_id":504,"name":"Tees","steam_id":76561199174602317,"connected_time":2157000000000,"state":"active","ping":50},{"user_id":524,"name":"SamK #AnnexTF2","steam_id":76561198149051619,"connected_time":1157000000000,"state":"active","ping":67},{"user_id":505,"name":"Blueprint","steam_id":76561198133645025,"connected_time":2139000000000,"state":"active","ping":65},{"user_id":539,"name":"Ferro","steam_id":76561198067582557,"connected_time":137000000000,"state":"active","ping":54},{"user_id":540,"name":"ngjenson2010","steam_id":76561199209250739,"connected_time":71000000000,"state":"active","ping":148},{"user_id":523,"name":"pedal powered brain","steam_id":76561198000568803,"connected_time":1294000000000,"state":"active","ping":45},{"user_id":506,"name":"perturb (feed/seed)","steam_id":76561198085124297,"connected_time":2106000000000,"state":"active","ping":56},{"user_id":503,"name":"Ganome Chilled","steam_id":76561198064898965,"connected_time":2219000000000,"state":"active","ping":74},{"user_id":537,"name":"Trotter","steam_id":76561198343965263,"connected_time":180000000000,"state":"active","ping":63},{"user_id":482,"name":"Trifled","steam_id":76561199251487616,"connected_time":3217000000000,"state":"active","ping":46},{"user_id":541,"name":"Hike munt","steam_id":76561198063690508,"connected_time":69000000000,"state":"active","ping":56},{"user_id":536,"name":"Warren","steam_id":76561198120350917,"connected_time":205000000000,"state":"active","ping":42},{"user_id":513,"name":"Pot Plant Mentality","steam_id":76561198385737243,"connected_time":1774000000000,"state":"active","ping":49},{"user_id":535,"name":"Lumalee â¤","steam_id":76561198157613299,"connected_time":300000000000,"state":"active","ping":68},{"user_id":514,"name":"BigLadBoyga","steam_id":76561198985263763,"connected_time":1769000000000,"state":"active","ping":91},{"user_id":534,"name":"dumbvent","steam_id":76561198190062810,"connected_time":350000000000,"state":"active","ping":74},{"user_id":538,"name":"trash","steam_id":76561198110764631,"connected_time":178000000000,"state":"active","ping":47},{"user_id":516,"name":"BeefBoss","steam_id":76561198272702233,"connected_time":1652000000000,"state":"active","ping":37},{"user_id":525,"name":"go crom","steam_id":76561198853357056,"connected_time":1019000000000,"state":"active","ping":80},{"user_id":530,"name":"Bobby Wilkinson","steam_id":76561198054985347,"connected_time":602000000000,"state":"active","ping":55},{"user_id":542,"name":"miyamoto is daddy","steam_id":76561199483818230,"connected_time":57000000000,"state":"active","ping":72},{"user_id":519,"name":"Lotuses","steam_id":76561199045059964,"connected_time":1577000000000,"state":"active","ping":106},{"user_id":526,"name":"Marzell","steam_id":76561198151276153,"connected_time":1006000000000,"state":"active","ping":92}]},{"server_id":395,"name":"Uncletopia | Sydney | 3 | All Maps","name_short":"syd-3","host":"syd-1.au.uncletopia.com","port":27035,"enabled":true,"region":"au","cc":"au","latitude":-33.865143,"longitude":151.2099,"reserved":0,"last_update":"0001-01-01T00:00:00Z","name_a2s":"Uncletopia | Sydney | 3 | All Maps","protocol":17,"map":"ctf_2fort","folder":"tf","game":"Team Fortress","app_id":440,"player_count":0,"max_players":24,"Bots":0,"server_type":"Dedicated","server_os":"Linux","password":true,"vac":true,"version":"7932396","steam_id":85568392925194467,"keywords":["ctf","nocrits","nodmgspread","uncletopia"],"game_id":440,"stv_port":27036,"stv_name":"Uncletopia | Sydney | 3 | All Maps | STV","players":null},{"server_id":396,"name":"Uncletopia | Sydney | 4 | All Maps","name_short":"syd-4","host":"syd-1.au.uncletopia.com","port":27045,"enabled":true,"region":"au","cc":"au","latitude":-33.865143,"longitude":151.2099,"reserved":0,"last_update":"0001-01-01T00:00:00Z","name_a2s":"Uncletopia | Sydney | 4 | All Maps","protocol":17,"map":"pl_frontier_final","folder":"tf","game":"Team Fortress","app_id":440,"player_count":0,"max_players":24,"Bots":0,"server_type":"Dedicated","server_os":"Linux","password":true,"vac":true,"version":"7932396","steam_id":85568392925397958,"keywords":["nocrits","nodmgspread","payload","uncletopia"],"game_id":440,"stv_port":27046,"stv_name":"Uncletopia | Sydney | 4 | All Maps | STV","players":null},{"server_id":58,"name":"Uncletopia | Sydney | 5 | Stopwatch Beta","name_short":"syd-5","host":"syd-1.au.uncletopia.com","port":27055,"enabled":true,"region":"au","cc":"au","latitude":-33.865143,"longitude":151.2099,"reserved":0,"last_update":"0001-01-01T00:00:00Z","name_a2s":"Uncletopia | Sydney | 5 | Stopwatch Beta","protocol":17,"map":"pl_borneo","folder":"tf","game":"Team Fortress","app_id":440,"player_count":0,"max_players":24,"Bots":0,"server_type":"Dedicated","server_os":"Linux","password":true,"vac":true,"version":"7932396","steam_id":85568392925397959,"keywords":["nocrits","nodmgspread","payload","uncletopia"],"game_id":440,"stv_port":27056,"stv_name":"Uncletopia | Sydney | 5 | Stopwatch Beta | STV","players":null},{"server_id":59,"name":"Uncletopia | Sydney | 6 | Community","name_short":"syd-6","host":"syd-1.au.uncletopia.com","port":27065,"enabled":true,"region":"au","cc":"au","latitude":-33.865143,"longitude":151.2099,"reserved":0,"last_update":"0001-01-01T00:00:00Z","name_a2s":"Uncletopia | Sydney | 6 | Community","protocol":17,"map":"workshop/koth_product_final.ugc454272353","folder":"tf","game":"Team Fortress","app_id":440,"player_count":0,"max_players":24,"Bots":0,"server_type":"Dedicated","server_os":"Linux","password":true,"vac":true,"version":"7932396","steam_id":85568392925397960,"keywords":["cp","nocrits","nodmgspread","uncletopia"],"game_id":440,"stv_port":27066,"stv_name":"Uncletopia | Sydney | 6 | Community | STV","players":null},{"server_id":49,"name":"Uncletopia | Warsaw | 1 | All Maps","name_short":"waw-1","host":"waw-1.pl.uncletopia.com","port":27015,"enabled":true,"region":"eu","cc":"pl","latitude":52.2297,"longitude":21.017532,"reserved":0,"last_update":"0001-01-01T00:00:00Z","name_a2s":"","protocol":0,"map":"","folder":"","game":"","app_id":0,"player_count":0,"max_players":0,"Bots":0,"server_type":"","server_os":"","password":false,"vac":false,"version":"","steam_id":0,"keywords":null,"game_id":0,"stv_port":0,"stv_name":"","players":null},{"server_id":50,"name":"Uncletopia | Warsaw | 2 | All Maps","name_short":"waw-2","host":"waw-1.pl.uncletopia.com","port":27025,"enabled":true,"region":"eu","cc":"pl","latitude":52.2297,"longitude":21.017532,"reserved":0,"last_update":"0001-01-01T00:00:00Z","name_a2s":"Uncletopia | Warsaw | 2 | All Maps","protocol":17,"map":"pl_badwater","folder":"tf","game":"Team Fortress","app_id":440,"player_count":0,"max_players":24,"Bots":0,"server_type":"Dedicated","server_os":"Linux","password":true,"vac":true,"version":"7932396","steam_id":85568392925397851,"keywords":["nocrits","nodmgspread","payload","uncletopia"],"game_id":440,"stv_port":27026,"stv_name":"Uncletopia | Warsaw | 2 | All Maps | STV","players":null},{"server_id":51,"name":"Uncletopia | Warsaw | 3 | All Maps","name_short":"waw-3","host":"waw-1.pl.uncletopia.com","port":27035,"enabled":true,"region":"eu","cc":"pl","latitude":52.2297,"longitude":21.017532,"reserved":0,"last_update":"0001-01-01T00:00:00Z","name_a2s":"Uncletopia | Warsaw | 3 | All Maps","protocol":17,"map":"koth_lakeside_final","folder":"tf","game":"Team Fortress","app_id":440,"player_count":0,"max_players":24,"Bots":0,"server_type":"Dedicated","server_os":"Linux","password":true,"vac":true,"version":"7932396","steam_id":85568392925397852,"keywords":["cp","nocrits","nodmgspread","uncletopia"],"game_id":440,"stv_port":27036,"stv_name":"Uncletopia | Warsaw | 3 | All Maps | STV","players":null},{"server_id":52,"name":"Uncletopia | Warsaw | 4 | All Maps","name_short":"waw-4","host":"waw-1.pl.uncletopia.com","port":27045,"enabled":true,"region":"eu","cc":"pl","latitude":52.2297,"longitude":21.017532,"reserved":0,"last_update":"0001-01-01T00:00:00Z","name_a2s":"Uncletopia | Warsaw | 4 | All Maps","protocol":17,"map":"pl_swiftwater_final1","folder":"tf","game":"Team Fortress","app_id":440,"player_count":0,"max_players":24,"Bots":0,"server_type":"Dedicated","server_os":"Linux","password":true,"vac":true,"version":"7932396","steam_id":85568392925397853,"keywords":["nocrits","nodmgspread","payload","uncletopia"],"game_id":440,"stv_port":27046,"stv_name":"Uncletopia | Warsaw | 4 | All Maps | STV","players":null},{"server_id":53,"name":"Uncletopia | Warsaw | 5 | Stopwatch Beta","name_short":"waw-5","host":"waw-1.pl.uncletopia.com","port":27055,"enabled":true,"region":"eu","cc":"pl","latitude":52.2297,"longitude":21.017532,"reserved":0,"last_update":"0001-01-01T00:00:00Z","name_a2s":"Uncletopia | Warsaw | 5 | Stopwatch Beta","protocol":17,"map":"koth_highpass","folder":"tf","game":"Team Fortress","app_id":440,"player_count":0,"max_players":24,"Bots":0,"server_type":"Dedicated","server_os":"Linux","password":true,"vac":true,"version":"7932396","steam_id":85568392925397854,"keywords":["cp","nocrits","nodmgspread","uncletopia"],"game_id":440,"stv_port":27056,"stv_name":"Uncletopia | Warsaw | 5 | Stopwatch Beta | STV","players":null},{"server_id":54,"name":"Uncletopia | Warsaw | 6 | Community","name_short":"waw-6","host":"waw-1.pl.uncletopia.com","port":27065,"enabled":true,"region":"eu","cc":"pl","latitude":52.2297,"longitude":21.017532,"reserved":0,"last_update":"0001-01-01T00:00:00Z","name_a2s":"Uncletopia | Warsaw | 6 | Community","protocol":17,"map":"pl_upward","folder":"tf","game":"Team Fortress","app_id":440,"player_count":0,"max_players":24,"Bots":0,"server_type":"Dedicated","server_os":"Linux","password":true,"vac":true,"version":"7932396","steam_id":85568392925397856,"keywords":["nocrits","nodmgspread","payload","uncletopia"],"game_id":440,"stv_port":27066,"stv_name":"Uncletopia | Warsaw | 6 | Community | STV","players":null}]}