{"status":true,"message":"","result":[{"server_id":9,"name":"Uncletopia | Atlanta | 1 | All Maps","name_short":"atl-1","host":"atl-1.us.uncletopia.com","port":27015,"enabled":true,"region":"us-east","cc":"us","latitude":33.753746,"longitude":-84.38633,"reserved":0,"last_update":"0001-01-01T00:00:00Z","name_a2s":"Uncletopia | Atlanta | 1 | All Maps","protocol":17,"map":"pl_badwater","folder":"tf","game":"Team Fortress","app_id":440,"player_count":24,"max_players":24,"Bots":0,"server_type":"Dedicated","server_os":"Linux","password":true,"vac":true,"version":"7757534","steam_id":85568392924469982,"keywords":["nocrits","nodmgspread","payload","uncletopia"],"game_id":440,"stv_port":27016,"stv_name":"Uncletopia | Atlanta | 1 | All Maps | STV","players":[{"user_id":299,"name":"Karma","steam_id":76561198030565234,"connected_time":345000000000,"state":"active","ping":69},{"user_id":300,"name":"Man Weed","steam_id":76561198133467786,"connected_time":343000000000,"state":"active","ping":58},{"user_id":278,"name":"Dong-A-Tron 27.0","steam_id":76561198082202698,"connected_time":3571000000000,"state":"active","ping":63},{"user_id":294,"name":"ash","steam_id":76561198127890645,"connected_time":1333000000000,"state":"active","ping":60},{"user_id":296,"name":"GreenApples","steam_id":76561198120559543,"connected_time":913000000000,"state":"active","ping":105},{"user_id":279,"name":"bogginwater","steam_id":76561198155547142,"connected_time":3553000000000,"state":"active","ping":65},{"user_id":282,"name":"JustSomeInternetGuy","steam_id":76561199066037843,"connected_time":3029000000000,"state":"active","ping":87},{"user_id":301,"name":"leumas","steam_id":76561198240408540,"connected_time":270000000000,"state":"active","ping":74},{"user_id":260,"name":"BORN IN GOOP RAISED IN POOP","steam_id":76561198095909397,"connected_time":5656000000000,"state":"active","ping":58},{"user_id":298,"name":"H_NGM_N","steam_id":76561199427024166,"connected_time":355000000000,"state":"active","ping":73},{"user_id":295,"name":"snoops","steam_id":76561197986760351,"connected_time":1330000000000,"state":"active","ping":75},{"user_id":283,"name":"MyamE","steam_id":76561198133278462,"connected_time":3024000000000,"state":"active","ping":72},{"user_id":269,"name":"Spy_Is_Pye","steam_id":76561199439622967,"connected_time":4328000000000,"state":"active","ping":73},{"user_id":250,"name":"Screwyelk","steam_id":76561198086163313,"connected_time":6182000000000,"state":"active","ping":69},{"user_id":289,"name":"duck_quackrs","steam_id":76561198354971054,"connected_time":1476000000000,"state":"active","ping":52},{"user_id":284,"name":"RED1 | ma0re","steam_id":76561199231971506,"connected_time":3008000000000,"state":"active","ping":56},{"user_id":270,"name":"Decolour","steam_id":76561199045608372,"connected_time":4327000000000,"state":"active","ping":79},{"user_id":254,"name":"bigconkeldurrfan3000","steam_id":76561198258062078,"connected_time":6087000000000,"state":"active","ping":73},{"user_id":304,"name":"squaggles!","steam_id":76561197994995011,"connected_time":121000000000,"state":"active","ping":43},{"user_id":293,"name":"ÁÅ´Êòü | Marsy","steam_id":76561198014979892,"connected_time":1352000000000,"state":"active","ping":56},{"user_id":286,"name":"Chris Pratt's pocket spaghetti","steam_id":76561198138347045,"connected_time":2974000000000,"state":"active","ping":63},{"user_id":267,"name":"BLU1 | Pango","steam_id":76561198069811545,"connected_time":4692000000000,"state":"active","ping":46},{"user_id":265,"name":"Spoof","steam_id":76561198283928331,"connected_time":5074000000000,"state":"active","ping":58},{"user_id":274,"name":"the npc killa","steam_id":76561198010370396,"connected_time":4260000000000,"state":"active","ping":68}]},{"server_id":400,"name":"Uncletopia | Atlanta | 3 | Stopwatch Beta","name_short":"atl-3","host":"atl-1.us.uncletopia.com","port":27035,"enabled":true,"region":"us-east","cc":"us","latitude":33.753746,"longitude":-84.38633,"reserved":0,"last_update":"0001-01-01T00:00:00Z","name_a2s":"Uncletopia | Atlanta | 3 | Stopwatch Beta","protocol":17,"map":"workshop/koth_bagel_rc5.ugc2514036946","folder":"tf","game":"Team Fortress","app_id":440,"player_count":5,"max_players":24,"Bots":0,"server_type":"Dedicated","server_os":"Linux","password":true,"vac":true,"version":"7757534","steam_id":85568392924515187,"keywords":["cp","nocrits","nodmgspread","uncletopia"],"game_id":440,"stv_port":27036,"stv_name":"Uncletopia | Atlanta | 3 | Stopwatch Beta | STV","players":[{"user_id":22,"name":"beldingus","steam_id":76561198169708997,"connected_time":2452000000000,"state":"active","ping":87},{"user_id":35,"name":"PoggedGlobe1431","steam_id":76561199445351905,"connected_time":569000000000,"state":"active","ping":108},{"user_id":25,"name":"2KDrop","steam_id":76561198119446937,"connected_time":2436000000000,"state":"active","ping":130},{"user_id":31,"name":"Cozy","steam_id":76561198315694744,"connected_time":971000000000,"state":"active","ping":108},{"user_id":36,"name":"Solaris","steam_id":76561198073166053,"connected_time":292000000000,"state":"active","ping":63}]},{"server_id":401,"name":"Uncletopia | Atlanta | 4 | No Payload","name_short":"atl-4","host":"atl-1.us.uncletopia.com","port":27045,"enabled":true,"region":"us-east","cc":"us","latitude":33.753746,"longitude":-84.38633,"reserved":0,"last_update":"0001-01-01T00:00:00Z","name_a2s":"Uncletopia | Atlanta | 4 | No Payload","protocol":17,"map":"pl_pier","folder":"tf","game":"Team Fortress","app_id":440,"player_count":0,"max_players":24,"Bots":0,"server_type":"Dedicated","server_os":"Linux","password":true,"vac":true,"version":"7723704","steam_id":85568392924515188,"keywords":["nocrits","nodmgspread","payload","uncletopia"],"game_id":440,"stv_port":27046,"stv_name":"Uncletopia | Atlanta | 4 | No Payload | STV","players":null},{"server_id":2,"name":"Uncletopia | Chicago | 1 | All Maps","name_short":"chi-1","host":"chi-1.us.uncletopia.com","port":27015,"enabled":true,"region":"us-central","cc":"us","latitude":41.881832,"longitude":-87.62318,"reserved":0,"last_update":"0001-01-01T00:00:00Z","name_a2s":"Uncletopia | Chicago | 1 | All Maps","protocol":17,"map":"pl_frontier_final","folder":"tf","game":"Team Fortress","app_id":440,"player_count":24,"max_players":24,"Bots":0,"server_type":"Dedicated","server_os":"Linux","password":true,"vac":true,"version":"7757534","steam_id":85568392924469984,"keywords":["nocrits","nodmgspread","payload","uncletopia"],"game_id":440,"stv_port":27016,"stv_name":"Uncletopia | Chicago | 1 | All Maps | STV","players":[{"user_id":532,"name":"RyInc","steam_id":76561198874261643,"connected_time":1693000000000,"state":"active","ping":45},{"user_id":558,"name":"Vec","steam_id":76561198044505262,"connected_time":369000000000,"state":"active","ping":112},{"user_id":506,"name":"Fuegan Ra","steam_id":76561198287923849,"connected_time":3818000000000,"state":"active","ping":49},{"user_id":536,"name":"praise the dragon emperor","steam_id":76561198095072184,"connected_time":1520000000000,"state":"active","ping":56},{"user_id":535,"name":"Data","steam_id":76561198147917933,"connected_time":1529000000000,"state":"active","ping":73},{"user_id":549,"name":"turn around","steam_id":76561198046526036,"connected_time":1037000000000,"state":"active","ping":104},{"user_id":547,"name":"John16Mark","steam_id":76561198119445407,"connected_time":1074000000000,"state":"active","ping":83},{"user_id":548,"name":"Candy Sparkles","steam_id":76561198126871264,"connected_time":1051000000000,"state":"active","ping":86},{"user_id":519,"name":"the deadliest pyroshark","steam_id":76561198374227766,"connected_time":3447000000000,"state":"active","ping":70},{"user_id":545,"name":"Karrot","steam_id":76561198058970903,"connected_time":1304000000000,"state":"active","ping":62},{"user_id":539,"name":"the gamer hermit crab","steam_id":76561198969402276,"connected_time":1448000000000,"state":"active","ping":43},{"user_id":551,"name":"Shmeat","steam_id":76561199057199891,"connected_time":997000000000,"state":"active","ping":81},{"user_id":540,"name":"Mini-Crit Man","steam_id":76561198036248611,"connected_time":1447000000000,"state":"active","ping":123},{"user_id":554,"name":"Turtlin'","steam_id":76561198885096042,"connected_time":640000000000,"state":"active","ping":54},{"user_id":478,"name":"B45Guy","steam_id":76561198117290531,"connected_time":6569000000000,"state":"active","ping":60},{"user_id":559,"name":"human piss champion","steam_id":76561198122943559,"connected_time":317000000000,"state":"active","ping":59},{"user_id":541,"name":"skrt","steam_id":76561198233984300,"connected_time":1444000000000,"state":"active","ping":48},{"user_id":481,"name":"FiveStryker","steam_id":76561198366172207,"connected_time":5770000000000,"state":"active","ping":37},{"user_id":524,"name":"Thog","steam_id":76561198093699060,"connected_time":2811000000000,"state":"active","ping":68},{"user_id":546,"name":"Otium and Negotium","steam_id":76561198167894050,"connected_time":1189000000000,"state":"active","ping":68},{"user_id":561,"name":"Wizard Furby","steam_id":76561198159399892,"connected_time":257000000000,"state":"active","ping":56},{"user_id":560,"name":"ZodiacThundaga","steam_id":76561199025117814,"connected_time":307000000000,"state":"active","ping":70},{"user_id":543,"name":"foxy is a good guy","steam_id":76561198367019006,"connected_time":1427000000000,"state":"active","ping":72},{"user_id":562,"name":"gabagool","steam_id":76561198012131766,"connected_time":202000000000,"state":"active","ping":60}]},{"server_id":106,"name":"Uncletopia | Chicago | 2 | All Maps","name_short":"chi-2","host":"chi-1.us.uncletopia.com","port":27025,"enabled":true,"region":"us-central","cc":"us","latitude":41.881832,"longitude":-87.62318,"reserved":0,"last_update":"0001-01-01T00:00:00Z","name_a2s":"Uncletopia | Chicago | 2 | All Maps","protocol":17,"map":"pl_badwater","folder":"tf","game":"Team Fortress","app_id":440,"player_count":24,"max_players":24,"Bots":0,"server_type":"Dedicated","server_os":"Linux","password":true,"vac":true,"version":"7757534","steam_id":85568392924469985,"keywords":["nocrits","nodmgspread","payload","uncletopia"],"game_id":440,"stv_port":27026,"stv_name":"Uncletopia | Chicago | 2 | All Maps | STV","players":[{"user_id":451,"name":"Toasti\u003c3","steam_id":76561198036238997,"connected_time":788000000000,"state":"active","ping":82},{"user_id":449,"name":"Gnome (hidden from the feds)","steam_id":76561199229771413,"connected_time":978000000000,"state":"active","ping":78},{"user_id":444,"name":"Lia_Rein","steam_id":76561198151569597,"connected_time":1463000000000,"state":"active","ping":144},{"user_id":440,"name":"Lefty","steam_id":76561198397061063,"connected_time":1547000000000,"state":"active","ping":91},{"user_id":445,"name":"R2D28MYFOOD","steam_id":76561198124315872,"connected_time":1339000000000,"state":"active","ping":88},{"user_id":423,"name":"IPlayGamez","steam_id":76561198041387508,"connected_time":1968000000000,"state":"active","ping":67},{"user_id":446,"name":"Lennu","steam_id":76561198060730154,"connected_time":1191000000000,"state":"active","ping":74},{"user_id":458,"name":"three three","steam_id":76561198177354155,"connected_time":530000000000,"state":"active","ping":63},{"user_id":415,"name":"Sanic_Bum","steam_id":76561198094179822,"connected_time":2294000000000,"state":"active","ping":57},{"user_id":397,"name":":)","steam_id":76561198293673616,"connected_time":3405000000000,"state":"active","ping":74},{"user_id":427,"name":"SpartanOne22","steam_id":76561199006361788,"connected_time":1892000000000,"state":"active","ping":72},{"user_id":447,"name":"Not_Douglas","steam_id":76561199024184136,"connected_time":1157000000000,"state":"active","ping":60},{"user_id":452,"name":"otter","steam_id":76561198180787351,"connected_time":772000000000,"state":"active","ping":65},{"user_id":454,"name":"movement shooter enthusiast","steam_id":76561198841593464,"connected_time":758000000000,"state":"active","ping":70},{"user_id":455,"name":"Lord GabeN","steam_id":76561198140862723,"connected_time":712000000000,"state":"active","ping":66},{"user_id":429,"name":"KingEgamer_03","steam_id":76561199283258364,"connected_time":1880000000000,"state":"active","ping":66},{"user_id":460,"name":"tacofever","steam_id":76561198010966507,"connected_time":209000000000,"state":"active","ping":103},{"user_id":396,"name":"la belle indifference","steam_id":76561199162583201,"connected_time":3541000000000,"state":"active","ping":62},{"user_id":403,"name":"meghan trainor's bass","steam_id":76561198075858067,"connected_time":2893000000000,"state":"active","ping":61},{"user_id":330,"name":"Mad Cow‚Äª","steam_id":76561198132498594,"connected_time":5981000000000,"state":"active","ping":49},{"user_id":459,"name":"innisfree","steam_id":76561198109065124,"connected_time":328000000000,"state":"active","ping":76},{"user_id":431,"name":"nomallife","steam_id":76561198066078134,"connected_time":1837000000000,"state":"active","ping":67},{"user_id":461,"name":"Piyono","steam_id":76561197962188504,"connected_time":77000000000,"state":"active","ping":71},{"user_id":443,"name":"jstn","steam_id":76561198845283665,"connected_time":1502000000000,"state":"active","ping":71}]},{"server_id":402,"name":"Uncletopia | Chicago | 3 | All Maps","name_short":"chi-3","host":"chi-1.us.uncletopia.com","port":27035,"enabled":true,"region":"us-central","cc":"us","latitude":41.881832,"longitude":-87.62318,"reserved":0,"last_update":"0001-01-01T00:00:00Z","name_a2s":"Uncletopia | Chicago | 3 | All Maps","protocol":17,"map":"pl_borneo","folder":"tf","game":"Team Fortress","app_id":440,"player_count":24,"max_players":24,"Bots":0,"server_type":"Dedicated","server_os":"Linux","password":true,"vac":true,"version":"7757534","steam_id":85568392924515191,"keywords":["nocrits","nodmgspread","payload","uncletopia"],"game_id":440,"stv_port":27036,"stv_name":"Uncletopia | Chicago | 3 | All Maps | STV","players":[{"user_id":56,"name":"Walkiing","steam_id":76561198074473413,"connected_time":4971000000000,"state":"active","ping":43},{"user_id":92,"name":"Aeront","steam_id":76561198072032723,"connected_time":2887000000000,"state":"active","ping":92},{"user_id":69,"name":"Corn","steam_id":76561198177186718,"connected_time":4333000000000,"state":"active","ping":59},{"user_id":120,"name":"Sunvaar","steam_id":76561198852679851,"connected_time":635000000000,"state":"active","ping":62},{"user_id":114,"name":"Rukks","steam_id":76561197993918954,"connected_time":1362000000000,"state":"active","ping":82},{"user_id":122,"name":"anonpain","steam_id":76561198081317092,"connected_time":549000000000,"state":"active","ping":52},{"user_id":95,"name":"golf dad","steam_id":76561198186883927,"connected_time":2741000000000,"state":"active","ping":93},{"user_id":123,"name":"ADrunkCaliburn","steam_id":76561198390889014,"connected_time":541000000000,"state":"active","ping":63},{"user_id":124,"name":"Medic","steam_id":76561198023443251,"connected_time":537000000000,"state":"active","ping":92},{"user_id":107,"name":"Pizza Party","steam_id":76561198165730754,"connected_time":2136000000000,"state":"active","ping":76},{"user_id":28,"name":"Dastardly_Devious","steam_id":76561198103939491,"connected_time":6187000000000,"state":"active","ping":111},{"user_id":112,"name":"TheChickenChuck","steam_id":76561199192686708,"connected_time":1812000000000,"state":"active","ping":90},{"user_id":127,"name":"wha.. the uhh,, huh.. ?? who","steam_id":76561198150803812,"connected_time":445000000000,"state":"active","ping":81},{"user_id":31,"name":"Lil Glac (Inept)","steam_id":76561198105395149,"connected_time":6141000000000,"state":"active","ping":99},{"user_id":110,"name":"Lost (15)","steam_id":76561198093713427,"connected_time":1904000000000,"state":"active","ping":68},{"user_id":105,"name":"grape","steam_id":76561197993980328,"connected_time":2352000000000,"state":"active","ping":127},{"user_id":128,"name":"FDR, The God King","steam_id":76561198300349976,"connected_time":441000000000,"state":"active","ping":76},{"user_id":100,"name":"Burger","steam_id":76561198422412083,"connected_time":2671000000000,"state":"active","ping":71},{"user_id":111,"name":"yoodle doodle","steam_id":76561198054897884,"connected_time":1850000000000,"state":"active","ping":72},{"user_id":129,"name":"poo everywhere","steam_id":76561198379808804,"connected_time":434000000000,"state":"active","ping":92},{"user_id":116,"name":"lost in the sauce","steam_id":76561199043827112,"connected_time":1303000000000,"state":"active","ping":70},{"user_id":130,"name":"nalezinik","steam_id":76561198030026119,"connected_time":407000000000,"state":"active","ping":67},{"user_id":78,"name":"Can we get much dumber?(jack)","steam_id":76561198044762365,"connected_time":3832000000000,"state":"active","ping":52},{"user_id":131,"name":"scrambledeggs3","steam_id":76561198066112579,"connected_time":407000000000,"state":"active","ping":74}]},{"server_id":403,"name":"Uncletopia | Chicago | 4 | All Maps","name_short":"chi-4","host":"chi-1.us.uncletopia.com","port":27045,"enabled":true,"region":"us-central","cc":"us","latitude":41.881832,"longitude":-87.62318,"reserved":0,"last_update":"0001-01-01T00:00:00Z","name_a2s":"Uncletopia | Chicago | 4 | All Maps","protocol":17,"map":"pl_swiftwater_final1","folder":"tf","game":"Team Fortress","app_id":440,"player_count":24,"max_players":24,"Bots":0,"server_type":"Dedicated","server_os":"Linux","password":true,"vac":true,"version":"7757534","steam_id":85568392924515193,"keywords":["nocrits","nodmgspread","payload","uncletopia"],"game_id":440,"stv_port":27046,"stv_name":"Uncletopia | Chicago | 4 | All Maps | STV","players":[{"user_id":111,"name":"Fudgely","steam_id":76561198039425862,"connected_time":16739000000000,"state":"active","ping":67},{"user_id":367,"name":"Mr_Right","steam_id":76561198803764314,"connected_time":871000000000,"state":"active","ping":76},{"user_id":372,"name":"NinjassauroJr","steam_id":76561198262555693,"connected_time":420000000000,"state":"active","ping":176},{"user_id":339,"name":"Pennis the Menace","steam_id":76561198254878037,"connected_time":2153000000000,"state":"active","ping":70},{"user_id":373,"name":"Thinglet","steam_id":76561198799333062,"connected_time":396000000000,"state":"active","ping":77},{"user_id":341,"name":"toastman","steam_id":76561198207073088,"connected_time":2096000000000,"state":"active","ping":74},{"user_id":374,"name":"5-MeO-DMT","steam_id":76561198089527768,"connected_time":378000000000,"state":"active","ping":91},{"user_id":349,"name":"Ninjalox2","steam_id":76561198143205376,"connected_time":1706000000000,"state":"active","ping":83},{"user_id":368,"name":"Raizen","steam_id":76561199092445367,"connected_time":815000000000,"state":"active","ping":45},{"user_id":359,"name":"one tiny arm","steam_id":76561198000564263,"connected_time":1463000000000,"state":"active","ping":63},{"user_id":370,"name":"Aifx #ForQuirka","steam_id":76561198398268649,"connected_time":661000000000,"state":"active","ping":83},{"user_id":363,"name":"NUt","steam_id":76561198031007966,"connected_time":1139000000000,"state":"active","ping":75},{"user_id":350,"name":"boomerang fish","steam_id":76561198113166394,"connected_time":1697000000000,"state":"active","ping":87},{"user_id":360,"name":"lanoc","steam_id":76561198055415367,"connected_time":1458000000000,"state":"active","ping":74},{"user_id":375,"name":"Totina the Pizza Girl¬©‚Ñ¢¬Æ","steam_id":76561198336389019,"connected_time":374000000000,"state":"active","ping":89},{"user_id":336,"name":"Protoshake","steam_id":76561198840276176,"connected_time":2162000000000,"state":"active","ping":62},{"user_id":369,"name":"Astro","steam_id":76561198035676106,"connected_time":717000000000,"state":"active","ping":85},{"user_id":343,"name":"Potassium_","steam_id":76561199085021046,"connected_time":2034000000000,"state":"active","ping":78},{"user_id":376,"name":"Jokergamma","steam_id":76561198807984541,"connected_time":341000000000,"state":"active","ping":76},{"user_id":294,"name":"‚óãB33Z3CHXRG3R‚óã","steam_id":76561198041017977,"connected_time":4428000000000,"state":"active","ping":71},{"user_id":377,"name":"kingmrharvey","steam_id":76561198093909870,"connected_time":327000000000,"state":"active","ping":65},{"user_id":332,"name":"dash23‚Ñ¢","steam_id":76561198314951185,"connected_time":2280000000000,"state":"active","ping":105},{"user_id":380,"name":"Cruisin'","steam_id":76561199245457119,"connected_time":232000000000,"state":"active","ping":76},{"user_id":379,"name":"terra","steam_id":76561199057028737,"connected_time":322000000000,"state":"active","ping":132}]},{"server_id":36,"name":"Uncletopia | Chicago | 5 | All Maps","name_short":"chi-5","host":"chi-2.us.uncletopia.com","port":27015,"enabled":true,"region":"us-central","cc":"us","latitude":41.881832,"longitude":-87.62318,"reserved":0,"last_update":"0001-01-01T00:00:00Z","name_a2s":"Uncletopia | Chicago | 5 | All Maps","protocol":17,"map":"cp_snakewater_final1","folder":"tf","game":"Team Fortress","app_id":440,"player_count":24,"max_players":24,"Bots":0,"server_type":"Dedicated","server_os":"Linux","password":true,"vac":true,"version":"7757534","steam_id":85568392924866362,"keywords":["cp","nocrits","nodmgspread","uncletopia"],"game_id":440,"stv_port":27016,"stv_name":"Uncletopia | Chicago | 5 | All Maps | STV","players":[{"user_id":142,"name":"p0rps","steam_id":76561198000014631,"connected_time":1290000000000,"state":"active","ping":89},{"user_id":125,"name":"Doinnoid","steam_id":76561198262276139,"connected_time":2861000000000,"state":"active","ping":70},{"user_id":164,"name":"ApertureCity","steam_id":76561198004153607,"connected_time":933000000000,"state":"active","ping":81},{"user_id":112,"name":"Chrisscar","steam_id":76561198086298130,"connected_time":4676000000000,"state":"active","ping":105},{"user_id":27,"name":"daemon","steam_id":76561198001541433,"connected_time":12104000000000,"state":"active","ping":60},{"user_id":163,"name":"bricky with my women","steam_id":76561198073630276,"connected_time":949000000000,"state":"active","ping":59},{"user_id":29,"name":"--_Cook_--","steam_id":76561198080855748,"connected_time":12046000000000,"state":"active","ping":47},{"user_id":169,"name":"ToniestYapper","steam_id":76561198930977975,"connected_time":189000000000,"state":"active","ping":87},{"user_id":121,"name":"hamter","steam_id":76561198086245104,"connected_time":3529000000000,"state":"active","ping":85},{"user_id":173,"name":"Antonin Scalia","steam_id":76561198080687598,"connected_time":115000000000,"state":"active","ping":56},{"user_id":167,"name":"raphaim #bb","steam_id":76561198089649422,"connected_time":469000000000,"state":"active","ping":104},{"user_id":66,"name":"vanxi","steam_id":76561198089852954,"connected_time":10444000000000,"state":"active","ping":89},{"user_id":45,"name":"sock","steam_id":76561199117597830,"connected_time":11401000000000,"state":"active","ping":121},{"user_id":170,"name":"gup","steam_id":76561198108938632,"connected_time":164000000000,"state":"active","ping":46},{"user_id":130,"name":"timestew","steam_id":76561198367583372,"connected_time":2748000000000,"state":"active","ping":87},{"user_id":46,"name":"Dispenser (Twan)","steam_id":76561197991064908,"connected_time":11400000000000,"state":"active","ping":73},{"user_id":174,"name":"sonikro","steam_id":76561197989428692,"connected_time":108000000000,"state":"active","ping":54},{"user_id":48,"name":"weeb_whacker #Jenius","steam_id":76561198187098041,"connected_time":11365000000000,"state":"active","ping":57},{"user_id":139,"name":"Cpapi","steam_id":76561198027779564,"connected_time":1754000000000,"state":"active","ping":60},{"user_id":151,"name":"Bot360","steam_id":76561199122411864,"connected_time":1182000000000,"state":"active","ping":92},{"user_id":55,"name":"Azula's #1 Fan","steam_id":76561198133111058,"connected_time":11197000000000,"state":"active","ping":74},{"user_id":175,"name":"cilo","steam_id":76561198046163502,"connected_time":80000000000,"state":"active","ping":73},{"user_id":178,"name":"Bleem","steam_id":76561199013619130,"connected_time":57000000000,"state":"active","ping":105},{"user_id":153,"name":"All Tomorrow's Parties","steam_id":76561197995936212,"connected_time":1142000000000,"state":"active","ping":45}]},{"server_id":37,"name":"Uncletopia | Chicago | 6 | All Maps","name_short":"chi-6","host":"chi-2.us.uncletopia.com","port":27025,"enabled":true,"region":"us-central","cc":"us","latitude":41.881832,"longitude":-87.62318,"reserved":0,"last_update":"0001-01-01T00:00:00Z","name_a2s":"Uncletopia | Chicago | 6 | All Maps","protocol":17,"map":"pl_snowycoast","folder":"tf","game":"Team Fortress","app_id":440,"player_count":24,"max_players":24,"Bots":0,"server_type":"Dedicated","server_os":"Linux","password":true,"vac":true,"version":"7757534","steam_id":85568392924866363,"keywords":["nocrits","nodmgspread","payload","uncletopia"],"game_id":440,"stv_port":27026,"stv_name":"Uncletopia | Chicago | 6 | All Maps | STV","players":[{"user_id":357,"name":"MAK","steam_id":76561198089361823,"connected_time":2872000000000,"state":"active","ping":135},{"user_id":368,"name":"FOX927011","steam_id":76561198117831095,"connected_time":1625000000000,"state":"active","ping":77},{"user_id":362,"name":"Fluffeline","steam_id":76561198352909489,"connected_time":2290000000000,"state":"active","ping":138},{"user_id":278,"name":"Mr.Pan","steam_id":76561198069030613,"connected_time":7924000000000,"state":"active","ping":68},{"user_id":383,"name":"a Cruel Angel wrote this Thesis","steam_id":76561198839967102,"connected_time":181000000000,"state":"active","ping":67},{"user_id":359,"name":"CeigeBirb","steam_id":76561198068538473,"connected_time":2492000000000,"state":"active","ping":75},{"user_id":345,"name":"Rostovne","steam_id":76561198050293434,"connected_time":3709000000000,"state":"active","ping":72},{"user_id":309,"name":"Cryo_Dave","steam_id":76561198796748347,"connected_time":6610000000000,"state":"active","ping":127},{"user_id":381,"name":"Tywhip","steam_id":76561199207545191,"connected_time":269000000000,"state":"active","ping":152},{"user_id":363,"name":"Windex","steam_id":76561198105561395,"connected_time":1951000000000,"state":"active","ping":80},{"user_id":382,"name":"trobin120","steam_id":76561199122420273,"connected_time":225000000000,"state":"active","ping":65},{"user_id":380,"name":"MegaLeg","steam_id":76561198126521098,"connected_time":288000000000,"state":"active","ping":47},{"user_id":384,"name":"NOM NOM","steam_id":76561199059006203,"connected_time":9000000000,"state":"spawning","ping":54},{"user_id":372,"name":"20 miles for a Quaalude","steam_id":76561198042579477,"connected_time":1595000000000,"state":"active","ping":67},{"user_id":355,"name":"M249 | Spectre","steam_id":76561198118334485,"connected_time":2969000000000,"state":"active","ping":74},{"user_id":379,"name":"Mug Moment Gaming","steam_id":76561198233098136,"connected_time":989000000000,"state":"active","ping":71},{"user_id":347,"name":"VoidVector","steam_id":76561198859329398,"connected_time":3511000000000,"state":"active","ping":139},{"user_id":336,"name":"czarchasm","steam_id":76561198055712749,"connected_time":4370000000000,"state":"active","ping":96},{"user_id":330,"name":"psy","steam_id":76561198013195018,"connected_time":4741000000000,"state":"active","ping":80},{"user_id":367,"name":"vortexgamer","steam_id":76561197999435527,"connected_time":1655000000000,"state":"active","ping":77},{"user_id":374,"name":"jamzine","steam_id":76561198186168293,"connected_time":1562000000000,"state":"active","ping":73},{"user_id":276,"name":"$3.99 Shrimps","steam_id":76561198077272494,"connected_time":8043000000000,"state":"active","ping":57},{"user_id":301,"name":"Zoawsome","steam_id":76561198018758753,"connected_time":7094000000000,"state":"active","ping":54},{"user_id":339,"name":"I'm sorry!","steam_id":76561198405378213,"connected_time":4348000000000,"state":"active","ping":89}]},{"server_id":38,"name":"Uncletopia | Chicago | 7 | Stopwatch Beta","name_short":"chi-7","host":"chi-2.us.uncletopia.com","port":27035,"enabled":true,"region":"us-central","cc":"us","latitude":41.881832,"longitude":-87.62318,"reserved":0,"last_update":"0001-01-01T00:00:00Z","name_a2s":"Uncletopia | Chicago | 7 | Stopwatch Beta","protocol":17,"map":"workshop/pl_badwater_pro_v12.ugc2142942074","folder":"tf","game":"Team Fortress","app_id":440,"player_count":0,"max_players":24,"Bots":0,"server_type":"Dedicated","server_os":"Linux","password":true,"vac":true,"version":"7757534","steam_id":85568392924866364,"keywords":["nocrits","nodmgspread","payload","uncletopia"],"game_id":440,"stv_port":27036,"stv_name":"Uncletopia | Chicago | 7 | Stopwatch Beta | STV","players":null},{"server_id":39,"name":"Uncletopia | Chicago | 8 | Community","name_short":"chi-8","host":"chi-2.us.uncletopia.com","port":27045,"enabled":true,"region":"us-central","cc":"us","latitude":41.881832,"longitude":-87.62318,"reserved":0,"last_update":"0001-01-01T00:00:00Z","name_a2s":"Uncletopia | Chicago | 8 | Community","protocol":17,"map":"workshop/cp_sulfur_rc2.ugc619869471","folder":"tf","game":"Team Fortress","app_id":440,"player_count":0,"max_players":24,"Bots":0,"server_type":"Dedicated","server_os":"Linux","password":true,"vac":true,"version":"7757534","steam_id":85568392924866365,"keywords":["cp","nocrits","nodmgspread","uncletopia"],"game_id":440,"stv_port":27046,"stv_name":"Uncletopia | Chicago | 8 | Community | STV","players":null},{"server_id":8,"name":"Uncletopia | Dallas | 1 | All Maps","name_short":"dal-1","host":"dal-1.us.uncletopia.com","port":27015,"enabled":true,"region":"us-central","cc":"us","latitude":32.779167,"longitude":-96.80889,"reserved":0,"last_update":"0001-01-01T00:00:00Z","name_a2s":"Uncletopia | Dallas | 1 | All Maps","protocol":17,"map":"pl_upward","folder":"tf","game":"Team Fortress","app_id":440,"player_count":24,"max_players":24,"Bots":0,"server_type":"Dedicated","server_os":"Linux","password":true,"vac":true,"version":"7757534","steam_id":85568392924469986,"keywords":["nocrits","nodmgspread","payload","uncletopia"],"game_id":440,"stv_port":27016,"stv_name":"Uncletopia | Dallas | 1 | All Maps | STV","players":[{"user_id":459,"name":"moe","steam_id":76561198929586245,"connected_time":868000000000,"state":"active","ping":85},{"user_id":465,"name":"Dr. Bobo","steam_id":76561198271696761,"connected_time":453000000000,"state":"active","ping":66},{"user_id":313,"name":"üê∫-Iwky-ü¶ä","steam_id":76561198185616311,"connected_time":8472000000000,"state":"active","ping":61},{"user_id":439,"name":"Dr. Bonair","steam_id":76561198129237487,"connected_time":1608000000000,"state":"active","ping":68},{"user_id":455,"name":"ÔºîÔºê Ôº¶Ôº∞Ôº≥","steam_id":76561198272394965,"connected_time":1402000000000,"state":"active","ping":153},{"user_id":467,"name":"viv","steam_id":76561198975527343,"connected_time":269000000000,"state":"active","ping":60},{"user_id":324,"name":"Junky","steam_id":76561198049612322,"connected_time":7732000000000,"state":"active","ping":76},{"user_id":456,"name":"Moonflower ‚ú¶","steam_id":76561198191782483,"connected_time":1254000000000,"state":"active","ping":62},{"user_id":425,"name":"cup","steam_id":76561198121245586,"connected_time":2044000000000,"state":"active","ping":86},{"user_id":470,"name":"ai generated names","steam_id":76561198079603532,"connected_time":229000000000,"state":"active","ping":90},{"user_id":463,"name":"Prophet","steam_id":76561198134948582,"connected_time":697000000000,"state":"active","ping":114},{"user_id":444,"name":"JoySlip","steam_id":76561198269476149,"connected_time":1570000000000,"state":"active","ping":80},{"user_id":445,"name":"mikey | I'm Burning Bright!","steam_id":76561198985847893,"connected_time":1569000000000,"state":"active","ping":45},{"user_id":424,"name":"teatimesukka","steam_id":76561198978749594,"connected_time":2069000000000,"state":"active","ping":42},{"user_id":476,"name":"Nya Nya","steam_id":76561198406252824,"connected_time":12000000000,"state":"active","ping":103},{"user_id":474,"name":"Ciaphas Cain","steam_id":76561198185598330,"connected_time":212000000000,"state":"active","ping":100},{"user_id":472,"name":"mopylopy","steam_id":76561198354990729,"connected_time":222000000000,"state":"active","ping":92},{"user_id":451,"name":"felix the grand","steam_id":76561198838822605,"connected_time":1451000000000,"state":"active","ping":113},{"user_id":403,"name":"OMG!!!!","steam_id":76561198069600113,"connected_time":3828000000000,"state":"active","ping":78},{"user_id":454,"name":"Bluebird","steam_id":76561199143106401,"connected_time":1434000000000,"state":"active","ping":92},{"user_id":466,"name":"Pan-Demonica","steam_id":76561198294350105,"connected_time":385000000000,"state":"active","ping":66},{"user_id":450,"name":"Dr.Phil","steam_id":76561198047885355,"connected_time":1472000000000,"state":"active","ping":84},{"user_id":462,"name":"Sup m8","steam_id":76561198081659121,"connected_time":748000000000,"state":"active","ping":56},{"user_id":475,"name":"miraakz420","steam_id":76561199013850154,"connected_time":20000000000,"state":"active","ping":82}]},{"server_id":108,"name":"Uncletopia | Dallas | 2 | All Maps","name_short":"dal-2","host":"dal-1.us.uncletopia.com","port":27025,"enabled":true,"region":"us-central","cc":"us","latitude":32.779167,"longitude":-96.80889,"reserved":0,"last_update":"0001-01-01T00:00:00Z","name_a2s":"Uncletopia | Dallas | 2 | All Maps","protocol":17,"map":"cp_powerhouse","folder":"tf","game":"Team Fortress","app_id":440,"player_count":24,"max_players":24,"Bots":0,"server_type":"Dedicated","server_os":"Linux","password":true,"vac":true,"version":"7757534","steam_id":85568392924469988,"keywords":["cp","nocrits","nodmgspread","uncletopia"],"game_id":440,"stv_port":27026,"stv_name":"Uncletopia | Dallas | 2 | All Maps | STV","players":[{"user_id":173,"name":"brr skibidi dop dop dop","steam_id":76561198991982630,"connected_time":6628000000000,"state":"active","ping":78},{"user_id":225,"name":"hey beautiful!","steam_id":76561198224614084,"connected_time":1745000000000,"state":"active","ping":89},{"user_id":198,"name":"MoopStoop","steam_id":76561198140936620,"connected_time":3732000000000,"state":"active","ping":46},{"user_id":249,"name":"Miller‚Ñ¢","steam_id":76561198085090516,"connected_time":39000000000,"state":"active","ping":111},{"user_id":172,"name":"Ros","steam_id":76561199055963822,"connected_time":6643000000000,"state":"active","ping":77},{"user_id":246,"name":"Pangilli","steam_id":76561198829465116,"connected_time":279000000000,"state":"active","ping":107},{"user_id":205,"name":"Steggoman","steam_id":76561198202219235,"connected_time":3307000000000,"state":"active","ping":60},{"user_id":208,"name":"Colin102004","steam_id":76561198202384334,"connected_time":3100000000000,"state":"active","ping":80},{"user_id":174,"name":"banana97286","steam_id":76561199367847817,"connected_time":6612000000000,"state":"active","ping":78},{"user_id":243,"name":"Silverkeys","steam_id":76561197986012496,"connected_time":538000000000,"state":"active","ping":90},{"user_id":184,"name":"KritzKow","steam_id":76561198086164003,"connected_time":5061000000000,"state":"active","ping":80},{"user_id":244,"name":"Danny","steam_id":76561198089084860,"connected_time":440000000000,"state":"active","ping":108},{"user_id":247,"name":"Sax","steam_id":76561198055425123,"connected_time":170000000000,"state":"active","ping":115},{"user_id":239,"name":"rico suave","steam_id":76561198093252989,"connected_time":932000000000,"state":"active","ping":60},{"user_id":185,"name":"cirno","steam_id":76561198166081596,"connected_time":5039000000000,"state":"active","ping":71},{"user_id":242,"name":"Johnny Lawrence #JohnnyMaxxing","steam_id":76561199367141671,"connected_time":618000000000,"state":"active","ping":89},{"user_id":186,"name":"Sham Cow","steam_id":76561198064556977,"connected_time":5035000000000,"state":"active","ping":69},{"user_id":163,"name":"Mellou","steam_id":76561198212048740,"connected_time":7585000000000,"state":"active","ping":56},{"user_id":245,"name":"Rin \"Hindwing\" Redtail","steam_id":76561199074865638,"connected_time":401000000000,"state":"active","ping":48},{"user_id":241,"name":"Robomandude","steam_id":76561198043909566,"connected_time":856000000000,"state":"active","ping":57},{"user_id":215,"name":"Saikyo","steam_id":76561198212461467,"connected_time":2614000000000,"state":"active","ping":46},{"user_id":219,"name":"Simps in the Crib","steam_id":76561198830931110,"connected_time":2346000000000,"state":"active","ping":74},{"user_id":221,"name":"avaeragebonkenjoyer","steam_id":76561198313518948,"connected_time":2187000000000,"state":"active","ping":83},{"user_id":238,"name":"Vagabond","steam_id":76561197980971662,"connected_time":1022000000000,"state":"active","ping":98}]},{"server_id":5,"name":"Uncletopia | Frankfurt | 1 | All Maps","name_short":"frk-1","host":"frk-1.de.uncletopia.com","port":27015,"enabled":true,"region":"eu","cc":"de","latitude":50.110924,"longitude":8.682127,"reserved":0,"last_update":"0001-01-01T00:00:00Z","name_a2s":"Uncletopia | Frankfurt | 1 | All Maps","protocol":17,"map":"cp_altitude","folder":"tf","game":"Team Fortress","app_id":440,"player_count":24,"max_players":24,"Bots":0,"server_type":"Dedicated","server_os":"Linux","password":true,"vac":true,"version":"7757534","steam_id":85568392924469989,"keywords":["cp","nocrits","nodmgspread","uncletopia"],"game_id":440,"stv_port":27016,"stv_name":"Uncletopia | Frankfurt | 1 | All Maps | STV","players":[{"user_id":757,"name":"niaerniopawrjnko","steam_id":76561198030408772,"connected_time":1047000000000,"state":"active","ping":59},{"user_id":758,"name":"Rave Robber","steam_id":76561199414716848,"connected_time":1033000000000,"state":"active","ping":71},{"user_id":749,"name":"chainsaw","steam_id":76561199220675624,"connected_time":1840000000000,"state":"active","ping":115},{"user_id":769,"name":"blued0t","steam_id":76561198875584775,"connected_time":795000000000,"state":"active","ping":68},{"user_id":762,"name":"paguro","steam_id":76561198119560871,"connected_time":900000000000,"state":"active","ping":68},{"user_id":690,"name":"yeh","steam_id":76561198061197114,"connected_time":4466000000000,"state":"active","ping":72},{"user_id":664,"name":"fogings","steam_id":76561198044165284,"connected_time":5755000000000,"state":"active","ping":40},{"user_id":771,"name":"Sentient AI","steam_id":76561198033813057,"connected_time":634000000000,"state":"active","ping":67},{"user_id":774,"name":"Zy","steam_id":76561198402301900,"connected_time":294000000000,"state":"active","ping":59},{"user_id":761,"name":"DOM DOM YES YES","steam_id":76561199004896738,"connected_time":985000000000,"state":"active","ping":56},{"user_id":766,"name":"The cum policeman","steam_id":76561198338129578,"connected_time":833000000000,"state":"active","ping":50},{"user_id":735,"name":"—É–±–∏–ª –≤–µ–≥–∞–Ω–∞","steam_id":76561198385399870,"connected_time":2644000000000,"state":"active","ping":94},{"user_id":755,"name":"yarrak lover","steam_id":76561198113048880,"connected_time":1456000000000,"state":"active","ping":49},{"user_id":752,"name":"DariBro","steam_id":76561198155444173,"connected_time":1665000000000,"state":"active","ping":62},{"user_id":750,"name":"Kevin","steam_id":76561198035625423,"connected_time":1809000000000,"state":"active","ping":96},{"user_id":767,"name":"The one who knocks","steam_id":76561198089341471,"connected_time":820000000000,"state":"active","ping":82},{"user_id":747,"name":"Scipionemiliano","steam_id":76561198027646559,"connected_time":2104000000000,"state":"active","ping":135},{"user_id":743,"name":"Thoom Slayer","steam_id":76561198155010055,"connected_time":2340000000000,"state":"active","ping":134},{"user_id":773,"name":"r/sonofelicenellafece","steam_id":76561198262231733,"connected_time":534000000000,"state":"active","ping":61},{"user_id":751,"name":"Kvicha Kvaratskhelia","steam_id":76561198179339326,"connected_time":1795000000000,"state":"active","ping":76},{"user_id":744,"name":"HOI","steam_id":76561198061182117,"connected_time":2335000000000,"state":"active","ping":60},{"user_id":722,"name":"PWizard","steam_id":76561198026458489,"connected_time":3119000000000,"state":"active","ping":63},{"user_id":754,"name":"peee pee man","steam_id":76561198044979205,"connected_time":1552000000000,"state":"active","ping":146},{"user_id":760,"name":"Dr. Lifchik","steam_id":76561198206613841,"connected_time":1011000000000,"state":"active","ping":60}]},{"server_id":110,"name":"Uncletopia | Frankfurt | 2 | All Maps","name_short":"frk-2","host":"frk-1.de.uncletopia.com","port":27025,"enabled":true,"region":"eu","cc":"de","latitude":50.110924,"longitude":8.682127,"reserved":0,"last_update":"0001-01-01T00:00:00Z","name_a2s":"Uncletopia | Frankfurt | 2 | All Maps","protocol":17,"map":"pl_swiftwater_final1","folder":"tf","game":"Team Fortress","app_id":440,"player_count":23,"max_players":24,"Bots":0,"server_type":"Dedicated","server_os":"Linux","password":true,"vac":true,"version":"7757534","steam_id":85568392924469990,"keywords":["nocrits","nodmgspread","payload","uncletopia"],"game_id":440,"stv_port":27026,"stv_name":"Uncletopia | Frankfurt | 2 | All Maps | STV","players":[{"user_id":669,"name":"cop killer","steam_id":76561198039966198,"connected_time":1929000000000,"state":"active","ping":64},{"user_id":694,"name":"poorchel","steam_id":76561198056905953,"connected_time":784000000000,"state":"active","ping":122},{"user_id":674,"name":"murf","steam_id":76561199184831395,"connected_time":1566000000000,"state":"active","ping":60},{"user_id":697,"name":"Xtreme‚Ñ¢","steam_id":76561198050144913,"connected_time":409000000000,"state":"active","ping":68},{"user_id":698,"name":"üåº HugeE","steam_id":76561198245495152,"connected_time":87000000000,"state":"active","ping":60},{"user_id":661,"name":"Djingis Khan","steam_id":76561197967864460,"connected_time":3046000000000,"state":"active","ping":38},{"user_id":700,"name":"Spieller","steam_id":76561198057197847,"connected_time":52000000000,"state":"spawning","ping":68},{"user_id":658,"name":"waluigi","steam_id":76561198215809251,"connected_time":3149000000000,"state":"active","ping":58},{"user_id":690,"name":"AwterSix","steam_id":76561198042561678,"connected_time":1147000000000,"state":"active","ping":62},{"user_id":635,"name":"T1 (ted1)","steam_id":76561199229022826,"connected_time":5027000000000,"state":"active","ping":107},{"user_id":677,"name":"SynthBox3","steam_id":76561199094075745,"connected_time":1535000000000,"state":"active","ping":97},{"user_id":668,"name":"Pootis","steam_id":76561198823265247,"connected_time":2306000000000,"state":"active","ping":73},{"user_id":679,"name":"captainTeabag294","steam_id":76561198044620969,"connected_time":1504000000000,"state":"active","ping":73},{"user_id":681,"name":"simn","steam_id":76561198159182269,"connected_time":1444000000000,"state":"active","ping":51},{"user_id":641,"name":"Deacon Dracul","steam_id":76561198046880663,"connected_time":4484000000000,"state":"active","ping":108},{"user_id":701,"name":"vuggie","steam_id":76561198042227249,"connected_time":23000000000,"state":"active","ping":59},{"user_id":666,"name":"Schnitzel","steam_id":76561198149014684,"connected_time":2338000000000,"state":"active","ping":50},{"user_id":696,"name":"Mr. Fox","steam_id":76561198803610709,"connected_time":537000000000,"state":"active","ping":115},{"user_id":688,"name":"tealoverr.190","steam_id":76561199028497703,"connected_time":1363000000000,"state":"active","ping":106},{"user_id":689,"name":"Jack","steam_id":76561198325505238,"connected_time":1314000000000,"state":"active","ping":76},{"user_id":685,"name":"I want my dog back","steam_id":76561198318748304,"connected_time":1371000000000,"state":"active","ping":132},{"user_id":695,"name":"boy","steam_id":76561198162462063,"connected_time":702000000000,"state":"active","ping":65},{"user_id":686,"name":"Hoopty","steam_id":76561198057012442,"connected_time":1368000000000,"state":"active","ping":63}]},{"server_id":308,"name":"Uncletopia | Frankfurt | 3 | All Maps","name_short":"frk-3","host":"frk-1.de.uncletopia.com","port":27035,"enabled":true,"region":"eu","cc":"de","latitude":50.110924,"longitude":8.682127,"reserved":0,"last_update":"0001-01-01T00:00:00Z","name_a2s":"Uncletopia | Frankfurt | 3 | All Maps","protocol":17,"map":"pl_frontier_final","folder":"tf","game":"Team Fortress","app_id":440,"player_count":22,"max_players":24,"Bots":0,"server_type":"Dedicated","server_os":"Linux","password":true,"vac":true,"version":"7757534","steam_id":85568392924504274,"keywords":["nocrits","nodmgspread","payload","uncletopia"],"game_id":440,"stv_port":27036,"stv_name":"Uncletopia | Frankfurt | 3 | All Maps | STV","players":[{"user_id":205,"name":"FJADL","steam_id":76561198237008214,"connected_time":265000000000,"state":"active","ping":57},{"user_id":157,"name":"Gordon Birdman","steam_id":76561198013382324,"connected_time":5752000000000,"state":"active","ping":62},{"user_id":187,"name":"Zilouw","steam_id":76561198026596988,"connected_time":2017000000000,"state":"active","ping":71},{"user_id":184,"name":"kelsey","steam_id":76561198426604784,"connected_time":2439000000000,"state":"active","ping":54},{"user_id":170,"name":"Lateguy","steam_id":76561198069446079,"connected_time":4134000000000,"state":"active","ping":83},{"user_id":209,"name":"Piros","steam_id":76561198193785653,"connected_time":157000000000,"state":"active","ping":81},{"user_id":207,"name":"MagPootis","steam_id":76561198157065778,"connected_time":233000000000,"state":"active","ping":68},{"user_id":212,"name":"Stahlhelm21","steam_id":76561199470590710,"connected_time":50000000000,"state":"active","ping":57},{"user_id":213,"name":"oldy","steam_id":76561198031899043,"connected_time":43000000000,"state":"active","ping":88},{"user_id":136,"name":"Pipper","steam_id":76561197970326616,"connected_time":7329000000000,"state":"active","ping":49},{"user_id":211,"name":"cyx","steam_id":76561199316310715,"connected_time":67000000000,"state":"active","ping":90},{"user_id":46,"name":"tekt","steam_id":76561198044554387,"connected_time":13787000000000,"state":"active","ping":108},{"user_id":176,"name":"Teffg","steam_id":76561198274386094,"connected_time":3544000000000,"state":"active","ping":114},{"user_id":214,"name":"Arthur","steam_id":76561198114107421,"connected_time":8000000000,"state":"spawning","ping":305},{"user_id":215,"name":"Jim Milton","steam_id":76561198055788070,"connected_time":4000000000,"state":"spawning","ping":53},{"user_id":208,"name":"Jabussy","steam_id":76561198111148719,"connected_time":224000000000,"state":"active","ping":71},{"user_id":197,"name":"SuperBob103","steam_id":76561199175360012,"connected_time":1252000000000,"state":"active","ping":64},{"user_id":189,"name":"Kira","steam_id":76561198204168909,"connected_time":1652000000000,"state":"active","ping":100},{"user_id":73,"name":"scantron","steam_id":76561199103959197,"connected_time":12608000000000,"state":"active","ping":90},{"user_id":199,"name":"lunaire","steam_id":76561198163344452,"connected_time":1208000000000,"state":"active","ping":79},{"user_id":167,"name":"Jacky","steam_id":76561198444969715,"connected_time":4202000000000,"state":"active","ping":80},{"user_id":143,"name":"SIR MEPHEDRONE","steam_id":76561198302623594,"connected_time":7067000000000,"state":"active","ping":93}]},{"server_id":309,"name":"Uncletopia | Frankfurt | 4 | All Maps","name_short":"frk-4","host":"frk-1.de.uncletopia.com","port":27045,"enabled":true,"region":"eu","cc":"de","latitude":50.110924,"longitude":8.682127,"reserved":0,"last_update":"0001-01-01T00:00:00Z","name_a2s":"Uncletopia | Frankfurt | 4 | All Maps","protocol":17,"map":"cp_dustbowl","folder":"tf","game":"Team Fortress","app_id":440,"player_count":24,"max_players":24,"Bots":0,"server_type":"Dedicated","server_os":"Linux","password":true,"vac":true,"version":"7757534","steam_id":85568392924504275,"keywords":["cp","nocrits","nodmgspread","uncletopia"],"game_id":440,"stv_port":27046,"stv_name":"Uncletopia | Frankfurt | 4 | All Maps | STV","players":[{"user_id":409,"name":"Shovelhalfrusty","steam_id":76561198346447513,"connected_time":1351000000000,"state":"active","ping":74},{"user_id":432,"name":"giclure :;","steam_id":76561197986362828,"connected_time":394000000000,"state":"active","ping":48},{"user_id":246,"name":"Pastoss","steam_id":76561198379098260,"connected_time":14299000000000,"state":"active","ping":53},{"user_id":415,"name":"donk","steam_id":76561198162676648,"connected_time":1294000000000,"state":"active","ping":75},{"user_id":434,"name":"LAYNOSTAYKO","steam_id":76561198218557183,"connected_time":267000000000,"state":"active","ping":85},{"user_id":412,"name":"Z√°por√°k","steam_id":76561198207175503,"connected_time":1345000000000,"state":"active","ping":53},{"user_id":408,"name":"Umberto Bossi","steam_id":76561198136150267,"connected_time":1683000000000,"state":"active","ping":55},{"user_id":411,"name":"dirty","steam_id":76561197995572935,"connected_time":1347000000000,"state":"active","ping":80},{"user_id":380,"name":"BSantos57","steam_id":76561198000597094,"connected_time":3772000000000,"state":"active","ping":82},{"user_id":336,"name":"eeeeee","steam_id":76561198017786875,"connected_time":7031000000000,"state":"active","ping":67},{"user_id":427,"name":"lofimonkeyjazz","steam_id":76561198117059662,"connected_time":511000000000,"state":"active","ping":84},{"user_id":435,"name":"Sophvis","steam_id":76561198143786834,"connected_time":132000000000,"state":"active","ping":48},{"user_id":421,"name":"DocTwoEight","steam_id":76561198153488940,"connected_time":1069000000000,"state":"active","ping":76},{"user_id":430,"name":"Scazzing","steam_id":76561198052954318,"connected_time":466000000000,"state":"active","ping":60},{"user_id":433,"name":"Zelmor","steam_id":76561197997708311,"connected_time":388000000000,"state":"active","ping":52},{"user_id":413,"name":"(1)eeeeee","steam_id":76561198427092596,"connected_time":1340000000000,"state":"active","ping":126},{"user_id":425,"name":"that fat croc from donkey kong","steam_id":76561198159172495,"connected_time":749000000000,"state":"active","ping":73},{"user_id":418,"name":"Eezack","steam_id":76561198883929819,"connected_time":1200000000000,"state":"active","ping":68},{"user_id":401,"name":"Kick gibus-engineers","steam_id":76561198046368451,"connected_time":3080000000000,"state":"active","ping":99},{"user_id":342,"name":"Carrotcracker","steam_id":76561198034862396,"connected_time":6989000000000,"state":"active","ping":83},{"user_id":436,"name":"4","steam_id":76561197964945192,"connected_time":48000000000,"state":"active","ping":52},{"user_id":388,"name":"DooWooD","steam_id":76561198335810106,"connected_time":3682000000000,"state":"active","ping":77},{"user_id":419,"name":"ProMate","steam_id":76561198277138236,"connected_time":1194000000000,"state":"active","ping":73},{"user_id":406,"name":"Reizei","steam_id":76561198148504042,"connected_time":2228000000000,"state":"active","ping":75}]},{"server_id":310,"name":"Uncletopia | Frankfurt | 5 | All Maps","name_short":"frk-5","host":"frk-1.de.uncletopia.com","port":27055,"enabled":true,"region":"eu","cc":"de","latitude":50.110924,"longitude":8.682127,"reserved":0,"last_update":"0001-01-01T00:00:00Z","name_a2s":"Uncletopia | Frankfurt | 5 | All Maps","protocol":17,"map":"cp_dustbowl","folder":"tf","game":"Team Fortress","app_id":440,"player_count":24,"max_players":24,"Bots":0,"server_type":"Dedicated","server_os":"Linux","password":true,"vac":true,"version":"7757534","steam_id":85568392924504277,"keywords":["cp","nocrits","nodmgspread","uncletopia"],"game_id":440,"stv_port":27056,"stv_name":"Uncletopia | Frankfurt | 5 | All Maps | STV","players":[{"user_id":451,"name":"sex havin'","steam_id":76561198169857427,"connected_time":4012000000000,"state":"active","ping":78},{"user_id":476,"name":"Mike Rizzowski","steam_id":76561198798657045,"connected_time":2061000000000,"state":"active","ping":70},{"user_id":484,"name":"cursedbygod‚ô°","steam_id":76561198318291047,"connected_time":700000000000,"state":"active","ping":103},{"user_id":438,"name":"Valoxi","steam_id":76561197995042938,"connected_time":4527000000000,"state":"active","ping":72},{"user_id":479,"name":"Wasyl","steam_id":76561198097427305,"connected_time":1168000000000,"state":"active","ping":111},{"user_id":325,"name":"[Erathia]ARKHALIS","steam_id":76561198993900003,"connected_time":12877000000000,"state":"active","ping":75},{"user_id":486,"name":"‚ùñMinty_n1mix‚ùñ","steam_id":76561198840705512,"connected_time":406000000000,"state":"active","ping":72},{"user_id":487,"name":"_Napstablook_","steam_id":76561198194727115,"connected_time":396000000000,"state":"active","ping":88},{"user_id":469,"name":"Kruthal","steam_id":76561198245726582,"connected_time":2473000000000,"state":"active","ping":72},{"user_id":463,"name":"Presten","steam_id":76561198116395897,"connected_time":3628000000000,"state":"active","ping":87},{"user_id":488,"name":"FruntiSoot","steam_id":76561198375919821,"connected_time":387000000000,"state":"active","ping":79},{"user_id":489,"name":"o_o","steam_id":76561198113045011,"connected_time":385000000000,"state":"active","ping":91},{"user_id":490,"name":"kaze","steam_id":76561198997095048,"connected_time":367000000000,"state":"active","ping":69},{"user_id":472,"name":"Flash","steam_id":76561197988550068,"connected_time":2336000000000,"state":"active","ping":63},{"user_id":491,"name":"–ü–µ—Å –ü–∞—Ç—Ä–æ–Ω","steam_id":76561198273199378,"connected_time":357000000000,"state":"active","ping":63},{"user_id":492,"name":"(wm) Das Fleisch","steam_id":76561198001250715,"connected_time":339000000000,"state":"active","ping":56},{"user_id":475,"name":"Lokinn","steam_id":76561198127117580,"connected_time":2205000000000,"state":"active","ping":69},{"user_id":326,"name":"{CPBR}SPRSTR","steam_id":76561197998887733,"connected_time":12871000000000,"state":"active","ping":97},{"user_id":483,"name":"john fortress 2","steam_id":76561198202668788,"connected_time":862000000000,"state":"active","ping":60},{"user_id":471,"name":"CrashyPlay","steam_id":76561198106125298,"connected_time":2437000000000,"state":"active","ping":70},{"user_id":481,"name":"st√≥≈Ç z powy≈Çamywanymi nogami","steam_id":76561198095134889,"connected_time":1159000000000,"state":"active","ping":76},{"user_id":493,"name":"where is my egg?","steam_id":76561198172542535,"connected_time":327000000000,"state":"active","ping":69},{"user_id":478,"name":"dn4k","steam_id":76561199221755690,"connected_time":1204000000000,"state":"active","ping":85},{"user_id":494,"name":"Ozzie","steam_id":76561197992915315,"connected_time":286000000000,"state":"active","ping":75}]},{"server_id":311,"name":"Uncletopia | Frankfurt | 6 | All Maps","name_short":"frk-6","host":"frk-1.de.uncletopia.com","port":27065,"enabled":true,"region":"eu","cc":"de","latitude":50.110924,"longitude":8.682127,"reserved":0,"last_update":"0001-01-01T00:00:00Z","name_a2s":"Uncletopia | Frankfurt | 6 | All Maps","protocol":17,"map":"pl_snowycoast","folder":"tf","game":"Team Fortress","app_id":440,"player_count":24,"max_players":24,"Bots":0,"server_type":"Dedicated","server_os":"Linux","password":true,"vac":true,"version":"7757534","steam_id":85568392924504278,"keywords":["nocrits","nodmgspread","payload","uncletopia"],"game_id":440,"stv_port":27066,"stv_name":"Uncletopia | Frankfurt | 6 | All Maps | STV","players":[{"user_id":430,"name":"RONALDOSIUUU7","steam_id":76561198890409949,"connected_time":1425000000000,"state":"active","ping":90},{"user_id":417,"name":"vani","steam_id":76561197991778291,"connected_time":1939000000000,"state":"active","ping":73},{"user_id":418,"name":"Cumbustible Punda #SaveTF2","steam_id":76561197974274677,"connected_time":1936000000000,"state":"active","ping":53},{"user_id":431,"name":"goodguydragg","steam_id":76561198305104891,"connected_time":1312000000000,"state":"active","ping":60},{"user_id":432,"name":"Cobb Salads","steam_id":76561197971140507,"connected_time":1212000000000,"state":"active","ping":65},{"user_id":438,"name":"Mike Hox Mawl","steam_id":76561199133739473,"connected_time":597000000000,"state":"active","ping":83},{"user_id":420,"name":"uhmazn","steam_id":76561198014204225,"connected_time":1917000000000,"state":"active","ping":63},{"user_id":439,"name":"baijro","steam_id":76561198061001376,"connected_time":592000000000,"state":"active","ping":62},{"user_id":445,"name":"IronHawk‚ú®","steam_id":76561198008959448,"connected_time":242000000000,"state":"active","ping":70},{"user_id":440,"name":"Udinese Dion","steam_id":76561198067931573,"connected_time":574000000000,"state":"active","ping":46},{"user_id":442,"name":"MilkIsmo","steam_id":76561198078362135,"connected_time":433000000000,"state":"active","ping":90},{"user_id":446,"name":"cockwater","steam_id":76561198209101861,"connected_time":240000000000,"state":"active","ping":61},{"user_id":402,"name":"RadialMount","steam_id":76561198063002562,"connected_time":2558000000000,"state":"active","ping":67},{"user_id":390,"name":"Dzan50","steam_id":76561198059758591,"connected_time":2928000000000,"state":"active","ping":75},{"user_id":421,"name":"wave","steam_id":76561198014688238,"connected_time":1909000000000,"state":"active","ping":62},{"user_id":314,"name":"Duke Fishlord","steam_id":76561198079928327,"connected_time":7845000000000,"state":"active","ping":62},{"user_id":405,"name":"Ludarex17","steam_id":76561198334705326,"connected_time":2507000000000,"state":"active","ping":108},{"user_id":426,"name":"weed fairy","steam_id":76561197998843096,"connected_time":1850000000000,"state":"active","ping":75},{"user_id":422,"name":"‚ò£Strale‚ò£","steam_id":76561198026578820,"connected_time":1905000000000,"state":"active","ping":73},{"user_id":435,"name":"Johan","steam_id":76561197999517316,"connected_time":832000000000,"state":"active","ping":83},{"user_id":437,"name":"KonradekBDG","steam_id":76561199111046820,"connected_time":810000000000,"state":"active","ping":79},{"user_id":444,"name":"penis gnome","steam_id":76561198097612561,"connected_time":397000000000,"state":"active","ping":70},{"user_id":429,"name":"carrots on pizza","steam_id":76561198875472890,"connected_time":1804000000000,"state":"active","ping":81},{"user_id":424,"name":"$n√òw","steam_id":76561198238781028,"connected_time":1867000000000,"state":"active","ping":109}]},{"server_id":23,"name":"Uncletopia | Frankfurt | 7 | Stopwatch Beta","name_short":"frk-7","host":"frk-1.de.uncletopia.com","port":27075,"enabled":true,"region":"eu","cc":"de","latitude":50.110924,"longitude":8.682127,"reserved":0,"last_update":"0001-01-01T00:00:00Z","name_a2s":"Uncletopia | Frankfurt | 7 | Stopwatch Beta","protocol":17,"map":"pl_borneo","folder":"tf","game":"Team Fortress","app_id":440,"player_count":0,"max_players":24,"Bots":0,"server_type":"Dedicated","server_os":"Linux","password":true,"vac":true,"version":"7757534","steam_id":85568392924742827,"keywords":["nocrits","nodmgspread","payload","uncletopia"],"game_id":440,"stv_port":27076,"stv_name":"Uncletopia | Frankfurt | 7 | Stopwatch Beta | STV","players":null},{"server_id":24,"name":"Uncletopia | Frankfurt | 8 | Community","name_short":"frk-8","host":"frk-1.de.uncletopia.com","port":27085,"enabled":true,"region":"eu","cc":"de","latitude":50.110924,"longitude":8.682127,"reserved":0,"last_update":"0001-01-01T00:00:00Z","name_a2s":"Uncletopia | Frankfurt | 8 | Community","protocol":17,"map":"workshop/pl_barnblitz_pro7.ugc582280235","folder":"tf","game":"Team Fortress","app_id":440,"player_count":6,"max_players":24,"Bots":0,"server_type":"Dedicated","server_os":"Linux","password":true,"vac":true,"version":"7757534","steam_id":85568392924742828,"keywords":["nocrits","nodmgspread","payload","uncletopia"],"game_id":440,"stv_port":27086,"stv_name":"Uncletopia | Frankfurt | 8 | Community | STV","players":[{"user_id":16,"name":"el_ronia","steam_id":76561199203435546,"connected_time":4162000000000,"state":"active","ping":58},{"user_id":29,"name":"_zipfile","steam_id":76561198066133808,"connected_time":1685000000000,"state":"active","ping":72},{"user_id":20,"name":"A non elite gamer","steam_id":76561199040460389,"connected_time":2329000000000,"state":"active","ping":114},{"user_id":21,"name":"Gr8gy","steam_id":76561198801350782,"connected_time":1987000000000,"state":"active","ping":84},{"user_id":23,"name":"GezmeRR TF2","steam_id":76561198043814532,"connected_time":1798000000000,"state":"active","ping":46},{"user_id":32,"name":"Big whest","steam_id":76561198147749990,"connected_time":960000000000,"state":"active","ping":220}]},{"server_id":202,"name":"Uncletopia | Hong Kong | 1 | All Maps","name_short":"hgk-1","host":"hgk-1.hk.uncletopia.com","port":27015,"enabled":true,"region":"asia","cc":"hk","latitude":22.302711,"longitude":114.177216,"reserved":0,"last_update":"0001-01-01T00:00:00Z","name_a2s":"Uncletopia | Hong Kong | 1 | All Maps","protocol":17,"map":"pl_frontier_final","folder":"tf","game":"Team Fortress","app_id":440,"player_count":0,"max_players":24,"Bots":0,"server_type":"Dedicated","server_os":"Linux","password":true,"vac":true,"version":"7757534","steam_id":85568392924494504,"keywords":["nocrits","nodmgspread","payload","uncletopia"],"game_id":440,"stv_port":27016,"stv_name":"Uncletopia | Hong Kong | 1 | All Maps | STV","players":null},{"server_id":1,"name":"Uncletopia | Los Angeles | 1 | All Maps","name_short":"lax-1","host":"lax-1.us.uncletopia.com","port":27015,"enabled":true,"region":"us-west","cc":"us","latitude":33.94279,"longitude":-118.41004,"reserved":0,"last_update":"0001-01-01T00:00:00Z","name_a2s":"Uncletopia | Los Angeles | 1 | All Maps","protocol":17,"map":"pl_pier","folder":"tf","game":"Team Fortress","app_id":440,"player_count":21,"max_players":24,"Bots":0,"server_type":"Dedicated","server_os":"Linux","password":true,"vac":true,"version":"7757534","steam_id":85568392924469991,"keywords":["nocrits","nodmgspread","payload","uncletopia"],"game_id":440,"stv_port":27016,"stv_name":"Uncletopia | Los Angeles | 1 | All Maps | STV","players":[{"user_id":59,"name":"John Madden","steam_id":76561198099820768,"connected_time":4683000000000,"state":"active","ping":89},{"user_id":56,"name":"Tumbleweed","steam_id":76561198880710930,"connected_time":5107000000000,"state":"active","ping":70},{"user_id":95,"name":"Mr.Sex","steam_id":76561198169957571,"connected_time":1779000000000,"state":"active","ping":88},{"user_id":75,"name":"Ivy","steam_id":76561198047758442,"connected_time":3983000000000,"state":"active","ping":87},{"user_id":111,"name":"Fungus","steam_id":76561198390297486,"connected_time":98000000000,"state":"active","ping":33},{"user_id":112,"name":"w key + left click + spacebar","steam_id":76561198319442494,"connected_time":75000000000,"state":"active","ping":52},{"user_id":105,"name":"Flickxi","steam_id":76561199013558457,"connected_time":754000000000,"state":"active","ping":114},{"user_id":108,"name":"Hilo! (f2p)","steam_id":76561199126141666,"connected_time":617000000000,"state":"active","ping":49},{"user_id":88,"name":"d savage stole my wife","steam_id":76561198145784505,"connected_time":2463000000000,"state":"active","ping":42},{"user_id":113,"name":"huh","steam_id":76561198272057200,"connected_time":49000000000,"state":"active","ping":57},{"user_id":114,"name":"Grape Juice","steam_id":76561198380337568,"connected_time":28000000000,"state":"active","ping":106},{"user_id":99,"name":"lukamine","steam_id":76561198166827208,"connected_time":1426000000000,"state":"active","ping":71},{"user_id":96,"name":"futmaus","steam_id":76561199063130278,"connected_time":1616000000000,"state":"active","ping":47},{"user_id":97,"name":"DETECTIVE MAJOR STEWART","steam_id":76561198043709046,"connected_time":1612000000000,"state":"active","ping":128},{"user_id":107,"name":"Majestic-A","steam_id":76561198988062101,"connected_time":705000000000,"state":"active","ping":74},{"user_id":101,"name":"Erten","steam_id":76561198173961719,"connected_time":1392000000000,"state":"active","ping":111},{"user_id":48,"name":"Bri","steam_id":76561198089908485,"connected_time":5383000000000,"state":"active","ping":131},{"user_id":91,"name":"3.dlc","steam_id":76561198234377776,"connected_time":1898000000000,"state":"active","ping":52},{"user_id":102,"name":"walidov","steam_id":76561198079965605,"connected_time":1379000000000,"state":"active","ping":99},{"user_id":92,"name":"mrstealthg","steam_id":76561198059088381,"connected_time":1868000000000,"state":"active","ping":76},{"user_id":47,"name":"shellaa","steam_id":76561198044124102,"connected_time":5400000000000,"state":"active","ping":68}]},{"server_id":112,"name":"Uncletopia | Los Angeles | 2 | All Maps","name_short":"lax-2","host":"lax-1.us.uncletopia.com","port":27025,"enabled":true,"region":"us-west","cc":"us","latitude":33.94279,"longitude":-118.41004,"reserved":0,"last_update":"0001-01-01T00:00:00Z","name_a2s":"Uncletopia | Los Angeles | 2 | All Maps","protocol":17,"map":"pl_barnblitz","folder":"tf","game":"Team Fortress","app_id":440,"player_count":12,"max_players":24,"Bots":0,"server_type":"Dedicated","server_os":"Linux","password":true,"vac":true,"version":"7757534","steam_id":85568392924469992,"keywords":["nocrits","nodmgspread","payload","uncletopia"],"game_id":440,"stv_port":27026,"stv_name":"Uncletopia | Los Angeles | 2 | All Maps | STV","players":[{"user_id":15,"name":"Mitryll","steam_id":76561198353873067,"connected_time":687000000000,"state":"active","ping":158},{"user_id":16,"name":"Shoey","steam_id":76561198042538154,"connected_time":685000000000,"state":"active","ping":120},{"user_id":17,"name":"Buckethead Beko","steam_id":76561198290780382,"connected_time":682000000000,"state":"active","ping":126},{"user_id":18,"name":"Rett","steam_id":76561198042941238,"connected_time":681000000000,"state":"active","ping":100},{"user_id":19,"name":"Splat","steam_id":76561198285916075,"connected_time":678000000000,"state":"active","ping":111},{"user_id":20,"name":"Voltanya048","steam_id":76561198030560850,"connected_time":677000000000,"state":"active","ping":122},{"user_id":21,"name":"IJ-Cones","steam_id":76561198039841684,"connected_time":672000000000,"state":"active","ping":133},{"user_id":23,"name":"luke8538","steam_id":76561198067480563,"connected_time":325000000000,"state":"active","ping":66},{"user_id":24,"name":"rebaia (in the soil)","steam_id":76561198416623603,"connected_time":276000000000,"state":"active","ping":124},{"user_id":25,"name":"Pyrolimited","steam_id":76561198195455657,"connected_time":171000000000,"state":"active","ping":72},{"user_id":26,"name":"Bobbeh","steam_id":76561198131601160,"connected_time":113000000000,"state":"active","ping":76},{"user_id":27,"name":"Friendly dispenser scoot","steam_id":76561199130459740,"connected_time":109000000000,"state":"active","ping":75}]},{"server_id":324,"name":"Uncletopia | Los Angeles | 3 | All Maps","name_short":"lax-3","host":"lax-1.us.uncletopia.com","port":27035,"enabled":true,"region":"us-west","cc":"us","latitude":33.94279,"longitude":-118.41004,"reserved":0,"last_update":"0001-01-01T00:00:00Z","name_a2s":"Uncletopia | Los Angeles | 3 | All Maps","protocol":17,"map":"pl_borneo","folder":"tf","game":"Team Fortress","app_id":440,"player_count":23,"max_players":24,"Bots":0,"server_type":"Dedicated","server_os":"Linux","password":true,"vac":true,"version":"7757534","steam_id":85568392924510198,"keywords":["nocrits","nodmgspread","payload","uncletopia"],"game_id":440,"stv_port":27036,"stv_name":"Uncletopia | Los Angeles | 3 | All Maps | STV","players":[{"user_id":59,"name":"Vortigaunt","steam_id":76561198058653274,"connected_time":2857000000000,"state":"active","ping":75},{"user_id":105,"name":"Reap(BotHunting AC130)","steam_id":76561198278956396,"connected_time":884000000000,"state":"active","ping":121},{"user_id":60,"name":"Too Lame 2 Name","steam_id":76561198390863385,"connected_time":2847000000000,"state":"active","ping":90},{"user_id":63,"name":"Nyges","steam_id":76561198139236154,"connected_time":2574000000000,"state":"active","ping":60},{"user_id":61,"name":"Black Mesa Scientist","steam_id":76561198064466577,"connected_time":2847000000000,"state":"active","ping":77},{"user_id":85,"name":"Frank","steam_id":76561198104620535,"connected_time":1504000000000,"state":"active","ping":87},{"user_id":86,"name":"the12xu","steam_id":76561198197086561,"connected_time":1466000000000,"state":"active","ping":126},{"user_id":72,"name":"YourWishes","steam_id":76561198154414336,"connected_time":2255000000000,"state":"active","ping":45},{"user_id":106,"name":"Cockfight","steam_id":76561198160277649,"connected_time":849000000000,"state":"active","ping":93},{"user_id":121,"name":"Justin","steam_id":76561198110865423,"connected_time":170000000000,"state":"active","ping":50},{"user_id":109,"name":"Mediocre","steam_id":76561198056352693,"connected_time":538000000000,"state":"active","ping":59},{"user_id":117,"name":"MR.meeseeks","steam_id":76561198294943420,"connected_time":378000000000,"state":"active","ping":96},{"user_id":88,"name":"Freeza","steam_id":76561198050341005,"connected_time":1437000000000,"state":"active","ping":56},{"user_id":97,"name":"‚óã","steam_id":76561198034560063,"connected_time":1090000000000,"state":"active","ping":125},{"user_id":75,"name":"xMystic_Fire","steam_id":76561198189961543,"connected_time":2086000000000,"state":"active","ping":84},{"user_id":113,"name":"Tinaho","steam_id":76561198815585874,"connected_time":459000000000,"state":"active","ping":76},{"user_id":111,"name":"KappaGENO","steam_id":76561198045013548,"connected_time":501000000000,"state":"active","ping":147},{"user_id":53,"name":"Andreshatesmondays","steam_id":76561198889349797,"connected_time":3422000000000,"state":"active","ping":67},{"user_id":125,"name":"Ace's Hi","steam_id":76561198411200469,"connected_time":14000000000,"state":"active","ping":119},{"user_id":91,"name":"Vevo","steam_id":76561198316753540,"connected_time":1373000000000,"state":"active","ping":63},{"user_id":49,"name":"nothowon","steam_id":76561198937601452,"connected_time":3657000000000,"state":"active","ping":106},{"user_id":114,"name":"MrhobbitRequiem","steam_id":76561198976215013,"connected_time":443000000000,"state":"active","ping":100},{"user_id":83,"name":"c49aa4","steam_id":76561199099537250,"connected_time":1775000000000,"state":"active","ping":54}]},{"server_id":25,"name":"Uncletopia | Los Angeles | 4 | Stopwatch Beta","name_short":"lax-4","host":"lax-1.us.uncletopia.com","port":27045,"enabled":true,"region":"us-west","cc":"us","latitude":33.94279,"longitude":-118.41004,"reserved":0,"last_update":"0001-01-01T00:00:00Z","name_a2s":"Uncletopia | Los Angeles | 4 | Stopwatch Beta","protocol":17,"map":"koth_viaduct","folder":"tf","game":"Team Fortress","app_id":440,"player_count":0,"max_players":24,"Bots":0,"server_type":"Dedicated","server_os":"Linux","password":true,"vac":true,"version":"7757534","steam_id":85568392924510199,"keywords":["cp","nocrits","nodmgspread","uncletopia"],"game_id":440,"stv_port":27046,"stv_name":"Uncletopia | Los Angeles | 4 | Stopwatch Beta | STV","players":null},{"server_id":11,"name":"Uncletopia | London | 1 | All Maps","name_short":"lon-1","host":"lon-1.uk.uncletopia.com","port":27015,"enabled":true,"region":"eu","cc":"gb","latitude":51.509865,"longitude":-0.118092,"reserved":0,"last_update":"0001-01-01T00:00:00Z","name_a2s":"Uncletopia | London | 1 | All Maps","protocol":17,"map":"pl_swiftwater_final1","folder":"tf","game":"Team Fortress","app_id":440,"player_count":24,"max_players":24,"Bots":0,"server_type":"Dedicated","server_os":"Linux","password":true,"vac":true,"version":"7757534","steam_id":85568392924367362,"keywords":["nocrits","nodmgspread","payload","uncletopia"],"game_id":440,"stv_port":27016,"stv_name":"Uncletopia | London | 1 | All Maps | STV","players":[{"user_id":669,"name":"Estrogen Overdoser","steam_id":76561199030306982,"connected_time":597000000000,"state":"active","ping":76},{"user_id":645,"name":"Oak","steam_id":76561198067315672,"connected_time":2736000000000,"state":"active","ping":49},{"user_id":634,"name":"BreadBubbles","steam_id":76561198174332826,"connected_time":3215000000000,"state":"active","ping":58},{"user_id":661,"name":"RoXeUr-KaMiKaZe","steam_id":76561197998204782,"connected_time":1060000000000,"state":"active","ping":58},{"user_id":665,"name":"Juiceydough","steam_id":76561197997323419,"connected_time":827000000000,"state":"active","ping":86},{"user_id":555,"name":"Jofiah/TTV","steam_id":76561197977233962,"connected_time":10455000000000,"state":"active","ping":49},{"user_id":640,"name":"ThrobbingFerret","steam_id":76561199075576606,"connected_time":2942000000000,"state":"active","ping":70},{"user_id":662,"name":"Holz is sleepy","steam_id":76561197994205997,"connected_time":998000000000,"state":"active","ping":46},{"user_id":664,"name":"Mr.Cupcake","steam_id":76561198152711174,"connected_time":868000000000,"state":"active","ping":80},{"user_id":670,"name":"Paranoob","steam_id":76561199093369711,"connected_time":593000000000,"state":"active","ping":104},{"user_id":652,"name":"Oskuri","steam_id":76561198155956047,"connected_time":1915000000000,"state":"active","ping":87},{"user_id":650,"name":"Soda","steam_id":76561198074477386,"connected_time":1949000000000,"state":"active","ping":46},{"user_id":672,"name":"Jacoblock","steam_id":76561198298485043,"connected_time":427000000000,"state":"active","ping":66},{"user_id":637,"name":"Saristan","steam_id":76561198093346048,"connected_time":3128000000000,"state":"active","ping":120},{"user_id":643,"name":"Aaron","steam_id":76561197990046953,"connected_time":2840000000000,"state":"active","ping":67},{"user_id":658,"name":"DeleteTrickster","steam_id":76561198397120242,"connected_time":1672000000000,"state":"active","ping":84},{"user_id":653,"name":"Majami","steam_id":76561198054365738,"connected_time":1905000000000,"state":"active","ping":96},{"user_id":654,"name":"Lahna","steam_id":76561198064898117,"connected_time":1902000000000,"state":"active","ping":95},{"user_id":673,"name":"A Bit Of Everything","steam_id":76561198389177376,"connected_time":154000000000,"state":"active","ping":140},{"user_id":671,"name":"Kresslib","steam_id":76561198121114105,"connected_time":592000000000,"state":"active","ping":106},{"user_id":663,"name":"chef","steam_id":76561197991368897,"connected_time":881000000000,"state":"active","ping":66},{"user_id":656,"name":"Dag!","steam_id":76561198030147941,"connected_time":1872000000000,"state":"active","ping":70},{"user_id":660,"name":"doc","steam_id":76561198000050301,"connected_time":1126000000000,"state":"active","ping":45},{"user_id":582,"name":"(_ _).ÔΩ°o‚óã","steam_id":76561198298576765,"connected_time":7557000000000,"state":"active","ping":83}]},{"server_id":114,"name":"Uncletopia | London | 2 | All Maps","name_short":"lon-2","host":"lon-1.uk.uncletopia.com","port":27025,"enabled":true,"region":"eu","cc":"gb","latitude":51.509865,"longitude":-0.118092,"reserved":0,"last_update":"0001-01-01T00:00:00Z","name_a2s":"Uncletopia | London | 2 | All Maps","protocol":17,"map":"pl_borneo","folder":"tf","game":"Team Fortress","app_id":440,"player_count":24,"max_players":24,"Bots":0,"server_type":"Dedicated","server_os":"Linux","password":true,"vac":true,"version":"7757534","steam_id":85568392924470941,"keywords":["nocrits","nodmgspread","payload","uncletopia"],"game_id":440,"stv_port":27026,"stv_name":"Uncletopia | London | 2 | All Maps | STV","players":[{"user_id":914,"name":"Sonnakai","steam_id":76561198051688749,"connected_time":376000000000,"state":"active","ping":43},{"user_id":837,"name":"magnarull","steam_id":76561198972383118,"connected_time":4373000000000,"state":"active","ping":86},{"user_id":889,"name":"Thors","steam_id":76561197968739075,"connected_time":1817000000000,"state":"active","ping":39},{"user_id":879,"name":"BreadCrab","steam_id":76561198364062723,"connected_time":2257000000000,"state":"active","ping":58},{"user_id":915,"name":"podcast","steam_id":76561198531978435,"connected_time":104000000000,"state":"active","ping":63},{"user_id":911,"name":"FireStorm","steam_id":76561198350478325,"connected_time":464000000000,"state":"active","ping":38},{"user_id":896,"name":"Caerot","steam_id":76561198839000676,"connected_time":883000000000,"state":"active","ping":69},{"user_id":887,"name":"Skeletros","steam_id":76561198130969152,"connected_time":2054000000000,"state":"active","ping":145},{"user_id":900,"name":"Bad and Wuji","steam_id":76561199385280253,"connected_time":842000000000,"state":"active","ping":120},{"user_id":901,"name":"Cheshie cdna","steam_id":76561198067204908,"connected_time":834000000000,"state":"active","ping":59},{"user_id":867,"name":"airblast","steam_id":76561198882986104,"connected_time":2905000000000,"state":"active","ping":150},{"user_id":908,"name":"butts","steam_id":76561198060105180,"connected_time":489000000000,"state":"active","ping":66},{"user_id":885,"name":"Flint","steam_id":76561197995920776,"connected_time":2135000000000,"state":"active","ping":45},{"user_id":906,"name":"PixelHyde","steam_id":76561198040878617,"connected_time":640000000000,"state":"active","ping":68},{"user_id":883,"name":"feed","steam_id":76561198311512285,"connected_time":2205000000000,"state":"active","ping":115},{"user_id":874,"name":"Cabbch","steam_id":76561198045955679,"connected_time":2642000000000,"state":"active","ping":45},{"user_id":877,"name":"Savlon","steam_id":76561198011597274,"connected_time":2291000000000,"state":"active","ping":44},{"user_id":904,"name":"Hj√ºvid","steam_id":76561198400090968,"connected_time":729000000000,"state":"active","ping":89},{"user_id":894,"name":"Zerzark","steam_id":76561198070118903,"connected_time":927000000000,"state":"active","ping":55},{"user_id":842,"name":"Go≈Çƒômbiarz","steam_id":76561198072625627,"connected_time":3761000000000,"state":"active","ping":84},{"user_id":912,"name":"Backup","steam_id":76561197999557567,"connected_time":445000000000,"state":"active","ping":64},{"user_id":899,"name":"enesven","steam_id":76561199466839845,"connected_time":868000000000,"state":"active","ping":92},{"user_id":909,"name":"moser23","steam_id":76561197960543171,"connected_time":485000000000,"state":"active","ping":61},{"user_id":913,"name":"Fish 'n' Chips","steam_id":76561198033476886,"connected_time":442000000000,"state":"active","ping":60}]},{"server_id":320,"name":"Uncletopia | London | 3 | All Maps","name_short":"lon-3","host":"lon-1.uk.uncletopia.com","port":27035,"enabled":true,"region":"eu","cc":"gb","latitude":51.509865,"longitude":-0.118092,"reserved":0,"last_update":"0001-01-01T00:00:00Z","name_a2s":"Uncletopia | London | 3 | All Maps","protocol":17,"map":"cp_dustbowl","folder":"tf","game":"Team Fortress","app_id":440,"player_count":24,"max_players":24,"Bots":0,"server_type":"Dedicated","server_os":"Linux","password":true,"vac":true,"version":"7757534","steam_id":85568392924510192,"keywords":["cp","nocrits","nodmgspread","uncletopia"],"game_id":440,"stv_port":27036,"stv_name":"Uncletopia | London | 3 | All Maps | STV","players":[{"user_id":544,"name":"Jack6490","steam_id":76561198798496149,"connected_time":1195000000000,"state":"active","ping":54},{"user_id":545,"name":"Swiss_Nostalgia","steam_id":76561199159896259,"connected_time":760000000000,"state":"active","ping":66},{"user_id":563,"name":"boombox","steam_id":76561198237013798,"connected_time":65000000000,"state":"active","ping":142},{"user_id":546,"name":"anne bonny","steam_id":76561198245109084,"connected_time":749000000000,"state":"active","ping":126},{"user_id":547,"name":"\"insert profile name\"","steam_id":76561198299691414,"connected_time":698000000000,"state":"active","ping":43},{"user_id":548,"name":"arcSolver","steam_id":76561198212013944,"connected_time":693000000000,"state":"active","ping":47},{"user_id":421,"name":"Lady Maria","steam_id":76561198953210459,"connected_time":9632000000000,"state":"active","ping":101},{"user_id":556,"name":"AlphaEMC","steam_id":76561198884448755,"connected_time":358000000000,"state":"active","ping":90},{"user_id":550,"name":"me strong","steam_id":76561199062586342,"connected_time":610000000000,"state":"active","ping":62},{"user_id":564,"name":"Koi-Koi","steam_id":76561198045527771,"connected_time":34000000000,"state":"active","ping":49},{"user_id":540,"name":"juicymangoes.2011","steam_id":76561198131670413,"connected_time":1669000000000,"state":"active","ping":68},{"user_id":389,"name":"Anri Okita's Massive Milkers","steam_id":76561199186352720,"connected_time":11731000000000,"state":"active","ping":48},{"user_id":552,"name":"63756d","steam_id":76561198808699024,"connected_time":497000000000,"state":"active","ping":72},{"user_id":558,"name":"r06u3","steam_id":76561198254099253,"connected_time":308000000000,"state":"active","ping":177},{"user_id":559,"name":"UnusualBrit","steam_id":76561198255679838,"connected_time":304000000000,"state":"active","ping":58},{"user_id":469,"name":"big al","steam_id":76561198800662675,"connected_time":7392000000000,"state":"active","ping":79},{"user_id":561,"name":"Oaknight","steam_id":76561198030824146,"connected_time":211000000000,"state":"active","ping":45},{"user_id":562,"name":"im red","steam_id":76561199087284519,"connected_time":99000000000,"state":"active","ping":85},{"user_id":565,"name":"demoman","steam_id":76561198046170435,"connected_time":34000000000,"state":"spawning","ping":76},{"user_id":477,"name":"Sam","steam_id":76561198203070687,"connected_time":6592000000000,"state":"active","ping":48},{"user_id":566,"name":"sinderquiler","steam_id":76561198047953481,"connected_time":20000000000,"state":"spawning","ping":107},{"user_id":525,"name":"Az","steam_id":76561198351188724,"connected_time":2461000000000,"state":"active","ping":45},{"user_id":539,"name":"The Power","steam_id":76561198060566884,"connected_time":1686000000000,"state":"active","ping":41},{"user_id":528,"name":"Ach Wheesht","steam_id":76561197996993222,"connected_time":2072000000000,"state":"active","ping":30}]},{"server_id":321,"name":"Uncletopia | London | 4 | All Maps","name_short":"lon-4","host":"lon-1.uk.uncletopia.com","port":27045,"enabled":true,"region":"eu","cc":"gb","latitude":51.509865,"longitude":-0.118092,"reserved":0,"last_update":"0001-01-01T00:00:00Z","name_a2s":"Uncletopia | London | 4 | All Maps","protocol":17,"map":"pl_frontier_final","folder":"tf","game":"Team Fortress","app_id":440,"player_count":24,"max_players":24,"Bots":0,"server_type":"Dedicated","server_os":"Linux","password":true,"vac":true,"version":"7757534","steam_id":85568392924510193,"keywords":["nocrits","nodmgspread","payload","uncletopia"],"game_id":440,"stv_port":27046,"stv_name":"Uncletopia | London | 4 | All Maps | STV","players":[{"user_id":420,"name":"darktheif54","steam_id":76561198043650119,"connected_time":6881000000000,"state":"active","ping":50},{"user_id":425,"name":"Cynical","steam_id":76561198077084694,"connected_time":6609000000000,"state":"active","ping":45},{"user_id":428,"name":"scarecrow jones","steam_id":76561198258267182,"connected_time":6550000000000,"state":"active","ping":151},{"user_id":422,"name":"sent from my iphone","steam_id":76561198259668029,"connected_time":6804000000000,"state":"active","ping":52},{"user_id":491,"name":"Steen","steam_id":76561198122992510,"connected_time":1825000000000,"state":"active","ping":45},{"user_id":505,"name":"MaeStro","steam_id":76561198046513151,"connected_time":780000000000,"state":"active","ping":96},{"user_id":500,"name":"sHIFTINGvORTEX","steam_id":76561198231648332,"connected_time":976000000000,"state":"active","ping":60},{"user_id":452,"name":"MefedronDow√≥z24h","steam_id":76561198107166530,"connected_time":5123000000000,"state":"active","ping":119},{"user_id":509,"name":"Bell","steam_id":76561199454586928,"connected_time":539000000000,"state":"active","ping":135},{"user_id":453,"name":"yup it's gamer time","steam_id":76561198064463244,"connected_time":5108000000000,"state":"active","ping":136},{"user_id":444,"name":"Professional Cookie Stealer","steam_id":76561198358029722,"connected_time":5636000000000,"state":"active","ping":66},{"user_id":496,"name":"DeadpoolDealsDamage","steam_id":76561198399472908,"connected_time":1233000000000,"state":"active","ping":56},{"user_id":476,"name":"Stacy603 #LibertyGaming","steam_id":76561199107351401,"connected_time":3415000000000,"state":"active","ping":126},{"user_id":508,"name":"Faeris","steam_id":76561198060980015,"connected_time":666000000000,"state":"active","ping":76},{"user_id":493,"name":"!!!!!!!!!!!!!!!!!!!!!!!!!!!!!!!","steam_id":76561198069649097,"connected_time":1651000000000,"state":"active","ping":50},{"user_id":502,"name":"manKe","steam_id":76561198008564860,"connected_time":889000000000,"state":"active","ping":58},{"user_id":506,"name":"[T]aKer","steam_id":76561198001778013,"connected_time":774000000000,"state":"active","ping":46},{"user_id":423,"name":"WW2 Untamed Gorilla Ass","steam_id":76561198423902979,"connected_time":6786000000000,"state":"active","ping":47},{"user_id":471,"name":"Thalgorock","steam_id":76561198195315022,"connected_time":4287000000000,"state":"active","ping":106},{"user_id":495,"name":"HOT HENTAI GIRL","steam_id":76561198104438656,"connected_time":1324000000000,"state":"active","ping":69},{"user_id":510,"name":"FungiDuck","steam_id":76561198059411335,"connected_time":139000000000,"state":"active","ping":134},{"user_id":499,"name":"Crimea a bridge","steam_id":76561198030898371,"connected_time":1098000000000,"state":"active","ping":95},{"user_id":504,"name":"ikc159","steam_id":76561198020559026,"connected_time":814000000000,"state":"active","ping":60},{"user_id":473,"name":"Fresh_Slav","steam_id":76561198018034575,"connected_time":4168000000000,"state":"active","ping":76}]},{"server_id":21,"name":"Uncletopia | London | 5 | All Maps","name_short":"lon-5","host":"lon-1.uk.uncletopia.com","port":27055,"enabled":true,"region":"eu","cc":"gb","latitude":51.509865,"longitude":-0.118092,"reserved":0,"last_update":"0001-01-01T00:00:00Z","name_a2s":"Uncletopia | London | 5 | All Maps","protocol":17,"map":"pl_borneo","folder":"tf","game":"Team Fortress","app_id":440,"player_count":24,"max_players":24,"Bots":0,"server_type":"Dedicated","server_os":"Linux","password":true,"vac":true,"version":"7757534","steam_id":85568392924742829,"keywords":["nocrits","nodmgspread","payload","uncletopia"],"game_id":440,"stv_port":27056,"stv_name":"Uncletopia | London | 5 | All Maps | STV","players":[{"user_id":278,"name":"trans werewolf","steam_id":76561198107235989,"connected_time":272000000000,"state":"active","ping":71},{"user_id":248,"name":"SparklyCherries","steam_id":76561198102969924,"connected_time":2601000000000,"state":"active","ping":57},{"user_id":259,"name":"pepper","steam_id":76561198059782462,"connected_time":1583000000000,"state":"active","ping":60},{"user_id":266,"name":"vofkin","steam_id":76561198017037101,"connected_time":761000000000,"state":"active","ping":137},{"user_id":262,"name":"Onyx Odin - Alcoholic Alchemist","steam_id":76561198044560148,"connected_time":1172000000000,"state":"active","ping":70},{"user_id":271,"name":"Tortoise","steam_id":76561198229648184,"connected_time":436000000000,"state":"active","ping":42},{"user_id":249,"name":"Lyla \u003c3","steam_id":76561198356692614,"connected_time":2596000000000,"state":"active","ping":83},{"user_id":243,"name":"Mug+Warp","steam_id":76561198120555272,"connected_time":2690000000000,"state":"active","ping":64},{"user_id":239,"name":"GuSkand","steam_id":76561198043775605,"connected_time":2908000000000,"state":"active","ping":93},{"user_id":257,"name":"edgar","steam_id":76561198212862423,"connected_time":2096000000000,"state":"active","ping":39},{"user_id":277,"name":"knyazF","steam_id":76561198163278585,"connected_time":297000000000,"state":"active","ping":87},{"user_id":216,"name":"Pasta sauce","steam_id":76561198232919072,"connected_time":5184000000000,"state":"active","ping":41},{"user_id":267,"name":"Kahvi","steam_id":76561198723244199,"connected_time":658000000000,"state":"active","ping":85},{"user_id":268,"name":"Insain Bolt!","steam_id":76561198025687726,"connected_time":654000000000,"state":"active","ping":76},{"user_id":275,"name":"Nehemunga","steam_id":76561198029159682,"connected_time":356000000000,"state":"active","ping":127},{"user_id":175,"name":"The Alien","steam_id":76561198185817713,"connected_time":9777000000000,"state":"active","ping":163},{"user_id":194,"name":"Jess","steam_id":76561198015022965,"connected_time":8299000000000,"state":"active","ping":59},{"user_id":250,"name":"LlamaParadox","steam_id":76561198121567990,"connected_time":2451000000000,"state":"active","ping":73},{"user_id":263,"name":"player","steam_id":76561198054474684,"connected_time":817000000000,"state":"active","ping":84},{"user_id":197,"name":"mordecai.nmc","steam_id":76561197997223851,"connected_time":7423000000000,"state":"active","ping":55},{"user_id":255,"name":"Tortoise Guy","steam_id":76561199047825610,"connected_time":2283000000000,"state":"active","ping":84},{"user_id":273,"name":"sharkmax12312","steam_id":76561198996008569,"connected_time":411000000000,"state":"active","ping":79},{"user_id":256,"name":"the joy of recycling","steam_id":76561198415564349,"connected_time":2252000000000,"state":"active","ping":60},{"user_id":274,"name":"Pronton","steam_id":76561198082502910,"connected_time":409000000000,"state":"active","ping":65}]},{"server_id":22,"name":"Uncletopia | London | 6 | All Maps","name_short":"lon-6","host":"lon-1.uk.uncletopia.com","port":27065,"enabled":true,"region":"eu","cc":"gb","latitude":51.509865,"longitude":-0.118092,"reserved":0,"last_update":"0001-01-01T00:00:00Z","name_a2s":"Uncletopia | London | 6 | All Maps","protocol":17,"map":"pl_frontier_final","folder":"tf","game":"Team Fortress","app_id":440,"player_count":24,"max_players":24,"Bots":0,"server_type":"Dedicated","server_os":"Linux","password":true,"vac":true,"version":"7757534","steam_id":85568392924742830,"keywords":["nocrits","nodmgspread","payload","uncletopia"],"game_id":440,"stv_port":27066,"stv_name":"Uncletopia | London | 6 | All Maps | STV","players":[{"user_id":691,"name":"kotamine","steam_id":76561198068907991,"connected_time":159000000000,"state":"active","ping":75},{"user_id":684,"name":"McMaggot","steam_id":76561199097750260,"connected_time":433000000000,"state":"active","ping":121},{"user_id":685,"name":"Sleepyguy","steam_id":76561198008520542,"connected_time":407000000000,"state":"active","ping":79},{"user_id":610,"name":"Phrog","steam_id":76561197994499500,"connected_time":4544000000000,"state":"active","ping":54},{"user_id":692,"name":"cleopatra","steam_id":76561199382129166,"connected_time":139000000000,"state":"active","ping":115},{"user_id":660,"name":"BixenteN7Akantor","steam_id":76561198096635765,"connected_time":2133000000000,"state":"active","ping":82},{"user_id":686,"name":"hawkblob","steam_id":76561198803720565,"connected_time":390000000000,"state":"active","ping":68},{"user_id":673,"name":"Nin","steam_id":76561198227246584,"connected_time":1550000000000,"state":"active","ping":69},{"user_id":667,"name":"Random Cap","steam_id":76561198129271321,"connected_time":1668000000000,"state":"active","ping":60},{"user_id":662,"name":"Rexzuz","steam_id":76561198106148347,"connected_time":1898000000000,"state":"active","ping":108},{"user_id":688,"name":"Jakk","steam_id":76561198041537908,"connected_time":261000000000,"state":"active","ping":69},{"user_id":665,"name":"‚ô• Cirno ‚ô•","steam_id":76561198834982738,"connected_time":1779000000000,"state":"active","ping":70},{"user_id":680,"name":"tepih","steam_id":76561198384246286,"connected_time":583000000000,"state":"active","ping":61},{"user_id":670,"name":"Joel!","steam_id":76561198155422742,"connected_time":1615000000000,"state":"active","ping":63},{"user_id":546,"name":"sleuth","steam_id":76561198102752414,"connected_time":9281000000000,"state":"active","ping":72},{"user_id":631,"name":"foolproof","steam_id":76561198115801132,"connected_time":3778000000000,"state":"active","ping":60},{"user_id":674,"name":".::[SerafeTTiN]::.","steam_id":76561198009471724,"connected_time":1379000000000,"state":"active","ping":104},{"user_id":424,"name":":)","steam_id":76561198103988618,"connected_time":18823000000000,"state":"active","ping":60},{"user_id":655,"name":"sunny","steam_id":76561198145518089,"connected_time":2300000000000,"state":"active","ping":79},{"user_id":681,"name":"GlitchyTrashCan","steam_id":76561198309789756,"connected_time":572000000000,"state":"active","ping":70},{"user_id":677,"name":"p!ke","steam_id":76561198416081952,"connected_time":711000000000,"state":"active","ping":64},{"user_id":657,"name":"randompixel","steam_id":76561198003941207,"connected_time":2284000000000,"state":"active","ping":59},{"user_id":689,"name":"mimix35gapril","steam_id":76561199443417543,"connected_time":211000000000,"state":"active","ping":64},{"user_id":562,"name":"YourDoom","steam_id":76561198080790857,"connected_time":8449000000000,"state":"active","ping":41}]},{"server_id":40,"name":"Uncletopia | London | 7 | No Payload","name_short":"lon-7","host":"lon-1.uk.uncletopia.com","port":27075,"enabled":true,"region":"eu","cc":"gb","latitude":51.509865,"longitude":-0.118092,"reserved":0,"last_update":"0001-01-01T00:00:00Z","name_a2s":"Uncletopia | London | 7 | No Payload","protocol":17,"map":"plr_hightower","folder":"tf","game":"Team Fortress","app_id":440,"player_count":15,"max_players":24,"Bots":0,"server_type":"Dedicated","server_os":"Linux","password":true,"vac":true,"version":"7757534","steam_id":85568392924964314,"keywords":["nocrits","nodmgspread","payload","uncletopia"],"game_id":440,"stv_port":27076,"stv_name":"Uncletopia | London | 7 | No Payload | STV","players":[{"user_id":580,"name":"Clitorina","steam_id":76561198077570815,"connected_time":4577000000000,"state":"active","ping":45},{"user_id":635,"name":"sexo","steam_id":76561199088284199,"connected_time":297000000000,"state":"active","ping":78},{"user_id":636,"name":"Zilarer","steam_id":76561198274165938,"connected_time":147000000000,"state":"active","ping":54},{"user_id":598,"name":"rat performance","steam_id":76561198065854668,"connected_time":3392000000000,"state":"active","ping":43},{"user_id":637,"name":"ptasznick","steam_id":76561198057947872,"connected_time":130000000000,"state":"active","ping":78},{"user_id":639,"name":"Gigachad","steam_id":76561199121594978,"connected_time":15000000000,"state":"active","ping":60},{"user_id":582,"name":"Benny the Ball","steam_id":76561198043104532,"connected_time":4336000000000,"state":"active","ping":46},{"user_id":615,"name":"omnibombulator","steam_id":76561198025858897,"connected_time":2181000000000,"state":"active","ping":47},{"user_id":640,"name":"Fofenho","steam_id":76561198436817109,"connected_time":14000000000,"state":"active","ping":49},{"user_id":638,"name":"8-bit biochemist","steam_id":76561198414228531,"connected_time":119000000000,"state":"active","ping":68},{"user_id":608,"name":"greg","steam_id":76561198047388059,"connected_time":2468000000000,"state":"active","ping":87},{"user_id":622,"name":"cherry","steam_id":76561199006915718,"connected_time":1285000000000,"state":"active","ping":68},{"user_id":617,"name":"Organic Donut","steam_id":76561199119121016,"connected_time":2111000000000,"state":"active","ping":77},{"user_id":571,"name":"shoras","steam_id":76561198019680159,"connected_time":5151000000000,"state":"active","ping":92},{"user_id":613,"name":"^6demoknight66 trade.tf\"","steam_id":76561198104631920,"connected_time":2216000000000,"state":"active","ping":65}]},{"server_id":41,"name":"Uncletopia | London | 8 | Community","name_short":"lon-8","host":"lon-1.uk.uncletopia.com","port":27085,"enabled":true,"region":"eu","cc":"gb","latitude":51.509865,"longitude":-0.118092,"reserved":0,"last_update":"0001-01-01T00:00:00Z","name_a2s":"Uncletopia | London | 8 | Community","protocol":17,"map":"workshop/koth_ashville_final.ugc2130459942","folder":"tf","game":"Team Fortress","app_id":440,"player_count":0,"max_players":24,"Bots":0,"server_type":"Dedicated","server_os":"Linux","password":true,"vac":true,"version":"7757534","steam_id":85568392924964315,"keywords":["cp","nocrits","nodmgspread","uncletopia"],"game_id":440,"stv_port":27086,"stv_name":"Uncletopia | London | 8 | Community | STV","players":null},{"server_id":300,"name":"Uncletopia | Montr√©al | 1 | All Maps","name_short":"mtl-1","host":"mtl-1.ca.uncletopia.com","port":27015,"enabled":true,"region":"us-east","cc":"ca","latitude":45.50889,"longitude":-73.56167,"reserved":0,"last_update":"0001-01-01T00:00:00Z","name_a2s":"Uncletopia | Montr√©al | 1 | All Maps","protocol":17,"map":"koth_cascade","folder":"tf","game":"Team Fortress","app_id":440,"player_count":0,"max_players":24,"Bots":0,"server_type":"Dedicated","server_os":"Linux","password":true,"vac":true,"version":"7757534","steam_id":85568392924500087,"keywords":["cp","nocrits","nodmgspread","uncletopia"],"game_id":440,"stv_port":27016,"stv_name":"Uncletopia | Montr√©al | 1 | All Maps | STV","players":null},{"server_id":301,"name":"Uncletopia | Montr√©al | 2 | All Maps","name_short":"mtl-2","host":"mtl-1.ca.uncletopia.com","port":27025,"enabled":true,"region":"us-east","cc":"ca","latitude":45.50889,"longitude":-73.56167,"reserved":0,"last_update":"0001-01-01T00:00:00Z","name_a2s":"Uncletopia | Montr√©al | 2 | All Maps","protocol":17,"map":"pl_borneo","folder":"tf","game":"Team Fortress","app_id":440,"player_count":0,"max_players":24,"Bots":0,"server_type":"Dedicated","server_os":"Linux","password":true,"vac":true,"version":"7757534","steam_id":85568392924500088,"keywords":["nocrits","nodmgspread","payload","uncletopia"],"game_id":440,"stv_port":27026,"stv_name":"Uncletopia | Montr√©al | 2 | All Maps | STV","players":null},{"server_id":302,"name":"Uncletopia | Montr√©al | 3 | All Maps","name_short":"mtl-3","host":"mtl-1.ca.uncletopia.com","port":27035,"enabled":true,"region":"us-east","cc":"ca","latitude":45.50889,"longitude":-73.56167,"reserved":0,"last_update":"0001-01-01T00:00:00Z","name_a2s":"Uncletopia | Montr√©al | 3 | All Maps","protocol":17,"map":"cp_sunshine","folder":"tf","game":"Team Fortress","app_id":440,"player_count":0,"max_players":24,"Bots":0,"server_type":"Dedicated","server_os":"Linux","password":true,"vac":true,"version":"7757534","steam_id":85568392924500089,"keywords":["cp","nocrits","nodmgspread","uncletopia"],"game_id":440,"stv_port":27036,"stv_name":"Uncletopia | Montr√©al | 3 | All Maps | STV","players":null},{"server_id":303,"name":"Uncletopia | Montr√©al | 4 | No Payload","name_short":"mtl-4","host":"mtl-1.ca.uncletopia.com","port":27045,"enabled":true,"region":"us-east","cc":"ca","latitude":45.50889,"longitude":-73.56167,"reserved":0,"last_update":"0001-01-01T00:00:00Z","name_a2s":"Uncletopia | Montr√©al | 4 | No Payload","protocol":17,"map":"koth_lakeside_final","folder":"tf","game":"Team Fortress","app_id":440,"player_count":0,"max_players":24,"Bots":0,"server_type":"Dedicated","server_os":"Linux","password":true,"vac":true,"version":"7757534","steam_id":85568392924500090,"keywords":["cp","nocrits","nodmgspread","uncletopia"],"game_id":440,"stv_port":27046,"stv_name":"Uncletopia | Montr√©al | 4 | No Payload | STV","players":null},{"server_id":13,"name":"Uncletopia | New York City | 1 | All Maps","name_short":"nyc-1","host":"nyc-1.us.uncletopia.com","port":27015,"enabled":true,"region":"us-east","cc":"us","latitude":40.73061,"longitude":-73.93524,"reserved":0,"last_update":"0001-01-01T00:00:00Z","name_a2s":"Uncletopia | New York City | 1 | All Maps","protocol":17,"map":"pl_barnblitz","folder":"tf","game":"Team Fortress","app_id":440,"player_count":24,"max_players":24,"Bots":0,"server_type":"Dedicated","server_os":"Linux","password":true,"vac":true,"version":"7757534","steam_id":85568392924469993,"keywords":["nocrits","nodmgspread","payload","uncletopia"],"game_id":440,"stv_port":27016,"stv_name":"Uncletopia | New York City | 1 | All Maps | STV","players":[{"user_id":135,"name":"Melon Man Of Melon","steam_id":76561198074803752,"connected_time":254000000000,"state":"active","ping":86},{"user_id":129,"name":"bumblebee","steam_id":76561197994568475,"connected_time":591000000000,"state":"active","ping":60},{"user_id":136,"name":"Samrizo el Chorizo","steam_id":76561198009838162,"connected_time":72000000000,"state":"active","ping":55},{"user_id":113,"name":"fritzy","steam_id":76561198044188019,"connected_time":1429000000000,"state":"active","ping":43},{"user_id":122,"name":"Rex","steam_id":76561198138365053,"connected_time":1038000000000,"state":"active","ping":120},{"user_id":114,"name":"al","steam_id":76561198117181511,"connected_time":1410000000000,"state":"active","ping":78},{"user_id":65,"name":"Deep Peepus","steam_id":76561198205395757,"connected_time":4116000000000,"state":"active","ping":89},{"user_id":101,"name":"burgessjt","steam_id":76561199353006549,"connected_time":2283000000000,"state":"active","ping":112},{"user_id":98,"name":"the willy","steam_id":76561199179563808,"connected_time":2363000000000,"state":"active","ping":79},{"user_id":137,"name":"johny_mo","steam_id":76561197991329587,"connected_time":71000000000,"state":"active","ping":61},{"user_id":119,"name":"gord","steam_id":76561199470620290,"connected_time":1332000000000,"state":"active","ping":77},{"user_id":77,"name":"Colo","steam_id":76561198049330744,"connected_time":3913000000000,"state":"active","ping":75},{"user_id":118,"name":"Antknee","steam_id":76561198263793809,"connected_time":1364000000000,"state":"active","ping":73},{"user_id":63,"name":"Super Gay Homo Thug","steam_id":76561198355094896,"connected_time":4138000000000,"state":"active","ping":56},{"user_id":64,"name":"Chieftain Jehova","steam_id":76561198095597698,"connected_time":4126000000000,"state":"active","ping":86},{"user_id":86,"name":"Drake the Pixel","steam_id":76561198131824401,"connected_time":2871000000000,"state":"active","ping":44},{"user_id":121,"name":"Zylx","steam_id":76561198883608713,"connected_time":1176000000000,"state":"active","ping":178},{"user_id":134,"name":"Saul Evilman","steam_id":76561198091606182,"connected_time":332000000000,"state":"active","ping":91},{"user_id":123,"name":"Brass beast heavy","steam_id":76561198274197623,"connected_time":1010000000000,"state":"active","ping":134},{"user_id":125,"name":"Oddjob","steam_id":76561198976160793,"connected_time":950000000000,"state":"active","ping":63},{"user_id":100,"name":"Slimeyyyyy","steam_id":76561199159038358,"connected_time":2302000000000,"state":"active","ping":76},{"user_id":91,"name":"The Menace 2023","steam_id":76561199197961413,"connected_time":2764000000000,"state":"active","ping":44},{"user_id":75,"name":"Zen Skye","steam_id":76561198114452552,"connected_time":3936000000000,"state":"active","ping":85},{"user_id":127,"name":"Lost CS player","steam_id":76561198892387723,"connected_time":741000000000,"state":"active","ping":68}]},{"server_id":14,"name":"Uncletopia | New York City | 2 | All Maps","name_short":"nyc-2","host":"nyc-1.us.uncletopia.com","port":27025,"enabled":true,"region":"us-east","cc":"us","latitude":40.73061,"longitude":-73.93524,"reserved":0,"last_update":"0001-01-01T00:00:00Z","name_a2s":"Uncletopia | New York City | 2 | All Maps","protocol":17,"map":"pl_borneo","folder":"tf","game":"Team Fortress","app_id":440,"player_count":24,"max_players":24,"Bots":0,"server_type":"Dedicated","server_os":"Linux","password":true,"vac":true,"version":"7757534","steam_id":85568392924469994,"keywords":["nocrits","nodmgspread","payload","uncletopia"],"game_id":440,"stv_port":27026,"stv_name":"Uncletopia | New York City | 2 | All Maps | STV","players":[{"user_id":99,"name":"localization files","steam_id":76561197997139225,"connected_time":17905000000000,"state":"active","ping":48},{"user_id":289,"name":"snow mikus husband","steam_id":76561198137934248,"connected_time":774000000000,"state":"active","ping":54},{"user_id":291,"name":"Fear","steam_id":76561198063170079,"connected_time":740000000000,"state":"active","ping":53},{"user_id":296,"name":"CrazySpace","steam_id":76561198183980530,"connected_time":363000000000,"state":"active","ping":117},{"user_id":278,"name":"Pancetta's vore window","steam_id":76561198428086758,"connected_time":1366000000000,"state":"active","ping":102},{"user_id":273,"name":"Commodore_Perry","steam_id":76561197986675784,"connected_time":2152000000000,"state":"active","ping":58},{"user_id":260,"name":"DIO'S doNUT Shop","steam_id":76561199090409364,"connected_time":2714000000000,"state":"active","ping":67},{"user_id":261,"name":"capybara","steam_id":76561198843437081,"connected_time":2567000000000,"state":"active","ping":84},{"user_id":276,"name":"soupcan","steam_id":76561199202774357,"connected_time":1832000000000,"state":"active","ping":47},{"user_id":263,"name":"geL","steam_id":76561198188572226,"connected_time":2527000000000,"state":"active","ping":47},{"user_id":272,"name":"supcupman","steam_id":76561198051513866,"connected_time":2322000000000,"state":"active","ping":162},{"user_id":295,"name":"Chase McCain","steam_id":76561198314538469,"connected_time":653000000000,"state":"active","ping":57},{"user_id":281,"name":"carti","steam_id":76561199037980939,"connected_time":1267000000000,"state":"active","ping":86},{"user_id":290,"name":"Inevitable","steam_id":76561198210050169,"connected_time":772000000000,"state":"active","ping":45},{"user_id":297,"name":"SaucyAlfredo","steam_id":76561198814854234,"connected_time":268000000000,"state":"active","ping":68},{"user_id":298,"name":"Xavibite","steam_id":76561198209380493,"connected_time":72000000000,"state":"active","ping":45},{"user_id":294,"name":"nefarious criminal","steam_id":76561198077506415,"connected_time":680000000000,"state":"active","ping":49},{"user_id":246,"name":"Snugboo","steam_id":76561198147970327,"connected_time":4126000000000,"state":"active","ping":40},{"user_id":238,"name":"The Night In Dark Armor","steam_id":76561198321340506,"connected_time":5064000000000,"state":"active","ping":68},{"user_id":265,"name":"‚ù§ Ashley ‚ù§","steam_id":76561198056428303,"connected_time":2466000000000,"state":"active","ping":105},{"user_id":284,"name":"Tanner Jarring","steam_id":76561198172024365,"connected_time":1229000000000,"state":"active","ping":59},{"user_id":204,"name":"PizzaPasta","steam_id":76561199125109082,"connected_time":9049000000000,"state":"active","ping":59},{"user_id":287,"name":"6t26j","steam_id":76561198278282836,"connected_time":1175000000000,"state":"active","ping":56},{"user_id":275,"name":"Bart Harley Jarvis","steam_id":76561199215811448,"connected_time":1953000000000,"state":"active","ping":81}]},{"server_id":15,"name":"Uncletopia | New York City | 3 | Stopwatch Beta","name_short":"nyc-3","host":"nyc-1.us.uncletopia.com","port":27035,"enabled":true,"region":"us-east","cc":"us","latitude":40.73061,"longitude":-73.93524,"reserved":0,"last_update":"0001-01-01T00:00:00Z","name_a2s":"Uncletopia | New York City | 3 | Stopwatch Beta","protocol":17,"map":"workshop/cp_reckoner_rc6.ugc674719999","folder":"tf","game":"Team Fortress","app_id":440,"player_count":0,"max_players":24,"Bots":0,"server_type":"Dedicated","server_os":"Linux","password":true,"vac":true,"version":"7757534","steam_id":85568392924742820,"keywords":["cp","nocrits","nodmgspread","uncletopia"],"game_id":440,"stv_port":27036,"stv_name":"Uncletopia | New York City | 3 | Stopwatch Beta | STV","players":null},{"server_id":16,"name":"Uncletopia | New York City | 4 | Community","name_short":"nyc-4","host":"nyc-1.us.uncletopia.com","port":27045,"enabled":true,"region":"us-east","cc":"us","latitude":40.73061,"longitude":-73.93524,"reserved":0,"last_update":"0001-01-01T00:00:00Z","name_a2s":"Uncletopia | New York City | 4 | Community","protocol":17,"map":"workshop/pl_cactuscanyon_redux_rc4b.ugc2579644293","folder":"tf","game":"Team Fortress","app_id":440,"player_count":0,"max_players":24,"Bots":0,"server_type":"Dedicated","server_os":"Linux","password":true,"vac":true,"version":"7757534","steam_id":85568392924742821,"keywords":["nocrits","nodmgspread","payload","uncletopia"],"game_id":440,"stv_port":27046,"stv_name":"Uncletopia | New York City | 4 | Community | STV","players":null},{"server_id":142,"name":"Uncletopia | S√£o Paulo | 1 | All Maps","name_short":"sao-1","host":"sao-1.br.uncletopia.com","port":27015,"enabled":true,"region":"sa","cc":"br","latitude":-23.533773,"longitude":-46.62529,"reserved":0,"last_update":"0001-01-01T00:00:00Z","name_a2s":"Uncletopia | S√£o Paulo | 1 | All Maps","protocol":17,"map":"koth_highpass","folder":"tf","game":"Team Fortress","app_id":440,"player_count":0,"max_players":24,"Bots":0,"server_type":"Dedicated","server_os":"Linux","password":true,"vac":true,"version":"7757534","steam_id":85568392924469996,"keywords":["cp","nocrits","nodmgspread","uncletopia"],"game_id":440,"stv_port":27016,"stv_name":"Uncletopia | S√£o Paulo | 1 | All Maps | STV","players":null},{"server_id":143,"name":"Uncletopia | S√£o Paulo | 2 | All Maps","name_short":"sao-2","host":"sao-2.br.uncletopia.com","port":27015,"enabled":true,"region":"sa","cc":"br","latitude":-23.533773,"longitude":-46.62529,"reserved":0,"last_update":"0001-01-01T00:00:00Z","name_a2s":"Uncletopia | S√£o Paulo | 2 | All Maps","protocol":17,"map":"pl_borneo","folder":"tf","game":"Team Fortress","app_id":440,"player_count":0,"max_players":24,"Bots":0,"server_type":"Dedicated","server_os":"Linux","password":true,"vac":true,"version":"7757534","steam_id":85568392924485349,"keywords":["nocrits","nodmgspread","payload","uncletopia"],"game_id":440,"stv_port":27016,"stv_name":"Uncletopia | S√£o Paulo | 2 | All Maps | STV","players":null},{"server_id":7,"name":"Uncletopia | Seattle | 1 | All Maps","name_short":"sea-1","host":"sea-1.us.uncletopia.com","port":27015,"enabled":true,"region":"us-west","cc":"us","latitude":47.608013,"longitude":-122.33517,"reserved":0,"last_update":"0001-01-01T00:00:00Z","name_a2s":"Uncletopia | Seattle | 1 | All Maps","protocol":17,"map":"koth_suijin","folder":"tf","game":"Team Fortress","app_id":440,"player_count":24,"max_players":24,"Bots":0,"server_type":"Dedicated","server_os":"Linux","password":true,"vac":true,"version":"7757534","steam_id":85568392924469997,"keywords":["cp","nocrits","nodmgspread","uncletopia"],"game_id":440,"stv_port":27016,"stv_name":"Uncletopia | Seattle | 1 | All Maps | STV","players":[{"user_id":200,"name":"aon135","steam_id":76561197966931637,"connected_time":2938000000000,"state":"active","ping":62},{"user_id":220,"name":"Uta","steam_id":76561198271964253,"connected_time":1305000000000,"state":"active","ping":54},{"user_id":238,"name":"laggiest player","steam_id":76561198439899407,"connected_time":847000000000,"state":"active","ping":44},{"user_id":165,"name":"Tom Skirrett","steam_id":76561198014600788,"connected_time":6002000000000,"state":"active","ping":68},{"user_id":219,"name":"young sheldon","steam_id":76561198380018244,"connected_time":1331000000000,"state":"active","ping":67},{"user_id":245,"name":"The Population of Sweden","steam_id":76561198202201644,"connected_time":233000000000,"state":"active","ping":33},{"user_id":213,"name":"PigeonGirlMera","steam_id":76561198080830664,"connected_time":2095000000000,"state":"active","ping":114},{"user_id":239,"name":"Mr.Thirteen","steam_id":76561198047468836,"connected_time":728000000000,"state":"active","ping":69},{"user_id":235,"name":"AmiableNebula","steam_id":76561198094306627,"connected_time":1027000000000,"state":"active","ping":76},{"user_id":191,"name":"nappyzappy","steam_id":76561198095118953,"connected_time":3698000000000,"state":"active","ping":73},{"user_id":224,"name":"BoioftheNile","steam_id":76561198834204114,"connected_time":1211000000000,"state":"active","ping":66},{"user_id":201,"name":"epicWinBoy12","steam_id":76561198133489194,"connected_time":2937000000000,"state":"active","ping":60},{"user_id":225,"name":"p9 jorts","steam_id":76561199041179985,"connected_time":1210000000000,"state":"active","ping":64},{"user_id":222,"name":"ERRAfan72","steam_id":76561198025747866,"connected_time":1258000000000,"state":"active","ping":45},{"user_id":223,"name":"Cloaker","steam_id":76561198314971345,"connected_time":1246000000000,"state":"active","ping":94},{"user_id":244,"name":"Dirt Mammal","steam_id":76561198040781653,"connected_time":483000000000,"state":"active","ping":56},{"user_id":246,"name":"Wafflemuscle","steam_id":76561198868628982,"connected_time":54000000000,"state":"active","ping":49},{"user_id":241,"name":"Daz","steam_id":76561198041431938,"connected_time":522000000000,"state":"active","ping":134},{"user_id":229,"name":"Shcookius","steam_id":76561198135026426,"connected_time":1175000000000,"state":"active","ping":78},{"user_id":205,"name":"Diesel","steam_id":76561198448815852,"connected_time":2792000000000,"state":"active","ping":61},{"user_id":231,"name":"Fawful's Minion","steam_id":76561198090120779,"connected_time":1137000000000,"state":"active","ping":73},{"user_id":233,"name":"o o o o o o o o o","steam_id":76561197993757506,"connected_time":1120000000000,"state":"active","ping":75},{"user_id":209,"name":"my monitor is off","steam_id":76561198074499537,"connected_time":2563000000000,"state":"active","ping":82},{"user_id":242,"name":"thunderous prophet","steam_id":76561198131166135,"connected_time":521000000000,"state":"active","ping":43}]},{"server_id":119,"name":"Uncletopia | Seattle | 2 | All Maps","name_short":"sea-2","host":"sea-1.us.uncletopia.com","port":27025,"enabled":true,"region":"us-west","cc":"us","latitude":47.608013,"longitude":-122.33517,"reserved":0,"last_update":"0001-01-01T00:00:00Z","name_a2s":"Uncletopia | Seattle | 2 | All Maps","protocol":17,"map":"cp_steel","folder":"tf","game":"Team Fortress","app_id":440,"player_count":23,"max_players":24,"Bots":0,"server_type":"Dedicated","server_os":"Linux","password":true,"vac":true,"version":"7757534","steam_id":85568392924469998,"keywords":["cp","nocrits","nodmgspread","uncletopia"],"game_id":440,"stv_port":27026,"stv_name":"Uncletopia | Seattle | 2 | All Maps | STV","players":[{"user_id":123,"name":"The Pepsi¬Æ Superbowl¬Æ!","steam_id":76561198080828981,"connected_time":599000000000,"state":"active","ping":73},{"user_id":115,"name":"Villchip","steam_id":76561198198599982,"connected_time":1290000000000,"state":"active","ping":48},{"user_id":110,"name":"A UsedNom","steam_id":76561198402832756,"connected_time":1503000000000,"state":"active","ping":66},{"user_id":119,"name":"ItchyThunder111","steam_id":76561199149907692,"connected_time":745000000000,"state":"active","ping":54},{"user_id":46,"name":"Peppy","steam_id":76561198866629645,"connected_time":7088000000000,"state":"active","ping":58},{"user_id":105,"name":"Phillip Jeffries","steam_id":76561198064052174,"connected_time":1733000000000,"state":"active","ping":118},{"user_id":82,"name":"ImChom","steam_id":76561198970425609,"connected_time":3302000000000,"state":"active","ping":68},{"user_id":19,"name":"Iroquois Pliskin","steam_id":76561198056704533,"connected_time":8041000000000,"state":"active","ping":93},{"user_id":97,"name":"Bubbamanme","steam_id":76561198119778504,"connected_time":2889000000000,"state":"active","ping":60},{"user_id":131,"name":"Kdash","steam_id":76561198043829155,"connected_time":63000000000,"state":"active","ping":103},{"user_id":116,"name":"lyiling.martinez","steam_id":76561198995211966,"connected_time":1110000000000,"state":"active","ping":174},{"user_id":79,"name":"Awildrock","steam_id":76561198040401086,"connected_time":3942000000000,"state":"active","ping":107},{"user_id":121,"name":"Ziggie Smalls","steam_id":76561198804592809,"connected_time":608000000000,"state":"active","ping":102},{"user_id":86,"name":"raku","steam_id":76561198124069038,"connected_time":3161000000000,"state":"active","ping":60},{"user_id":127,"name":"some nerd","steam_id":76561198297272878,"connected_time":416000000000,"state":"active","ping":74},{"user_id":95,"name":"rlty","steam_id":76561198009395055,"connected_time":2973000000000,"state":"active","ping":116},{"user_id":98,"name":"Naffers","steam_id":76561198195957335,"connected_time":2878000000000,"state":"active","ping":45},{"user_id":124,"name":"machine embodiment","steam_id":76561199081837220,"connected_time":562000000000,"state":"active","ping":126},{"user_id":128,"name":"Snale","steam_id":76561198039517965,"connected_time":365000000000,"state":"active","ping":65},{"user_id":89,"name":"Greskrendtregk","steam_id":76561197969553142,"connected_time":3077000000000,"state":"active","ping":72},{"user_id":129,"name":"Best Bleach","steam_id":76561198090216348,"connected_time":355000000000,"state":"active","ping":71},{"user_id":62,"name":"Fermenting Kiwi","steam_id":76561198253303497,"connected_time":5360000000000,"state":"active","ping":81},{"user_id":130,"name":"Evil_Elephant","steam_id":76561199055338631,"connected_time":316000000000,"state":"active","ping":148}]},{"server_id":406,"name":"Uncletopia | Seattle | 3 | Stopwatch Beta","name_short":"sea-3","host":"sea-1.us.uncletopia.com","port":27035,"enabled":true,"region":"us-west","cc":"us","latitude":47.608013,"longitude":-122.33517,"reserved":0,"last_update":"0001-01-01T00:00:00Z","name_a2s":"Uncletopia | Seattle | 3 | Stopwatch Beta","protocol":17,"map":"workshop/pl_barnblitz_pro7.ugc582280235","folder":"tf","game":"Team Fortress","app_id":440,"player_count":0,"max_players":24,"Bots":0,"server_type":"Dedicated","server_os":"Linux","password":true,"vac":true,"version":"7757534","steam_id":85568392924515217,"keywords":["nocrits","nodmgspread","payload","uncletopia"],"game_id":440,"stv_port":27036,"stv_name":"Uncletopia | Seattle | 3 | Stopwatch Beta | STV","players":null},{"server_id":17,"name":"Uncletopia | San Francisco | 1 | All Maps","name_short":"sfo-1","host":"sfo-1.us.uncletopia.com","port":27015,"enabled":true,"region":"us-west","cc":"us","latitude":37.77397,"longitude":-122.4313,"reserved":0,"last_update":"0001-01-01T00:00:00Z","name_a2s":"Uncletopia | San Francisco | 1 | All Maps","protocol":17,"map":"pl_snowycoast","folder":"tf","game":"Team Fortress","app_id":440,"player_count":21,"max_players":24,"Bots":0,"server_type":"Dedicated","server_os":"Linux","password":true,"vac":true,"version":"7757534","steam_id":85568392924469999,"keywords":["nocrits","nodmgspread","payload","uncletopia"],"game_id":440,"stv_port":27016,"stv_name":"Uncletopia | San Francisco | 1 | All Maps | STV","players":[{"user_id":352,"name":"[GUT] RiDiK¬Æ","steam_id":76561197969756446,"connected_time":1399000000000,"state":"active","ping":113},{"user_id":358,"name":"crs22","steam_id":76561198120149196,"connected_time":937000000000,"state":"active","ping":80},{"user_id":370,"name":"wendy's baconator","steam_id":76561198107219183,"connected_time":608000000000,"state":"active","ping":70},{"user_id":378,"name":"JarOfBread1","steam_id":76561199073788870,"connected_time":0,"state":"connecting","ping":0},{"user_id":374,"name":"Waltuh Gaming","steam_id":76561198173624978,"connected_time":297000000000,"state":"active","ping":92},{"user_id":377,"name":"DistantJragon","steam_id":76561198117563641,"connected_time":89000000000,"state":"active","ping":109},{"user_id":375,"name":"HiddenEgg","steam_id":76561199045105518,"connected_time":296000000000,"state":"active","ping":65},{"user_id":332,"name":"buggy schlap","steam_id":76561198978665598,"connected_time":2494000000000,"state":"active","ping":39},{"user_id":371,"name":"hedahman","steam_id":76561198052398134,"connected_time":530000000000,"state":"active","ping":56},{"user_id":360,"name":"Oinker","steam_id":76561198033130631,"connected_time":925000000000,"state":"active","ping":49},{"user_id":346,"name":"sniffy","steam_id":76561198184933255,"connected_time":1677000000000,"state":"active","ping":61},{"user_id":362,"name":"viedoamegs","steam_id":76561198025295263,"connected_time":884000000000,"state":"active","ping":87},{"user_id":363,"name":"fat","steam_id":76561198101352327,"connected_time":850000000000,"state":"active","ping":74},{"user_id":291,"name":"HAT-WEARING‚Ñ¢ Maggot Gamer Cat","steam_id":76561197973992705,"connected_time":5614000000000,"state":"active","ping":56},{"user_id":289,"name":"Drive-By-Fish-Guy","steam_id":76561198105513652,"connected_time":5767000000000,"state":"active","ping":68},{"user_id":372,"name":"Lord Scrubling","steam_id":76561198263744445,"connected_time":527000000000,"state":"active","ping":77},{"user_id":350,"name":"Grim","steam_id":76561198016978310,"connected_time":1516000000000,"state":"active","ping":62},{"user_id":356,"name":"cameron","steam_id":76561199066436068,"connected_time":957000000000,"state":"active","ping":80},{"user_id":365,"name":"tobrehto","steam_id":76561198097544038,"connected_time":835000000000,"state":"active","ping":66},{"user_id":345,"name":"AngrySquid14","steam_id":76561199198736458,"connected_time":1693000000000,"state":"active","ping":91},{"user_id":368,"name":"crumblejon","steam_id":76561198111273302,"connected_time":806000000000,"state":"active","ping":69}]},{"server_id":18,"name":"Uncletopia | San Francisco | 2 | All Maps","name_short":"sfo-2","host":"sfo-1.us.uncletopia.com","port":27025,"enabled":true,"region":"us-west","cc":"us","latitude":37.77397,"longitude":-122.4313,"reserved":0,"last_update":"0001-01-01T00:00:00Z","name_a2s":"Uncletopia | San Francisco | 2 | All Maps","protocol":17,"map":"koth_cascade","folder":"tf","game":"Team Fortress","app_id":440,"player_count":0,"max_players":24,"Bots":0,"server_type":"Dedicated","server_os":"Linux","password":true,"vac":true,"version":"7757534","steam_id":85568392924470000,"keywords":["cp","nocrits","nodmgspread","uncletopia"],"game_id":440,"stv_port":27026,"stv_name":"Uncletopia | San Francisco | 2 | All Maps | STV","players":null},{"server_id":19,"name":"Uncletopia | San Francisco | 3 | Stopwatch Beta","name_short":"sfo-3","host":"sfo-1.us.uncletopia.com","port":27035,"enabled":true,"region":"us-west","cc":"us","latitude":37.77397,"longitude":-122.4313,"reserved":0,"last_update":"0001-01-01T00:00:00Z","name_a2s":"Uncletopia | San Francisco | 3 | Stopwatch Beta","protocol":17,"map":"koth_viaduct","folder":"tf","game":"Team Fortress","app_id":440,"player_count":0,"max_players":24,"Bots":0,"server_type":"Dedicated","server_os":"Linux","password":true,"vac":true,"version":"7757534","steam_id":85568392924742824,"keywords":["cp","nocrits","nodmgspread","uncletopia"],"game_id":440,"stv_port":27036,"stv_name":"Uncletopia | San Francisco | 3 | Stopwatch Beta | STV","players":null},{"server_id":20,"name":"Uncletopia | San Francisco | 4 | Community","name_short":"sfo-4","host":"sfo-1.us.uncletopia.com","port":27045,"enabled":true,"region":"us-west","cc":"us","latitude":37.77397,"longitude":-122.4313,"reserved":0,"last_update":"0001-01-01T00:00:00Z","name_a2s":"Uncletopia | San Francisco | 4 | Community","protocol":17,"map":"workshop/pl_eruption_b9a.ugc2807898013","folder":"tf","game":"Team Fortress","app_id":440,"player_count":14,"max_players":24,"Bots":0,"server_type":"Dedicated","server_os":"Linux","password":true,"vac":true,"version":"7757534","steam_id":85568392924742826,"keywords":["nocrits","nodmgspread","payload","uncletopia"],"game_id":440,"stv_port":27046,"stv_name":"Uncletopia | San Francisco | 4 | Community | STV","players":[{"user_id":227,"name":"Shotgun king the final checkmat","steam_id":76561199233433896,"connected_time":478000000000,"state":"active","ping":111},{"user_id":233,"name":"Enad11","steam_id":76561198256263282,"connected_time":45000000000,"state":"active","ping":105},{"user_id":218,"name":"Fred McFrizzle","steam_id":76561198085117424,"connected_time":1118000000000,"state":"active","ping":75},{"user_id":219,"name":"John Taxenfraud","steam_id":76561199011358805,"connected_time":954000000000,"state":"active","ping":109},{"user_id":220,"name":"watchfull","steam_id":76561198433266742,"connected_time":935000000000,"state":"active","ping":66},{"user_id":221,"name":"firefox8546","steam_id":76561199467999091,"connected_time":848000000000,"state":"active","ping":98},{"user_id":222,"name":"Superman123389","steam_id":76561198267472539,"connected_time":811000000000,"state":"active","ping":81},{"user_id":211,"name":"idontknow","steam_id":76561199446691625,"connected_time":1895000000000,"state":"active","ping":99},{"user_id":232,"name":"DOMO_MR_ROBOTO","steam_id":76561198077108345,"connected_time":244000000000,"state":"active","ping":92},{"user_id":121,"name":"schnedwob","steam_id":76561197999146588,"connected_time":8120000000000,"state":"active","ping":85},{"user_id":202,"name":"Thicc Boi","steam_id":76561199163799116,"connected_time":2335000000000,"state":"active","ping":70},{"user_id":201,"name":"Freelance Police","steam_id":76561198333279646,"connected_time":2487000000000,"state":"active","ping":46},{"user_id":187,"name":"Chafn","steam_id":76561197969386702,"connected_time":3746000000000,"state":"active","ping":73},{"user_id":175,"name":"Daddy Topps","steam_id":76561198203594332,"connected_time":4282000000000,"state":"active","ping":59}]},{"server_id":141,"name":"Uncletopia | Sydney | 1 | All Maps","name_short":"syd-1","host":"syd-1.au.uncletopia.com","port":27015,"enabled":true,"region":"au","cc":"au","latitude":-33.865143,"longitude":151.2099,"reserved":0,"last_update":"0001-01-01T00:00:00Z","name_a2s":"Uncletopia | Sydney | 1 | All Maps","protocol":17,"map":"koth_lakeside_final","folder":"tf","game":"Team Fortress","app_id":440,"player_count":0,"max_players":24,"Bots":0,"server_type":"Dedicated","server_os":"Linux","password":true,"vac":true,"version":"7757534","steam_id":85568392924470001,"keywords":["cp","nocrits","nodmgspread","uncletopia"],"game_id":440,"stv_port":27016,"stv_name":"Uncletopia | Sydney | 1 | All Maps | STV","players":null},{"server_id":123,"name":"Uncletopia | Sydney | 2 | All Maps","name_short":"syd-2","host":"syd-1.au.uncletopia.com","port":27025,"enabled":true,"region":"au","cc":"au","latitude":-33.865143,"longitude":151.2099,"reserved":0,"last_update":"0001-01-01T00:00:00Z","name_a2s":"Uncletopia | Sydney | 2 | All Maps","protocol":17,"map":"koth_viaduct","folder":"tf","game":"Team Fortress","app_id":440,"player_count":0,"max_players":24,"Bots":0,"server_type":"Dedicated","server_os":"Linux","password":true,"vac":true,"version":"7757534","steam_id":85568392924470002,"keywords":["cp","nocrits","nodmgspread","uncletopia"],"game_id":440,"stv_port":27026,"stv_name":"Uncletopia | Sydney | 2 | All Maps | STV","players":null},{"server_id":395,"name":"Uncletopia | Sydney | 3 | All Maps","name_short":"syd-3","host":"syd-1.au.uncletopia.com","port":27035,"enabled":true,"region":"au","cc":"au","latitude":-33.865143,"longitude":151.2099,"reserved":0,"last_update":"0001-01-01T00:00:00Z","name_a2s":"Uncletopia | Sydney | 3 | All Maps","protocol":17,"map":"koth_viaduct","folder":"tf","game":"Team Fortress","app_id":440,"player_count":0,"max_players":24,"Bots":0,"server_type":"Dedicated","server_os":"Linux","password":true,"vac":true,"version":"7757534","steam_id":85568392925194467,"keywords":["cp","nocrits","nodmgspread","uncletopia"],"game_id":440,"stv_port":27036,"stv_name":"Uncletopia | Sydney | 3 | All Maps | STV","players":null},{"server_id":396,"name":"Uncletopia | Sydney | 4 | All Maps","name_short":"syd-4","host":"syd-1.au.uncletopia.com","port":27045,"enabled":true,"region":"au","cc":"au","latitude":-33.865143,"longitude":151.2099,"reserved":0,"last_update":"0001-01-01T00:00:00Z","name_a2s":"Uncletopia | Sydney | 4 | All Maps","protocol":17,"map":"cp_snakewater_final1","folder":"tf","game":"Team Fortress","app_id":440,"player_count":0,"max_players":24,"Bots":0,"server_type":"Dedicated","server_os":"Linux","password":true,"vac":true,"version":"7757534","steam_id":85568392925397958,"keywords":["cp","nocrits","nodmgspread","uncletopia"],"game_id":440,"stv_port":27046,"stv_name":"Uncletopia | Sydney | 4 | All Maps | STV","players":null},{"server_id":58,"name":"Uncletopia | Sydney | 5 | Stopwatch Beta","name_short":"syd-5","host":"syd-1.au.uncletopia.com","port":27055,"enabled":true,"region":"au","cc":"au","latitude":-33.865143,"longitude":151.2099,"reserved":0,"last_update":"0001-01-01T00:00:00Z","name_a2s":"Uncletopia | Sydney | 5 | Stopwatch Beta","protocol":17,"map":"pl_barnblitz","folder":"tf","game":"Team Fortress","app_id":440,"player_count":0,"max_players":24,"Bots":0,"server_type":"Dedicated","server_os":"Linux","password":true,"vac":true,"version":"7757534","steam_id":85568392925397959,"keywords":["nocrits","nodmgspread","payload","uncletopia"],"game_id":440,"stv_port":27056,"stv_name":"Uncletopia | Sydney | 5 | Stopwatch Beta | STV","players":null},{"server_id":59,"name":"Uncletopia | Sydney | 6 | Community","name_short":"syd-6","host":"syd-1.au.uncletopia.com","port":27065,"enabled":true,"region":"au","cc":"au","latitude":-33.865143,"longitude":151.2099,"reserved":0,"last_update":"0001-01-01T00:00:00Z","name_a2s":"Uncletopia | Sydney | 6 | Community","protocol":17,"map":"cp_mountainlab","folder":"tf","game":"Team Fortress","app_id":440,"player_count":0,"max_players":24,"Bots":0,"server_type":"Dedicated","server_os":"Linux","password":true,"vac":true,"version":"7757534","steam_id":85568392925397960,"keywords":["cp","nocrits","nodmgspread","uncletopia"],"game_id":440,"stv_port":27066,"stv_name":"Uncletopia | Sydney | 6 | Community | STV","players":null},{"server_id":49,"name":"Uncletopia | Warsaw | 1 | All Maps","name_short":"waw-1","host":"waw-1.pl.uncletopia.com","port":27015,"enabled":true,"region":"eu","cc":"pl","latitude":52.2297,"longitude":21.017532,"reserved":0,"last_update":"0001-01-01T00:00:00Z","name_a2s":"","protocol":0,"map":"","folder":"","game":"","app_id":0,"player_count":0,"max_players":0,"Bots":0,"server_type":"","server_os":"","password":false,"vac":false,"version":"","steam_id":0,"keywords":null,"game_id":0,"stv_port":0,"stv_name":"","players":null},{"server_id":50,"name":"Uncletopia | Warsaw | 2 | All Maps","name_short":"waw-2","host":"waw-1.pl.uncletopia.com","port":27025,"enabled":true,"region":"eu","cc":"pl","latitude":52.2297,"longitude":21.017532,"reserved":0,"last_update":"0001-01-01T00:00:00Z","name_a2s":"Uncletopia | Warsaw | 2 | All Maps","protocol":17,"map":"cp_process_final","folder":"tf","game":"Team Fortress","app_id":440,"player_count":0,"max_players":24,"Bots":0,"server_type":"Dedicated","server_os":"Linux","password":true,"vac":true,"version":"7757534","steam_id":85568392925397851,"keywords":["cp","nocrits","nodmgspread","uncletopia"],"game_id":440,"stv_port":27026,"stv_name":"Uncletopia | Warsaw | 2 | All Maps | STV","players":null},{"server_id":51,"name":"Uncletopia | Warsaw | 3 | All Maps","name_short":"waw-3","host":"waw-1.pl.uncletopia.com","port":27035,"enabled":true,"region":"eu","cc":"pl","latitude":52.2297,"longitude":21.017532,"reserved":0,"last_update":"0001-01-01T00:00:00Z","name_a2s":"Uncletopia | Warsaw | 3 | All Maps","protocol":17,"map":"cp_snakewater_final1","folder":"tf","game":"Team Fortress","app_id":440,"player_count":2,"max_players":24,"Bots":0,"server_type":"Dedicated","server_os":"Linux","password":true,"vac":true,"version":"7757534","steam_id":85568392925397852,"keywords":["cp","nocrits","nodmgspread","uncletopia"],"game_id":440,"stv_port":27036,"stv_name":"Uncletopia | Warsaw | 3 | All Maps | STV","players":[{"user_id":10,"name":"Truegr","steam_id":76561198811912339,"connected_time":6259000000000,"state":"active","ping":78},{"user_id":12,"name":"Heavy","steam_id":76561198835562332,"connected_time":4712000000000,"state":"active","ping":92}]},{"server_id":52,"name":"Uncletopia | Warsaw | 4 | All Maps","name_short":"waw-4","host":"waw-1.pl.uncletopia.com","port":27045,"enabled":true,"region":"eu","cc":"pl","latitude":52.2297,"longitude":21.017532,"reserved":0,"last_update":"0001-01-01T00:00:00Z","name_a2s":"Uncletopia | Warsaw | 4 | All Maps","protocol":17,"map":"koth_highpass","folder":"tf","game":"Team Fortress","app_id":440,"player_count":0,"max_players":24,"Bots":0,"server_type":"Dedicated","server_os":"Linux","password":true,"vac":true,"version":"7757534","steam_id":85568392925397853,"keywords":["cp","nocrits","nodmgspread","uncletopia"],"game_id":440,"stv_port":27046,"stv_name":"Uncletopia | Warsaw | 4 | All Maps | STV","players":null},{"server_id":53,"name":"Uncletopia | Warsaw | 5 | Stopwatch Beta","name_short":"waw-5","host":"waw-1.pl.uncletopia.com","port":27055,"enabled":true,"region":"eu","cc":"pl","latitude":52.2297,"longitude":21.017532,"reserved":0,"last_update":"0001-01-01T00:00:00Z","name_a2s":"Uncletopia | Warsaw | 5 | Stopwatch Beta","protocol":17,"map":"pl_borneo","folder":"tf","game":"Team Fortress","app_id":440,"player_count":0,"max_players":24,"Bots":0,"server_type":"Dedicated","server_os":"Linux","password":true,"vac":true,"version":"7757534","steam_id":85568392925397854,"keywords":["nocrits","nodmgspread","payload","uncletopia"],"game_id":440,"stv_port":27056,"stv_name":"Uncletopia | Warsaw | 5 | Stopwatch Beta | STV","players":null},{"server_id":54,"name":"Uncletopia | Warsaw | 6 | Community","name_short":"waw-6","host":"waw-1.pl.uncletopia.com","port":27065,"enabled":true,"region":"eu","cc":"pl","latitude":52.2297,"longitude":21.017532,"reserved":0,"last_update":"0001-01-01T00:00:00Z","name_a2s":"Uncletopia | Warsaw | 6 | Community","protocol":17,"map":"workshop/koth_ashville_final.ugc2130459942","folder":"tf","game":"Team Fortress","app_id":440,"player_count":5,"max_players":24,"Bots":0,"server_type":"Dedicated","server_os":"Linux","password":true,"vac":true,"version":"7757534","steam_id":85568392925397856,"keywords":["cp","nocrits","nodmgspread","uncletopia"],"game_id":440,"stv_port":27066,"stv_name":"Uncletopia | Warsaw | 6 | Community | STV","players":[{"user_id":88,"name":"X-tis","steam_id":76561198043837480,"connected_time":2691000000000,"state":"active","ping":68},{"user_id":93,"name":"git bash -er","steam_id":76561198072586494,"connected_time":1971000000000,"state":"active","ping":85},{"user_id":76,"name":"Fat Pigeon","steam_id":76561198817940142,"connected_time":4776000000000,"state":"active","ping":74},{"user_id":107,"name":"midnight_heat","steam_id":76561199076696513,"connected_time":623000000000,"state":"active","ping":91},{"user_id":26,"name":"Tazerann","steam_id":76561198043743881,"connected_time":7888000000000,"state":"active","ping":60}]}]}