{"status":true,"message":"","result":[{"server_id":9,"name":"Uncletopia | Atlanta | 1 | All Maps","name_short":"atl-1","host":"atl-1.us.uncletopia.com","port":27015,"enabled":true,"region":"us-east","cc":"us","latitude":33.753746,"longitude":-84.38633,"reserved":0,"last_update":"0001-01-01T00:00:00Z","name_a2s":"Uncletopia | Atlanta | 1 | All Maps","protocol":17,"map":"koth_highpass","folder":"tf","game":"Team Fortress","app_id":440,"player_count":24,"max_players":24,"Bots":0,"server_type":"Dedicated","server_os":"Linux","password":true,"vac":true,"version":"7757534","steam_id":85568392924469982,"keywords":["cp","nocrits","nodmgspread","uncletopia"],"game_id":440,"stv_port":27016,"stv_name":"Uncletopia | Atlanta | 1 | All Maps | STV","players":[{"user_id":302,"name":"Dreszerg","steam_id":76561198838757422,"connected_time":3684000000000,"state":"active","ping":73},{"user_id":320,"name":"Jammedpurse","steam_id":76561198998294201,"connected_time":944000000000,"state":"active","ping":71},{"user_id":331,"name":"jazaniac","steam_id":76561198059955588,"connected_time":171000000000,"state":"active","ping":81},{"user_id":318,"name":"billydubs","steam_id":76561198974202164,"connected_time":1073000000000,"state":"active","ping":49},{"user_id":267,"name":"Soju","steam_id":76561198044130442,"connected_time":5975000000000,"state":"active","ping":85},{"user_id":314,"name":"MyamE","steam_id":76561198133278462,"connected_time":1553000000000,"state":"active","ping":72},{"user_id":322,"name":"Effie","steam_id":76561198261842068,"connected_time":822000000000,"state":"active","ping":62},{"user_id":323,"name":"sora","steam_id":76561198094256973,"connected_time":807000000000,"state":"active","ping":105},{"user_id":324,"name":"hops_a_pops","steam_id":76561198210902109,"connected_time":765000000000,"state":"active","ping":48},{"user_id":325,"name":"[PFF] Shogun Omega","steam_id":76561198390387069,"connected_time":755000000000,"state":"active","ping":63},{"user_id":298,"name":"BambuBabyPackRunner","steam_id":76561198320866421,"connected_time":4078000000000,"state":"active","ping":52},{"user_id":332,"name":"floppy muppet","steam_id":76561198003076261,"connected_time":139000000000,"state":"active","ping":64},{"user_id":284,"name":"ATL1 | on my hunting trip","steam_id":76561198315341646,"connected_time":4316000000000,"state":"active","ping":72},{"user_id":294,"name":"SuperFresh","steam_id":76561198200723198,"connected_time":4159000000000,"state":"active","ping":57},{"user_id":312,"name":"Alt1 l Epifiny","steam_id":76561198027958086,"connected_time":1761000000000,"state":"active","ping":86},{"user_id":313,"name":"Towns","steam_id":76561198984662863,"connected_time":1735000000000,"state":"active","ping":55},{"user_id":326,"name":"Wiggee","steam_id":76561197972792989,"connected_time":724000000000,"state":"active","ping":67},{"user_id":327,"name":"Purplest","steam_id":76561198093523277,"connected_time":699000000000,"state":"active","ping":71},{"user_id":305,"name":"Partark","steam_id":76561198010265825,"connected_time":3234000000000,"state":"active","ping":45},{"user_id":329,"name":"onsen episode","steam_id":76561197965022076,"connected_time":546000000000,"state":"active","ping":73},{"user_id":308,"name":"Ashes!","steam_id":76561197998475441,"connected_time":2469000000000,"state":"active","ping":79},{"user_id":330,"name":"Oddjob","steam_id":76561198976160793,"connected_time":543000000000,"state":"active","ping":88},{"user_id":291,"name":"WhoIsFrosty","steam_id":76561198880588117,"connected_time":4246000000000,"state":"active","ping":70},{"user_id":269,"name":"bagel_man","steam_id":76561198164640460,"connected_time":5975000000000,"state":"active","ping":91}]},{"server_id":400,"name":"Uncletopia | Atlanta | 3 | Community","name_short":"atl-3","host":"atl-1.us.uncletopia.com","port":27035,"enabled":true,"region":"us-east","cc":"us","latitude":33.753746,"longitude":-84.38633,"reserved":0,"last_update":"0001-01-01T00:00:00Z","name_a2s":"Uncletopia | Atlanta | 3 | Community","protocol":17,"map":"workshop/koth_ashville_final.ugc2130459942","folder":"tf","game":"Team Fortress","app_id":440,"player_count":0,"max_players":32,"Bots":0,"server_type":"Dedicated","server_os":"Linux","password":true,"vac":true,"version":"7757534","steam_id":85568392924515187,"keywords":["cp","increased_maxplayers","nocrits","nodmgspread","uncletopia"],"game_id":440,"stv_port":27036,"stv_name":"Uncletopia | Atlanta | 3 | Community | STV","players":null},{"server_id":401,"name":"Uncletopia | Atlanta | 4 | No Payload","name_short":"atl-4","host":"atl-1.us.uncletopia.com","port":27045,"enabled":true,"region":"us-east","cc":"us","latitude":33.753746,"longitude":-84.38633,"reserved":0,"last_update":"0001-01-01T00:00:00Z","name_a2s":"","protocol":0,"map":"","folder":"","game":"","app_id":0,"player_count":0,"max_players":0,"Bots":0,"server_type":"","server_os":"","password":false,"vac":false,"version":"","steam_id":0,"keywords":null,"game_id":0,"stv_port":0,"stv_name":"","players":null},{"server_id":2,"name":"Uncletopia | Chicago | 1 | All Maps","name_short":"chi-1","host":"chi-1.us.uncletopia.com","port":27015,"enabled":true,"region":"us-central","cc":"us","latitude":41.881832,"longitude":-87.62318,"reserved":0,"last_update":"0001-01-01T00:00:00Z","name_a2s":"Uncletopia | Chicago | 1 | All Maps","protocol":17,"map":"pl_snowycoast","folder":"tf","game":"Team Fortress","app_id":440,"player_count":24,"max_players":24,"Bots":0,"server_type":"Dedicated","server_os":"Linux","password":true,"vac":true,"version":"7757534","steam_id":85568392924469984,"keywords":["nocrits","nodmgspread","payload","uncletopia"],"game_id":440,"stv_port":27016,"stv_name":"Uncletopia | Chicago | 1 | All Maps | STV","players":[{"user_id":211,"name":"Dr. Dick","steam_id":76561198138011922,"connected_time":3535000000000,"state":"active","ping":83},{"user_id":255,"name":"Acid-talon","steam_id":76561198039545578,"connected_time":718000000000,"state":"active","ping":80},{"user_id":231,"name":"Doc","steam_id":76561198062413360,"connected_time":2416000000000,"state":"active","ping":67},{"user_id":244,"name":"Stormz64","steam_id":76561198239036482,"connected_time":1087000000000,"state":"active","ping":45},{"user_id":251,"name":"Chaos","steam_id":76561199068325065,"connected_time":952000000000,"state":"active","ping":96},{"user_id":263,"name":"pat fusty","steam_id":76561198117181511,"connected_time":149000000000,"state":"active","ping":56},{"user_id":230,"name":"Rukks","steam_id":76561197993918954,"connected_time":2520000000000,"state":"active","ping":87},{"user_id":234,"name":"nastypass","steam_id":76561198002601054,"connected_time":2101000000000,"state":"active","ping":64},{"user_id":258,"name":"pew pew","steam_id":76561198110661425,"connected_time":366000000000,"state":"active","ping":45},{"user_id":246,"name":"Goober","steam_id":76561198105930089,"connected_time":1031000000000,"state":"active","ping":71},{"user_id":252,"name":"Chicanery","steam_id":76561198977589038,"connected_time":944000000000,"state":"active","ping":80},{"user_id":257,"name":"Yakkyrwhackr","steam_id":76561198869860539,"connected_time":629000000000,"state":"active","ping":69},{"user_id":206,"name":"Hylic","steam_id":76561199051314589,"connected_time":3894000000000,"state":"active","ping":62},{"user_id":247,"name":"creamgravy573","steam_id":76561198093308746,"connected_time":1021000000000,"state":"active","ping":76},{"user_id":237,"name":"marcus tillius","steam_id":76561197982832274,"connected_time":1688000000000,"state":"active","ping":52},{"user_id":248,"name":"how did i get up here?","steam_id":76561199096964288,"connected_time":1017000000000,"state":"active","ping":41},{"user_id":261,"name":"Cooldude_15","steam_id":76561198346713382,"connected_time":227000000000,"state":"active","ping":44},{"user_id":259,"name":"Discourse","steam_id":76561198984286678,"connected_time":335000000000,"state":"active","ping":58},{"user_id":242,"name":"Owen","steam_id":76561198025446908,"connected_time":1422000000000,"state":"active","ping":64},{"user_id":236,"name":"peniblor","steam_id":76561198307923786,"connected_time":2062000000000,"state":"active","ping":143},{"user_id":262,"name":"Sone","steam_id":76561198069601032,"connected_time":202000000000,"state":"active","ping":83},{"user_id":250,"name":"lynt","steam_id":76561198988333976,"connected_time":1009000000000,"state":"active","ping":54},{"user_id":260,"name":"object permanence","steam_id":76561198050393061,"connected_time":289000000000,"state":"active","ping":76},{"user_id":243,"name":"Gabinator32","steam_id":76561198872467183,"connected_time":1257000000000,"state":"active","ping":45}]},{"server_id":106,"name":"Uncletopia | Chicago | 2 | All Maps","name_short":"chi-2","host":"chi-1.us.uncletopia.com","port":27025,"enabled":true,"region":"us-central","cc":"us","latitude":41.881832,"longitude":-87.62318,"reserved":0,"last_update":"0001-01-01T00:00:00Z","name_a2s":"Uncletopia | Chicago | 2 | All Maps","protocol":17,"map":"pl_upward","folder":"tf","game":"Team Fortress","app_id":440,"player_count":23,"max_players":24,"Bots":0,"server_type":"Dedicated","server_os":"Linux","password":true,"vac":true,"version":"7757534","steam_id":85568392924469985,"keywords":["nocrits","nodmgspread","payload","uncletopia"],"game_id":440,"stv_port":27026,"stv_name":"Uncletopia | Chicago | 2 | All Maps | STV","players":[{"user_id":520,"name":"G.E.W.P. Pootispencer","steam_id":76561198111259720,"connected_time":699000000000,"state":"active","ping":65},{"user_id":485,"name":"Gummie","steam_id":76561198807069433,"connected_time":2667000000000,"state":"active","ping":90},{"user_id":528,"name":"Incoherent Thoughts","steam_id":76561198221342808,"connected_time":16000000000,"state":"spawning","ping":52},{"user_id":486,"name":"Transfem Furry \u003c3","steam_id":76561198288036403,"connected_time":2660000000000,"state":"active","ping":118},{"user_id":495,"name":"Overduecat","steam_id":76561198092452824,"connected_time":2360000000000,"state":"active","ping":68},{"user_id":527,"name":"Justin Roiland ( Innocent )","steam_id":76561198121926605,"connected_time":171000000000,"state":"active","ping":83},{"user_id":519,"name":"gock in my rawrie","steam_id":76561198185980055,"connected_time":711000000000,"state":"active","ping":61},{"user_id":497,"name":"girlboss","steam_id":76561197989019617,"connected_time":2345000000000,"state":"active","ping":46},{"user_id":491,"name":"Mr.Silver","steam_id":76561198156382508,"connected_time":2451000000000,"state":"active","ping":57},{"user_id":498,"name":"headache","steam_id":76561199059257565,"connected_time":2315000000000,"state":"active","ping":98},{"user_id":507,"name":"Mr_Random_","steam_id":76561199122888313,"connected_time":1971000000000,"state":"active","ping":190},{"user_id":523,"name":"trans rights","steam_id":76561198066270313,"connected_time":602000000000,"state":"active","ping":88},{"user_id":509,"name":"Sergeant Joker #savetf2","steam_id":76561198854616604,"connected_time":1677000000000,"state":"active","ping":61},{"user_id":477,"name":"CHARLIE","steam_id":76561199061380038,"connected_time":4396000000000,"state":"active","ping":151},{"user_id":517,"name":"BannedMist","steam_id":76561198905992575,"connected_time":1043000000000,"state":"active","ping":55},{"user_id":401,"name":"Tom","steam_id":76561198070630154,"connected_time":7047000000000,"state":"active","ping":87},{"user_id":524,"name":"the monkey's paw curls","steam_id":76561198039909187,"connected_time":593000000000,"state":"active","ping":63},{"user_id":512,"name":"Rec","steam_id":76561198022813906,"connected_time":1531000000000,"state":"active","ping":47},{"user_id":503,"name":"NUt","steam_id":76561198031007966,"connected_time":2158000000000,"state":"active","ping":71},{"user_id":525,"name":"Recursive Gamer","steam_id":76561198042102952,"connected_time":583000000000,"state":"active","ping":63},{"user_id":526,"name":"WastefulTrash","steam_id":76561198119003597,"connected_time":576000000000,"state":"active","ping":70},{"user_id":515,"name":"Jak(i)","steam_id":76561198076823144,"connected_time":1519000000000,"state":"active","ping":157},{"user_id":516,"name":"ItsNotZoom","steam_id":76561199473296583,"connected_time":1418000000000,"state":"active","ping":76}]},{"server_id":402,"name":"Uncletopia | Chicago | 3 | All Maps","name_short":"chi-3","host":"chi-1.us.uncletopia.com","port":27035,"enabled":true,"region":"us-central","cc":"us","latitude":41.881832,"longitude":-87.62318,"reserved":0,"last_update":"0001-01-01T00:00:00Z","name_a2s":"Uncletopia | Chicago | 3 | All Maps","protocol":17,"map":"koth_lakeside_final","folder":"tf","game":"Team Fortress","app_id":440,"player_count":0,"max_players":24,"Bots":0,"server_type":"Dedicated","server_os":"Linux","password":true,"vac":true,"version":"7757534","steam_id":85568392924515191,"keywords":["cp","nocrits","nodmgspread","uncletopia"],"game_id":440,"stv_port":27036,"stv_name":"Uncletopia | Chicago | 3 | All Maps | STV","players":null},{"server_id":403,"name":"Uncletopia | Chicago | 4 | All Maps","name_short":"chi-4","host":"chi-1.us.uncletopia.com","port":27045,"enabled":true,"region":"us-central","cc":"us","latitude":41.881832,"longitude":-87.62318,"reserved":0,"last_update":"0001-01-01T00:00:00Z","name_a2s":"Uncletopia | Chicago | 4 | All Maps","protocol":17,"map":"pl_upward","folder":"tf","game":"Team Fortress","app_id":440,"player_count":24,"max_players":24,"Bots":0,"server_type":"Dedicated","server_os":"Linux","password":true,"vac":true,"version":"7757534","steam_id":85568392924515193,"keywords":["nocrits","nodmgspread","payload","uncletopia"],"game_id":440,"stv_port":27046,"stv_name":"Uncletopia | Chicago | 4 | All Maps | STV","players":[{"user_id":354,"name":"98","steam_id":76561198134813102,"connected_time":1375000000000,"state":"active","ping":60},{"user_id":360,"name":"izzydex","steam_id":76561199101531034,"connected_time":643000000000,"state":"active","ping":57},{"user_id":358,"name":"Torei","steam_id":76561198799229190,"connected_time":678000000000,"state":"active","ping":45},{"user_id":365,"name":"Mad Cow ※","steam_id":76561199470707812,"connected_time":387000000000,"state":"active","ping":60},{"user_id":359,"name":"God im so badas.............","steam_id":76561199037497493,"connected_time":664000000000,"state":"active","ping":51},{"user_id":362,"name":"Sneetch [sRb]","steam_id":76561197996693506,"connected_time":592000000000,"state":"active","ping":87},{"user_id":324,"name":"gasparmx","steam_id":76561197998611994,"connected_time":4308000000000,"state":"active","ping":117},{"user_id":349,"name":"Poison Ivy","steam_id":76561198072384574,"connected_time":1592000000000,"state":"active","ping":51},{"user_id":353,"name":"AdorableMew","steam_id":76561198186706405,"connected_time":1409000000000,"state":"active","ping":72},{"user_id":306,"name":"Sprucelass","steam_id":76561197998391724,"connected_time":5586000000000,"state":"active","ping":45},{"user_id":346,"name":"zuna","steam_id":76561199038981515,"connected_time":1802000000000,"state":"active","ping":104},{"user_id":363,"name":"dave strider","steam_id":76561198065112186,"connected_time":566000000000,"state":"active","ping":74},{"user_id":364,"name":"Ike Yard","steam_id":76561197998954523,"connected_time":554000000000,"state":"active","ping":62},{"user_id":335,"name":"weeb_whacker #Jenius","steam_id":76561198187098041,"connected_time":2815000000000,"state":"active","ping":53},{"user_id":347,"name":"Jesse Thinkman","steam_id":76561198061675475,"connected_time":1751000000000,"state":"active","ping":71},{"user_id":319,"name":"the grungler!","steam_id":76561198058485742,"connected_time":4903000000000,"state":"active","ping":67},{"user_id":367,"name":"Candy Sparkles","steam_id":76561198126871264,"connected_time":163000000000,"state":"active","ping":85},{"user_id":326,"name":"Thunderchief","steam_id":76561198022802780,"connected_time":4282000000000,"state":"active","ping":101},{"user_id":341,"name":"Tytonidae","steam_id":76561198040403020,"connected_time":1863000000000,"state":"active","ping":45},{"user_id":343,"name":"GooniOoni","steam_id":76561198102154561,"connected_time":1850000000000,"state":"active","ping":44},{"user_id":309,"name":"Funny Skeleton Man","steam_id":76561198264262564,"connected_time":5427000000000,"state":"active","ping":70},{"user_id":351,"name":"Yimberly","steam_id":76561199206923109,"connected_time":1555000000000,"state":"active","ping":86},{"user_id":357,"name":"Dog Deodorant","steam_id":76561199225832228,"connected_time":717000000000,"state":"active","ping":101},{"user_id":331,"name":"ShadBad","steam_id":76561198248287390,"connected_time":3669000000000,"state":"active","ping":106}]},{"server_id":36,"name":"Uncletopia | Chicago | 5 | All Maps","name_short":"chi-5","host":"chi-2.us.uncletopia.com","port":27015,"enabled":true,"region":"us-central","cc":"us","latitude":41.881832,"longitude":-87.62318,"reserved":0,"last_update":"0001-01-01T00:00:00Z","name_a2s":"Uncletopia | Chicago | 5 | All Maps","protocol":17,"map":"cp_altitude","folder":"tf","game":"Team Fortress","app_id":440,"player_count":0,"max_players":24,"Bots":0,"server_type":"Dedicated","server_os":"Linux","password":true,"vac":true,"version":"7757534","steam_id":85568392924866362,"keywords":["cp","nocrits","nodmgspread","uncletopia"],"game_id":440,"stv_port":27016,"stv_name":"Uncletopia | Chicago | 5 | All Maps | STV","players":null},{"server_id":37,"name":"Uncletopia | Chicago | 6 | All Maps","name_short":"chi-6","host":"chi-2.us.uncletopia.com","port":27025,"enabled":true,"region":"us-central","cc":"us","latitude":41.881832,"longitude":-87.62318,"reserved":0,"last_update":"0001-01-01T00:00:00Z","name_a2s":"Uncletopia | Chicago | 6 | All Maps","protocol":17,"map":"pl_swiftwater_final1","folder":"tf","game":"Team Fortress","app_id":440,"player_count":24,"max_players":24,"Bots":0,"server_type":"Dedicated","server_os":"Linux","password":true,"vac":true,"version":"7757534","steam_id":85568392924866363,"keywords":["nocrits","nodmgspread","payload","uncletopia"],"game_id":440,"stv_port":27026,"stv_name":"Uncletopia | Chicago | 6 | All Maps | STV","players":[{"user_id":111,"name":"Tuxedo Terrorist","steam_id":76561198153510094,"connected_time":5265000000000,"state":"active","ping":54},{"user_id":190,"name":"ChefMike","steam_id":76561198414034069,"connected_time":226000000000,"state":"active","ping":57},{"user_id":114,"name":"Blake...","steam_id":76561198064090974,"connected_time":5000000000000,"state":"active","ping":86},{"user_id":65,"name":"Jumpin over your head","steam_id":76561198140517330,"connected_time":9298000000000,"state":"active","ping":83},{"user_id":180,"name":"Data","steam_id":76561197996329548,"connected_time":678000000000,"state":"active","ping":62},{"user_id":188,"name":"Pariah","steam_id":76561198300479600,"connected_time":276000000000,"state":"active","ping":60},{"user_id":18,"name":"Fresh Lychee","steam_id":76561198045399559,"connected_time":12190000000000,"state":"active","ping":59},{"user_id":181,"name":"Ranger","steam_id":76561199048628904,"connected_time":657000000000,"state":"active","ping":87},{"user_id":175,"name":"a fool on a foolish journey","steam_id":76561198017748754,"connected_time":1273000000000,"state":"active","ping":45},{"user_id":176,"name":"threethree","steam_id":76561198177354155,"connected_time":1272000000000,"state":"active","ping":63},{"user_id":189,"name":"Large Man","steam_id":76561198880396651,"connected_time":259000000000,"state":"active","ping":77},{"user_id":19,"name":"The World's Softest Sandwich","steam_id":76561198015577707,"connected_time":12164000000000,"state":"active","ping":76},{"user_id":177,"name":"xMystic_Fire","steam_id":76561198189961543,"connected_time":1259000000000,"state":"active","ping":86},{"user_id":183,"name":"Trollacademy 544","steam_id":76561198375432141,"connected_time":533000000000,"state":"active","ping":38},{"user_id":147,"name":"Kevin the Minion","steam_id":76561198052380794,"connected_time":3174000000000,"state":"active","ping":84},{"user_id":186,"name":"goon19","steam_id":76561199239168878,"connected_time":451000000000,"state":"active","ping":111},{"user_id":174,"name":"gabagool","steam_id":76561198012131766,"connected_time":1353000000000,"state":"active","ping":53},{"user_id":193,"name":"Madsalsa","steam_id":76561198964265866,"connected_time":79000000000,"state":"spawning","ping":201},{"user_id":185,"name":"aqua","steam_id":76561199407709552,"connected_time":461000000000,"state":"active","ping":45},{"user_id":166,"name":"eWVra2Vy","steam_id":76561198453565942,"connected_time":1762000000000,"state":"active","ping":79},{"user_id":153,"name":"Windex","steam_id":76561198105561395,"connected_time":2851000000000,"state":"active","ping":84},{"user_id":149,"name":"smuffy","steam_id":76561198091459506,"connected_time":3117000000000,"state":"active","ping":61},{"user_id":194,"name":"myspace girl","steam_id":76561198054925421,"connected_time":38000000000,"state":"spawning","ping":47},{"user_id":167,"name":"Death By SNU SNU","steam_id":76561198022988035,"connected_time":1762000000000,"state":"active","ping":72}]},{"server_id":38,"name":"Uncletopia | Chicago | 7 | Stopwatch Beta","name_short":"chi-7","host":"chi-2.us.uncletopia.com","port":27035,"enabled":true,"region":"us-central","cc":"us","latitude":41.881832,"longitude":-87.62318,"reserved":0,"last_update":"0001-01-01T00:00:00Z","name_a2s":"Uncletopia | Chicago | 7 | Stopwatch Beta","protocol":17,"map":"pl_swiftwater_final1","folder":"tf","game":"Team Fortress","app_id":440,"player_count":0,"max_players":24,"Bots":0,"server_type":"Dedicated","server_os":"Linux","password":true,"vac":true,"version":"7757534","steam_id":85568392924866364,"keywords":["nocrits","nodmgspread","payload","uncletopia"],"game_id":440,"stv_port":27036,"stv_name":"Uncletopia | Chicago | 7 | Stopwatch Beta | STV","players":null},{"server_id":39,"name":"Uncletopia | Chicago | 8 | Community","name_short":"chi-8","host":"chi-2.us.uncletopia.com","port":27045,"enabled":true,"region":"us-central","cc":"us","latitude":41.881832,"longitude":-87.62318,"reserved":0,"last_update":"0001-01-01T00:00:00Z","name_a2s":"Uncletopia | Chicago | 8 | Community","protocol":17,"map":"workshop/koth_ashville_final.ugc2130459942","folder":"tf","game":"Team Fortress","app_id":440,"player_count":0,"max_players":24,"Bots":0,"server_type":"Dedicated","server_os":"Linux","password":true,"vac":true,"version":"7757534","steam_id":85568392924866365,"keywords":["cp","nocrits","nodmgspread","uncletopia"],"game_id":440,"stv_port":27046,"stv_name":"Uncletopia | Chicago | 8 | Community | STV","players":null},{"server_id":8,"name":"Uncletopia | Dallas | 1 | All Maps","name_short":"dal-1","host":"dal-1.us.uncletopia.com","port":27015,"enabled":true,"region":"us-central","cc":"us","latitude":32.779167,"longitude":-96.80889,"reserved":0,"last_update":"0001-01-01T00:00:00Z","name_a2s":"Uncletopia | Dallas | 1 | All Maps","protocol":17,"map":"pl_badwater","folder":"tf","game":"Team Fortress","app_id":440,"player_count":24,"max_players":24,"Bots":0,"server_type":"Dedicated","server_os":"Linux","password":true,"vac":true,"version":"7757534","steam_id":85568392924469986,"keywords":["nocrits","nodmgspread","payload","uncletopia"],"game_id":440,"stv_port":27016,"stv_name":"Uncletopia | Dallas | 1 | All Maps | STV","players":[{"user_id":422,"name":"Burny Sanders","steam_id":76561197961879048,"connected_time":2097000000000,"state":"active","ping":44},{"user_id":363,"name":"MinusSoup918","steam_id":76561198060902773,"connected_time":5770000000000,"state":"active","ping":94},{"user_id":433,"name":"Quakedad","steam_id":76561198055811307,"connected_time":1845000000000,"state":"active","ping":135},{"user_id":417,"name":"Weasel Smack","steam_id":76561198023116430,"connected_time":2314000000000,"state":"active","ping":72},{"user_id":439,"name":"FUSION","steam_id":76561197972659738,"connected_time":1186000000000,"state":"active","ping":75},{"user_id":446,"name":"iluvtoust","steam_id":76561198869269207,"connected_time":569000000000,"state":"active","ping":45},{"user_id":430,"name":"wolsne","steam_id":76561197960315263,"connected_time":1893000000000,"state":"active","ping":75},{"user_id":452,"name":"cup","steam_id":76561198121245586,"connected_time":292000000000,"state":"active","ping":78},{"user_id":435,"name":"Scottish meatballs.","steam_id":76561199405759754,"connected_time":1634000000000,"state":"active","ping":59},{"user_id":436,"name":"FitzyBear","steam_id":76561198409189585,"connected_time":1339000000000,"state":"active","ping":101},{"user_id":440,"name":"Mara Roo","steam_id":76561198279341789,"connected_time":1162000000000,"state":"active","ping":88},{"user_id":450,"name":"Sup m8","steam_id":76561198081659121,"connected_time":375000000000,"state":"active","ping":45},{"user_id":441,"name":"Neoplix","steam_id":76561199012756422,"connected_time":1154000000000,"state":"active","ping":87},{"user_id":454,"name":"Comfy Monkey","steam_id":76561197998434936,"connected_time":269000000000,"state":"active","ping":67},{"user_id":453,"name":"eye","steam_id":76561198092186935,"connected_time":288000000000,"state":"active","ping":161},{"user_id":443,"name":"the bron jame","steam_id":76561198371235518,"connected_time":1118000000000,"state":"active","ping":131},{"user_id":455,"name":"Lemon Demon Enthusiast","steam_id":76561199026721822,"connected_time":196000000000,"state":"active","ping":89},{"user_id":415,"name":"Reaper","steam_id":76561198435826103,"connected_time":2973000000000,"state":"active","ping":68},{"user_id":437,"name":"Tribute","steam_id":76561198081594043,"connected_time":1337000000000,"state":"active","ping":54},{"user_id":429,"name":"GregGaming098","steam_id":76561198882415360,"connected_time":1930000000000,"state":"active","ping":118},{"user_id":447,"name":"Trolldier 76","steam_id":76561198036504161,"connected_time":455000000000,"state":"active","ping":130},{"user_id":414,"name":"Wang of Wall St","steam_id":76561198047460598,"connected_time":3104000000000,"state":"active","ping":90},{"user_id":406,"name":"ShinGojirabrYT","steam_id":76561199199037141,"connected_time":3428000000000,"state":"active","ping":162},{"user_id":448,"name":"gunmetal","steam_id":76561198827552986,"connected_time":455000000000,"state":"active","ping":88}]},{"server_id":108,"name":"Uncletopia | Dallas | 2 | All Maps","name_short":"dal-2","host":"dal-1.us.uncletopia.com","port":27025,"enabled":true,"region":"us-central","cc":"us","latitude":32.779167,"longitude":-96.80889,"reserved":0,"last_update":"0001-01-01T00:00:00Z","name_a2s":"Uncletopia | Dallas | 2 | All Maps","protocol":17,"map":"pl_pier","folder":"tf","game":"Team Fortress","app_id":440,"player_count":24,"max_players":24,"Bots":0,"server_type":"Dedicated","server_os":"Linux","password":true,"vac":true,"version":"7757534","steam_id":85568392924469988,"keywords":["nocrits","nodmgspread","payload","uncletopia"],"game_id":440,"stv_port":27026,"stv_name":"Uncletopia | Dallas | 2 | All Maps | STV","players":[{"user_id":64,"name":"RoofDawg","steam_id":76561198043548385,"connected_time":1799000000000,"state":"active","ping":89},{"user_id":93,"name":"ritzyjuice885","steam_id":76561199472615031,"connected_time":480000000000,"state":"active","ping":190},{"user_id":92,"name":"El Gato Con Botas","steam_id":76561198962918949,"connected_time":500000000000,"state":"active","ping":62},{"user_id":99,"name":"Mr_Whale","steam_id":76561199011415930,"connected_time":353000000000,"state":"active","ping":85},{"user_id":98,"name":"Rin \"Hindwing\" Redtail","steam_id":76561199074865638,"connected_time":377000000000,"state":"active","ping":45},{"user_id":59,"name":"bolainassr0","steam_id":76561199079078845,"connected_time":2487000000000,"state":"active","ping":97},{"user_id":69,"name":"Polygunner","steam_id":76561199165741650,"connected_time":1471000000000,"state":"active","ping":101},{"user_id":95,"name":"Nostrildamus","steam_id":76561198056647457,"connected_time":406000000000,"state":"active","ping":80},{"user_id":76,"name":"bottom pride burger","steam_id":76561198322247602,"connected_time":1131000000000,"state":"active","ping":88},{"user_id":102,"name":"Um, cool!","steam_id":76561198129870038,"connected_time":121000000000,"state":"active","ping":88},{"user_id":82,"name":"NinjAssassin51","steam_id":76561198081387392,"connected_time":956000000000,"state":"active","ping":119},{"user_id":96,"name":"PanCAKEEE","steam_id":76561198237489544,"connected_time":395000000000,"state":"active","ping":94},{"user_id":78,"name":"Full Throttle Axolotl","steam_id":76561198041836477,"connected_time":1057000000000,"state":"active","ping":56},{"user_id":66,"name":"ヌベール (Nubert)","steam_id":76561199121806567,"connected_time":1702000000000,"state":"active","ping":160},{"user_id":83,"name":"The One Piece is real","steam_id":76561198163442277,"connected_time":954000000000,"state":"active","ping":84},{"user_id":45,"name":"the rail of life","steam_id":76561198328109873,"connected_time":3292000000000,"state":"active","ping":95},{"user_id":84,"name":"Phat_nibba29","steam_id":76561198165661855,"connected_time":945000000000,"state":"active","ping":71},{"user_id":68,"name":"rockandroll805","steam_id":76561198062568700,"connected_time":1619000000000,"state":"active","ping":94},{"user_id":85,"name":"landogg","steam_id":76561198049000586,"connected_time":939000000000,"state":"active","ping":61},{"user_id":72,"name":"capybara","steam_id":76561198843437081,"connected_time":1261000000000,"state":"active","ping":282},{"user_id":101,"name":"worlds richest man","steam_id":76561198028272797,"connected_time":158000000000,"state":"active","ping":100},{"user_id":86,"name":"Trans Femtress 2","steam_id":76561198272676760,"connected_time":910000000000,"state":"active","ping":117},{"user_id":97,"name":"Grandpa","steam_id":76561198061793303,"connected_time":391000000000,"state":"active","ping":116},{"user_id":100,"name":"thundermuffin","steam_id":76561198067770965,"connected_time":317000000000,"state":"active","ping":79}]},{"server_id":5,"name":"Uncletopia | Frankfurt | 1 | All Maps","name_short":"frk-1","host":"frk-1.de.uncletopia.com","port":27015,"enabled":true,"region":"eu","cc":"de","latitude":50.110924,"longitude":8.682127,"reserved":0,"last_update":"0001-01-01T00:00:00Z","name_a2s":"Uncletopia | Frankfurt | 1 | All Maps","protocol":17,"map":"pl_barnblitz","folder":"tf","game":"Team Fortress","app_id":440,"player_count":2,"max_players":24,"Bots":0,"server_type":"Dedicated","server_os":"Linux","password":true,"vac":true,"version":"7757534","steam_id":85568392924469989,"keywords":["nocrits","nodmgspread","payload","uncletopia"],"game_id":440,"stv_port":27016,"stv_name":"Uncletopia | Frankfurt | 1 | All Maps | STV","players":[{"user_id":57,"name":"Fleckiiii","steam_id":76561198750744243,"connected_time":444000000000,"state":"active","ping":43},{"user_id":58,"name":"MaxwellSouth","steam_id":76561198819773783,"connected_time":428000000000,"state":"active","ping":61}]},{"server_id":110,"name":"Uncletopia | Frankfurt | 2 | All Maps","name_short":"frk-2","host":"frk-1.de.uncletopia.com","port":27025,"enabled":true,"region":"eu","cc":"de","latitude":50.110924,"longitude":8.682127,"reserved":0,"last_update":"0001-01-01T00:00:00Z","name_a2s":"Uncletopia | Frankfurt | 2 | All Maps","protocol":17,"map":"pl_pier","folder":"tf","game":"Team Fortress","app_id":440,"player_count":23,"max_players":24,"Bots":0,"server_type":"Dedicated","server_os":"Linux","password":true,"vac":true,"version":"7757534","steam_id":85568392924469990,"keywords":["nocrits","nodmgspread","payload","uncletopia"],"game_id":440,"stv_port":27026,"stv_name":"Uncletopia | Frankfurt | 2 | All Maps | STV","players":[{"user_id":311,"name":"Suetolog","steam_id":76561199053090212,"connected_time":5465000000000,"state":"active","ping":55},{"user_id":381,"name":"toe bias","steam_id":76561199084996146,"connected_time":827000000000,"state":"active","ping":60},{"user_id":374,"name":"Lord Ocean II","steam_id":76561198085219653,"connected_time":1278000000000,"state":"active","ping":67},{"user_id":395,"name":"moser23","steam_id":76561197960543171,"connected_time":51000000000,"state":"active","ping":49},{"user_id":377,"name":"dirty","steam_id":76561197995572935,"connected_time":858000000000,"state":"active","ping":83},{"user_id":335,"name":"dotdotdot","steam_id":76561198057628751,"connected_time":4569000000000,"state":"active","ping":60},{"user_id":378,"name":"Haha?","steam_id":76561198056882245,"connected_time":858000000000,"state":"active","ping":53},{"user_id":360,"name":"Hamtastic","steam_id":76561198879769410,"connected_time":2645000000000,"state":"active","ping":75},{"user_id":379,"name":"Saucy Jack","steam_id":76561198894525288,"connected_time":857000000000,"state":"active","ping":72},{"user_id":359,"name":"Delta","steam_id":76561198254418755,"connected_time":2682000000000,"state":"active","ping":45},{"user_id":382,"name":"holykyckling","steam_id":76561198040661615,"connected_time":812000000000,"state":"active","ping":68},{"user_id":383,"name":":)","steam_id":76561198977420882,"connected_time":791000000000,"state":"active","ping":56},{"user_id":369,"name":"Emails","steam_id":76561198836919458,"connected_time":1659000000000,"state":"active","ping":176},{"user_id":394,"name":"Dooble donk man look at me donk","steam_id":76561198225523596,"connected_time":341000000000,"state":"active","ping":74},{"user_id":337,"name":"CumbustiblePunda","steam_id":76561197974274677,"connected_time":4511000000000,"state":"active","ping":56},{"user_id":391,"name":"LuCroGi","steam_id":76561198057283891,"connected_time":635000000000,"state":"active","ping":60},{"user_id":373,"name":"dn4k","steam_id":76561199221755690,"connected_time":1508000000000,"state":"active","ping":76},{"user_id":352,"name":"DespawnedDiamond","steam_id":76561198841944417,"connected_time":3720000000000,"state":"active","ping":58},{"user_id":392,"name":"Concerned Mothers In Your Area","steam_id":76561198132926700,"connected_time":619000000000,"state":"active","ping":77},{"user_id":393,"name":"Tekky","steam_id":76561197990987315,"connected_time":546000000000,"state":"active","ping":48},{"user_id":372,"name":"Bromoneto","steam_id":76561198876695014,"connected_time":1578000000000,"state":"active","ping":70},{"user_id":389,"name":"Alberto kurwa essa","steam_id":76561198818615165,"connected_time":750000000000,"state":"active","ping":153},{"user_id":349,"name":"JohkupohkuXD","steam_id":76561198391108762,"connected_time":4074000000000,"state":"active","ping":86}]},{"server_id":308,"name":"Uncletopia | Frankfurt | 3 | All Maps","name_short":"frk-3","host":"frk-1.de.uncletopia.com","port":27035,"enabled":true,"region":"eu","cc":"de","latitude":50.110924,"longitude":8.682127,"reserved":0,"last_update":"0001-01-01T00:00:00Z","name_a2s":"Uncletopia | Frankfurt | 3 | All Maps","protocol":17,"map":"pl_badwater","folder":"tf","game":"Team Fortress","app_id":440,"player_count":21,"max_players":24,"Bots":0,"server_type":"Dedicated","server_os":"Linux","password":true,"vac":true,"version":"7757534","steam_id":85568392924504274,"keywords":["nocrits","nodmgspread","payload","uncletopia"],"game_id":440,"stv_port":27036,"stv_name":"Uncletopia | Frankfurt | 3 | All Maps | STV","players":[{"user_id":624,"name":"REN","steam_id":76561198000596385,"connected_time":4953000000000,"state":"active","ping":70},{"user_id":661,"name":"shanghai","steam_id":76561198269154534,"connected_time":2019000000000,"state":"active","ping":58},{"user_id":665,"name":"♫★Xriasp★♫","steam_id":76561198104721321,"connected_time":1614000000000,"state":"active","ping":74},{"user_id":666,"name":"Kotlet schabowy","steam_id":76561198048983509,"connected_time":1572000000000,"state":"active","ping":75},{"user_id":631,"name":"Sneaky boi","steam_id":76561199195985387,"connected_time":4531000000000,"state":"active","ping":75},{"user_id":676,"name":"decriminalise goblins","steam_id":76561198048257605,"connected_time":593000000000,"state":"active","ping":66},{"user_id":659,"name":"Mor'du","steam_id":76561198274105878,"connected_time":2058000000000,"state":"active","ping":83},{"user_id":656,"name":"Ches subtly into Pizzaboo","steam_id":76561198067204908,"connected_time":2088000000000,"state":"active","ping":60},{"user_id":669,"name":"Tort","steam_id":76561198329646769,"connected_time":904000000000,"state":"active","ping":70},{"user_id":678,"name":"Rashid Besythe","steam_id":76561198081477129,"connected_time":64000000000,"state":"active","ping":68},{"user_id":636,"name":"darktheif54","steam_id":76561198043650119,"connected_time":4423000000000,"state":"active","ping":56},{"user_id":646,"name":"Benzo Fury","steam_id":76561198025259336,"connected_time":3593000000000,"state":"active","ping":56},{"user_id":679,"name":"scrsch detf2pickup","steam_id":76561198044391172,"connected_time":19000000000,"state":"active","ping":61},{"user_id":641,"name":"FoOzTV","steam_id":76561197998636728,"connected_time":4279000000000,"state":"active","ping":73},{"user_id":649,"name":"pizzaboob","steam_id":76561198097507847,"connected_time":3285000000000,"state":"active","ping":67},{"user_id":670,"name":"RansAckeR","steam_id":76561197961061390,"connected_time":888000000000,"state":"active","ping":51},{"user_id":561,"name":"M.Bou","steam_id":76561199097750260,"connected_time":9629000000000,"state":"active","ping":127},{"user_id":667,"name":"socaramel","steam_id":76561197984480336,"connected_time":1565000000000,"state":"active","ping":97},{"user_id":677,"name":"Dragul","steam_id":76561198032885938,"connected_time":356000000000,"state":"active","ping":60},{"user_id":675,"name":"Mats Söderlund","steam_id":76561198106133548,"connected_time":767000000000,"state":"active","ping":64},{"user_id":640,"name":"Elliot","steam_id":76561197997418037,"connected_time":4365000000000,"state":"active","ping":77}]},{"server_id":309,"name":"Uncletopia | Frankfurt | 4 | All Maps","name_short":"frk-4","host":"frk-1.de.uncletopia.com","port":27045,"enabled":true,"region":"eu","cc":"de","latitude":50.110924,"longitude":8.682127,"reserved":0,"last_update":"0001-01-01T00:00:00Z","name_a2s":"Uncletopia | Frankfurt | 4 | All Maps","protocol":17,"map":"cp_process_final","folder":"tf","game":"Team Fortress","app_id":440,"player_count":24,"max_players":24,"Bots":0,"server_type":"Dedicated","server_os":"Linux","password":true,"vac":true,"version":"7757534","steam_id":85568392924504275,"keywords":["cp","nocrits","nodmgspread","uncletopia"],"game_id":440,"stv_port":27046,"stv_name":"Uncletopia | Frankfurt | 4 | All Maps | STV","players":[{"user_id":293,"name":"Egor Pomidor","steam_id":76561199175688390,"connected_time":6318000000000,"state":"active","ping":76},{"user_id":300,"name":"New","steam_id":76561198402195911,"connected_time":6203000000000,"state":"active","ping":118},{"user_id":342,"name":"Renolox","steam_id":76561198036590182,"connected_time":3740000000000,"state":"active","ping":69},{"user_id":325,"name":"=^_^=","steam_id":76561198076494034,"connected_time":5176000000000,"state":"active","ping":57},{"user_id":319,"name":"Kvicha Kvaratskhelia","steam_id":76561198179339326,"connected_time":5762000000000,"state":"active","ping":75},{"user_id":330,"name":"d u k k i","steam_id":76561198071807437,"connected_time":4772000000000,"state":"active","ping":78},{"user_id":360,"name":"mark","steam_id":76561198309246388,"connected_time":2009000000000,"state":"active","ping":48},{"user_id":356,"name":"Charrky","steam_id":76561198054398642,"connected_time":2364000000000,"state":"active","ping":59},{"user_id":345,"name":"Mi Manchi","steam_id":76561198171573129,"connected_time":3139000000000,"state":"active","ping":59},{"user_id":347,"name":"Vershal Smershal","steam_id":76561198116223995,"connected_time":3127000000000,"state":"active","ping":59},{"user_id":255,"name":"X-tis","steam_id":76561198043837480,"connected_time":10073000000000,"state":"active","ping":74},{"user_id":331,"name":"Cliff Barnes","steam_id":76561198032213783,"connected_time":4720000000000,"state":"active","ping":62},{"user_id":348,"name":"player","steam_id":76561198054474684,"connected_time":3060000000000,"state":"active","ping":76},{"user_id":357,"name":"Vitamin Weee","steam_id":76561199183937747,"connected_time":2303000000000,"state":"active","ping":85},{"user_id":326,"name":"YEEET","steam_id":76561198914938199,"connected_time":5143000000000,"state":"active","ping":88},{"user_id":339,"name":"Udinese Dion","steam_id":76561198067931573,"connected_time":4057000000000,"state":"active","ping":46},{"user_id":369,"name":"Minimi","steam_id":76561198873850443,"connected_time":259000000000,"state":"active","ping":59},{"user_id":313,"name":"TJ1212","steam_id":76561199013575313,"connected_time":5992000000000,"state":"active","ping":84},{"user_id":285,"name":"Fat Pigeon","steam_id":76561198817940142,"connected_time":7598000000000,"state":"active","ping":49},{"user_id":309,"name":"SPONGE","steam_id":76561198040933472,"connected_time":6110000000000,"state":"active","ping":89},{"user_id":362,"name":"AwterSix","steam_id":76561198042561678,"connected_time":1799000000000,"state":"active","ping":60},{"user_id":366,"name":"ALARM","steam_id":76561198120686521,"connected_time":1157000000000,"state":"active","ping":61},{"user_id":355,"name":"♥ TRANS RIGHTS ♥","steam_id":76561198066258544,"connected_time":2376000000000,"state":"active","ping":50},{"user_id":346,"name":"cat","steam_id":76561198305304708,"connected_time":3139000000000,"state":"active","ping":64}]},{"server_id":310,"name":"Uncletopia | Frankfurt | 5 | All Maps","name_short":"frk-5","host":"frk-1.de.uncletopia.com","port":27055,"enabled":true,"region":"eu","cc":"de","latitude":50.110924,"longitude":8.682127,"reserved":0,"last_update":"0001-01-01T00:00:00Z","name_a2s":"Uncletopia | Frankfurt | 5 | All Maps","protocol":17,"map":"pl_swiftwater_final1","folder":"tf","game":"Team Fortress","app_id":440,"player_count":17,"max_players":24,"Bots":0,"server_type":"Dedicated","server_os":"Linux","password":true,"vac":true,"version":"7757534","steam_id":85568392924504277,"keywords":["nocrits","nodmgspread","payload","uncletopia"],"game_id":440,"stv_port":27056,"stv_name":"Uncletopia | Frankfurt | 5 | All Maps | STV","players":[{"user_id":508,"name":"romaingallo","steam_id":76561198268112907,"connected_time":3016000000000,"state":"active","ping":66},{"user_id":555,"name":"Steve Blowjobs","steam_id":76561198113321478,"connected_time":61000000000,"state":"active","ping":157},{"user_id":557,"name":"Pyro","steam_id":76561198860424456,"connected_time":10000000000,"state":"spawning","ping":65},{"user_id":546,"name":"Bat in a thousand","steam_id":76561198320506848,"connected_time":646000000000,"state":"active","ping":55},{"user_id":556,"name":"Anri Okita's Massive Milkers","steam_id":76561199186352720,"connected_time":59000000000,"state":"active","ping":79},{"user_id":543,"name":"cow milking specialist","steam_id":76561198364121077,"connected_time":850000000000,"state":"active","ping":99},{"user_id":549,"name":"bbqggfltp","steam_id":76561198231470280,"connected_time":484000000000,"state":"active","ping":60},{"user_id":554,"name":"-makina","steam_id":76561198273042780,"connected_time":93000000000,"state":"active","ping":60},{"user_id":522,"name":"Leszy","steam_id":76561198372172135,"connected_time":1588000000000,"state":"active","ping":62},{"user_id":516,"name":"Crisps","steam_id":76561198088973774,"connected_time":2033000000000,"state":"active","ping":47},{"user_id":542,"name":"nicholas","steam_id":76561198058211873,"connected_time":885000000000,"state":"active","ping":47},{"user_id":536,"name":"relic_","steam_id":76561199053114167,"connected_time":1125000000000,"state":"active","ping":87},{"user_id":545,"name":"MRLOLENO","steam_id":76561198450911838,"connected_time":703000000000,"state":"active","ping":63},{"user_id":474,"name":"♂ Necronomico ♂","steam_id":76561198079272212,"connected_time":5479000000000,"state":"active","ping":101},{"user_id":552,"name":"mp1mp2mp3","steam_id":76561198088967665,"connected_time":226000000000,"state":"active","ping":96},{"user_id":539,"name":"Floppa-z","steam_id":76561199385382550,"connected_time":1101000000000,"state":"active","ping":115},{"user_id":504,"name":"I was good before.","steam_id":76561198187045217,"connected_time":3082000000000,"state":"active","ping":76}]},{"server_id":311,"name":"Uncletopia | Frankfurt | 6 | All Maps","name_short":"frk-6","host":"frk-1.de.uncletopia.com","port":27065,"enabled":true,"region":"eu","cc":"de","latitude":50.110924,"longitude":8.682127,"reserved":0,"last_update":"0001-01-01T00:00:00Z","name_a2s":"Uncletopia | Frankfurt | 6 | All Maps","protocol":17,"map":"cp_process_final","folder":"tf","game":"Team Fortress","app_id":440,"player_count":23,"max_players":24,"Bots":0,"server_type":"Dedicated","server_os":"Linux","password":true,"vac":true,"version":"7757534","steam_id":85568392924504278,"keywords":["cp","nocrits","nodmgspread","uncletopia"],"game_id":440,"stv_port":27066,"stv_name":"Uncletopia | Frankfurt | 6 | All Maps | STV","players":[{"user_id":274,"name":"balanced diet","steam_id":76561198240320806,"connected_time":4601000000000,"state":"active","ping":69},{"user_id":299,"name":"kaelan!","steam_id":76561198001425310,"connected_time":1545000000000,"state":"active","ping":70},{"user_id":224,"name":"Lateguy","steam_id":76561198069446079,"connected_time":7309000000000,"state":"active","ping":88},{"user_id":228,"name":"nicco","steam_id":76561198046217866,"connected_time":7296000000000,"state":"active","ping":38},{"user_id":300,"name":"Flash","steam_id":76561198067379855,"connected_time":1507000000000,"state":"active","ping":49},{"user_id":251,"name":"dbuBBle","steam_id":76561198057961506,"connected_time":6023000000000,"state":"active","ping":74},{"user_id":227,"name":"tiia (cold hends)","steam_id":76561198046196005,"connected_time":7300000000000,"state":"active","ping":41},{"user_id":263,"name":"tekt","steam_id":76561198044554387,"connected_time":5382000000000,"state":"active","ping":84},{"user_id":293,"name":"hananamanna","steam_id":76561198006570285,"connected_time":2604000000000,"state":"active","ping":119},{"user_id":231,"name":"Paul Penix","steam_id":76561197996941396,"connected_time":7274000000000,"state":"active","ping":59},{"user_id":301,"name":"GarrysGor","steam_id":76561197994080324,"connected_time":1487000000000,"state":"active","ping":81},{"user_id":302,"name":"addicted","steam_id":76561199129801006,"connected_time":1484000000000,"state":"active","ping":50},{"user_id":303,"name":"Hellish Shitter","steam_id":76561198983192827,"connected_time":1482000000000,"state":"active","ping":87},{"user_id":310,"name":"___U_w_U___","steam_id":76561198246939740,"connected_time":722000000000,"state":"active","ping":85},{"user_id":304,"name":"AWJ ˆ-ˆ","steam_id":76561198053628243,"connected_time":1481000000000,"state":"active","ping":60},{"user_id":288,"name":"KLAMA  ❤","steam_id":76561198351549661,"connected_time":3529000000000,"state":"active","ping":77},{"user_id":256,"name":"crzy\u003c3 - CURSED","steam_id":76561198056225108,"connected_time":5669000000000,"state":"active","ping":63},{"user_id":305,"name":"A TOXIC PIECE OF SHIT","steam_id":76561198094993151,"connected_time":1467000000000,"state":"active","ping":60},{"user_id":306,"name":"Spanns","steam_id":76561197998349793,"connected_time":1421000000000,"state":"active","ping":73},{"user_id":312,"name":"Fish 'n' Chips","steam_id":76561198033476886,"connected_time":281000000000,"state":"active","ping":45},{"user_id":309,"name":"Fran","steam_id":76561199070516960,"connected_time":834000000000,"state":"active","ping":60},{"user_id":308,"name":"zak","steam_id":76561197998895428,"connected_time":1404000000000,"state":"active","ping":59},{"user_id":281,"name":"sherwood","steam_id":76561198021513207,"connected_time":4265000000000,"state":"active","ping":57}]},{"server_id":23,"name":"Uncletopia | Frankfurt | 7 | Stopwatch Beta","name_short":"frk-7","host":"frk-1.de.uncletopia.com","port":27075,"enabled":true,"region":"eu","cc":"de","latitude":50.110924,"longitude":8.682127,"reserved":0,"last_update":"0001-01-01T00:00:00Z","name_a2s":"Uncletopia | Frankfurt | 7 | Stopwatch Beta","protocol":17,"map":"cp_granary","folder":"tf","game":"Team Fortress","app_id":440,"player_count":0,"max_players":24,"Bots":0,"server_type":"Dedicated","server_os":"Linux","password":true,"vac":true,"version":"7757534","steam_id":85568392924742827,"keywords":["cp","nocrits","nodmgspread","uncletopia"],"game_id":440,"stv_port":27076,"stv_name":"Uncletopia | Frankfurt | 7 | Stopwatch Beta | STV","players":null},{"server_id":24,"name":"Uncletopia | Frankfurt | 8 | Community","name_short":"frk-8","host":"frk-1.de.uncletopia.com","port":27085,"enabled":true,"region":"eu","cc":"de","latitude":50.110924,"longitude":8.682127,"reserved":0,"last_update":"0001-01-01T00:00:00Z","name_a2s":"Uncletopia | Frankfurt | 8 | Community","protocol":17,"map":"workshop/cp_kalinka_rc6a.ugc1272700588","folder":"tf","game":"Team Fortress","app_id":440,"player_count":0,"max_players":24,"Bots":0,"server_type":"Dedicated","server_os":"Linux","password":true,"vac":true,"version":"7757534","steam_id":85568392924742828,"keywords":["cp","nocrits","nodmgspread","uncletopia"],"game_id":440,"stv_port":27086,"stv_name":"Uncletopia | Frankfurt | 8 | Community | STV","players":null},{"server_id":202,"name":"Uncletopia | Hong Kong | 1 | All Maps","name_short":"hgk-1","host":"hgk-1.hk.uncletopia.com","port":27015,"enabled":true,"region":"asia","cc":"hk","latitude":22.302711,"longitude":114.177216,"reserved":0,"last_update":"0001-01-01T00:00:00Z","name_a2s":"Uncletopia | Hong Kong | 1 | All Maps","protocol":17,"map":"koth_highpass","folder":"tf","game":"Team Fortress","app_id":440,"player_count":0,"max_players":24,"Bots":0,"server_type":"Dedicated","server_os":"Linux","password":true,"vac":true,"version":"7757534","steam_id":85568392924494504,"keywords":["cp","nocrits","nodmgspread","uncletopia"],"game_id":440,"stv_port":27016,"stv_name":"Uncletopia | Hong Kong | 1 | All Maps | STV","players":null},{"server_id":1,"name":"Uncletopia | Los Angeles | 1 | All Maps","name_short":"lax-1","host":"lax-1.us.uncletopia.com","port":27015,"enabled":true,"region":"us-west","cc":"us","latitude":33.94279,"longitude":-118.41004,"reserved":0,"last_update":"0001-01-01T00:00:00Z","name_a2s":"Uncletopia | Los Angeles | 1 | All Maps","protocol":17,"map":"pl_pier","folder":"tf","game":"Team Fortress","app_id":440,"player_count":21,"max_players":24,"Bots":0,"server_type":"Dedicated","server_os":"Linux","password":true,"vac":true,"version":"7757534","steam_id":85568392924469991,"keywords":["nocrits","nodmgspread","payload","uncletopia"],"game_id":440,"stv_port":27016,"stv_name":"Uncletopia | Los Angeles | 1 | All Maps | STV","players":[{"user_id":205,"name":"AroundlyLily","steam_id":76561198061752754,"connected_time":9000000000,"state":"spawning","ping":74},{"user_id":104,"name":"tie dye die guy","steam_id":76561198049845337,"connected_time":7747000000000,"state":"active","ping":63},{"user_id":164,"name":"tobrehto","steam_id":76561198097544038,"connected_time":3483000000000,"state":"active","ping":56},{"user_id":200,"name":"Mirage","steam_id":76561199133903803,"connected_time":263000000000,"state":"active","ping":101},{"user_id":202,"name":"lukamine","steam_id":76561198166827208,"connected_time":248000000000,"state":"active","ping":75},{"user_id":187,"name":"TTV/ChadMorningWood","steam_id":76561198139832291,"connected_time":1515000000000,"state":"active","ping":48},{"user_id":177,"name":"AAAAAAAAAAAAAAAAAAAAAAAAAAAAAAA","steam_id":76561198125467937,"connected_time":2754000000000,"state":"active","ping":74},{"user_id":194,"name":"berserker_tf2 ttv","steam_id":76561198303464488,"connected_time":580000000000,"state":"active","ping":62},{"user_id":196,"name":"Soviet Potato","steam_id":76561198068546113,"connected_time":527000000000,"state":"active","ping":45},{"user_id":197,"name":"rock gaming","steam_id":76561199402868311,"connected_time":315000000000,"state":"active","ping":62},{"user_id":198,"name":"Rhutebeer","steam_id":76561198018302761,"connected_time":308000000000,"state":"active","ping":104},{"user_id":199,"name":"blueink","steam_id":76561199118761255,"connected_time":302000000000,"state":"active","ping":115},{"user_id":201,"name":"BasedGod","steam_id":76561198061177973,"connected_time":256000000000,"state":"active","ping":47},{"user_id":137,"name":"Poladroid","steam_id":76561198032005291,"connected_time":5278000000000,"state":"active","ping":66},{"user_id":203,"name":"Testicular Torsion","steam_id":76561197968179862,"connected_time":188000000000,"state":"active","ping":86},{"user_id":204,"name":"teh mummy","steam_id":76561198044123636,"connected_time":129000000000,"state":"active","ping":30},{"user_id":103,"name":"rmbl","steam_id":76561198150137369,"connected_time":7996000000000,"state":"active","ping":49},{"user_id":163,"name":"LILIUM","steam_id":76561198086591493,"connected_time":3685000000000,"state":"active","ping":57},{"user_id":184,"name":"Nibotshooter","steam_id":76561199284825579,"connected_time":1694000000000,"state":"active","ping":91},{"user_id":189,"name":"xbox record that","steam_id":76561198150117455,"connected_time":1000000000000,"state":"active","ping":54},{"user_id":191,"name":"Sir Hamsalot","steam_id":76561198274276284,"connected_time":703000000000,"state":"active","ping":123}]},{"server_id":112,"name":"Uncletopia | Los Angeles | 2 | All Maps","name_short":"lax-2","host":"lax-1.us.uncletopia.com","port":27025,"enabled":true,"region":"us-west","cc":"us","latitude":33.94279,"longitude":-118.41004,"reserved":0,"last_update":"0001-01-01T00:00:00Z","name_a2s":"Uncletopia | Los Angeles | 2 | All Maps","protocol":17,"map":"koth_cascade","folder":"tf","game":"Team Fortress","app_id":440,"player_count":2,"max_players":24,"Bots":0,"server_type":"Dedicated","server_os":"Linux","password":true,"vac":true,"version":"7757534","steam_id":85568392924469992,"keywords":["cp","nocrits","nodmgspread","uncletopia"],"game_id":440,"stv_port":27026,"stv_name":"Uncletopia | Los Angeles | 2 | All Maps | STV","players":[{"user_id":8,"name":"grassman","steam_id":76561197972835907,"connected_time":936000000000,"state":"active","ping":70},{"user_id":9,"name":"Based Jvnko Fan","steam_id":76561198355290984,"connected_time":900000000000,"state":"active","ping":74}]},{"server_id":324,"name":"Uncletopia | Los Angeles | 3 | All Maps","name_short":"lax-3","host":"lax-1.us.uncletopia.com","port":27035,"enabled":true,"region":"us-west","cc":"us","latitude":33.94279,"longitude":-118.41004,"reserved":0,"last_update":"0001-01-01T00:00:00Z","name_a2s":"Uncletopia | Los Angeles | 3 | All Maps","protocol":17,"map":"koth_viaduct","folder":"tf","game":"Team Fortress","app_id":440,"player_count":0,"max_players":24,"Bots":0,"server_type":"Dedicated","server_os":"Linux","password":true,"vac":true,"version":"7757534","steam_id":85568392924510198,"keywords":["cp","nocrits","nodmgspread","uncletopia"],"game_id":440,"stv_port":27036,"stv_name":"Uncletopia | Los Angeles | 3 | All Maps | STV","players":null},{"server_id":25,"name":"Uncletopia | Los Angeles | 4 | Stopwatch Beta","name_short":"lax-4","host":"lax-1.us.uncletopia.com","port":27045,"enabled":true,"region":"us-west","cc":"us","latitude":33.94279,"longitude":-118.41004,"reserved":0,"last_update":"0001-01-01T00:00:00Z","name_a2s":"Uncletopia | Los Angeles | 4 | Stopwatch Beta","protocol":17,"map":"pl_frontier_final","folder":"tf","game":"Team Fortress","app_id":440,"player_count":0,"max_players":24,"Bots":0,"server_type":"Dedicated","server_os":"Linux","password":true,"vac":true,"version":"7757534","steam_id":85568392924510199,"keywords":["nocrits","nodmgspread","payload","uncletopia"],"game_id":440,"stv_port":27046,"stv_name":"Uncletopia | Los Angeles | 4 | Stopwatch Beta | STV","players":null},{"server_id":11,"name":"Uncletopia | London | 1 | All Maps","name_short":"lon-1","host":"lon-1.uk.uncletopia.com","port":27015,"enabled":true,"region":"eu","cc":"gb","latitude":51.509865,"longitude":-0.118092,"reserved":0,"last_update":"0001-01-01T00:00:00Z","name_a2s":"Uncletopia | London | 1 | All Maps","protocol":17,"map":"pl_upward","folder":"tf","game":"Team Fortress","app_id":440,"player_count":23,"max_players":24,"Bots":0,"server_type":"Dedicated","server_os":"Linux","password":true,"vac":true,"version":"7757534","steam_id":85568392924367362,"keywords":["nocrits","nodmgspread","payload","uncletopia"],"game_id":440,"stv_port":27016,"stv_name":"Uncletopia | London | 1 | All Maps | STV","players":[{"user_id":591,"name":"Wdfrodo","steam_id":76561198985647263,"connected_time":1242000000000,"state":"active","ping":49},{"user_id":569,"name":"Archer","steam_id":76561198132860299,"connected_time":3010000000000,"state":"active","ping":52},{"user_id":600,"name":"Soph","steam_id":76561198131688853,"connected_time":497000000000,"state":"active","ping":45},{"user_id":592,"name":"Equinox","steam_id":76561199055592635,"connected_time":1242000000000,"state":"active","ping":55},{"user_id":566,"name":"Cave","steam_id":76561198423147900,"connected_time":3042000000000,"state":"active","ping":44},{"user_id":599,"name":"Kai","steam_id":76561198800004578,"connected_time":652000000000,"state":"active","ping":45},{"user_id":589,"name":"Jag är ett anka","steam_id":76561198059978438,"connected_time":1370000000000,"state":"active","ping":66},{"user_id":534,"name":"[the brotherhood ] dalbajobka69","steam_id":76561198118407436,"connected_time":6165000000000,"state":"active","ping":42},{"user_id":550,"name":"Heavy Weapons Guy","steam_id":76561198256755222,"connected_time":4936000000000,"state":"active","ping":43},{"user_id":351,"name":"ThrobbingFerret","steam_id":76561199075576606,"connected_time":11813000000000,"state":"active","ping":61},{"user_id":519,"name":"[the brotherhood ] ЗаМеня","steam_id":76561198089330547,"connected_time":6699000000000,"state":"active","ping":51},{"user_id":593,"name":"Firearms","steam_id":76561197989867612,"connected_time":1231000000000,"state":"active","ping":43},{"user_id":590,"name":"Panda","steam_id":76561198176342325,"connected_time":1319000000000,"state":"active","ping":92},{"user_id":588,"name":"poy","steam_id":76561198114063534,"connected_time":1615000000000,"state":"active","ping":45},{"user_id":601,"name":"Whore","steam_id":76561198382749493,"connected_time":493000000000,"state":"active","ping":93},{"user_id":444,"name":"Jofiah/TTV","steam_id":76561197977233962,"connected_time":8056000000000,"state":"active","ping":48},{"user_id":606,"name":"Laurie","steam_id":76561198082951750,"connected_time":54000000000,"state":"connecting","ping":59},{"user_id":594,"name":"Homicidal Tendencies","steam_id":76561198828681043,"connected_time":1190000000000,"state":"active","ping":34},{"user_id":604,"name":"Enforcer02","steam_id":76561197966045944,"connected_time":321000000000,"state":"active","ping":57},{"user_id":581,"name":"Milca_11","steam_id":76561198848650365,"connected_time":1968000000000,"state":"active","ping":97},{"user_id":360,"name":"Durham.","steam_id":76561199013125141,"connected_time":11752000000000,"state":"active","ping":62},{"user_id":605,"name":"Ted Kaczynski","steam_id":76561198064795519,"connected_time":143000000000,"state":"active","ping":66},{"user_id":598,"name":"JOHN GAMING (based)","steam_id":76561199085822219,"connected_time":658000000000,"state":"active","ping":76}]},{"server_id":114,"name":"Uncletopia | London | 2 | All Maps","name_short":"lon-2","host":"lon-1.uk.uncletopia.com","port":27025,"enabled":true,"region":"eu","cc":"gb","latitude":51.509865,"longitude":-0.118092,"reserved":0,"last_update":"0001-01-01T00:00:00Z","name_a2s":"Uncletopia | London | 2 | All Maps","protocol":17,"map":"cp_process_final","folder":"tf","game":"Team Fortress","app_id":440,"player_count":1,"max_players":24,"Bots":0,"server_type":"Dedicated","server_os":"Linux","password":true,"vac":true,"version":"7757534","steam_id":85568392924470941,"keywords":["cp","nocrits","nodmgspread","uncletopia"],"game_id":440,"stv_port":27026,"stv_name":"Uncletopia | London | 2 | All Maps | STV","players":[{"user_id":42,"name":"joshua23","steam_id":76561198978533744,"connected_time":76000000000,"state":"connecting","ping":66}]},{"server_id":320,"name":"Uncletopia | London | 3 | All Maps","name_short":"lon-3","host":"lon-1.uk.uncletopia.com","port":27035,"enabled":true,"region":"eu","cc":"gb","latitude":51.509865,"longitude":-0.118092,"reserved":0,"last_update":"0001-01-01T00:00:00Z","name_a2s":"Uncletopia | London | 3 | All Maps","protocol":17,"map":"cp_snakewater_final1","folder":"tf","game":"Team Fortress","app_id":440,"player_count":24,"max_players":24,"Bots":0,"server_type":"Dedicated","server_os":"Linux","password":true,"vac":true,"version":"7757534","steam_id":85568392924510192,"keywords":["cp","nocrits","nodmgspread","uncletopia"],"game_id":440,"stv_port":27036,"stv_name":"Uncletopia | London | 3 | All Maps | STV","players":[{"user_id":564,"name":"EdSuedi","steam_id":76561199387956486,"connected_time":3221000000000,"state":"active","ping":60},{"user_id":547,"name":"Ass Clappicus","steam_id":76561198851157897,"connected_time":4230000000000,"state":"active","ping":64},{"user_id":595,"name":"Crazyb3ndy","steam_id":76561199061177486,"connected_time":1441000000000,"state":"active","ping":151},{"user_id":572,"name":"Threon","steam_id":76561198826783545,"connected_time":2338000000000,"state":"active","ping":89},{"user_id":610,"name":"Schwarzschild radius(Rg=2GM/c^2","steam_id":76561198179463343,"connected_time":215000000000,"state":"active","ping":44},{"user_id":592,"name":"eduardo","steam_id":76561198014491925,"connected_time":1521000000000,"state":"active","ping":91},{"user_id":612,"name":"pijacka","steam_id":76561198103899658,"connected_time":210000000000,"state":"active","ping":60},{"user_id":570,"name":"Videogamer","steam_id":76561198106012909,"connected_time":2355000000000,"state":"active","ping":75},{"user_id":492,"name":"Rin-Nakaret","steam_id":76561197971051188,"connected_time":7908000000000,"state":"active","ping":59},{"user_id":504,"name":"duster cat","steam_id":76561198832231975,"connected_time":7213000000000,"state":"active","ping":90},{"user_id":519,"name":"DrExplosive","steam_id":76561198063678579,"connected_time":6026000000000,"state":"active","ping":53},{"user_id":585,"name":"akakez","steam_id":76561198095432821,"connected_time":1966000000000,"state":"active","ping":111},{"user_id":603,"name":"1812","steam_id":76561198036824480,"connected_time":1067000000000,"state":"active","ping":76},{"user_id":589,"name":"a fresh pan of lemon squares","steam_id":76561197984071376,"connected_time":1865000000000,"state":"active","ping":68},{"user_id":609,"name":"where is my egg?","steam_id":76561198172542535,"connected_time":233000000000,"state":"active","ping":87},{"user_id":596,"name":"MelFunnySmell","steam_id":76561198077506613,"connected_time":1388000000000,"state":"active","ping":92},{"user_id":581,"name":"dob:cob","steam_id":76561198253323044,"connected_time":2145000000000,"state":"active","ping":81},{"user_id":611,"name":"Big Al","steam_id":76561198067692439,"connected_time":214000000000,"state":"active","ping":102},{"user_id":563,"name":"SLEEPY CATBOY ZZZZZ","steam_id":76561198059713483,"connected_time":3253000000000,"state":"active","ping":47},{"user_id":613,"name":"MR.CRAB","steam_id":76561198329833659,"connected_time":198000000000,"state":"active","ping":80},{"user_id":582,"name":"Wario","steam_id":76561198356089255,"connected_time":2088000000000,"state":"active","ping":74},{"user_id":614,"name":"Toaster1337","steam_id":76561198103706881,"connected_time":179000000000,"state":"active","ping":68},{"user_id":580,"name":"esheen","steam_id":76561198139376665,"connected_time":2153000000000,"state":"active","ping":68},{"user_id":601,"name":"Catscr","steam_id":76561198076589280,"connected_time":1280000000000,"state":"active","ping":148}]},{"server_id":321,"name":"Uncletopia | London | 4 | All Maps","name_short":"lon-4","host":"lon-1.uk.uncletopia.com","port":27045,"enabled":true,"region":"eu","cc":"gb","latitude":51.509865,"longitude":-0.118092,"reserved":0,"last_update":"0001-01-01T00:00:00Z","name_a2s":"Uncletopia | London | 4 | All Maps","protocol":17,"map":"pl_borneo","folder":"tf","game":"Team Fortress","app_id":440,"player_count":23,"max_players":24,"Bots":0,"server_type":"Dedicated","server_os":"Linux","password":true,"vac":true,"version":"7757534","steam_id":85568392924510193,"keywords":["nocrits","nodmgspread","payload","uncletopia"],"game_id":440,"stv_port":27046,"stv_name":"Uncletopia | London | 4 | All Maps | STV","players":[{"user_id":65,"name":"Ecton","steam_id":76561198025103720,"connected_time":210000000000,"state":"active","ping":54},{"user_id":67,"name":"skai","steam_id":76561198184881255,"connected_time":188000000000,"state":"active","ping":74},{"user_id":45,"name":"Truegr","steam_id":76561198811912339,"connected_time":1206000000000,"state":"active","ping":63},{"user_id":66,"name":"Jude!","steam_id":76561197983597798,"connected_time":208000000000,"state":"active","ping":38},{"user_id":63,"name":"senko","steam_id":76561198002990168,"connected_time":248000000000,"state":"active","ping":47},{"user_id":48,"name":"Sentry Man","steam_id":76561198088417596,"connected_time":994000000000,"state":"active","ping":78},{"user_id":71,"name":"teddyswk","steam_id":76561198404939571,"connected_time":71000000000,"state":"active","ping":89},{"user_id":50,"name":"dddd","steam_id":76561198120894372,"connected_time":869000000000,"state":"active","ping":108},{"user_id":52,"name":"Sheep with a Whip","steam_id":76561197981149859,"connected_time":758000000000,"state":"active","ping":86},{"user_id":53,"name":"robsan","steam_id":76561198137375391,"connected_time":713000000000,"state":"active","ping":79},{"user_id":54,"name":"Xiqui","steam_id":76561198818386611,"connected_time":686000000000,"state":"active","ping":73},{"user_id":57,"name":"Limewere","steam_id":76561198101751967,"connected_time":675000000000,"state":"active","ping":79},{"user_id":56,"name":"Article 5","steam_id":76561198232584868,"connected_time":675000000000,"state":"active","ping":86},{"user_id":58,"name":"Ostarr","steam_id":76561198200054489,"connected_time":663000000000,"state":"active","ping":55},{"user_id":59,"name":"Syd","steam_id":76561198020515027,"connected_time":646000000000,"state":"active","ping":88},{"user_id":60,"name":"Shromide","steam_id":76561198140382935,"connected_time":607000000000,"state":"active","ping":59},{"user_id":61,"name":"Kelpy G gaming","steam_id":76561198056995633,"connected_time":599000000000,"state":"active","ping":57},{"user_id":62,"name":"Jabussy","steam_id":76561198111148719,"connected_time":517000000000,"state":"active","ping":70},{"user_id":64,"name":"Talent","steam_id":76561198153880354,"connected_time":242000000000,"state":"active","ping":39},{"user_id":68,"name":"SlwoFø","steam_id":76561198049663931,"connected_time":181000000000,"state":"active","ping":54},{"user_id":70,"name":"shinji crank that soulja boy","steam_id":76561198099696876,"connected_time":105000000000,"state":"active","ping":74},{"user_id":72,"name":"Hogs Sidekick","steam_id":76561198136433205,"connected_time":46000000000,"state":"active","ping":39},{"user_id":73,"name":"Piss_boy","steam_id":76561198082406639,"connected_time":33000000000,"state":"active","ping":91}]},{"server_id":21,"name":"Uncletopia | London | 5 | All Maps","name_short":"lon-5","host":"lon-1.uk.uncletopia.com","port":27055,"enabled":true,"region":"eu","cc":"gb","latitude":51.509865,"longitude":-0.118092,"reserved":0,"last_update":"0001-01-01T00:00:00Z","name_a2s":"Uncletopia | London | 5 | All Maps","protocol":17,"map":"pl_frontier_final","folder":"tf","game":"Team Fortress","app_id":440,"player_count":24,"max_players":24,"Bots":0,"server_type":"Dedicated","server_os":"Linux","password":true,"vac":true,"version":"7757534","steam_id":85568392924742829,"keywords":["nocrits","nodmgspread","payload","uncletopia"],"game_id":440,"stv_port":27056,"stv_name":"Uncletopia | London | 5 | All Maps | STV","players":[{"user_id":146,"name":"pineappleguy05","steam_id":76561199144546264,"connected_time":2952000000000,"state":"active","ping":81},{"user_id":178,"name":"Choruptian","steam_id":76561198017686366,"connected_time":308000000000,"state":"active","ping":63},{"user_id":135,"name":"punchmypotatoes","steam_id":76561198091255731,"connected_time":3419000000000,"state":"active","ping":56},{"user_id":129,"name":"poshtoo @_@","steam_id":76561198106182078,"connected_time":3768000000000,"state":"active","ping":108},{"user_id":136,"name":"TSx* Osa__PL","steam_id":76561198027016799,"connected_time":3349000000000,"state":"active","ping":79},{"user_id":158,"name":"Daniel Day-Lewis","steam_id":76561198147249160,"connected_time":2457000000000,"state":"active","ping":106},{"user_id":104,"name":"Baki ඞ","steam_id":76561198193615529,"connected_time":5596000000000,"state":"active","ping":56},{"user_id":46,"name":"Michał","steam_id":76561198320346362,"connected_time":7717000000000,"state":"active","ping":67},{"user_id":149,"name":"Pattis","steam_id":76561198362057972,"connected_time":2814000000000,"state":"active","ping":122},{"user_id":159,"name":"Monks","steam_id":76561198057302240,"connected_time":2402000000000,"state":"active","ping":75},{"user_id":138,"name":"TSx* Naxer","steam_id":76561198011986779,"connected_time":3329000000000,"state":"active","ping":72},{"user_id":176,"name":"Soldoux","steam_id":76561199093055113,"connected_time":410000000000,"state":"active","ping":65},{"user_id":177,"name":"elio","steam_id":76561198142662131,"connected_time":368000000000,"state":"active","ping":66},{"user_id":168,"name":"Oxer","steam_id":76561198055942412,"connected_time":1265000000000,"state":"active","ping":96},{"user_id":81,"name":"Klumz","steam_id":76561198045750180,"connected_time":6192000000000,"state":"active","ping":78},{"user_id":142,"name":"It's a me Malario","steam_id":76561198176546013,"connected_time":3131000000000,"state":"active","ping":52},{"user_id":162,"name":"Fortezza","steam_id":76561198972539903,"connected_time":2375000000000,"state":"active","ping":61},{"user_id":175,"name":"Hetmanych","steam_id":76561198870926865,"connected_time":523000000000,"state":"active","ping":35},{"user_id":170,"name":"Cerabond","steam_id":76561199230915333,"connected_time":1200000000000,"state":"active","ping":138},{"user_id":174,"name":"baro.ricky","steam_id":76561198172204039,"connected_time":595000000000,"state":"active","ping":75},{"user_id":154,"name":"Mass","steam_id":76561198432195204,"connected_time":2689000000000,"state":"active","ping":70},{"user_id":171,"name":"bobek","steam_id":76561198092312720,"connected_time":1150000000000,"state":"active","ping":69},{"user_id":164,"name":"Danipp","steam_id":76561198027147377,"connected_time":2374000000000,"state":"active","ping":80},{"user_id":157,"name":"Cat_Liker5739","steam_id":76561198951908940,"connected_time":2595000000000,"state":"active","ping":88}]},{"server_id":22,"name":"Uncletopia | London | 6 | All Maps","name_short":"lon-6","host":"lon-1.uk.uncletopia.com","port":27065,"enabled":true,"region":"eu","cc":"gb","latitude":51.509865,"longitude":-0.118092,"reserved":0,"last_update":"0001-01-01T00:00:00Z","name_a2s":"Uncletopia | London | 6 | All Maps","protocol":17,"map":"cp_dustbowl","folder":"tf","game":"Team Fortress","app_id":440,"player_count":8,"max_players":24,"Bots":0,"server_type":"Dedicated","server_os":"Linux","password":true,"vac":true,"version":"7757534","steam_id":85568392924742830,"keywords":["cp","nocrits","nodmgspread","uncletopia"],"game_id":440,"stv_port":27066,"stv_name":"Uncletopia | London | 6 | All Maps | STV","players":[{"user_id":86,"name":"Gay Vulture","steam_id":76561198034100354,"connected_time":2633000000000,"state":"active","ping":47},{"user_id":87,"name":"√(-Wolf)","steam_id":76561198024769704,"connected_time":2602000000000,"state":"active","ping":84},{"user_id":37,"name":"A cat","steam_id":76561198073769916,"connected_time":5710000000000,"state":"active","ping":39},{"user_id":107,"name":"BΣNZOIC","steam_id":76561198875665995,"connected_time":722000000000,"state":"active","ping":84},{"user_id":112,"name":"C.H.E.R.E.P.","steam_id":76561198026938595,"connected_time":117000000000,"state":"active","ping":75},{"user_id":32,"name":"Pepsi Dealer","steam_id":76561199114664274,"connected_time":6057000000000,"state":"active","ping":53},{"user_id":108,"name":"lousof71","steam_id":76561199104427894,"connected_time":663000000000,"state":"active","ping":95},{"user_id":81,"name":"Ar|es","steam_id":76561198819160313,"connected_time":2875000000000,"state":"active","ping":94}]},{"server_id":40,"name":"Uncletopia | London | 7 | No Payload","name_short":"lon-7","host":"lon-1.uk.uncletopia.com","port":27075,"enabled":true,"region":"eu","cc":"gb","latitude":51.509865,"longitude":-0.118092,"reserved":0,"last_update":"0001-01-01T00:00:00Z","name_a2s":"Uncletopia | London | 7 | No Payload","protocol":17,"map":"cp_gullywash_final1","folder":"tf","game":"Team Fortress","app_id":440,"player_count":0,"max_players":24,"Bots":0,"server_type":"Dedicated","server_os":"Linux","password":true,"vac":true,"version":"7757534","steam_id":85568392924964314,"keywords":["cp","nocrits","nodmgspread","uncletopia"],"game_id":440,"stv_port":27076,"stv_name":"Uncletopia | London | 7 | No Payload | STV","players":null},{"server_id":41,"name":"Uncletopia | London | 8 | Community","name_short":"lon-8","host":"lon-1.uk.uncletopia.com","port":27085,"enabled":true,"region":"eu","cc":"gb","latitude":51.509865,"longitude":-0.118092,"reserved":0,"last_update":"0001-01-01T00:00:00Z","name_a2s":"Uncletopia | London | 8 | Community","protocol":17,"map":"workshop/koth_synthetic_rc6a.ugc1549817316","folder":"tf","game":"Team Fortress","app_id":440,"player_count":0,"max_players":24,"Bots":0,"server_type":"Dedicated","server_os":"Linux","password":true,"vac":true,"version":"7757534","steam_id":85568392924964315,"keywords":["cp","nocrits","nodmgspread","uncletopia"],"game_id":440,"stv_port":27086,"stv_name":"Uncletopia | London | 8 | Community | STV","players":null},{"server_id":300,"name":"Uncletopia | Montréal | 1 | All Maps","name_short":"mtl-1","host":"mtl-1.ca.uncletopia.com","port":27015,"enabled":true,"region":"us-east","cc":"ca","latitude":45.50889,"longitude":-73.56167,"reserved":0,"last_update":"0001-01-01T00:00:00Z","name_a2s":"Uncletopia | Montréal | 1 | All Maps","protocol":17,"map":"cp_dustbowl","folder":"tf","game":"Team Fortress","app_id":440,"player_count":0,"max_players":24,"Bots":0,"server_type":"Dedicated","server_os":"Linux","password":true,"vac":true,"version":"7757534","steam_id":85568392924500087,"keywords":["cp","nocrits","nodmgspread","uncletopia"],"game_id":440,"stv_port":27016,"stv_name":"Uncletopia | Montréal | 1 | All Maps | STV","players":null},{"server_id":301,"name":"Uncletopia | Montréal | 2 | All Maps","name_short":"mtl-2","host":"mtl-1.ca.uncletopia.com","port":27025,"enabled":true,"region":"us-east","cc":"ca","latitude":45.50889,"longitude":-73.56167,"reserved":0,"last_update":"0001-01-01T00:00:00Z","name_a2s":"Uncletopia | Montréal | 2 | All Maps","protocol":17,"map":"pl_snowycoast","folder":"tf","game":"Team Fortress","app_id":440,"player_count":0,"max_players":24,"Bots":0,"server_type":"Dedicated","server_os":"Linux","password":true,"vac":true,"version":"7757534","steam_id":85568392924500088,"keywords":["nocrits","nodmgspread","payload","uncletopia"],"game_id":440,"stv_port":27026,"stv_name":"Uncletopia | Montréal | 2 | All Maps | STV","players":null},{"server_id":302,"name":"Uncletopia | Montréal | 3 | All Maps","name_short":"mtl-3","host":"mtl-1.ca.uncletopia.com","port":27035,"enabled":true,"region":"us-east","cc":"ca","latitude":45.50889,"longitude":-73.56167,"reserved":0,"last_update":"0001-01-01T00:00:00Z","name_a2s":"Uncletopia | Montréal | 3 | All Maps","protocol":17,"map":"pl_badwater","folder":"tf","game":"Team Fortress","app_id":440,"player_count":0,"max_players":24,"Bots":0,"server_type":"Dedicated","server_os":"Linux","password":true,"vac":true,"version":"7757534","steam_id":85568392924500089,"keywords":["nocrits","nodmgspread","payload","uncletopia"],"game_id":440,"stv_port":27036,"stv_name":"Uncletopia | Montréal | 3 | All Maps | STV","players":null},{"server_id":303,"name":"Uncletopia | Montréal | 4 | No Payload","name_short":"mtl-4","host":"mtl-1.ca.uncletopia.com","port":27045,"enabled":true,"region":"us-east","cc":"ca","latitude":45.50889,"longitude":-73.56167,"reserved":0,"last_update":"0001-01-01T00:00:00Z","name_a2s":"Uncletopia | Montréal | 4 | No Payload","protocol":17,"map":"cp_snakewater_final1","folder":"tf","game":"Team Fortress","app_id":440,"player_count":0,"max_players":24,"Bots":0,"server_type":"Dedicated","server_os":"Linux","password":true,"vac":true,"version":"7757534","steam_id":85568392924500090,"keywords":["cp","nocrits","nodmgspread","uncletopia"],"game_id":440,"stv_port":27046,"stv_name":"Uncletopia | Montréal | 4 | No Payload | STV","players":null},{"server_id":13,"name":"Uncletopia | New York City | 1 | All Maps","name_short":"nyc-1","host":"nyc-1.us.uncletopia.com","port":27015,"enabled":true,"region":"us-east","cc":"us","latitude":40.73061,"longitude":-73.93524,"reserved":0,"last_update":"0001-01-01T00:00:00Z","name_a2s":"Uncletopia | New York City | 1 | All Maps","protocol":17,"map":"ctf_turbine","folder":"tf","game":"Team Fortress","app_id":440,"player_count":9,"max_players":24,"Bots":0,"server_type":"Dedicated","server_os":"Linux","password":true,"vac":true,"version":"7757534","steam_id":85568392924469993,"keywords":["ctf","nocrits","nodmgspread","uncletopia"],"game_id":440,"stv_port":27016,"stv_name":"Uncletopia | New York City | 1 | All Maps | STV","players":[{"user_id":110,"name":"Anax Alter","steam_id":76561198110249546,"connected_time":148000000000,"state":"active","ping":48},{"user_id":112,"name":"jorjor wells","steam_id":76561199073429082,"connected_time":137000000000,"state":"active","ping":54},{"user_id":100,"name":"xen","steam_id":76561198048568188,"connected_time":796000000000,"state":"active","ping":45},{"user_id":104,"name":"Kanrala Yang Linn","steam_id":76561198169409216,"connected_time":656000000000,"state":"active","ping":79},{"user_id":107,"name":"jujube","steam_id":76561198069415057,"connected_time":466000000000,"state":"active","ping":43},{"user_id":31,"name":"Tom Crúaich","steam_id":76561197999439911,"connected_time":5414000000000,"state":"active","ping":90},{"user_id":90,"name":"Kraftlos","steam_id":76561198074350350,"connected_time":1907000000000,"state":"active","ping":54},{"user_id":60,"name":"Baron von Whoopsie","steam_id":76561197996691013,"connected_time":3543000000000,"state":"active","ping":60},{"user_id":78,"name":"hot pockets in your area","steam_id":76561198052988988,"connected_time":2549000000000,"state":"active","ping":52}]},{"server_id":14,"name":"Uncletopia | New York City | 2 | All Maps","name_short":"nyc-2","host":"nyc-1.us.uncletopia.com","port":27025,"enabled":true,"region":"us-east","cc":"us","latitude":40.73061,"longitude":-73.93524,"reserved":0,"last_update":"0001-01-01T00:00:00Z","name_a2s":"Uncletopia | New York City | 2 | All Maps","protocol":17,"map":"pl_pier","folder":"tf","game":"Team Fortress","app_id":440,"player_count":24,"max_players":24,"Bots":0,"server_type":"Dedicated","server_os":"Linux","password":true,"vac":true,"version":"7757534","steam_id":85568392924469994,"keywords":["nocrits","nodmgspread","payload","uncletopia"],"game_id":440,"stv_port":27026,"stv_name":"Uncletopia | New York City | 2 | All Maps | STV","players":[{"user_id":280,"name":"theghazinator","steam_id":76561198188027695,"connected_time":1166000000000,"state":"active","ping":60},{"user_id":303,"name":"The Colonel","steam_id":76561198004147927,"connected_time":265000000000,"state":"active","ping":77},{"user_id":291,"name":"Mirari","steam_id":76561198126889358,"connected_time":700000000000,"state":"active","ping":78},{"user_id":294,"name":"ThatGamingKiwi","steam_id":76561199170522237,"connected_time":430000000000,"state":"active","ping":77},{"user_id":282,"name":"komantoN^-","steam_id":76561198017929662,"connected_time":1064000000000,"state":"active","ping":135},{"user_id":293,"name":"FatCuddlyBear","steam_id":76561198133613253,"connected_time":525000000000,"state":"active","ping":90},{"user_id":286,"name":"man","steam_id":76561198984806332,"connected_time":922000000000,"state":"active","ping":64},{"user_id":292,"name":"Piyono","steam_id":76561197962188504,"connected_time":654000000000,"state":"active","ping":75},{"user_id":264,"name":"Gandalf Gaming","steam_id":76561198368151490,"connected_time":2203000000000,"state":"active","ping":44},{"user_id":295,"name":"when","steam_id":76561198443289583,"connected_time":402000000000,"state":"active","ping":58},{"user_id":224,"name":"champion  turkey","steam_id":76561198151338482,"connected_time":4087000000000,"state":"active","ping":47},{"user_id":296,"name":"pootis man (real)","steam_id":76561198115874625,"connected_time":360000000000,"state":"active","ping":57},{"user_id":287,"name":"Riandox","steam_id":76561198130577326,"connected_time":904000000000,"state":"active","ping":60},{"user_id":265,"name":"Kaluka","steam_id":76561198036861445,"connected_time":2199000000000,"state":"active","ping":60},{"user_id":297,"name":"General Kiel","steam_id":76561198021317816,"connected_time":346000000000,"state":"active","ping":152},{"user_id":299,"name":"[$55 Official Tumblr Sweatpants","steam_id":76561198294013916,"connected_time":335000000000,"state":"active","ping":43},{"user_id":270,"name":"Broadway Rose","steam_id":76561198046083342,"connected_time":2059000000000,"state":"active","ping":39},{"user_id":267,"name":"Fiendish Frog","steam_id":76561198029478821,"connected_time":2130000000000,"state":"active","ping":47},{"user_id":300,"name":"Sir Fragalicious","steam_id":76561198057663898,"connected_time":332000000000,"state":"active","ping":73},{"user_id":232,"name":"PizzaPasta","steam_id":76561199125109082,"connected_time":3966000000000,"state":"active","ping":59},{"user_id":268,"name":"Room_237","steam_id":76561199135081315,"connected_time":2125000000000,"state":"active","ping":67},{"user_id":301,"name":"Iceko_28","steam_id":76561198184993975,"connected_time":328000000000,"state":"active","ping":99},{"user_id":273,"name":"Heropon","steam_id":76561198105224481,"connected_time":1631000000000,"state":"active","ping":66},{"user_id":302,"name":"PzVIIIMaus","steam_id":76561198346559365,"connected_time":322000000000,"state":"active","ping":64}]},{"server_id":15,"name":"Uncletopia | New York City | 3 | Stopwatch Beta","name_short":"nyc-3","host":"nyc-1.us.uncletopia.com","port":27035,"enabled":true,"region":"us-east","cc":"us","latitude":40.73061,"longitude":-73.93524,"reserved":0,"last_update":"0001-01-01T00:00:00Z","name_a2s":"Uncletopia | New York City | 3 | Stopwatch Beta","protocol":17,"map":"workshop/koth_ashville_final.ugc2130459942","folder":"tf","game":"Team Fortress","app_id":440,"player_count":0,"max_players":24,"Bots":0,"server_type":"Dedicated","server_os":"Linux","password":true,"vac":true,"version":"7757534","steam_id":85568392924742820,"keywords":["cp","nocrits","nodmgspread","uncletopia"],"game_id":440,"stv_port":27036,"stv_name":"Uncletopia | New York City | 3 | Stopwatch Beta | STV","players":null},{"server_id":16,"name":"Uncletopia | New York City | 4 | Community","name_short":"nyc-4","host":"nyc-1.us.uncletopia.com","port":27045,"enabled":true,"region":"us-east","cc":"us","latitude":40.73061,"longitude":-73.93524,"reserved":0,"last_update":"0001-01-01T00:00:00Z","name_a2s":"Uncletopia | New York City | 4 | Community","protocol":17,"map":"workshop/koth_ramjam_rc1.ugc459778887","folder":"tf","game":"Team Fortress","app_id":440,"player_count":1,"max_players":24,"Bots":0,"server_type":"Dedicated","server_os":"Linux","password":true,"vac":true,"version":"7757534","steam_id":85568392924742821,"keywords":["cp","nocrits","nodmgspread","uncletopia"],"game_id":440,"stv_port":27046,"stv_name":"Uncletopia | New York City | 4 | Community | STV","players":[{"user_id":28,"name":"nnobi","steam_id":76561198878729277,"connected_time":1711000000000,"state":"active","ping":70}]},{"server_id":142,"name":"Uncletopia | São Paulo | 1 | All Maps","name_short":"sao-1","host":"sao-1.br.uncletopia.com","port":27015,"enabled":true,"region":"sa","cc":"br","latitude":-23.533773,"longitude":-46.62529,"reserved":0,"last_update":"0001-01-01T00:00:00Z","name_a2s":"Uncletopia | São Paulo | 1 | All Maps","protocol":17,"map":"koth_highpass","folder":"tf","game":"Team Fortress","app_id":440,"player_count":0,"max_players":24,"Bots":0,"server_type":"Dedicated","server_os":"Linux","password":true,"vac":true,"version":"7757534","steam_id":85568392924469996,"keywords":["cp","nocrits","nodmgspread","uncletopia"],"game_id":440,"stv_port":27016,"stv_name":"Uncletopia | São Paulo | 1 | All Maps | STV","players":null},{"server_id":143,"name":"Uncletopia | São Paulo | 2 | All Maps","name_short":"sao-2","host":"sao-2.br.uncletopia.com","port":27015,"enabled":true,"region":"sa","cc":"br","latitude":-23.533773,"longitude":-46.62529,"reserved":0,"last_update":"0001-01-01T00:00:00Z","name_a2s":"Uncletopia | São Paulo | 2 | All Maps","protocol":17,"map":"cp_snakewater_final1","folder":"tf","game":"Team Fortress","app_id":440,"player_count":0,"max_players":24,"Bots":0,"server_type":"Dedicated","server_os":"Linux","password":true,"vac":true,"version":"7757534","steam_id":85568392924485349,"keywords":["cp","nocrits","nodmgspread","uncletopia"],"game_id":440,"stv_port":27016,"stv_name":"Uncletopia | São Paulo | 2 | All Maps | STV","players":null},{"server_id":7,"name":"Uncletopia | Seattle | 1 | All Maps","name_short":"sea-1","host":"sea-1.us.uncletopia.com","port":27015,"enabled":true,"region":"us-west","cc":"us","latitude":47.608013,"longitude":-122.33517,"reserved":0,"last_update":"0001-01-01T00:00:00Z","name_a2s":"Uncletopia | Seattle | 1 | All Maps","protocol":17,"map":"cp_badlands","folder":"tf","game":"Team Fortress","app_id":440,"player_count":20,"max_players":24,"Bots":0,"server_type":"Dedicated","server_os":"Linux","password":true,"vac":true,"version":"7757534","steam_id":85568392924469997,"keywords":["cp","nocrits","nodmgspread","uncletopia"],"game_id":440,"stv_port":27016,"stv_name":"Uncletopia | Seattle | 1 | All Maps | STV","players":[{"user_id":303,"name":"J415","steam_id":76561199194276068,"connected_time":1023000000000,"state":"active","ping":85},{"user_id":308,"name":"SlurpyTheDog","steam_id":76561198799733154,"connected_time":853000000000,"state":"active","ping":115},{"user_id":258,"name":"oo","steam_id":76561198119626492,"connected_time":3777000000000,"state":"active","ping":66},{"user_id":311,"name":"RaixaR","steam_id":76561198025289430,"connected_time":294000000000,"state":"active","ping":78},{"user_id":299,"name":"nomocantgame","steam_id":76561198865074599,"connected_time":1375000000000,"state":"active","ping":87},{"user_id":281,"name":"Truffles","steam_id":76561198095868800,"connected_time":1825000000000,"state":"active","ping":113},{"user_id":289,"name":"n.","steam_id":76561198107213976,"connected_time":1594000000000,"state":"active","ping":62},{"user_id":301,"name":"o o o o o o o o o","steam_id":76561197993757506,"connected_time":1320000000000,"state":"active","ping":68},{"user_id":312,"name":"odd","steam_id":76561198064619622,"connected_time":205000000000,"state":"active","ping":86},{"user_id":244,"name":"Mr.Thirteen","steam_id":76561198047468836,"connected_time":4900000000000,"state":"active","ping":65},{"user_id":313,"name":"A Duck With Socks","steam_id":76561198018844227,"connected_time":183000000000,"state":"active","ping":58},{"user_id":264,"name":"drink my *** u nasty ****","steam_id":76561199100813140,"connected_time":3476000000000,"state":"active","ping":88},{"user_id":309,"name":"resting neutral face","steam_id":76561197999259502,"connected_time":710000000000,"state":"active","ping":60},{"user_id":259,"name":"Nuts","steam_id":76561199258535559,"connected_time":3714000000000,"state":"active","ping":83},{"user_id":305,"name":"Luca","steam_id":76561198125087140,"connected_time":936000000000,"state":"active","ping":45},{"user_id":250,"name":"1dk","steam_id":76561198135104742,"connected_time":4479000000000,"state":"active","ping":48},{"user_id":310,"name":"Themasterman75","steam_id":76561199385573293,"connected_time":513000000000,"state":"active","ping":72},{"user_id":283,"name":"Res Ipsa","steam_id":76561198041349210,"connected_time":1755000000000,"state":"active","ping":72},{"user_id":241,"name":"〣dust〣 -she/it-","steam_id":76561198045218909,"connected_time":5100000000000,"state":"active","ping":35},{"user_id":302,"name":"redindy","steam_id":76561198070154445,"connected_time":1319000000000,"state":"active","ping":132}]},{"server_id":119,"name":"Uncletopia | Seattle | 2 | All Maps","name_short":"sea-2","host":"sea-1.us.uncletopia.com","port":27025,"enabled":true,"region":"us-west","cc":"us","latitude":47.608013,"longitude":-122.33517,"reserved":0,"last_update":"0001-01-01T00:00:00Z","name_a2s":"Uncletopia | Seattle | 2 | All Maps","protocol":17,"map":"pl_badwater","folder":"tf","game":"Team Fortress","app_id":440,"player_count":24,"max_players":24,"Bots":0,"server_type":"Dedicated","server_os":"Linux","password":true,"vac":true,"version":"7757534","steam_id":85568392924469998,"keywords":["nocrits","nodmgspread","payload","uncletopia"],"game_id":440,"stv_port":27026,"stv_name":"Uncletopia | Seattle | 2 | All Maps | STV","players":[{"user_id":136,"name":"Lil Urge","steam_id":76561198162207470,"connected_time":1788000000000,"state":"active","ping":60},{"user_id":145,"name":"flycargodash1010","steam_id":76561199456589841,"connected_time":1410000000000,"state":"active","ping":92},{"user_id":161,"name":"Horizon","steam_id":76561198971354161,"connected_time":219000000000,"state":"active","ping":114},{"user_id":162,"name":"Mr.Z","steam_id":76561199251422541,"connected_time":211000000000,"state":"active","ping":74},{"user_id":163,"name":"MerkZ","steam_id":76561198047620432,"connected_time":200000000000,"state":"active","ping":75},{"user_id":85,"name":"ejschild745","steam_id":76561199013388867,"connected_time":6068000000000,"state":"active","ping":77},{"user_id":129,"name":"Doylin","steam_id":76561198113413927,"connected_time":2949000000000,"state":"active","ping":55},{"user_id":22,"name":"GloryToFlygod","steam_id":76561198963236216,"connected_time":9201000000000,"state":"active","ping":99},{"user_id":134,"name":"S O L I D","steam_id":76561198086095072,"connected_time":1830000000000,"state":"active","ping":105},{"user_id":66,"name":"dicksnip","steam_id":76561198356515396,"connected_time":7874000000000,"state":"active","ping":100},{"user_id":138,"name":"my palisman would be a polarbea","steam_id":76561199060224916,"connected_time":1723000000000,"state":"active","ping":76},{"user_id":165,"name":"Zambie","steam_id":76561199102385595,"connected_time":157000000000,"state":"active","ping":115},{"user_id":166,"name":"engi","steam_id":76561199193020423,"connected_time":156000000000,"state":"active","ping":87},{"user_id":146,"name":"Cr0w!","steam_id":76561198178437265,"connected_time":1383000000000,"state":"active","ping":55},{"user_id":157,"name":"RyInc","steam_id":76561198874261643,"connected_time":840000000000,"state":"active","ping":94},{"user_id":147,"name":"Turnups","steam_id":76561199078299198,"connected_time":1376000000000,"state":"active","ping":133},{"user_id":152,"name":"DrD","steam_id":76561198067266383,"connected_time":1143000000000,"state":"active","ping":38},{"user_id":159,"name":"coolfalcon168","steam_id":76561198948665710,"connected_time":648000000000,"state":"active","ping":139},{"user_id":148,"name":"Berd The Bard 𝅘𝅥𝅮","steam_id":76561198067340391,"connected_time":1348000000000,"state":"active","ping":74},{"user_id":167,"name":"Cardboardcoin","steam_id":76561199421284163,"connected_time":83000000000,"state":"active","ping":66},{"user_id":93,"name":"Uncle Darnell","steam_id":76561198211473307,"connected_time":5980000000000,"state":"active","ping":113},{"user_id":168,"name":"dwnkins","steam_id":76561198856016840,"connected_time":75000000000,"state":"active","ping":111},{"user_id":144,"name":"Village","steam_id":76561198402089732,"connected_time":1494000000000,"state":"active","ping":68},{"user_id":160,"name":"Dija™","steam_id":76561198027393588,"connected_time":297000000000,"state":"active","ping":44}]},{"server_id":406,"name":"Uncletopia | Seattle | 3 | Stopwatch Beta","name_short":"sea-3","host":"sea-1.us.uncletopia.com","port":27035,"enabled":true,"region":"us-west","cc":"us","latitude":47.608013,"longitude":-122.33517,"reserved":0,"last_update":"0001-01-01T00:00:00Z","name_a2s":"Uncletopia | Seattle | 3 | Stopwatch Beta","protocol":17,"map":"workshop/koth_clearcut_b15.ugc2107050255","folder":"tf","game":"Team Fortress","app_id":440,"player_count":0,"max_players":24,"Bots":0,"server_type":"Dedicated","server_os":"Linux","password":true,"vac":true,"version":"7757534","steam_id":85568392924515217,"keywords":["cp","nocrits","nodmgspread","uncletopia"],"game_id":440,"stv_port":27036,"stv_name":"Uncletopia | Seattle | 3 | Stopwatch Beta | STV","players":null},{"server_id":17,"name":"Uncletopia | San Francisco | 1 | All Maps","name_short":"sfo-1","host":"sfo-1.us.uncletopia.com","port":27015,"enabled":true,"region":"us-west","cc":"us","latitude":37.77397,"longitude":-122.4313,"reserved":0,"last_update":"0001-01-01T00:00:00Z","name_a2s":"Uncletopia | San Francisco | 1 | All Maps","protocol":17,"map":"koth_viaduct","folder":"tf","game":"Team Fortress","app_id":440,"player_count":14,"max_players":24,"Bots":0,"server_type":"Dedicated","server_os":"Linux","password":true,"vac":true,"version":"7757534","steam_id":85568392924469999,"keywords":["cp","nocrits","nodmgspread","uncletopia"],"game_id":440,"stv_port":27016,"stv_name":"Uncletopia | San Francisco | 1 | All Maps | STV","players":[{"user_id":16,"name":"Hovg9000.TV","steam_id":76561199191556710,"connected_time":1585000000000,"state":"active","ping":96},{"user_id":17,"name":"hersheybargame","steam_id":76561199162003623,"connected_time":1521000000000,"state":"active","ping":48},{"user_id":18,"name":"choi","steam_id":76561198053669887,"connected_time":1488000000000,"state":"active","ping":68},{"user_id":30,"name":"Pyrolimited","steam_id":76561198195455657,"connected_time":358000000000,"state":"active","ping":62},{"user_id":20,"name":"piglettheultimateboi","steam_id":76561199220872286,"connected_time":1336000000000,"state":"active","ping":52},{"user_id":22,"name":"Pillar Krampus","steam_id":76561198042641963,"connected_time":945000000000,"state":"active","ping":55},{"user_id":23,"name":"StarGuyVI","steam_id":76561199366304746,"connected_time":863000000000,"state":"active","ping":111},{"user_id":31,"name":"ebbaxter13","steam_id":76561198839647688,"connected_time":105000000000,"state":"active","ping":125},{"user_id":25,"name":"Puhi","steam_id":76561197989279363,"connected_time":759000000000,"state":"active","ping":50},{"user_id":26,"name":"Villchip","steam_id":76561198198599982,"connected_time":726000000000,"state":"active","ping":70},{"user_id":27,"name":"Hiphopopotamus","steam_id":76561198069670450,"connected_time":672000000000,"state":"active","ping":70},{"user_id":28,"name":"MrBob292","steam_id":76561199347166553,"connected_time":634000000000,"state":"active","ping":74},{"user_id":32,"name":"MINILEGOLAS","steam_id":76561198859362058,"connected_time":70000000000,"state":"active","ping":105},{"user_id":33,"name":"The Alien","steam_id":76561198185817713,"connected_time":29000000000,"state":"spawning","ping":109}]},{"server_id":18,"name":"Uncletopia | San Francisco | 2 | All Maps","name_short":"sfo-2","host":"sfo-1.us.uncletopia.com","port":27025,"enabled":true,"region":"us-west","cc":"us","latitude":37.77397,"longitude":-122.4313,"reserved":0,"last_update":"0001-01-01T00:00:00Z","name_a2s":"Uncletopia | San Francisco | 2 | All Maps","protocol":17,"map":"pl_barnblitz","folder":"tf","game":"Team Fortress","app_id":440,"player_count":0,"max_players":24,"Bots":0,"server_type":"Dedicated","server_os":"Linux","password":true,"vac":true,"version":"7757534","steam_id":85568392924470000,"keywords":["nocrits","nodmgspread","payload","uncletopia"],"game_id":440,"stv_port":27026,"stv_name":"Uncletopia | San Francisco | 2 | All Maps | STV","players":null},{"server_id":19,"name":"Uncletopia | San Francisco | 3 | Stopwatch Beta","name_short":"sfo-3","host":"sfo-1.us.uncletopia.com","port":27035,"enabled":true,"region":"us-west","cc":"us","latitude":37.77397,"longitude":-122.4313,"reserved":0,"last_update":"0001-01-01T00:00:00Z","name_a2s":"Uncletopia | San Francisco | 3 | Stopwatch Beta","protocol":17,"map":"pl_borneo","folder":"tf","game":"Team Fortress","app_id":440,"player_count":0,"max_players":24,"Bots":0,"server_type":"Dedicated","server_os":"Linux","password":true,"vac":true,"version":"7757534","steam_id":85568392924742824,"keywords":["nocrits","nodmgspread","payload","uncletopia"],"game_id":440,"stv_port":27036,"stv_name":"Uncletopia | San Francisco | 3 | Stopwatch Beta | STV","players":null},{"server_id":20,"name":"Uncletopia | San Francisco | 4 | Community","name_short":"sfo-4","host":"sfo-1.us.uncletopia.com","port":27045,"enabled":true,"region":"us-west","cc":"us","latitude":37.77397,"longitude":-122.4313,"reserved":0,"last_update":"0001-01-01T00:00:00Z","name_a2s":"Uncletopia | San Francisco | 4 | Community","protocol":17,"map":"workshop/pl_highwood_b13.ugc1769496557","folder":"tf","game":"Team Fortress","app_id":440,"player_count":23,"max_players":24,"Bots":0,"server_type":"Dedicated","server_os":"Linux","password":true,"vac":true,"version":"7757534","steam_id":85568392924742826,"keywords":["nocrits","nodmgspread","payload","uncletopia"],"game_id":440,"stv_port":27046,"stv_name":"Uncletopia | San Francisco | 4 | Community | STV","players":[{"user_id":33,"name":"Tort boi","steam_id":76561198125327110,"connected_time":3579000000000,"state":"active","ping":65},{"user_id":90,"name":"obese fart","steam_id":76561198206922028,"connected_time":240000000000,"state":"active","ping":59},{"user_id":36,"name":"cookypuss","steam_id":76561197961275239,"connected_time":3309000000000,"state":"active","ping":56},{"user_id":78,"name":"wtfxid","steam_id":76561198377797212,"connected_time":1650000000000,"state":"active","ping":51},{"user_id":30,"name":"Reiidaya","steam_id":76561198325306660,"connected_time":3704000000000,"state":"active","ping":74},{"user_id":91,"name":"❤[ZeahStripes]❤","steam_id":76561198817361963,"connected_time":124000000000,"state":"active","ping":71},{"user_id":93,"name":"UUUURT","steam_id":76561198047468140,"connected_time":77000000000,"state":"active","ping":147},{"user_id":85,"name":"DJ Absolute Garbage","steam_id":76561198068000747,"connected_time":758000000000,"state":"active","ping":117},{"user_id":80,"name":"Take the L","steam_id":76561198309760791,"connected_time":1020000000000,"state":"active","ping":136},{"user_id":48,"name":"The Cube","steam_id":76561199382565628,"connected_time":2825000000000,"state":"active","ping":65},{"user_id":50,"name":"Dosario","steam_id":76561198298095535,"connected_time":2686000000000,"state":"active","ping":74},{"user_id":25,"name":"VUL-KAR","steam_id":76561198293939170,"connected_time":4219000000000,"state":"active","ping":122},{"user_id":72,"name":"primordialheath","steam_id":76561199386942638,"connected_time":1826000000000,"state":"active","ping":104},{"user_id":58,"name":"zedisgone","steam_id":76561199174794563,"connected_time":2435000000000,"state":"active","ping":52},{"user_id":86,"name":"Bastee1021","steam_id":76561199456141163,"connected_time":716000000000,"state":"active","ping":84},{"user_id":89,"name":"*Magic* Cinnamon","steam_id":76561198072251746,"connected_time":245000000000,"state":"active","ping":65},{"user_id":39,"name":"Legendary Fro","steam_id":76561198099981980,"connected_time":3157000000000,"state":"active","ping":106},{"user_id":59,"name":"Ata","steam_id":76561198349085545,"connected_time":2391000000000,"state":"active","ping":114},{"user_id":65,"name":"psychic","steam_id":76561198136301926,"connected_time":2109000000000,"state":"active","ping":57},{"user_id":67,"name":"grape","steam_id":76561197993980328,"connected_time":2086000000000,"state":"active","ping":83},{"user_id":94,"name":"Buffalo Gold","steam_id":76561198119693806,"connected_time":47000000000,"state":"active","ping":56},{"user_id":71,"name":"EatSomeBEES","steam_id":76561198047334307,"connected_time":1839000000000,"state":"active","ping":78},{"user_id":87,"name":"land0","steam_id":76561198321264704,"connected_time":558000000000,"state":"active","ping":106}]},{"server_id":141,"name":"Uncletopia | Sydney | 1 | All Maps","name_short":"syd-1","host":"syd-1.au.uncletopia.com","port":27015,"enabled":true,"region":"au","cc":"au","latitude":-33.865143,"longitude":151.2099,"reserved":0,"last_update":"0001-01-01T00:00:00Z","name_a2s":"Uncletopia | Sydney | 1 | All Maps","protocol":17,"map":"cp_process_final","folder":"tf","game":"Team Fortress","app_id":440,"player_count":0,"max_players":24,"Bots":0,"server_type":"Dedicated","server_os":"Linux","password":true,"vac":true,"version":"7757534","steam_id":85568392924470001,"keywords":["cp","nocrits","nodmgspread","uncletopia"],"game_id":440,"stv_port":27016,"stv_name":"Uncletopia | Sydney | 1 | All Maps | STV","players":null},{"server_id":123,"name":"Uncletopia | Sydney | 2 | All Maps","name_short":"syd-2","host":"syd-1.au.uncletopia.com","port":27025,"enabled":true,"region":"au","cc":"au","latitude":-33.865143,"longitude":151.2099,"reserved":0,"last_update":"0001-01-01T00:00:00Z","name_a2s":"Uncletopia | Sydney | 2 | All Maps","protocol":17,"map":"cp_mountainlab","folder":"tf","game":"Team Fortress","app_id":440,"player_count":0,"max_players":24,"Bots":0,"server_type":"Dedicated","server_os":"Linux","password":true,"vac":true,"version":"7757534","steam_id":85568392924470002,"keywords":["cp","nocrits","nodmgspread","uncletopia"],"game_id":440,"stv_port":27026,"stv_name":"Uncletopia | Sydney | 2 | All Maps | STV","players":null},{"server_id":395,"name":"Uncletopia | Sydney | 3 | All Maps","name_short":"syd-3","host":"syd-1.au.uncletopia.com","port":27035,"enabled":true,"region":"au","cc":"au","latitude":-33.865143,"longitude":151.2099,"reserved":0,"last_update":"0001-01-01T00:00:00Z","name_a2s":"Uncletopia | Sydney | 3 | All Maps","protocol":17,"map":"cp_snakewater_final1","folder":"tf","game":"Team Fortress","app_id":440,"player_count":0,"max_players":24,"Bots":0,"server_type":"Dedicated","server_os":"Linux","password":true,"vac":true,"version":"7757534","steam_id":85568392925194467,"keywords":["cp","nocrits","nodmgspread","uncletopia"],"game_id":440,"stv_port":27036,"stv_name":"Uncletopia | Sydney | 3 | All Maps | STV","players":null},{"server_id":396,"name":"Uncletopia | Sydney | 4 | All Maps","name_short":"syd-4","host":"syd-1.au.uncletopia.com","port":27045,"enabled":true,"region":"au","cc":"au","latitude":-33.865143,"longitude":151.2099,"reserved":0,"last_update":"0001-01-01T00:00:00Z","name_a2s":"Uncletopia | Sydney | 4 | All Maps","protocol":17,"map":"pl_pier","folder":"tf","game":"Team Fortress","app_id":440,"player_count":3,"max_players":24,"Bots":0,"server_type":"Dedicated","server_os":"Linux","password":true,"vac":true,"version":"7757534","steam_id":85568392925397958,"keywords":["nocrits","nodmgspread","payload","uncletopia"],"game_id":440,"stv_port":27046,"stv_name":"Uncletopia | Sydney | 4 | All Maps | STV","players":[{"user_id":3,"name":"celery_is_gay","steam_id":76561199104980813,"connected_time":3638000000000,"state":"active","ping":287},{"user_id":4,"name":"AhmedBahmed B:D","steam_id":76561199069422932,"connected_time":3568000000000,"state":"active","ping":289},{"user_id":5,"name":"Crumpet","steam_id":76561199096381193,"connected_time":1545000000000,"state":"active","ping":56}]},{"server_id":58,"name":"Uncletopia | Sydney | 5 | Stopwatch Beta","name_short":"syd-5","host":"syd-1.au.uncletopia.com","port":27055,"enabled":true,"region":"au","cc":"au","latitude":-33.865143,"longitude":151.2099,"reserved":0,"last_update":"0001-01-01T00:00:00Z","name_a2s":"Uncletopia | Sydney | 5 | Stopwatch Beta","protocol":17,"map":"koth_highpass","folder":"tf","game":"Team Fortress","app_id":440,"player_count":0,"max_players":24,"Bots":0,"server_type":"Dedicated","server_os":"Linux","password":true,"vac":true,"version":"7757534","steam_id":85568392925397959,"keywords":["cp","nocrits","nodmgspread","uncletopia"],"game_id":440,"stv_port":27056,"stv_name":"Uncletopia | Sydney | 5 | Stopwatch Beta | STV","players":null},{"server_id":59,"name":"Uncletopia | Sydney | 6 | Community","name_short":"syd-6","host":"syd-1.au.uncletopia.com","port":27065,"enabled":true,"region":"au","cc":"au","latitude":-33.865143,"longitude":151.2099,"reserved":0,"last_update":"0001-01-01T00:00:00Z","name_a2s":"Uncletopia | Sydney | 6 | Community","protocol":17,"map":"cp_sunshine","folder":"tf","game":"Team Fortress","app_id":440,"player_count":0,"max_players":24,"Bots":0,"server_type":"Dedicated","server_os":"Linux","password":true,"vac":true,"version":"7757534","steam_id":85568392925397960,"keywords":["cp","nocrits","nodmgspread","uncletopia"],"game_id":440,"stv_port":27066,"stv_name":"Uncletopia | Sydney | 6 | Community | STV","players":null},{"server_id":49,"name":"Uncletopia | Warsaw | 1 | All Maps","name_short":"waw-1","host":"waw-1.pl.uncletopia.com","port":27015,"enabled":true,"region":"eu","cc":"pl","latitude":52.2297,"longitude":21.017532,"reserved":0,"last_update":"0001-01-01T00:00:00Z","name_a2s":"","protocol":0,"map":"","folder":"","game":"","app_id":0,"player_count":0,"max_players":0,"Bots":0,"server_type":"","server_os":"","password":false,"vac":false,"version":"","steam_id":0,"keywords":null,"game_id":0,"stv_port":0,"stv_name":"","players":null},{"server_id":50,"name":"Uncletopia | Warsaw | 2 | All Maps","name_short":"waw-2","host":"waw-1.pl.uncletopia.com","port":27025,"enabled":true,"region":"eu","cc":"pl","latitude":52.2297,"longitude":21.017532,"reserved":0,"last_update":"0001-01-01T00:00:00Z","name_a2s":"Uncletopia | Warsaw | 2 | All Maps","protocol":17,"map":"pl_barnblitz","folder":"tf","game":"Team Fortress","app_id":440,"player_count":0,"max_players":24,"Bots":0,"server_type":"Dedicated","server_os":"Linux","password":true,"vac":true,"version":"7757534","steam_id":85568392925397851,"keywords":["nocrits","nodmgspread","payload","uncletopia"],"game_id":440,"stv_port":27026,"stv_name":"Uncletopia | Warsaw | 2 | All Maps | STV","players":null},{"server_id":51,"name":"Uncletopia | Warsaw | 3 | All Maps","name_short":"waw-3","host":"waw-1.pl.uncletopia.com","port":27035,"enabled":true,"region":"eu","cc":"pl","latitude":52.2297,"longitude":21.017532,"reserved":0,"last_update":"0001-01-01T00:00:00Z","name_a2s":"Uncletopia | Warsaw | 3 | All Maps","protocol":17,"map":"pl_upward","folder":"tf","game":"Team Fortress","app_id":440,"player_count":0,"max_players":24,"Bots":0,"server_type":"Dedicated","server_os":"Linux","password":true,"vac":true,"version":"7757534","steam_id":85568392925397852,"keywords":["nocrits","nodmgspread","payload","uncletopia"],"game_id":440,"stv_port":27036,"stv_name":"Uncletopia | Warsaw | 3 | All Maps | STV","players":null},{"server_id":52,"name":"Uncletopia | Warsaw | 4 | All Maps","name_short":"waw-4","host":"waw-1.pl.uncletopia.com","port":27045,"enabled":true,"region":"eu","cc":"pl","latitude":52.2297,"longitude":21.017532,"reserved":0,"last_update":"0001-01-01T00:00:00Z","name_a2s":"Uncletopia | Warsaw | 4 | All Maps","protocol":17,"map":"pl_snowycoast","folder":"tf","game":"Team Fortress","app_id":440,"player_count":0,"max_players":24,"Bots":0,"server_type":"Dedicated","server_os":"Linux","password":true,"vac":true,"version":"7757534","steam_id":85568392925397853,"keywords":["nocrits","nodmgspread","payload","uncletopia"],"game_id":440,"stv_port":27046,"stv_name":"Uncletopia | Warsaw | 4 | All Maps | STV","players":null},{"server_id":53,"name":"Uncletopia | Warsaw | 5 | Stopwatch Beta","name_short":"waw-5","host":"waw-1.pl.uncletopia.com","port":27055,"enabled":true,"region":"eu","cc":"pl","latitude":52.2297,"longitude":21.017532,"reserved":0,"last_update":"0001-01-01T00:00:00Z","name_a2s":"Uncletopia | Warsaw | 5 | Stopwatch Beta","protocol":17,"map":"pl_barnblitz","folder":"tf","game":"Team Fortress","app_id":440,"player_count":0,"max_players":24,"Bots":0,"server_type":"Dedicated","server_os":"Linux","password":true,"vac":true,"version":"7757534","steam_id":85568392925397854,"keywords":["nocrits","nodmgspread","payload","uncletopia"],"game_id":440,"stv_port":27056,"stv_name":"Uncletopia | Warsaw | 5 | Stopwatch Beta | STV","players":null},{"server_id":54,"name":"Uncletopia | Warsaw | 6 | Community","name_short":"waw-6","host":"waw-1.pl.uncletopia.com","port":27065,"enabled":true,"region":"eu","cc":"pl","latitude":52.2297,"longitude":21.017532,"reserved":0,"last_update":"0001-01-01T00:00:00Z","name_a2s":"Uncletopia | Warsaw | 6 | Community","protocol":17,"map":"workshop/koth_trenchfoot_b1a.ugc731436616","folder":"tf","game":"Team Fortress","app_id":440,"player_count":0,"max_players":24,"Bots":0,"server_type":"Dedicated","server_os":"Linux","password":true,"vac":true,"version":"7757534","steam_id":85568392925397856,"keywords":["cp","nocrits","nodmgspread","uncletopia"],"game_id":440,"stv_port":27066,"stv_name":"Uncletopia | Warsaw | 6 | Community | STV","players":null}]}