{"status":true,"message":"","result":[{"server_id":9,"name":"Uncletopia | Atlanta | 1 | All Maps","name_short":"atl-1","host":"atl-1.us.uncletopia.com","port":27015,"enabled":true,"region":"us-east","cc":"us","latitude":33.753746,"longitude":-84.38633,"reserved":0,"last_update":"0001-01-01T00:00:00Z","name_a2s":"Uncletopia | Atlanta | 1 | All Maps","protocol":17,"map":"pl_thundermountain","folder":"tf","game":"Team Fortress","app_id":440,"player_count":24,"max_players":24,"Bots":0,"server_type":"Dedicated","server_os":"Linux","password":true,"vac":true,"version":"7757534","steam_id":85568392924469982,"keywords":["nocrits","nodmgspread","payload","uncletopia"],"game_id":440,"stv_port":27016,"stv_name":"Uncletopia | Atlanta | 1 | All Maps | STV","players":[{"user_id":416,"name":"sometimes i dream about cheese","steam_id":76561198249206656,"connected_time":3571000000000,"state":"active","ping":77},{"user_id":404,"name":"ATLS1 | Krissy","steam_id":76561197960848174,"connected_time":4315000000000,"state":"active","ping":62},{"user_id":420,"name":"JoJo","steam_id":76561198063687796,"connected_time":3210000000000,"state":"active","ping":93},{"user_id":433,"name":"nach","steam_id":76561198040640135,"connected_time":2175000000000,"state":"active","ping":76},{"user_id":456,"name":"floofy","steam_id":76561198389769098,"connected_time":1013000000000,"state":"active","ping":86},{"user_id":439,"name":"chexo4","steam_id":76561198150532531,"connected_time":1968000000000,"state":"active","ping":49},{"user_id":413,"name":"Broken Cereal√","steam_id":76561198087489795,"connected_time":3793000000000,"state":"active","ping":60},{"user_id":453,"name":"loninho_","steam_id":76561198219057264,"connected_time":1075000000000,"state":"active","ping":179},{"user_id":444,"name":"Getting High and Scared","steam_id":76561198091111592,"connected_time":1657000000000,"state":"active","ping":51},{"user_id":436,"name":"Furious George","steam_id":76561198405111646,"connected_time":2020000000000,"state":"active","ping":109},{"user_id":424,"name":"Dadsbad","steam_id":76561198176618461,"connected_time":2788000000000,"state":"active","ping":53},{"user_id":304,"name":"Kaluka","steam_id":76561198036861445,"connected_time":7667000000000,"state":"active","ping":65},{"user_id":411,"name":"DJ Spit","steam_id":76561198186637025,"connected_time":3863000000000,"state":"active","ping":86},{"user_id":450,"name":"Gian","steam_id":76561198041434512,"connected_time":1178000000000,"state":"active","ping":101},{"user_id":441,"name":"Futa Lover","steam_id":76561198056775795,"connected_time":1898000000000,"state":"active","ping":62},{"user_id":459,"name":"Kingly","steam_id":76561199074303664,"connected_time":58000000000,"state":"active","ping":51},{"user_id":437,"name":"Two Door Cinema Club","steam_id":76561198982810452,"connected_time":2018000000000,"state":"active","ping":83},{"user_id":455,"name":"The destroyer of foreskin","steam_id":76561198135275966,"connected_time":1054000000000,"state":"active","ping":71},{"user_id":425,"name":"ATLS1 | SparkStorm","steam_id":76561198095817025,"connected_time":2783000000000,"state":"active","ping":44},{"user_id":445,"name":"Wonder Of U","steam_id":76561198208110221,"connected_time":1586000000000,"state":"active","ping":72},{"user_id":457,"name":"Just PYE","steam_id":76561199439622967,"connected_time":793000000000,"state":"active","ping":76},{"user_id":458,"name":"BLU1| Inky (Coolest)","steam_id":76561198968337022,"connected_time":280000000000,"state":"active","ping":59},{"user_id":438,"name":"Spiderfight1","steam_id":76561199189991528,"connected_time":2017000000000,"state":"active","ping":80},{"user_id":328,"name":"stevie one-million","steam_id":76561198243965308,"connected_time":6714000000000,"state":"active","ping":59}]},{"server_id":400,"name":"Uncletopia | Atlanta | 3 | Community","name_short":"atl-3","host":"atl-1.us.uncletopia.com","port":27035,"enabled":true,"region":"us-east","cc":"us","latitude":33.753746,"longitude":-84.38633,"reserved":0,"last_update":"0001-01-01T00:00:00Z","name_a2s":"Uncletopia | Atlanta | 3 | Community","protocol":17,"map":"workshop/cp_overgrown_rc7b.ugc503939302","folder":"tf","game":"Team Fortress","app_id":440,"player_count":0,"max_players":32,"Bots":0,"server_type":"Dedicated","server_os":"Linux","password":true,"vac":true,"version":"7757534","steam_id":85568392924515187,"keywords":["cp","increased_maxplayers","nocrits","nodmgspread","uncletopia"],"game_id":440,"stv_port":27036,"stv_name":"Uncletopia | Atlanta | 3 | Community | STV","players":null},{"server_id":401,"name":"Uncletopia | Atlanta | 4 | No Payload","name_short":"atl-4","host":"atl-1.us.uncletopia.com","port":27045,"enabled":true,"region":"us-east","cc":"us","latitude":33.753746,"longitude":-84.38633,"reserved":0,"last_update":"0001-01-01T00:00:00Z","name_a2s":"","protocol":0,"map":"","folder":"","game":"","app_id":0,"player_count":0,"max_players":0,"Bots":0,"server_type":"","server_os":"","password":false,"vac":false,"version":"","steam_id":0,"keywords":null,"game_id":0,"stv_port":0,"stv_name":"","players":null},{"server_id":2,"name":"Uncletopia | Chicago | 1 | All Maps","name_short":"chi-1","host":"chi-1.us.uncletopia.com","port":27015,"enabled":true,"region":"us-central","cc":"us","latitude":41.881832,"longitude":-87.62318,"reserved":0,"last_update":"0001-01-01T00:00:00Z","name_a2s":"Uncletopia | Chicago | 1 | All Maps","protocol":17,"map":"pl_pier","folder":"tf","game":"Team Fortress","app_id":440,"player_count":23,"max_players":24,"Bots":0,"server_type":"Dedicated","server_os":"Linux","password":true,"vac":true,"version":"7757534","steam_id":85568392924469984,"keywords":["nocrits","nodmgspread","payload","uncletopia"],"game_id":440,"stv_port":27016,"stv_name":"Uncletopia | Chicago | 1 | All Maps | STV","players":[{"user_id":728,"name":"Ghaeril","steam_id":76561198047880019,"connected_time":230000000000,"state":"active","ping":85},{"user_id":714,"name":"Angelish","steam_id":76561198253393560,"connected_time":1867000000000,"state":"active","ping":67},{"user_id":710,"name":"trash beast","steam_id":76561198015792736,"connected_time":2315000000000,"state":"active","ping":71},{"user_id":680,"name":"HumFreY","steam_id":76561198076639682,"connected_time":4273000000000,"state":"active","ping":75},{"user_id":723,"name":"Waddluigi","steam_id":76561198181328519,"connected_time":1084000000000,"state":"active","ping":65},{"user_id":693,"name":"FooFLit","steam_id":76561198236967080,"connected_time":3720000000000,"state":"active","ping":92},{"user_id":725,"name":"Hooked","steam_id":76561198007302139,"connected_time":597000000000,"state":"active","ping":73},{"user_id":679,"name":"Anthid","steam_id":76561198074493797,"connected_time":4485000000000,"state":"active","ping":67},{"user_id":687,"name":"Kapreesi","steam_id":76561198163361200,"connected_time":3975000000000,"state":"active","ping":74},{"user_id":703,"name":"kiwiichie ₍ᐢᐢ₎","steam_id":76561198315449521,"connected_time":2568000000000,"state":"active","ping":130},{"user_id":701,"name":"Sone","steam_id":76561198069601032,"connected_time":2653000000000,"state":"active","ping":78},{"user_id":712,"name":"Fuegan Ra","steam_id":76561198287923849,"connected_time":2135000000000,"state":"active","ping":48},{"user_id":572,"name":"chloe","steam_id":76561198369849908,"connected_time":12886000000000,"state":"active","ping":79},{"user_id":692,"name":"blob","steam_id":76561198122375328,"connected_time":3735000000000,"state":"active","ping":65},{"user_id":694,"name":"Carson","steam_id":76561198076771071,"connected_time":3301000000000,"state":"active","ping":50},{"user_id":724,"name":"defs98","steam_id":76561198134813102,"connected_time":1082000000000,"state":"active","ping":60},{"user_id":715,"name":"Blitzy","steam_id":76561198149472890,"connected_time":1763000000000,"state":"active","ping":74},{"user_id":720,"name":"Bungalow Bill","steam_id":76561198033536404,"connected_time":1126000000000,"state":"active","ping":85},{"user_id":727,"name":"Silly Scientist","steam_id":76561199199886079,"connected_time":574000000000,"state":"active","ping":67},{"user_id":699,"name":"Owen","steam_id":76561198025446908,"connected_time":3010000000000,"state":"active","ping":65},{"user_id":730,"name":"Friendly Robo","steam_id":76561198982369510,"connected_time":199000000000,"state":"active","ping":68},{"user_id":722,"name":"Im High","steam_id":76561198049954886,"connected_time":1099000000000,"state":"active","ping":70},{"user_id":677,"name":"Lia_Rein","steam_id":76561198151569597,"connected_time":4849000000000,"state":"active","ping":137}]},{"server_id":106,"name":"Uncletopia | Chicago | 2 | All Maps","name_short":"chi-2","host":"chi-1.us.uncletopia.com","port":27025,"enabled":true,"region":"us-central","cc":"us","latitude":41.881832,"longitude":-87.62318,"reserved":0,"last_update":"0001-01-01T00:00:00Z","name_a2s":"Uncletopia | Chicago | 2 | All Maps","protocol":17,"map":"pl_frontier_final","folder":"tf","game":"Team Fortress","app_id":440,"player_count":23,"max_players":24,"Bots":0,"server_type":"Dedicated","server_os":"Linux","password":true,"vac":true,"version":"7757534","steam_id":85568392924469985,"keywords":["nocrits","nodmgspread","payload","uncletopia"],"game_id":440,"stv_port":27026,"stv_name":"Uncletopia | Chicago | 2 | All Maps | STV","players":[{"user_id":190,"name":"plant facts are over ","steam_id":76561198995705248,"connected_time":174000000000,"state":"active","ping":86},{"user_id":184,"name":"Mentlegen","steam_id":76561198295280927,"connected_time":1279000000000,"state":"active","ping":68},{"user_id":163,"name":"Nodin","steam_id":76561198135757376,"connected_time":3182000000000,"state":"active","ping":54},{"user_id":164,"name":"FreeZy","steam_id":76561198183906287,"connected_time":3164000000000,"state":"active","ping":58},{"user_id":153,"name":"BookBurner23","steam_id":76561198034771185,"connected_time":4083000000000,"state":"active","ping":67},{"user_id":179,"name":"Chezburgures","steam_id":76561198173043730,"connected_time":1970000000000,"state":"active","ping":95},{"user_id":183,"name":"the horse from schenectady?","steam_id":76561198142756572,"connected_time":1285000000000,"state":"active","ping":60},{"user_id":160,"name":"summertime sadness","steam_id":76561198063313115,"connected_time":3226000000000,"state":"active","ping":60},{"user_id":166,"name":"Mattron1","steam_id":76561198012270524,"connected_time":3134000000000,"state":"active","ping":85},{"user_id":180,"name":"Christmas Ham","steam_id":76561198119601623,"connected_time":1954000000000,"state":"active","ping":145},{"user_id":45,"name":"fallacy","steam_id":76561198057374871,"connected_time":11610000000000,"state":"active","ping":57},{"user_id":128,"name":"admiralmonk","steam_id":76561198845021470,"connected_time":5679000000000,"state":"active","ping":56},{"user_id":189,"name":"❤Breadshot (She)❤","steam_id":76561199005756738,"connected_time":759000000000,"state":"active","ping":52},{"user_id":121,"name":"Bocchi the Rock","steam_id":76561198025668771,"connected_time":6050000000000,"state":"active","ping":133},{"user_id":186,"name":"Jonatello","steam_id":76561198045699189,"connected_time":1235000000000,"state":"active","ping":119},{"user_id":187,"name":"【 caden / karma 】","steam_id":76561198072276429,"connected_time":1082000000000,"state":"active","ping":85},{"user_id":182,"name":"Stretch","steam_id":76561198200856614,"connected_time":1410000000000,"state":"active","ping":70},{"user_id":158,"name":"my_fish","steam_id":76561198058993241,"connected_time":3613000000000,"state":"active","ping":74},{"user_id":185,"name":"Average Engineer Main","steam_id":76561197999657118,"connected_time":1271000000000,"state":"active","ping":80},{"user_id":188,"name":"Cassini","steam_id":76561198318526294,"connected_time":896000000000,"state":"active","ping":67},{"user_id":155,"name":"hatchetax","steam_id":76561199013337543,"connected_time":3987000000000,"state":"active","ping":61},{"user_id":177,"name":"Furry Saul Goodman","steam_id":76561198069580305,"connected_time":2041000000000,"state":"active","ping":54},{"user_id":178,"name":"D(b) Hell","steam_id":76561198067869016,"connected_time":2040000000000,"state":"active","ping":45}]},{"server_id":402,"name":"Uncletopia | Chicago | 3 | All Maps","name_short":"chi-3","host":"chi-1.us.uncletopia.com","port":27035,"enabled":true,"region":"us-central","cc":"us","latitude":41.881832,"longitude":-87.62318,"reserved":0,"last_update":"0001-01-01T00:00:00Z","name_a2s":"Uncletopia | Chicago | 3 | All Maps","protocol":17,"map":"cp_mountainlab","folder":"tf","game":"Team Fortress","app_id":440,"player_count":24,"max_players":24,"Bots":0,"server_type":"Dedicated","server_os":"Linux","password":true,"vac":true,"version":"7757534","steam_id":85568392924515191,"keywords":["cp","nocrits","nodmgspread","uncletopia"],"game_id":440,"stv_port":27036,"stv_name":"Uncletopia | Chicago | 3 | All Maps | STV","players":[{"user_id":246,"name":"object permanence","steam_id":76561198050393061,"connected_time":866000000000,"state":"active","ping":74},{"user_id":175,"name":"Ineffable","steam_id":76561198968869068,"connected_time":5202000000000,"state":"active","ping":79},{"user_id":174,"name":"Inevitable","steam_id":76561198210050169,"connected_time":5211000000000,"state":"active","ping":71},{"user_id":205,"name":"halibard","steam_id":76561198011239659,"connected_time":3535000000000,"state":"active","ping":67},{"user_id":237,"name":"Jester","steam_id":76561198153102922,"connected_time":1089000000000,"state":"active","ping":76},{"user_id":239,"name":"Wall Termite","steam_id":76561198075544930,"connected_time":1069000000000,"state":"active","ping":113},{"user_id":221,"name":"Prophet, of the Deep","steam_id":76561198185986917,"connected_time":2398000000000,"state":"active","ping":88},{"user_id":249,"name":"NUt","steam_id":76561198031007966,"connected_time":705000000000,"state":"active","ping":72},{"user_id":241,"name":"Store Bought Bread","steam_id":76561198805239061,"connected_time":1008000000000,"state":"active","ping":79},{"user_id":184,"name":"Zububu","steam_id":76561198024293060,"connected_time":5126000000000,"state":"active","ping":76},{"user_id":162,"name":"Alan","steam_id":76561198281442409,"connected_time":5999000000000,"state":"active","ping":54},{"user_id":250,"name":"BIG LION","steam_id":76561198091880358,"connected_time":619000000000,"state":"active","ping":45},{"user_id":233,"name":"\u003c3Elise\u003c3","steam_id":76561198146435005,"connected_time":1566000000000,"state":"active","ping":83},{"user_id":240,"name":"Kapitan Bomba","steam_id":76561199102087660,"connected_time":1061000000000,"state":"active","ping":69},{"user_id":198,"name":"Waluigi","steam_id":76561198891626233,"connected_time":4355000000000,"state":"active","ping":61},{"user_id":242,"name":"Josh","steam_id":76561198055691099,"connected_time":969000000000,"state":"active","ping":74},{"user_id":251,"name":"senorpapel","steam_id":76561198040507073,"connected_time":601000000000,"state":"active","ping":70},{"user_id":252,"name":"extinct111","steam_id":76561199013696367,"connected_time":582000000000,"state":"active","ping":67},{"user_id":228,"name":"Effie","steam_id":76561198261842068,"connected_time":1745000000000,"state":"active","ping":84},{"user_id":248,"name":"mashallah","steam_id":76561198075111427,"connected_time":793000000000,"state":"active","ping":63},{"user_id":254,"name":"$200 Shirt","steam_id":76561197977329534,"connected_time":59000000000,"state":"active","ping":59},{"user_id":235,"name":"Nephs","steam_id":76561198136763403,"connected_time":1164000000000,"state":"active","ping":82},{"user_id":243,"name":"Alucardo","steam_id":76561198320866421,"connected_time":947000000000,"state":"active","ping":70},{"user_id":208,"name":"The PriceMaster","steam_id":76561198034552198,"connected_time":2982000000000,"state":"active","ping":60}]},{"server_id":403,"name":"Uncletopia | Chicago | 4 | All Maps","name_short":"chi-4","host":"chi-1.us.uncletopia.com","port":27045,"enabled":true,"region":"us-central","cc":"us","latitude":41.881832,"longitude":-87.62318,"reserved":0,"last_update":"0001-01-01T00:00:00Z","name_a2s":"Uncletopia | Chicago | 4 | All Maps","protocol":17,"map":"pl_borneo","folder":"tf","game":"Team Fortress","app_id":440,"player_count":24,"max_players":24,"Bots":0,"server_type":"Dedicated","server_os":"Linux","password":true,"vac":true,"version":"7757534","steam_id":85568392924515193,"keywords":["nocrits","nodmgspread","payload","uncletopia"],"game_id":440,"stv_port":27046,"stv_name":"Uncletopia | Chicago | 4 | All Maps | STV","players":[{"user_id":149,"name":"RockMan","steam_id":76561199228684720,"connected_time":634000000000,"state":"active","ping":77},{"user_id":91,"name":"LalitoTV","steam_id":76561198334302951,"connected_time":3237000000000,"state":"active","ping":117},{"user_id":127,"name":"momb","steam_id":76561198142234038,"connected_time":1478000000000,"state":"active","ping":94},{"user_id":130,"name":"Zokku","steam_id":76561198070185695,"connected_time":1345000000000,"state":"active","ping":87},{"user_id":137,"name":"a Goofy Goober","steam_id":76561199396787833,"connected_time":952000000000,"state":"active","ping":88},{"user_id":122,"name":"Loleo","steam_id":76561198348132374,"connected_time":1796000000000,"state":"active","ping":54},{"user_id":151,"name":"breadtangle of pizza","steam_id":76561198045832398,"connected_time":363000000000,"state":"active","ping":85},{"user_id":131,"name":"Coolshroomish","steam_id":76561199109440924,"connected_time":1334000000000,"state":"active","ping":89},{"user_id":134,"name":"Tusk","steam_id":76561199066977033,"connected_time":1301000000000,"state":"active","ping":72},{"user_id":106,"name":"30 fps gaming","steam_id":76561199216756079,"connected_time":2045000000000,"state":"active","ping":97},{"user_id":138,"name":"fugees and funyuns","steam_id":76561199012771039,"connected_time":935000000000,"state":"active","ping":95},{"user_id":155,"name":"Rhutebeer","steam_id":76561198018302761,"connected_time":156000000000,"state":"active","ping":100},{"user_id":148,"name":"bladees saddest, realest verse","steam_id":76561198098099826,"connected_time":715000000000,"state":"active","ping":94},{"user_id":139,"name":"caption cool","steam_id":76561197990612056,"connected_time":828000000000,"state":"active","ping":44},{"user_id":66,"name":"Esteban Delsin","steam_id":76561198433519639,"connected_time":5866000000000,"state":"active","ping":105},{"user_id":152,"name":"laszlo","steam_id":76561198141198352,"connected_time":356000000000,"state":"active","ping":46},{"user_id":117,"name":"Indigolake","steam_id":76561198202215807,"connected_time":1861000000000,"state":"active","ping":83},{"user_id":129,"name":"[GUT] RiDiK®","steam_id":76561197969756446,"connected_time":1396000000000,"state":"active","ping":57},{"user_id":144,"name":"BigWack","steam_id":76561198334878169,"connected_time":790000000000,"state":"active","ping":88},{"user_id":115,"name":"Timur","steam_id":76561197989552257,"connected_time":1932000000000,"state":"active","ping":50},{"user_id":116,"name":"Saikou!!!","steam_id":76561198044045406,"connected_time":1913000000000,"state":"active","ping":76},{"user_id":145,"name":"craxyt","steam_id":76561198050192689,"connected_time":782000000000,"state":"active","ping":100},{"user_id":120,"name":"DannyM","steam_id":76561198351165570,"connected_time":1830000000000,"state":"active","ping":63},{"user_id":153,"name":"Tyrone","steam_id":76561198189429665,"connected_time":323000000000,"state":"active","ping":75}]},{"server_id":36,"name":"Uncletopia | Chicago | 5 | All Maps","name_short":"chi-5","host":"chi-2.us.uncletopia.com","port":27015,"enabled":true,"region":"us-central","cc":"us","latitude":41.881832,"longitude":-87.62318,"reserved":0,"last_update":"0001-01-01T00:00:00Z","name_a2s":"Uncletopia | Chicago | 5 | All Maps","protocol":17,"map":"pl_frontier_final","folder":"tf","game":"Team Fortress","app_id":440,"player_count":20,"max_players":24,"Bots":0,"server_type":"Dedicated","server_os":"Linux","password":true,"vac":true,"version":"7757534","steam_id":85568392924866362,"keywords":["nocrits","nodmgspread","payload","uncletopia"],"game_id":440,"stv_port":27016,"stv_name":"Uncletopia | Chicago | 5 | All Maps | STV","players":[{"user_id":279,"name":"Nickolai9","steam_id":76561198035759401,"connected_time":1517000000000,"state":"active","ping":61},{"user_id":292,"name":"Recursive Gamer","steam_id":76561198042102952,"connected_time":22000000000,"state":"active","ping":62},{"user_id":285,"name":"NANOBITES","steam_id":76561198186944363,"connected_time":838000000000,"state":"active","ping":49},{"user_id":250,"name":"Pohnut","steam_id":76561198087831690,"connected_time":4285000000000,"state":"active","ping":133},{"user_id":289,"name":"Loafus","steam_id":76561198154561111,"connected_time":507000000000,"state":"active","ping":74},{"user_id":290,"name":"NobodyWasHere","steam_id":76561198320952498,"connected_time":92000000000,"state":"active","ping":55},{"user_id":291,"name":"Pinicle","steam_id":76561198163251509,"connected_time":50000000000,"state":"active","ping":76},{"user_id":276,"name":"RushIn","steam_id":76561199013261240,"connected_time":1858000000000,"state":"active","ping":119},{"user_id":204,"name":"Mxple.","steam_id":76561199165140868,"connected_time":5536000000000,"state":"active","ping":171},{"user_id":287,"name":"Doc","steam_id":76561198044196439,"connected_time":661000000000,"state":"active","ping":153},{"user_id":270,"name":"Turtle","steam_id":76561198098121333,"connected_time":3019000000000,"state":"active","ping":60},{"user_id":192,"name":"puppyonline_","steam_id":76561198253574099,"connected_time":5888000000000,"state":"active","ping":57},{"user_id":257,"name":"pablo","steam_id":76561198395577807,"connected_time":4108000000000,"state":"active","ping":45},{"user_id":274,"name":"ZofoJackson","steam_id":76561197998366861,"connected_time":2118000000000,"state":"active","ping":46},{"user_id":193,"name":"glacier!!","steam_id":76561198980301310,"connected_time":5875000000000,"state":"active","ping":77},{"user_id":268,"name":"NotDolpho","steam_id":76561199140679685,"connected_time":3033000000000,"state":"active","ping":69},{"user_id":259,"name":"wheresgeorge","steam_id":76561198986281248,"connected_time":3379000000000,"state":"active","ping":85},{"user_id":282,"name":"Zho Biden","steam_id":76561198079224101,"connected_time":1430000000000,"state":"active","ping":48},{"user_id":253,"name":"h20verdrive","steam_id":76561198115957085,"connected_time":4255000000000,"state":"active","ping":95},{"user_id":283,"name":"Rusty Shackleford","steam_id":76561198857643139,"connected_time":1424000000000,"state":"active","ping":73}]},{"server_id":37,"name":"Uncletopia | Chicago | 6 | All Maps","name_short":"chi-6","host":"chi-2.us.uncletopia.com","port":27025,"enabled":true,"region":"us-central","cc":"us","latitude":41.881832,"longitude":-87.62318,"reserved":0,"last_update":"0001-01-01T00:00:00Z","name_a2s":"Uncletopia | Chicago | 6 | All Maps","protocol":17,"map":"pl_pier","folder":"tf","game":"Team Fortress","app_id":440,"player_count":24,"max_players":24,"Bots":0,"server_type":"Dedicated","server_os":"Linux","password":true,"vac":true,"version":"7757534","steam_id":85568392924866363,"keywords":["nocrits","nodmgspread","payload","uncletopia"],"game_id":440,"stv_port":27026,"stv_name":"Uncletopia | Chicago | 6 | All Maps | STV","players":[{"user_id":73,"name":"kametro4","steam_id":76561198835430429,"connected_time":1701000000000,"state":"active","ping":89},{"user_id":74,"name":"thecal","steam_id":76561198307893384,"connected_time":1699000000000,"state":"active","ping":59},{"user_id":77,"name":"Cool Bird Facts","steam_id":76561198105613110,"connected_time":1675000000000,"state":"active","ping":60},{"user_id":70,"name":"thomasdee725","steam_id":76561199189526173,"connected_time":1786000000000,"state":"active","ping":83},{"user_id":84,"name":"Zin","steam_id":76561199041369507,"connected_time":1198000000000,"state":"active","ping":66},{"user_id":96,"name":"Pomson enjoyer","steam_id":76561199003655066,"connected_time":637000000000,"state":"active","ping":83},{"user_id":72,"name":"bb.rrr","steam_id":76561198339644583,"connected_time":1725000000000,"state":"active","ping":57},{"user_id":88,"name":"garbage (very bad)","steam_id":76561198172454407,"connected_time":722000000000,"state":"active","ping":75},{"user_id":90,"name":"Snoopist","steam_id":76561198144023761,"connected_time":669000000000,"state":"active","ping":33},{"user_id":99,"name":"Doaenel","steam_id":76561198447600537,"connected_time":270000000000,"state":"active","ping":66},{"user_id":37,"name":"Jack The Racc","steam_id":76561198044762365,"connected_time":4021000000000,"state":"active","ping":50},{"user_id":39,"name":"Phil Collins","steam_id":76561198068868644,"connected_time":3934000000000,"state":"active","ping":104},{"user_id":40,"name":"Mythic","steam_id":76561198028616665,"connected_time":3893000000000,"state":"active","ping":59},{"user_id":79,"name":"Universe Man","steam_id":76561197997710655,"connected_time":1665000000000,"state":"active","ping":88},{"user_id":101,"name":"[BBW] Justario","steam_id":76561198016095410,"connected_time":64000000000,"state":"active","ping":62},{"user_id":92,"name":"radiohead enjoyer","steam_id":76561198397662124,"connected_time":664000000000,"state":"active","ping":88},{"user_id":89,"name":"magickxanadu","steam_id":76561199117360103,"connected_time":711000000000,"state":"active","ping":92},{"user_id":93,"name":"spencil","steam_id":76561198053727976,"connected_time":662000000000,"state":"active","ping":68},{"user_id":62,"name":"hearthian","steam_id":76561198113235260,"connected_time":2899000000000,"state":"active","ping":104},{"user_id":100,"name":"garfield","steam_id":76561198114119308,"connected_time":230000000000,"state":"active","ping":68},{"user_id":98,"name":"Witch!","steam_id":76561198062763756,"connected_time":396000000000,"state":"active","ping":56},{"user_id":57,"name":"I DO DRUGS GAMING","steam_id":76561199013414654,"connected_time":3385000000000,"state":"active","ping":58},{"user_id":58,"name":"[BBC] manfart2021","steam_id":76561198252511840,"connected_time":3278000000000,"state":"active","ping":52},{"user_id":97,"name":"C papi","steam_id":76561198027779564,"connected_time":621000000000,"state":"active","ping":60}]},{"server_id":38,"name":"Uncletopia | Chicago | 7 | Stopwatch Beta","name_short":"chi-7","host":"chi-2.us.uncletopia.com","port":27035,"enabled":true,"region":"us-central","cc":"us","latitude":41.881832,"longitude":-87.62318,"reserved":0,"last_update":"0001-01-01T00:00:00Z","name_a2s":"Uncletopia | Chicago | 7 | Stopwatch Beta","protocol":17,"map":"pl_upward","folder":"tf","game":"Team Fortress","app_id":440,"player_count":0,"max_players":24,"Bots":0,"server_type":"Dedicated","server_os":"Linux","password":true,"vac":true,"version":"7757534","steam_id":85568392924866364,"keywords":["nocrits","nodmgspread","payload","uncletopia"],"game_id":440,"stv_port":27036,"stv_name":"Uncletopia | Chicago | 7 | Stopwatch Beta | STV","players":null},{"server_id":39,"name":"Uncletopia | Chicago | 8 | Community","name_short":"chi-8","host":"chi-2.us.uncletopia.com","port":27045,"enabled":true,"region":"us-central","cc":"us","latitude":41.881832,"longitude":-87.62318,"reserved":0,"last_update":"0001-01-01T00:00:00Z","name_a2s":"Uncletopia | Chicago | 8 | Community","protocol":17,"map":"pl_barnblitz","folder":"tf","game":"Team Fortress","app_id":440,"player_count":0,"max_players":24,"Bots":0,"server_type":"Dedicated","server_os":"Linux","password":true,"vac":true,"version":"7757534","steam_id":85568392924866365,"keywords":["nocrits","nodmgspread","payload","uncletopia"],"game_id":440,"stv_port":27046,"stv_name":"Uncletopia | Chicago | 8 | Community | STV","players":null},{"server_id":8,"name":"Uncletopia | Dallas | 1 | All Maps","name_short":"dal-1","host":"dal-1.us.uncletopia.com","port":27015,"enabled":true,"region":"us-central","cc":"us","latitude":32.779167,"longitude":-96.80889,"reserved":0,"last_update":"0001-01-01T00:00:00Z","name_a2s":"Uncletopia | Dallas | 1 | All Maps","protocol":17,"map":"pl_badwater","folder":"tf","game":"Team Fortress","app_id":440,"player_count":24,"max_players":24,"Bots":0,"server_type":"Dedicated","server_os":"Linux","password":true,"vac":true,"version":"7757534","steam_id":85568392924469986,"keywords":["nocrits","nodmgspread","payload","uncletopia"],"game_id":440,"stv_port":27016,"stv_name":"Uncletopia | Dallas | 1 | All Maps | STV","players":[{"user_id":293,"name":"Blind_Lark","steam_id":76561198094495235,"connected_time":6194000000000,"state":"active","ping":111},{"user_id":377,"name":"Sarah D she\\her","steam_id":76561199376578224,"connected_time":231000000000,"state":"active","ping":113},{"user_id":358,"name":"deadvelvet","steam_id":76561198829051922,"connected_time":1795000000000,"state":"active","ping":70},{"user_id":378,"name":"yolginmo","steam_id":76561198157985901,"connected_time":177000000000,"state":"active","ping":116},{"user_id":353,"name":"Muse","steam_id":76561198177715869,"connected_time":2099000000000,"state":"active","ping":61},{"user_id":360,"name":"fasterbum","steam_id":76561198142577444,"connected_time":1644000000000,"state":"active","ping":77},{"user_id":379,"name":"MoldyCoffee936","steam_id":76561198099061153,"connected_time":142000000000,"state":"active","ping":73},{"user_id":367,"name":"Bastee1021","steam_id":76561199456141163,"connected_time":1177000000000,"state":"active","ping":104},{"user_id":361,"name":"Minerkid2004","steam_id":76561198044262827,"connected_time":1612000000000,"state":"active","ping":83},{"user_id":366,"name":"Not A Rapper","steam_id":76561198077523537,"connected_time":1263000000000,"state":"active","ping":101},{"user_id":365,"name":"B.Luga™","steam_id":76561198046473460,"connected_time":1520000000000,"state":"active","ping":47},{"user_id":368,"name":"The creator(made twitter)","steam_id":76561198870900265,"connected_time":1129000000000,"state":"active","ping":70},{"user_id":380,"name":"TruBluHue","steam_id":76561198294389079,"connected_time":115000000000,"state":"active","ping":73},{"user_id":381,"name":"Milkf porn","steam_id":76561198152601497,"connected_time":111000000000,"state":"active","ping":82},{"user_id":362,"name":"bash -lc ./asshat.sh","steam_id":76561198004584315,"connected_time":1599000000000,"state":"active","ping":81},{"user_id":355,"name":"Titar Industries","steam_id":76561198143078476,"connected_time":2006000000000,"state":"active","ping":90},{"user_id":311,"name":"Moonflower ✦","steam_id":76561198191782483,"connected_time":5145000000000,"state":"active","ping":50},{"user_id":370,"name":"One thing, I don't know why","steam_id":76561199180652178,"connected_time":875000000000,"state":"active","ping":95},{"user_id":345,"name":"Protassium","steam_id":76561198084092694,"connected_time":2834000000000,"state":"active","ping":45},{"user_id":382,"name":"sairen","steam_id":76561198046895439,"connected_time":109000000000,"state":"active","ping":90},{"user_id":383,"name":"pOTATO","steam_id":76561198834489470,"connected_time":106000000000,"state":"active","ping":60},{"user_id":288,"name":"Kirbothebrony","steam_id":76561198971911330,"connected_time":6402000000000,"state":"active","ping":71},{"user_id":357,"name":"GregGaming098","steam_id":76561198882415360,"connected_time":1898000000000,"state":"active","ping":118},{"user_id":315,"name":"Boone","steam_id":76561198398931575,"connected_time":4945000000000,"state":"active","ping":102}]},{"server_id":108,"name":"Uncletopia | Dallas | 2 | All Maps","name_short":"dal-2","host":"dal-1.us.uncletopia.com","port":27025,"enabled":true,"region":"us-central","cc":"us","latitude":32.779167,"longitude":-96.80889,"reserved":0,"last_update":"0001-01-01T00:00:00Z","name_a2s":"Uncletopia | Dallas | 2 | All Maps","protocol":17,"map":"koth_lakeside_final","folder":"tf","game":"Team Fortress","app_id":440,"player_count":1,"max_players":24,"Bots":0,"server_type":"Dedicated","server_os":"Linux","password":true,"vac":true,"version":"7757534","steam_id":85568392924469988,"keywords":["cp","nocrits","nodmgspread","uncletopia"],"game_id":440,"stv_port":27026,"stv_name":"Uncletopia | Dallas | 2 | All Maps | STV","players":[{"user_id":101,"name":"Red Heavy The Sandwich Slayer","steam_id":76561199187226776,"connected_time":1202000000000,"state":"active","ping":52}]},{"server_id":5,"name":"Uncletopia | Frankfurt | 1 | All Maps","name_short":"frk-1","host":"frk-1.de.uncletopia.com","port":27015,"enabled":true,"region":"eu","cc":"de","latitude":50.110924,"longitude":8.682127,"reserved":0,"last_update":"0001-01-01T00:00:00Z","name_a2s":"Uncletopia | Frankfurt | 1 | All Maps","protocol":17,"map":"pl_upward","folder":"tf","game":"Team Fortress","app_id":440,"player_count":0,"max_players":24,"Bots":0,"server_type":"Dedicated","server_os":"Linux","password":true,"vac":true,"version":"7757534","steam_id":85568392924469989,"keywords":["nocrits","nodmgspread","payload","uncletopia"],"game_id":440,"stv_port":27016,"stv_name":"Uncletopia | Frankfurt | 1 | All Maps | STV","players":null},{"server_id":110,"name":"Uncletopia | Frankfurt | 2 | All Maps","name_short":"frk-2","host":"frk-1.de.uncletopia.com","port":27025,"enabled":true,"region":"eu","cc":"de","latitude":50.110924,"longitude":8.682127,"reserved":0,"last_update":"0001-01-01T00:00:00Z","name_a2s":"Uncletopia | Frankfurt | 2 | All Maps","protocol":17,"map":"koth_cascade","folder":"tf","game":"Team Fortress","app_id":440,"player_count":0,"max_players":24,"Bots":0,"server_type":"Dedicated","server_os":"Linux","password":true,"vac":true,"version":"7757534","steam_id":85568392924469990,"keywords":["cp","nocrits","nodmgspread","uncletopia"],"game_id":440,"stv_port":27026,"stv_name":"Uncletopia | Frankfurt | 2 | All Maps | STV","players":null},{"server_id":308,"name":"Uncletopia | Frankfurt | 3 | All Maps","name_short":"frk-3","host":"frk-1.de.uncletopia.com","port":27035,"enabled":true,"region":"eu","cc":"de","latitude":50.110924,"longitude":8.682127,"reserved":0,"last_update":"0001-01-01T00:00:00Z","name_a2s":"Uncletopia | Frankfurt | 3 | All Maps","protocol":17,"map":"koth_cascade","folder":"tf","game":"Team Fortress","app_id":440,"player_count":0,"max_players":24,"Bots":0,"server_type":"Dedicated","server_os":"Linux","password":true,"vac":true,"version":"7757534","steam_id":85568392924504274,"keywords":["cp","nocrits","nodmgspread","uncletopia"],"game_id":440,"stv_port":27036,"stv_name":"Uncletopia | Frankfurt | 3 | All Maps | STV","players":null},{"server_id":309,"name":"Uncletopia | Frankfurt | 4 | All Maps","name_short":"frk-4","host":"frk-1.de.uncletopia.com","port":27045,"enabled":true,"region":"eu","cc":"de","latitude":50.110924,"longitude":8.682127,"reserved":0,"last_update":"0001-01-01T00:00:00Z","name_a2s":"Uncletopia | Frankfurt | 4 | All Maps","protocol":17,"map":"cp_dustbowl","folder":"tf","game":"Team Fortress","app_id":440,"player_count":24,"max_players":24,"Bots":0,"server_type":"Dedicated","server_os":"Linux","password":true,"vac":true,"version":"7757534","steam_id":85568392924504275,"keywords":["cp","nocrits","nodmgspread","uncletopia"],"game_id":440,"stv_port":27046,"stv_name":"Uncletopia | Frankfurt | 4 | All Maps | STV","players":[{"user_id":592,"name":"Saramago","steam_id":76561198061920656,"connected_time":2298000000000,"state":"active","ping":82},{"user_id":527,"name":"ChickyCoop","steam_id":76561199072983488,"connected_time":7103000000000,"state":"active","ping":78},{"user_id":561,"name":"peter dangling","steam_id":76561198864327475,"connected_time":4493000000000,"state":"active","ping":46},{"user_id":576,"name":"homeinvasion$","steam_id":76561199111905021,"connected_time":3987000000000,"state":"active","ping":99},{"user_id":587,"name":"BuzzBees ❤","steam_id":76561198101502273,"connected_time":2394000000000,"state":"active","ping":62},{"user_id":609,"name":"many thanks","steam_id":76561198089003514,"connected_time":940000000000,"state":"active","ping":44},{"user_id":611,"name":"KittyKate ❤","steam_id":76561198116340817,"connected_time":769000000000,"state":"active","ping":60},{"user_id":528,"name":"Ches subtly into Pizzaboo","steam_id":76561198067204908,"connected_time":7045000000000,"state":"active","ping":60},{"user_id":604,"name":"Mach |=|20BB|)","steam_id":76561198952487564,"connected_time":1326000000000,"state":"active","ping":85},{"user_id":589,"name":"Bonca","steam_id":76561198137503531,"connected_time":2379000000000,"state":"active","ping":80},{"user_id":605,"name":"EdSuedi","steam_id":76561199387956486,"connected_time":1321000000000,"state":"active","ping":58},{"user_id":570,"name":"Malsi","steam_id":76561199061284165,"connected_time":4135000000000,"state":"active","ping":89},{"user_id":613,"name":"Liko","steam_id":76561197994660517,"connected_time":406000000000,"state":"active","ping":73},{"user_id":614,"name":"kaelan!","steam_id":76561198001425310,"connected_time":338000000000,"state":"active","ping":84},{"user_id":607,"name":"glow","steam_id":76561198086654069,"connected_time":981000000000,"state":"active","ping":74},{"user_id":615,"name":"Harpenden, Harpenden, Harpenden","steam_id":76561198118138546,"connected_time":286000000000,"state":"active","ping":59},{"user_id":610,"name":"Burpman","steam_id":76561198022897937,"connected_time":842000000000,"state":"active","ping":64},{"user_id":598,"name":"powej","steam_id":76561198056381418,"connected_time":2139000000000,"state":"active","ping":49},{"user_id":612,"name":"Bobo","steam_id":76561198052308399,"connected_time":546000000000,"state":"active","ping":64},{"user_id":562,"name":"demps","steam_id":76561198049405872,"connected_time":4492000000000,"state":"active","ping":44},{"user_id":616,"name":"Edla","steam_id":76561198062815315,"connected_time":185000000000,"state":"active","ping":102},{"user_id":601,"name":"Pestdoktor","steam_id":76561198058159271,"connected_time":1441000000000,"state":"active","ping":68},{"user_id":603,"name":"LarsInABox","steam_id":76561198028329262,"connected_time":1336000000000,"state":"active","ping":74},{"user_id":617,"name":"Cabbch","steam_id":76561198045955679,"connected_time":79000000000,"state":"active","ping":48}]},{"server_id":310,"name":"Uncletopia | Frankfurt | 5 | All Maps","name_short":"frk-5","host":"frk-1.de.uncletopia.com","port":27055,"enabled":true,"region":"eu","cc":"de","latitude":50.110924,"longitude":8.682127,"reserved":0,"last_update":"0001-01-01T00:00:00Z","name_a2s":"Uncletopia | Frankfurt | 5 | All Maps","protocol":17,"map":"pl_barnblitz","folder":"tf","game":"Team Fortress","app_id":440,"player_count":3,"max_players":24,"Bots":0,"server_type":"Dedicated","server_os":"Linux","password":true,"vac":true,"version":"7757534","steam_id":85568392924504277,"keywords":["nocrits","nodmgspread","payload","uncletopia"],"game_id":440,"stv_port":27056,"stv_name":"Uncletopia | Frankfurt | 5 | All Maps | STV","players":[{"user_id":33,"name":"zabloing","steam_id":76561198339480413,"connected_time":5321000000000,"state":"active","ping":58},{"user_id":53,"name":"Gilbert the Forsaken","steam_id":76561198829927042,"connected_time":459000000000,"state":"active","ping":148},{"user_id":52,"name":"DasherJakeTTV","steam_id":76561199006172927,"connected_time":708000000000,"state":"active","ping":319}]},{"server_id":311,"name":"Uncletopia | Frankfurt | 6 | All Maps","name_short":"frk-6","host":"frk-1.de.uncletopia.com","port":27065,"enabled":true,"region":"eu","cc":"de","latitude":50.110924,"longitude":8.682127,"reserved":0,"last_update":"0001-01-01T00:00:00Z","name_a2s":"Uncletopia | Frankfurt | 6 | All Maps","protocol":17,"map":"cp_dustbowl","folder":"tf","game":"Team Fortress","app_id":440,"player_count":0,"max_players":24,"Bots":0,"server_type":"Dedicated","server_os":"Linux","password":true,"vac":true,"version":"7757534","steam_id":85568392924504278,"keywords":["cp","nocrits","nodmgspread","uncletopia"],"game_id":440,"stv_port":27066,"stv_name":"Uncletopia | Frankfurt | 6 | All Maps | STV","players":null},{"server_id":23,"name":"Uncletopia | Frankfurt | 7 | Stopwatch Beta","name_short":"frk-7","host":"frk-1.de.uncletopia.com","port":27075,"enabled":true,"region":"eu","cc":"de","latitude":50.110924,"longitude":8.682127,"reserved":0,"last_update":"0001-01-01T00:00:00Z","name_a2s":"Uncletopia | Frankfurt | 7 | Stopwatch Beta","protocol":17,"map":"pl_frontier_final","folder":"tf","game":"Team Fortress","app_id":440,"player_count":0,"max_players":24,"Bots":0,"server_type":"Dedicated","server_os":"Linux","password":true,"vac":true,"version":"7757534","steam_id":85568392924742827,"keywords":["nocrits","nodmgspread","payload","uncletopia"],"game_id":440,"stv_port":27076,"stv_name":"Uncletopia | Frankfurt | 7 | Stopwatch Beta | STV","players":null},{"server_id":24,"name":"Uncletopia | Frankfurt | 8 | Community","name_short":"frk-8","host":"frk-1.de.uncletopia.com","port":27085,"enabled":true,"region":"eu","cc":"de","latitude":50.110924,"longitude":8.682127,"reserved":0,"last_update":"0001-01-01T00:00:00Z","name_a2s":"Uncletopia | Frankfurt | 8 | Community","protocol":17,"map":"workshop/koth_product_final.ugc454272353","folder":"tf","game":"Team Fortress","app_id":440,"player_count":0,"max_players":24,"Bots":0,"server_type":"Dedicated","server_os":"Linux","password":true,"vac":true,"version":"7757534","steam_id":85568392924742828,"keywords":["cp","nocrits","nodmgspread","uncletopia"],"game_id":440,"stv_port":27086,"stv_name":"Uncletopia | Frankfurt | 8 | Community | STV","players":null},{"server_id":202,"name":"Uncletopia | Hong Kong | 1 | All Maps","name_short":"hgk-1","host":"hgk-1.hk.uncletopia.com","port":27015,"enabled":true,"region":"asia","cc":"hk","latitude":22.302711,"longitude":114.177216,"reserved":0,"last_update":"0001-01-01T00:00:00Z","name_a2s":"Uncletopia | Hong Kong | 1 | All Maps","protocol":17,"map":"cp_dustbowl","folder":"tf","game":"Team Fortress","app_id":440,"player_count":1,"max_players":24,"Bots":0,"server_type":"Dedicated","server_os":"Linux","password":true,"vac":true,"version":"7757534","steam_id":85568392924494504,"keywords":["cp","nocrits","nodmgspread","uncletopia"],"game_id":440,"stv_port":27016,"stv_name":"Uncletopia | Hong Kong | 1 | All Maps | STV","players":[{"user_id":3,"name":"David Keithson","steam_id":76561199279393636,"connected_time":103000000000,"state":"active","ping":62}]},{"server_id":1,"name":"Uncletopia | Los Angeles | 1 | All Maps","name_short":"lax-1","host":"lax-1.us.uncletopia.com","port":27015,"enabled":true,"region":"us-west","cc":"us","latitude":33.94279,"longitude":-118.41004,"reserved":0,"last_update":"0001-01-01T00:00:00Z","name_a2s":"Uncletopia | Los Angeles | 1 | All Maps","protocol":17,"map":"cp_dustbowl","folder":"tf","game":"Team Fortress","app_id":440,"player_count":0,"max_players":24,"Bots":0,"server_type":"Dedicated","server_os":"Linux","password":true,"vac":true,"version":"7757534","steam_id":85568392924469991,"keywords":["cp","nocrits","nodmgspread","uncletopia"],"game_id":440,"stv_port":27016,"stv_name":"Uncletopia | Los Angeles | 1 | All Maps | STV","players":null},{"server_id":112,"name":"Uncletopia | Los Angeles | 2 | All Maps","name_short":"lax-2","host":"lax-1.us.uncletopia.com","port":27025,"enabled":true,"region":"us-west","cc":"us","latitude":33.94279,"longitude":-118.41004,"reserved":0,"last_update":"0001-01-01T00:00:00Z","name_a2s":"Uncletopia | Los Angeles | 2 | All Maps","protocol":17,"map":"pl_upward","folder":"tf","game":"Team Fortress","app_id":440,"player_count":21,"max_players":24,"Bots":0,"server_type":"Dedicated","server_os":"Linux","password":true,"vac":true,"version":"7757534","steam_id":85568392924469992,"keywords":["nocrits","nodmgspread","payload","uncletopia"],"game_id":440,"stv_port":27026,"stv_name":"Uncletopia | Los Angeles | 2 | All Maps | STV","players":[{"user_id":91,"name":"AkaDoggo","steam_id":76561198968291063,"connected_time":579000000000,"state":"active","ping":115},{"user_id":58,"name":"LIAM","steam_id":76561198324691143,"connected_time":1511000000000,"state":"active","ping":78},{"user_id":111,"name":"Ernie","steam_id":76561198799239650,"connected_time":268000000000,"state":"active","ping":85},{"user_id":78,"name":"Pootis420","steam_id":76561198390196058,"connected_time":846000000000,"state":"active","ping":64},{"user_id":109,"name":"Mark","steam_id":76561199092079229,"connected_time":316000000000,"state":"active","ping":70},{"user_id":115,"name":"SD","steam_id":76561198217410988,"connected_time":184000000000,"state":"active","ping":45},{"user_id":59,"name":"The Punisher","steam_id":76561199126731778,"connected_time":1421000000000,"state":"active","ping":61},{"user_id":60,"name":"Dog","steam_id":76561198450992953,"connected_time":1338000000000,"state":"active","ping":61},{"user_id":62,"name":"Jesh","steam_id":76561198137710574,"connected_time":1317000000000,"state":"active","ping":127},{"user_id":84,"name":"Crafty","steam_id":76561199217624073,"connected_time":710000000000,"state":"active","ping":46},{"user_id":89,"name":"Soap Man","steam_id":76561198000490235,"connected_time":643000000000,"state":"active","ping":108},{"user_id":65,"name":"King","steam_id":76561199196118296,"connected_time":1280000000000,"state":"active","ping":93},{"user_id":66,"name":"Lokaba","steam_id":76561198847677794,"connected_time":1274000000000,"state":"active","ping":119},{"user_id":70,"name":"PeptoBismol","steam_id":76561198082669076,"connected_time":1117000000000,"state":"active","ping":46},{"user_id":110,"name":"Ativillu","steam_id":76561198381841894,"connected_time":290000000000,"state":"active","ping":110},{"user_id":116,"name":"TriggerPullPone","steam_id":76561198071789810,"connected_time":78000000000,"state":"active","ping":47},{"user_id":85,"name":"ShadowBolt","steam_id":76561198061610985,"connected_time":707000000000,"state":"active","ping":141},{"user_id":86,"name":"TTV/ChadMorningWood","steam_id":76561198139832291,"connected_time":702000000000,"state":"active","ping":48},{"user_id":90,"name":"Persona Mann","steam_id":76561198293857963,"connected_time":630000000000,"state":"active","ping":61},{"user_id":107,"name":"moe","steam_id":76561198929586245,"connected_time":348000000000,"state":"active","ping":36}]},{"server_id":324,"name":"Uncletopia | Los Angeles | 3 | All Maps","name_short":"lax-3","host":"lax-1.us.uncletopia.com","port":27035,"enabled":true,"region":"us-west","cc":"us","latitude":33.94279,"longitude":-118.41004,"reserved":0,"last_update":"0001-01-01T00:00:00Z","name_a2s":"Uncletopia | Los Angeles | 3 | All Maps","protocol":17,"map":"koth_highpass","folder":"tf","game":"Team Fortress","app_id":440,"player_count":0,"max_players":24,"Bots":0,"server_type":"Dedicated","server_os":"Linux","password":true,"vac":true,"version":"7757534","steam_id":85568392924510198,"keywords":["cp","nocrits","nodmgspread","uncletopia"],"game_id":440,"stv_port":27036,"stv_name":"Uncletopia | Los Angeles | 3 | All Maps | STV","players":null},{"server_id":25,"name":"Uncletopia | Los Angeles | 4 | Stopwatch Beta","name_short":"lax-4","host":"lax-1.us.uncletopia.com","port":27045,"enabled":true,"region":"us-west","cc":"us","latitude":33.94279,"longitude":-118.41004,"reserved":0,"last_update":"0001-01-01T00:00:00Z","name_a2s":"Uncletopia | Los Angeles | 4 | Stopwatch Beta","protocol":17,"map":"pl_frontier_final","folder":"tf","game":"Team Fortress","app_id":440,"player_count":0,"max_players":24,"Bots":0,"server_type":"Dedicated","server_os":"Linux","password":true,"vac":true,"version":"7757534","steam_id":85568392924510199,"keywords":["nocrits","nodmgspread","payload","uncletopia"],"game_id":440,"stv_port":27046,"stv_name":"Uncletopia | Los Angeles | 4 | Stopwatch Beta | STV","players":null},{"server_id":11,"name":"Uncletopia | London | 1 | All Maps","name_short":"lon-1","host":"lon-1.uk.uncletopia.com","port":27015,"enabled":true,"region":"eu","cc":"gb","latitude":51.509865,"longitude":-0.118092,"reserved":0,"last_update":"0001-01-01T00:00:00Z","name_a2s":"Uncletopia | London | 1 | All Maps","protocol":17,"map":"pl_pier","folder":"tf","game":"Team Fortress","app_id":440,"player_count":24,"max_players":24,"Bots":0,"server_type":"Dedicated","server_os":"Linux","password":true,"vac":true,"version":"7757534","steam_id":85568392924367362,"keywords":["nocrits","nodmgspread","payload","uncletopia"],"game_id":440,"stv_port":27016,"stv_name":"Uncletopia | London | 1 | All Maps | STV","players":[{"user_id":397,"name":"beebo","steam_id":76561199120277007,"connected_time":9324000000000,"state":"active","ping":54},{"user_id":469,"name":"Gandhi the Grater","steam_id":76561198051198555,"connected_time":874000000000,"state":"active","ping":65},{"user_id":463,"name":"Luna","steam_id":76561199140738350,"connected_time":1457000000000,"state":"active","ping":57},{"user_id":421,"name":"dec","steam_id":76561198009660168,"connected_time":5898000000000,"state":"active","ping":58},{"user_id":393,"name":"maxine","steam_id":76561199474081953,"connected_time":9557000000000,"state":"active","ping":120},{"user_id":450,"name":"{{H3inz}] Beanz","steam_id":76561197999459536,"connected_time":2888000000000,"state":"active","ping":57},{"user_id":477,"name":"Nexosert","steam_id":76561198941142018,"connected_time":585000000000,"state":"active","ping":69},{"user_id":462,"name":"Drunk russian with pyromania","steam_id":76561198195527328,"connected_time":1922000000000,"state":"active","ping":48},{"user_id":453,"name":"Gryoss","steam_id":76561197999837111,"connected_time":2574000000000,"state":"active","ping":109},{"user_id":448,"name":"MS","steam_id":76561198037560108,"connected_time":3114000000000,"state":"active","ping":35},{"user_id":478,"name":"A cat","steam_id":76561198073769916,"connected_time":496000000000,"state":"active","ping":52},{"user_id":461,"name":"HOTEL LOBBY","steam_id":76561198048250715,"connected_time":2024000000000,"state":"active","ping":71},{"user_id":480,"name":"teddy","steam_id":76561198007436837,"connected_time":61000000000,"state":"active","ping":34},{"user_id":467,"name":"engie?","steam_id":76561198331852832,"connected_time":1098000000000,"state":"active","ping":106},{"user_id":471,"name":"Femboy Gaming","steam_id":76561198174108515,"connected_time":861000000000,"state":"active","ping":51},{"user_id":472,"name":"Dr. Le Quack","steam_id":76561197995711176,"connected_time":775000000000,"state":"active","ping":102},{"user_id":466,"name":"degu","steam_id":76561198180823942,"connected_time":1144000000000,"state":"active","ping":65},{"user_id":419,"name":"frosty","steam_id":76561198094560834,"connected_time":6170000000000,"state":"active","ping":52},{"user_id":476,"name":"multiflex","steam_id":76561198049639319,"connected_time":613000000000,"state":"active","ping":74},{"user_id":445,"name":"BenteBent","steam_id":76561198297920637,"connected_time":3593000000000,"state":"active","ping":75},{"user_id":475,"name":"Borat","steam_id":76561198122226417,"connected_time":694000000000,"state":"active","ping":43},{"user_id":458,"name":"cinny","steam_id":76561198832112629,"connected_time":2364000000000,"state":"active","ping":87},{"user_id":435,"name":"nedilya","steam_id":76561198039692077,"connected_time":4766000000000,"state":"active","ping":64},{"user_id":460,"name":"SuperBob103","steam_id":76561199175360012,"connected_time":2131000000000,"state":"active","ping":53}]},{"server_id":114,"name":"Uncletopia | London | 2 | All Maps","name_short":"lon-2","host":"lon-1.uk.uncletopia.com","port":27025,"enabled":true,"region":"eu","cc":"gb","latitude":51.509865,"longitude":-0.118092,"reserved":0,"last_update":"0001-01-01T00:00:00Z","name_a2s":"Uncletopia | London | 2 | All Maps","protocol":17,"map":"koth_viaduct","folder":"tf","game":"Team Fortress","app_id":440,"player_count":0,"max_players":24,"Bots":0,"server_type":"Dedicated","server_os":"Linux","password":true,"vac":true,"version":"7757534","steam_id":85568392924470941,"keywords":["cp","nocrits","nodmgspread","uncletopia"],"game_id":440,"stv_port":27026,"stv_name":"Uncletopia | London | 2 | All Maps | STV","players":null},{"server_id":320,"name":"Uncletopia | London | 3 | All Maps","name_short":"lon-3","host":"lon-1.uk.uncletopia.com","port":27035,"enabled":true,"region":"eu","cc":"gb","latitude":51.509865,"longitude":-0.118092,"reserved":0,"last_update":"0001-01-01T00:00:00Z","name_a2s":"Uncletopia | London | 3 | All Maps","protocol":17,"map":"cp_snakewater_final1","folder":"tf","game":"Team Fortress","app_id":440,"player_count":24,"max_players":24,"Bots":0,"server_type":"Dedicated","server_os":"Linux","password":true,"vac":true,"version":"7757534","steam_id":85568392924510192,"keywords":["cp","nocrits","nodmgspread","uncletopia"],"game_id":440,"stv_port":27036,"stv_name":"Uncletopia | London | 3 | All Maps | STV","players":[{"user_id":1027,"name":"spunkpunk","steam_id":76561198048852186,"connected_time":805000000000,"state":"active","ping":82},{"user_id":995,"name":"Cosmetic brain","steam_id":76561198055936410,"connected_time":2456000000000,"state":"active","ping":83},{"user_id":1010,"name":"jones","steam_id":76561198044434971,"connected_time":1787000000000,"state":"active","ping":62},{"user_id":969,"name":"Complex_Divine","steam_id":76561198812369488,"connected_time":3542000000000,"state":"active","ping":164},{"user_id":1025,"name":"dirty","steam_id":76561197995572935,"connected_time":1038000000000,"state":"active","ping":89},{"user_id":1037,"name":"hoos","steam_id":76561198045985910,"connected_time":74000000000,"state":"active","ping":131},{"user_id":1004,"name":"Billy Genie","steam_id":76561198061724014,"connected_time":2088000000000,"state":"active","ping":38},{"user_id":1028,"name":"wolfenstein03","steam_id":76561198147173457,"connected_time":691000000000,"state":"active","ping":76},{"user_id":1011,"name":"yominet","steam_id":76561198172050802,"connected_time":1783000000000,"state":"active","ping":126},{"user_id":1035,"name":"I still have my hair :)","steam_id":76561199233979726,"connected_time":249000000000,"state":"active","ping":90},{"user_id":1033,"name":"☞LaZe☜","steam_id":76561198202191400,"connected_time":421000000000,"state":"active","ping":49},{"user_id":1008,"name":"♡a femboy♡","steam_id":76561199212971864,"connected_time":1967000000000,"state":"active","ping":136},{"user_id":1019,"name":"CringeEBoi","steam_id":76561198842278840,"connected_time":1544000000000,"state":"active","ping":122},{"user_id":961,"name":"Carrot Arc","steam_id":76561198164957006,"connected_time":4019000000000,"state":"active","ping":86},{"user_id":1013,"name":"eple","steam_id":76561198017686306,"connected_time":1767000000000,"state":"active","ping":58},{"user_id":974,"name":"Perpetual Pub Push","steam_id":76561198256714846,"connected_time":3441000000000,"state":"active","ping":39},{"user_id":1001,"name":"TheFallenFox","steam_id":76561199074190919,"connected_time":2237000000000,"state":"active","ping":63},{"user_id":966,"name":"Penis Contortionist","steam_id":76561198073663784,"connected_time":3630000000000,"state":"active","ping":34},{"user_id":1036,"name":"vuggie","steam_id":76561198042227249,"connected_time":105000000000,"state":"active","ping":49},{"user_id":965,"name":"git bash -er","steam_id":76561198072586494,"connected_time":3893000000000,"state":"active","ping":40},{"user_id":1005,"name":"Raboute","steam_id":76561198040814507,"connected_time":2082000000000,"state":"active","ping":51},{"user_id":1034,"name":"Vel0city","steam_id":76561198049687798,"connected_time":279000000000,"state":"active","ping":46},{"user_id":1006,"name":"strahphic","steam_id":76561199279295106,"connected_time":2078000000000,"state":"active","ping":130},{"user_id":909,"name":"New","steam_id":76561198402195911,"connected_time":6668000000000,"state":"active","ping":113}]},{"server_id":321,"name":"Uncletopia | London | 4 | All Maps","name_short":"lon-4","host":"lon-1.uk.uncletopia.com","port":27045,"enabled":true,"region":"eu","cc":"gb","latitude":51.509865,"longitude":-0.118092,"reserved":0,"last_update":"0001-01-01T00:00:00Z","name_a2s":"Uncletopia | London | 4 | All Maps","protocol":17,"map":"pl_upward","folder":"tf","game":"Team Fortress","app_id":440,"player_count":23,"max_players":24,"Bots":0,"server_type":"Dedicated","server_os":"Linux","password":true,"vac":true,"version":"7757534","steam_id":85568392924510193,"keywords":["nocrits","nodmgspread","payload","uncletopia"],"game_id":440,"stv_port":27046,"stv_name":"Uncletopia | London | 4 | All Maps | STV","players":[{"user_id":571,"name":"Dr.Disrespect","steam_id":76561198043820228,"connected_time":1107000000000,"state":"active","ping":52},{"user_id":576,"name":"GuSkand","steam_id":76561198043775605,"connected_time":468000000000,"state":"active","ping":85},{"user_id":545,"name":"gGABEsz","steam_id":76561198117199068,"connected_time":2043000000000,"state":"active","ping":74},{"user_id":560,"name":"Dragul","steam_id":76561198032885938,"connected_time":1404000000000,"state":"active","ping":66},{"user_id":549,"name":"Waddlesworth","steam_id":76561198059889435,"connected_time":1847000000000,"state":"active","ping":59},{"user_id":511,"name":"Silverdarlin","steam_id":76561198118540970,"connected_time":4681000000000,"state":"active","ping":54},{"user_id":561,"name":"Ziltoid","steam_id":76561198020753675,"connected_time":1398000000000,"state":"active","ping":75},{"user_id":489,"name":"Platy","steam_id":76561198073442109,"connected_time":6236000000000,"state":"active","ping":54},{"user_id":581,"name":"panakid","steam_id":76561198364121077,"connected_time":64000000000,"state":"active","ping":90},{"user_id":575,"name":"Hoks","steam_id":76561198126442242,"connected_time":486000000000,"state":"active","ping":121},{"user_id":570,"name":"Cahl","steam_id":76561198980863125,"connected_time":1152000000000,"state":"active","ping":40},{"user_id":554,"name":"The Notorious RBG","steam_id":76561198014275148,"connected_time":1699000000000,"state":"active","ping":134},{"user_id":578,"name":"Princess Peach","steam_id":76561198260272240,"connected_time":195000000000,"state":"active","ping":48},{"user_id":488,"name":"Big Stupid Ugly Twink","steam_id":76561198156906497,"connected_time":6272000000000,"state":"active","ping":57},{"user_id":514,"name":"MikeyMoo","steam_id":76561198106748328,"connected_time":4658000000000,"state":"active","ping":52},{"user_id":566,"name":"Lehkosteri","steam_id":76561198087970086,"connected_time":1184000000000,"state":"active","ping":86},{"user_id":535,"name":"Allu","steam_id":76561198327770655,"connected_time":3206000000000,"state":"active","ping":104},{"user_id":540,"name":"Grogon","steam_id":76561198203300218,"connected_time":2619000000000,"state":"active","ping":71},{"user_id":556,"name":"fogings","steam_id":76561198044165284,"connected_time":1692000000000,"state":"active","ping":47},{"user_id":496,"name":"boar hammer","steam_id":76561198396168679,"connected_time":6117000000000,"state":"active","ping":178},{"user_id":559,"name":"GamerzXsakuzboy99","steam_id":76561198020760427,"connected_time":1490000000000,"state":"active","ping":96},{"user_id":577,"name":"Superiumentarius","steam_id":76561198081642249,"connected_time":266000000000,"state":"active","ping":60},{"user_id":531,"name":"Wäinö*","steam_id":76561199196680658,"connected_time":3717000000000,"state":"active","ping":113}]},{"server_id":21,"name":"Uncletopia | London | 5 | All Maps","name_short":"lon-5","host":"lon-1.uk.uncletopia.com","port":27055,"enabled":true,"region":"eu","cc":"gb","latitude":51.509865,"longitude":-0.118092,"reserved":0,"last_update":"0001-01-01T00:00:00Z","name_a2s":"Uncletopia | London | 5 | All Maps","protocol":17,"map":"cp_mountainlab","folder":"tf","game":"Team Fortress","app_id":440,"player_count":0,"max_players":24,"Bots":0,"server_type":"Dedicated","server_os":"Linux","password":true,"vac":true,"version":"7757534","steam_id":85568392924742829,"keywords":["cp","nocrits","nodmgspread","uncletopia"],"game_id":440,"stv_port":27056,"stv_name":"Uncletopia | London | 5 | All Maps | STV","players":null},{"server_id":22,"name":"Uncletopia | London | 6 | All Maps","name_short":"lon-6","host":"lon-1.uk.uncletopia.com","port":27065,"enabled":true,"region":"eu","cc":"gb","latitude":51.509865,"longitude":-0.118092,"reserved":0,"last_update":"0001-01-01T00:00:00Z","name_a2s":"Uncletopia | London | 6 | All Maps","protocol":17,"map":"koth_lakeside_final","folder":"tf","game":"Team Fortress","app_id":440,"player_count":0,"max_players":24,"Bots":0,"server_type":"Dedicated","server_os":"Linux","password":true,"vac":true,"version":"7757534","steam_id":85568392924742830,"keywords":["cp","nocrits","nodmgspread","uncletopia"],"game_id":440,"stv_port":27066,"stv_name":"Uncletopia | London | 6 | All Maps | STV","players":null},{"server_id":40,"name":"Uncletopia | London | 7 | No Payload","name_short":"lon-7","host":"lon-1.uk.uncletopia.com","port":27075,"enabled":true,"region":"eu","cc":"gb","latitude":51.509865,"longitude":-0.118092,"reserved":0,"last_update":"0001-01-01T00:00:00Z","name_a2s":"Uncletopia | London | 7 | No Payload","protocol":17,"map":"koth_harvest_final","folder":"tf","game":"Team Fortress","app_id":440,"player_count":0,"max_players":24,"Bots":0,"server_type":"Dedicated","server_os":"Linux","password":true,"vac":true,"version":"7757534","steam_id":85568392924964314,"keywords":["cp","nocrits","nodmgspread","uncletopia"],"game_id":440,"stv_port":27076,"stv_name":"Uncletopia | London | 7 | No Payload | STV","players":null},{"server_id":41,"name":"Uncletopia | London | 8 | Community","name_short":"lon-8","host":"lon-1.uk.uncletopia.com","port":27085,"enabled":true,"region":"eu","cc":"gb","latitude":51.509865,"longitude":-0.118092,"reserved":0,"last_update":"0001-01-01T00:00:00Z","name_a2s":"Uncletopia | London | 8 | Community","protocol":17,"map":"workshop/pl_highwood_b13.ugc1769496557","folder":"tf","game":"Team Fortress","app_id":440,"player_count":0,"max_players":24,"Bots":0,"server_type":"Dedicated","server_os":"Linux","password":true,"vac":true,"version":"7757534","steam_id":85568392924964315,"keywords":["nocrits","nodmgspread","payload","uncletopia"],"game_id":440,"stv_port":27086,"stv_name":"Uncletopia | London | 8 | Community | STV","players":null},{"server_id":300,"name":"Uncletopia | Montréal | 1 | All Maps","name_short":"mtl-1","host":"mtl-1.ca.uncletopia.com","port":27015,"enabled":true,"region":"us-east","cc":"ca","latitude":45.50889,"longitude":-73.56167,"reserved":0,"last_update":"0001-01-01T00:00:00Z","name_a2s":"Uncletopia | Montréal | 1 | All Maps","protocol":17,"map":"pl_frontier_final","folder":"tf","game":"Team Fortress","app_id":440,"player_count":17,"max_players":24,"Bots":0,"server_type":"Dedicated","server_os":"Linux","password":true,"vac":true,"version":"7757534","steam_id":85568392924500087,"keywords":["nocrits","nodmgspread","payload","uncletopia"],"game_id":440,"stv_port":27016,"stv_name":"Uncletopia | Montréal | 1 | All Maps | STV","players":[{"user_id":10,"name":"Elora","steam_id":76561198040510572,"connected_time":3246000000000,"state":"active","ping":131},{"user_id":11,"name":"SuperSonic7CE","steam_id":76561198073856652,"connected_time":3240000000000,"state":"active","ping":72},{"user_id":12,"name":"OneManEnsemble","steam_id":76561198200890163,"connected_time":3238000000000,"state":"active","ping":67},{"user_id":13,"name":"vampire","steam_id":76561198207073104,"connected_time":3231000000000,"state":"active","ping":103},{"user_id":14,"name":"LadyBonkula","steam_id":76561198065944911,"connected_time":3223000000000,"state":"active","ping":72},{"user_id":15,"name":"General_Douglas","steam_id":76561198215659007,"connected_time":3219000000000,"state":"active","ping":71},{"user_id":16,"name":"Magnus","steam_id":76561198047390683,"connected_time":3210000000000,"state":"active","ping":86},{"user_id":17,"name":"lcqjp","steam_id":76561198062028720,"connected_time":3209000000000,"state":"active","ping":98},{"user_id":53,"name":"JACOB","steam_id":76561198211874895,"connected_time":312000000000,"state":"active","ping":70},{"user_id":25,"name":"Din Javel","steam_id":76561198043018352,"connected_time":2963000000000,"state":"active","ping":146},{"user_id":22,"name":"Ginger Jesus","steam_id":76561198052386458,"connected_time":3173000000000,"state":"active","ping":51},{"user_id":45,"name":"Warkeidan","steam_id":76561198118805546,"connected_time":1763000000000,"state":"active","ping":46},{"user_id":55,"name":"MooleTheDoole","steam_id":76561199216480625,"connected_time":288000000000,"state":"active","ping":59},{"user_id":56,"name":"OneFestiveCorvid","steam_id":76561199012953221,"connected_time":108000000000,"state":"active","ping":61},{"user_id":44,"name":"trobin120","steam_id":76561199122420273,"connected_time":2088000000000,"state":"active","ping":57},{"user_id":35,"name":"bingle","steam_id":76561197997139225,"connected_time":2596000000000,"state":"active","ping":34},{"user_id":51,"name":"\u003cb\u003e man \u003c/b\u003e","steam_id":76561198816198106,"connected_time":819000000000,"state":"active","ping":68}]},{"server_id":301,"name":"Uncletopia | Montréal | 2 | All Maps","name_short":"mtl-2","host":"mtl-1.ca.uncletopia.com","port":27025,"enabled":true,"region":"us-east","cc":"ca","latitude":45.50889,"longitude":-73.56167,"reserved":0,"last_update":"0001-01-01T00:00:00Z","name_a2s":"Uncletopia | Montréal | 2 | All Maps","protocol":17,"map":"pl_upward","folder":"tf","game":"Team Fortress","app_id":440,"player_count":0,"max_players":24,"Bots":0,"server_type":"Dedicated","server_os":"Linux","password":true,"vac":true,"version":"7757534","steam_id":85568392924500088,"keywords":["nocrits","nodmgspread","payload","uncletopia"],"game_id":440,"stv_port":27026,"stv_name":"Uncletopia | Montréal | 2 | All Maps | STV","players":null},{"server_id":302,"name":"Uncletopia | Montréal | 3 | All Maps","name_short":"mtl-3","host":"mtl-1.ca.uncletopia.com","port":27035,"enabled":true,"region":"us-east","cc":"ca","latitude":45.50889,"longitude":-73.56167,"reserved":0,"last_update":"0001-01-01T00:00:00Z","name_a2s":"Uncletopia | Montréal | 3 | All Maps","protocol":17,"map":"koth_lakeside_final","folder":"tf","game":"Team Fortress","app_id":440,"player_count":0,"max_players":24,"Bots":0,"server_type":"Dedicated","server_os":"Linux","password":true,"vac":true,"version":"7757534","steam_id":85568392924500089,"keywords":["cp","nocrits","nodmgspread","uncletopia"],"game_id":440,"stv_port":27036,"stv_name":"Uncletopia | Montréal | 3 | All Maps | STV","players":null},{"server_id":303,"name":"Uncletopia | Montréal | 4 | No Payload","name_short":"mtl-4","host":"mtl-1.ca.uncletopia.com","port":27045,"enabled":true,"region":"us-east","cc":"ca","latitude":45.50889,"longitude":-73.56167,"reserved":0,"last_update":"0001-01-01T00:00:00Z","name_a2s":"Uncletopia | Montréal | 4 | No Payload","protocol":17,"map":"pl_borneo","folder":"tf","game":"Team Fortress","app_id":440,"player_count":0,"max_players":24,"Bots":0,"server_type":"Dedicated","server_os":"Linux","password":true,"vac":true,"version":"7757534","steam_id":85568392924500090,"keywords":["nocrits","nodmgspread","payload","uncletopia"],"game_id":440,"stv_port":27046,"stv_name":"Uncletopia | Montréal | 4 | No Payload | STV","players":null},{"server_id":13,"name":"Uncletopia | New York City | 1 | All Maps","name_short":"nyc-1","host":"nyc-1.us.uncletopia.com","port":27015,"enabled":true,"region":"us-east","cc":"us","latitude":40.73061,"longitude":-73.93524,"reserved":0,"last_update":"0001-01-01T00:00:00Z","name_a2s":"Uncletopia | New York City | 1 | All Maps","protocol":17,"map":"pl_snowycoast","folder":"tf","game":"Team Fortress","app_id":440,"player_count":24,"max_players":24,"Bots":0,"server_type":"Dedicated","server_os":"Linux","password":true,"vac":true,"version":"7757534","steam_id":85568392924469993,"keywords":["nocrits","nodmgspread","payload","uncletopia"],"game_id":440,"stv_port":27016,"stv_name":"Uncletopia | New York City | 1 | All Maps | STV","players":[{"user_id":229,"name":"Super D Duper","steam_id":76561198078203677,"connected_time":4311000000000,"state":"active","ping":51},{"user_id":253,"name":"toplogotree","steam_id":76561198915441733,"connected_time":1757000000000,"state":"active","ping":122},{"user_id":275,"name":"cellogamer","steam_id":76561198016937098,"connected_time":676000000000,"state":"active","ping":48},{"user_id":243,"name":"Xuey","steam_id":76561199120960187,"connected_time":2812000000000,"state":"active","ping":81},{"user_id":270,"name":"Xavibite","steam_id":76561198209380493,"connected_time":788000000000,"state":"active","ping":42},{"user_id":264,"name":"Camping Stimpy","steam_id":76561197992633330,"connected_time":1382000000000,"state":"active","ping":49},{"user_id":248,"name":"PinkLemonade","steam_id":76561198799286228,"connected_time":2447000000000,"state":"active","ping":58},{"user_id":268,"name":"Gaia The Fierce Knight","steam_id":76561199044162625,"connected_time":1136000000000,"state":"active","ping":64},{"user_id":277,"name":"Xraverz","steam_id":76561198008891628,"connected_time":155000000000,"state":"active","ping":71},{"user_id":247,"name":"Wique","steam_id":76561198071217597,"connected_time":2693000000000,"state":"active","ping":71},{"user_id":272,"name":"Iron","steam_id":76561198247918478,"connected_time":750000000000,"state":"active","ping":75},{"user_id":279,"name":"kimshwim","steam_id":76561198287933134,"connected_time":67000000000,"state":"active","ping":78},{"user_id":244,"name":"Ghost","steam_id":76561198110914180,"connected_time":2799000000000,"state":"active","ping":162},{"user_id":258,"name":"Apex60","steam_id":76561198041898090,"connected_time":1707000000000,"state":"active","ping":81},{"user_id":271,"name":"Tank Chili","steam_id":76561198161183031,"connected_time":777000000000,"state":"active","ping":84},{"user_id":252,"name":"mac","steam_id":76561198043039518,"connected_time":2178000000000,"state":"active","ping":64},{"user_id":276,"name":"Cuttle's Fish","steam_id":76561198280483257,"connected_time":295000000000,"state":"active","ping":80},{"user_id":225,"name":"Drake the Pixel","steam_id":76561198131824401,"connected_time":4711000000000,"state":"active","ping":37},{"user_id":246,"name":"DO NOT call me BART SIMPSON!!","steam_id":76561198069113375,"connected_time":2781000000000,"state":"active","ping":57},{"user_id":261,"name":"Unban Level Eater (She/They)","steam_id":76561198823616667,"connected_time":1679000000000,"state":"active","ping":96},{"user_id":262,"name":"caberknight tf2","steam_id":76561199273882768,"connected_time":1678000000000,"state":"active","ping":59},{"user_id":241,"name":"breesey","steam_id":76561198341658826,"connected_time":3548000000000,"state":"active","ping":44},{"user_id":233,"name":"ApertureCity","steam_id":76561198004153607,"connected_time":3985000000000,"state":"active","ping":76},{"user_id":278,"name":"e0e0","steam_id":76561198293839750,"connected_time":103000000000,"state":"active","ping":54}]},{"server_id":14,"name":"Uncletopia | New York City | 2 | All Maps","name_short":"nyc-2","host":"nyc-1.us.uncletopia.com","port":27025,"enabled":true,"region":"us-east","cc":"us","latitude":40.73061,"longitude":-73.93524,"reserved":0,"last_update":"0001-01-01T00:00:00Z","name_a2s":"Uncletopia | New York City | 2 | All Maps","protocol":17,"map":"cp_dustbowl","folder":"tf","game":"Team Fortress","app_id":440,"player_count":24,"max_players":24,"Bots":0,"server_type":"Dedicated","server_os":"Linux","password":true,"vac":true,"version":"7757534","steam_id":85568392924469994,"keywords":["cp","nocrits","nodmgspread","uncletopia"],"game_id":440,"stv_port":27026,"stv_name":"Uncletopia | New York City | 2 | All Maps | STV","players":[{"user_id":416,"name":"Iheartemos69","steam_id":76561198871766392,"connected_time":2004000000000,"state":"active","ping":58},{"user_id":433,"name":"Chechens Spotted","steam_id":76561199028910893,"connected_time":306000000000,"state":"active","ping":76},{"user_id":429,"name":"Kraftlos","steam_id":76561198074350350,"connected_time":593000000000,"state":"active","ping":56},{"user_id":435,"name":"Mooshoo","steam_id":76561198081650114,"connected_time":236000000000,"state":"active","ping":130},{"user_id":383,"name":"EmeraldCola","steam_id":76561198066663687,"connected_time":3354000000000,"state":"active","ping":56},{"user_id":423,"name":"kursed","steam_id":76561198992371495,"connected_time":1347000000000,"state":"active","ping":44},{"user_id":436,"name":"TheDarkTitan","steam_id":76561198304794068,"connected_time":235000000000,"state":"active","ping":54},{"user_id":445,"name":"themankeys","steam_id":76561198149339536,"connected_time":89000000000,"state":"active","ping":72},{"user_id":379,"name":"friend me and i will pocket you","steam_id":76561199383789041,"connected_time":3689000000000,"state":"active","ping":180},{"user_id":431,"name":"Kritzburgh","steam_id":76561198149466938,"connected_time":362000000000,"state":"active","ping":52},{"user_id":437,"name":"ihavetapeworms","steam_id":76561198357040313,"connected_time":208000000000,"state":"active","ping":117},{"user_id":438,"name":"-W3E- grim10465","steam_id":76561198045698581,"connected_time":168000000000,"state":"active","ping":30},{"user_id":439,"name":"Stantander","steam_id":76561198118038419,"connected_time":151000000000,"state":"active","ping":131},{"user_id":440,"name":"party pooper","steam_id":76561198068760559,"connected_time":129000000000,"state":"active","ping":45},{"user_id":428,"name":"PageBoiSkull","steam_id":76561198237353578,"connected_time":758000000000,"state":"active","ping":128},{"user_id":409,"name":"Porcelluccio","steam_id":76561198091331258,"connected_time":2236000000000,"state":"active","ping":44},{"user_id":441,"name":"Mountain Dude","steam_id":76561198302849209,"connected_time":112000000000,"state":"active","ping":89},{"user_id":424,"name":"Blobulonn","steam_id":76561198247949502,"connected_time":1243000000000,"state":"active","ping":91},{"user_id":447,"name":"catrinaisahuman","steam_id":76561198281355729,"connected_time":54000000000,"state":"active","ping":82},{"user_id":443,"name":"Strangelove","steam_id":76561198353773611,"connected_time":99000000000,"state":"active","ping":80},{"user_id":444,"name":"Back with the milk","steam_id":76561199020105501,"connected_time":94000000000,"state":"active","ping":45},{"user_id":446,"name":"Big Beef","steam_id":76561198073803603,"connected_time":78000000000,"state":"active","ping":124},{"user_id":426,"name":"FoodzAreGoodz","steam_id":76561198309262052,"connected_time":908000000000,"state":"active","ping":128}]},{"server_id":15,"name":"Uncletopia | New York City | 3 | Stopwatch Beta","name_short":"nyc-3","host":"nyc-1.us.uncletopia.com","port":27035,"enabled":true,"region":"us-east","cc":"us","latitude":40.73061,"longitude":-73.93524,"reserved":0,"last_update":"0001-01-01T00:00:00Z","name_a2s":"Uncletopia | New York City | 3 | Stopwatch Beta","protocol":17,"map":"koth_lakeside_final","folder":"tf","game":"Team Fortress","app_id":440,"player_count":0,"max_players":24,"Bots":0,"server_type":"Dedicated","server_os":"Linux","password":true,"vac":true,"version":"7757534","steam_id":85568392924742820,"keywords":["cp","nocrits","nodmgspread","uncletopia"],"game_id":440,"stv_port":27036,"stv_name":"Uncletopia | New York City | 3 | Stopwatch Beta | STV","players":null},{"server_id":16,"name":"Uncletopia | New York City | 4 | Community","name_short":"nyc-4","host":"nyc-1.us.uncletopia.com","port":27045,"enabled":true,"region":"us-east","cc":"us","latitude":40.73061,"longitude":-73.93524,"reserved":0,"last_update":"0001-01-01T00:00:00Z","name_a2s":"Uncletopia | New York City | 4 | Community","protocol":17,"map":"workshop/cp_indulge.ugc528106646","folder":"tf","game":"Team Fortress","app_id":440,"player_count":0,"max_players":24,"Bots":0,"server_type":"Dedicated","server_os":"Linux","password":true,"vac":true,"version":"7757534","steam_id":85568392924742821,"keywords":["cp","nocrits","nodmgspread","uncletopia"],"game_id":440,"stv_port":27046,"stv_name":"Uncletopia | New York City | 4 | Community | STV","players":null},{"server_id":142,"name":"Uncletopia | São Paulo | 1 | All Maps","name_short":"sao-1","host":"sao-1.br.uncletopia.com","port":27015,"enabled":true,"region":"sa","cc":"br","latitude":-23.533773,"longitude":-46.62529,"reserved":0,"last_update":"0001-01-01T00:00:00Z","name_a2s":"Uncletopia | São Paulo | 1 | All Maps","protocol":17,"map":"pl_swiftwater_final1","folder":"tf","game":"Team Fortress","app_id":440,"player_count":0,"max_players":24,"Bots":0,"server_type":"Dedicated","server_os":"Linux","password":true,"vac":true,"version":"7757534","steam_id":85568392924469996,"keywords":["nocrits","nodmgspread","payload","uncletopia"],"game_id":440,"stv_port":27016,"stv_name":"Uncletopia | São Paulo | 1 | All Maps | STV","players":null},{"server_id":143,"name":"Uncletopia | São Paulo | 2 | All Maps","name_short":"sao-2","host":"sao-2.br.uncletopia.com","port":27015,"enabled":true,"region":"sa","cc":"br","latitude":-23.533773,"longitude":-46.62529,"reserved":0,"last_update":"0001-01-01T00:00:00Z","name_a2s":"Uncletopia | São Paulo | 2 | All Maps","protocol":17,"map":"pl_upward","folder":"tf","game":"Team Fortress","app_id":440,"player_count":3,"max_players":24,"Bots":0,"server_type":"Dedicated","server_os":"Linux","password":true,"vac":true,"version":"7757534","steam_id":85568392924485349,"keywords":["nocrits","nodmgspread","payload","uncletopia"],"game_id":440,"stv_port":27016,"stv_name":"Uncletopia | São Paulo | 2 | All Maps | STV","players":[{"user_id":28,"name":"GoiabinhaEX","steam_id":76561198305075708,"connected_time":699000000000,"state":"active","ping":66},{"user_id":29,"name":"★ Ospe ★","steam_id":76561199059322130,"connected_time":682000000000,"state":"active","ping":54},{"user_id":30,"name":"mechanical phenix","steam_id":76561199465775990,"connected_time":471000000000,"state":"active","ping":256}]},{"server_id":7,"name":"Uncletopia | Seattle | 1 | All Maps","name_short":"sea-1","host":"sea-1.us.uncletopia.com","port":27015,"enabled":true,"region":"us-west","cc":"us","latitude":47.608013,"longitude":-122.33517,"reserved":0,"last_update":"0001-01-01T00:00:00Z","name_a2s":"Uncletopia | Seattle | 1 | All Maps","protocol":17,"map":"cp_sunshine","folder":"tf","game":"Team Fortress","app_id":440,"player_count":23,"max_players":24,"Bots":0,"server_type":"Dedicated","server_os":"Linux","password":true,"vac":true,"version":"7757534","steam_id":85568392924469997,"keywords":["cp","nocrits","nodmgspread","uncletopia"],"game_id":440,"stv_port":27016,"stv_name":"Uncletopia | Seattle | 1 | All Maps | STV","players":[{"user_id":421,"name":"StarGuyVI","steam_id":76561199366304746,"connected_time":3189000000000,"state":"active","ping":137},{"user_id":464,"name":"WACKY JIM","steam_id":76561198961641122,"connected_time":858000000000,"state":"active","ping":56},{"user_id":411,"name":"Fh","steam_id":76561198000903511,"connected_time":4057000000000,"state":"active","ping":61},{"user_id":450,"name":"Swaggot","steam_id":76561199104492369,"connected_time":2222000000000,"state":"active","ping":89},{"user_id":482,"name":"Banzai Blitz","steam_id":76561198196503877,"connected_time":148000000000,"state":"active","ping":44},{"user_id":481,"name":"Rock Kickass","steam_id":76561198450510841,"connected_time":216000000000,"state":"active","ping":109},{"user_id":458,"name":"mumbles","steam_id":76561197994528974,"connected_time":1215000000000,"state":"active","ping":83},{"user_id":470,"name":"DIGGY","steam_id":76561198991238982,"connected_time":544000000000,"state":"active","ping":58},{"user_id":486,"name":"bottom pride burger","steam_id":76561198322247602,"connected_time":1000000000,"state":"spawning","ping":56},{"user_id":447,"name":"Tommy Pickles (Very Cool)","steam_id":76561198391261463,"connected_time":2273000000000,"state":"active","ping":90},{"user_id":469,"name":"resh","steam_id":76561198239598834,"connected_time":563000000000,"state":"active","ping":137},{"user_id":463,"name":"HaphazardHazel","steam_id":76561198316812693,"connected_time":1145000000000,"state":"active","ping":134},{"user_id":445,"name":"thunderous prophet","steam_id":76561198131166135,"connected_time":2294000000000,"state":"active","ping":44},{"user_id":475,"name":"primordialheath","steam_id":76561199386942638,"connected_time":496000000000,"state":"active","ping":104},{"user_id":473,"name":"Crazy Cane","steam_id":76561198993941174,"connected_time":516000000000,"state":"active","ping":128},{"user_id":454,"name":"YahYeeterson","steam_id":76561198120480906,"connected_time":1452000000000,"state":"active","ping":70},{"user_id":466,"name":"Cam(era)","steam_id":76561198285054047,"connected_time":582000000000,"state":"active","ping":80},{"user_id":480,"name":"Sink","steam_id":76561198192420249,"connected_time":226000000000,"state":"active","ping":123},{"user_id":483,"name":"laggy mcstab","steam_id":76561198106379962,"connected_time":102000000000,"state":"active","ping":57},{"user_id":428,"name":"Archimedes!","steam_id":76561199446023933,"connected_time":3033000000000,"state":"active","ping":80},{"user_id":460,"name":"5392vin","steam_id":76561198880493511,"connected_time":1196000000000,"state":"active","ping":64},{"user_id":441,"name":"Sweatpants","steam_id":76561198097188001,"connected_time":2347000000000,"state":"active","ping":57},{"user_id":467,"name":"FlusteredWolf758","steam_id":76561198119191002,"connected_time":582000000000,"state":"active","ping":98}]},{"server_id":119,"name":"Uncletopia | Seattle | 2 | All Maps","name_short":"sea-2","host":"sea-1.us.uncletopia.com","port":27025,"enabled":true,"region":"us-west","cc":"us","latitude":47.608013,"longitude":-122.33517,"reserved":0,"last_update":"0001-01-01T00:00:00Z","name_a2s":"Uncletopia | Seattle | 2 | All Maps","protocol":17,"map":"pl_badwater","folder":"tf","game":"Team Fortress","app_id":440,"player_count":24,"max_players":24,"Bots":0,"server_type":"Dedicated","server_os":"Linux","password":true,"vac":true,"version":"7757534","steam_id":85568392924469998,"keywords":["nocrits","nodmgspread","payload","uncletopia"],"game_id":440,"stv_port":27026,"stv_name":"Uncletopia | Seattle | 2 | All Maps | STV","players":[{"user_id":526,"name":"clopherite","steam_id":76561198860351700,"connected_time":1209000000000,"state":"active","ping":112},{"user_id":525,"name":"BayanTheBear","steam_id":76561198134537476,"connected_time":1270000000000,"state":"active","ping":139},{"user_id":541,"name":"Cloud","steam_id":76561198272454184,"connected_time":788000000000,"state":"active","ping":189},{"user_id":542,"name":"we300men","steam_id":76561198060549722,"connected_time":773000000000,"state":"active","ping":78},{"user_id":533,"name":"Dartel","steam_id":76561197963977254,"connected_time":1036000000000,"state":"active","ping":103},{"user_id":528,"name":"Strikerbolt","steam_id":76561199095622897,"connected_time":1129000000000,"state":"active","ping":94},{"user_id":531,"name":"Yesterday's Grouse's Son","steam_id":76561198259873083,"connected_time":1046000000000,"state":"active","ping":64},{"user_id":532,"name":"InterplanetaryGentlemann","steam_id":76561198146559390,"connected_time":1043000000000,"state":"active","ping":45},{"user_id":508,"name":"zareski29","steam_id":76561199239730098,"connected_time":2489000000000,"state":"active","ping":128},{"user_id":534,"name":"toodles","steam_id":76561198025463883,"connected_time":1024000000000,"state":"active","ping":56},{"user_id":518,"name":"1dk","steam_id":76561198135104742,"connected_time":1489000000000,"state":"active","ping":48},{"user_id":543,"name":"LOLOLAHAHSADHFHSAHAH","steam_id":76561198119826352,"connected_time":748000000000,"state":"active","ping":94},{"user_id":515,"name":"pookus","steam_id":76561198114239912,"connected_time":1812000000000,"state":"active","ping":49},{"user_id":459,"name":"picea","steam_id":76561198134664196,"connected_time":5048000000000,"state":"active","ping":67},{"user_id":530,"name":"Ghoster","steam_id":76561198329367716,"connected_time":1059000000000,"state":"active","ping":86},{"user_id":517,"name":"Treehouse","steam_id":76561198918927598,"connected_time":1647000000000,"state":"active","ping":103},{"user_id":494,"name":"Boop Oop A Doop","steam_id":76561198036370174,"connected_time":3685000000000,"state":"active","ping":102},{"user_id":536,"name":"I am a mooshroom","steam_id":76561198104198295,"connected_time":1017000000000,"state":"active","ping":114},{"user_id":500,"name":"m1","steam_id":76561198004133638,"connected_time":2794000000000,"state":"active","ping":82},{"user_id":540,"name":"xerro","steam_id":76561198323340524,"connected_time":897000000000,"state":"active","ping":126},{"user_id":527,"name":"dog-shaped dog","steam_id":76561198286166220,"connected_time":1186000000000,"state":"active","ping":108},{"user_id":497,"name":"O bez","steam_id":76561198841579939,"connected_time":3592000000000,"state":"active","ping":96},{"user_id":457,"name":"Become girl, transition gender","steam_id":76561198200961750,"connected_time":5578000000000,"state":"active","ping":74},{"user_id":538,"name":"Training Arc","steam_id":76561198038832034,"connected_time":987000000000,"state":"active","ping":58}]},{"server_id":406,"name":"Uncletopia | Seattle | 3 | Stopwatch Beta","name_short":"sea-3","host":"sea-1.us.uncletopia.com","port":27035,"enabled":true,"region":"us-west","cc":"us","latitude":47.608013,"longitude":-122.33517,"reserved":0,"last_update":"0001-01-01T00:00:00Z","name_a2s":"Uncletopia | Seattle | 3 | Stopwatch Beta","protocol":17,"map":"workshop/pl_barnblitz_pro7.ugc582280235","folder":"tf","game":"Team Fortress","app_id":440,"player_count":0,"max_players":24,"Bots":0,"server_type":"Dedicated","server_os":"Linux","password":true,"vac":true,"version":"7757534","steam_id":85568392924515217,"keywords":["nocrits","nodmgspread","payload","uncletopia"],"game_id":440,"stv_port":27036,"stv_name":"Uncletopia | Seattle | 3 | Stopwatch Beta | STV","players":null},{"server_id":17,"name":"Uncletopia | San Francisco | 1 | All Maps","name_short":"sfo-1","host":"sfo-1.us.uncletopia.com","port":27015,"enabled":true,"region":"us-west","cc":"us","latitude":37.77397,"longitude":-122.4313,"reserved":0,"last_update":"0001-01-01T00:00:00Z","name_a2s":"Uncletopia | San Francisco | 1 | All Maps","protocol":17,"map":"koth_cascade","folder":"tf","game":"Team Fortress","app_id":440,"player_count":23,"max_players":24,"Bots":0,"server_type":"Dedicated","server_os":"Linux","password":true,"vac":true,"version":"7757534","steam_id":85568392924469999,"keywords":["cp","nocrits","nodmgspread","uncletopia"],"game_id":440,"stv_port":27016,"stv_name":"Uncletopia | San Francisco | 1 | All Maps | STV","players":[{"user_id":69,"name":"ForAPessimistImPrettyOptimistic","steam_id":76561198170128009,"connected_time":4588000000000,"state":"active","ping":55},{"user_id":118,"name":"Lord Magpie","steam_id":76561198056407365,"connected_time":656000000000,"state":"active","ping":90},{"user_id":121,"name":"matto1120","steam_id":76561198201321499,"connected_time":489000000000,"state":"active","ping":58},{"user_id":98,"name":"Justin","steam_id":76561198110865423,"connected_time":2128000000000,"state":"active","ping":45},{"user_id":82,"name":"SilverMango","steam_id":76561198091243252,"connected_time":3218000000000,"state":"active","ping":63},{"user_id":125,"name":"Atomic","steam_id":76561198872017216,"connected_time":144000000000,"state":"active","ping":126},{"user_id":38,"name":"Oomitch","steam_id":76561198071702759,"connected_time":6438000000000,"state":"active","ping":73},{"user_id":126,"name":"p9 delight","steam_id":76561197980280272,"connected_time":115000000000,"state":"active","ping":61},{"user_id":111,"name":"GamerGuy88","steam_id":76561199059733640,"connected_time":945000000000,"state":"active","ping":69},{"user_id":20,"name":"Buswolley","steam_id":76561197995205571,"connected_time":6893000000000,"state":"active","ping":43},{"user_id":116,"name":"Kerfuffel","steam_id":76561198079615986,"connected_time":700000000000,"state":"active","ping":69},{"user_id":99,"name":"Schnitz","steam_id":76561198265484253,"connected_time":1823000000000,"state":"active","ping":60},{"user_id":41,"name":"\u003ccolor=#BB33DD\u003egamerH_0ST","steam_id":76561198051191857,"connected_time":6253000000000,"state":"active","ping":106},{"user_id":103,"name":"darkness.danny3481","steam_id":76561198132808002,"connected_time":1495000000000,"state":"active","ping":56},{"user_id":112,"name":"R.Y.","steam_id":76561199384459715,"connected_time":931000000000,"state":"active","ping":103},{"user_id":43,"name":"BluBlurToast","steam_id":76561198180918559,"connected_time":6145000000000,"state":"active","ping":96},{"user_id":108,"name":"Coffee","steam_id":76561198154646418,"connected_time":1062000000000,"state":"active","ping":92},{"user_id":68,"name":"squart guy","steam_id":76561199411560141,"connected_time":5002000000000,"state":"active","ping":67},{"user_id":96,"name":"Sky","steam_id":76561198106938500,"connected_time":2450000000000,"state":"active","ping":54},{"user_id":119,"name":"finman","steam_id":76561198127639913,"connected_time":592000000000,"state":"active","ping":53},{"user_id":117,"name":"VixianUwU","steam_id":76561198948815060,"connected_time":690000000000,"state":"active","ping":82},{"user_id":115,"name":"THE NUT","steam_id":76561198067813626,"connected_time":848000000000,"state":"active","ping":64},{"user_id":107,"name":"The Glizzanator","steam_id":76561198115355451,"connected_time":1088000000000,"state":"active","ping":44}]},{"server_id":18,"name":"Uncletopia | San Francisco | 2 | All Maps","name_short":"sfo-2","host":"sfo-1.us.uncletopia.com","port":27025,"enabled":true,"region":"us-west","cc":"us","latitude":37.77397,"longitude":-122.4313,"reserved":0,"last_update":"0001-01-01T00:00:00Z","name_a2s":"Uncletopia | San Francisco | 2 | All Maps","protocol":17,"map":"pl_badwater","folder":"tf","game":"Team Fortress","app_id":440,"player_count":0,"max_players":24,"Bots":0,"server_type":"Dedicated","server_os":"Linux","password":true,"vac":true,"version":"7757534","steam_id":85568392924470000,"keywords":["nocrits","nodmgspread","payload","uncletopia"],"game_id":440,"stv_port":27026,"stv_name":"Uncletopia | San Francisco | 2 | All Maps | STV","players":null},{"server_id":19,"name":"Uncletopia | San Francisco | 3 | Stopwatch Beta","name_short":"sfo-3","host":"sfo-1.us.uncletopia.com","port":27035,"enabled":true,"region":"us-west","cc":"us","latitude":37.77397,"longitude":-122.4313,"reserved":0,"last_update":"0001-01-01T00:00:00Z","name_a2s":"Uncletopia | San Francisco | 3 | Stopwatch Beta","protocol":17,"map":"pl_borneo","folder":"tf","game":"Team Fortress","app_id":440,"player_count":0,"max_players":24,"Bots":0,"server_type":"Dedicated","server_os":"Linux","password":true,"vac":true,"version":"7757534","steam_id":85568392924742824,"keywords":["nocrits","nodmgspread","payload","uncletopia"],"game_id":440,"stv_port":27036,"stv_name":"Uncletopia | San Francisco | 3 | Stopwatch Beta | STV","players":null},{"server_id":20,"name":"Uncletopia | San Francisco | 4 | Community","name_short":"sfo-4","host":"sfo-1.us.uncletopia.com","port":27045,"enabled":true,"region":"us-west","cc":"us","latitude":37.77397,"longitude":-122.4313,"reserved":0,"last_update":"0001-01-01T00:00:00Z","name_a2s":"Uncletopia | San Francisco | 4 | Community","protocol":17,"map":"koth_highpass","folder":"tf","game":"Team Fortress","app_id":440,"player_count":0,"max_players":24,"Bots":0,"server_type":"Dedicated","server_os":"Linux","password":true,"vac":true,"version":"7757534","steam_id":85568392924742826,"keywords":["cp","nocrits","nodmgspread","uncletopia"],"game_id":440,"stv_port":27046,"stv_name":"Uncletopia | San Francisco | 4 | Community | STV","players":null},{"server_id":141,"name":"Uncletopia | Sydney | 1 | All Maps","name_short":"syd-1","host":"syd-1.au.uncletopia.com","port":27015,"enabled":true,"region":"au","cc":"au","latitude":-33.865143,"longitude":151.2099,"reserved":0,"last_update":"0001-01-01T00:00:00Z","name_a2s":"Uncletopia | Sydney | 1 | All Maps","protocol":17,"map":"koth_nucleus","folder":"tf","game":"Team Fortress","app_id":440,"player_count":0,"max_players":24,"Bots":0,"server_type":"Dedicated","server_os":"Linux","password":true,"vac":true,"version":"7757534","steam_id":85568392924470001,"keywords":["cp","nocrits","nodmgspread","uncletopia"],"game_id":440,"stv_port":27016,"stv_name":"Uncletopia | Sydney | 1 | All Maps | STV","players":null},{"server_id":123,"name":"Uncletopia | Sydney | 2 | All Maps","name_short":"syd-2","host":"syd-1.au.uncletopia.com","port":27025,"enabled":true,"region":"au","cc":"au","latitude":-33.865143,"longitude":151.2099,"reserved":0,"last_update":"0001-01-01T00:00:00Z","name_a2s":"Uncletopia | Sydney | 2 | All Maps","protocol":17,"map":"koth_viaduct","folder":"tf","game":"Team Fortress","app_id":440,"player_count":0,"max_players":24,"Bots":0,"server_type":"Dedicated","server_os":"Linux","password":true,"vac":true,"version":"7757534","steam_id":85568392924470002,"keywords":["cp","nocrits","nodmgspread","uncletopia"],"game_id":440,"stv_port":27026,"stv_name":"Uncletopia | Sydney | 2 | All Maps | STV","players":null},{"server_id":395,"name":"Uncletopia | Sydney | 3 | All Maps","name_short":"syd-3","host":"syd-1.au.uncletopia.com","port":27035,"enabled":true,"region":"au","cc":"au","latitude":-33.865143,"longitude":151.2099,"reserved":0,"last_update":"0001-01-01T00:00:00Z","name_a2s":"Uncletopia | Sydney | 3 | All Maps","protocol":17,"map":"pl_upward","folder":"tf","game":"Team Fortress","app_id":440,"player_count":0,"max_players":24,"Bots":0,"server_type":"Dedicated","server_os":"Linux","password":true,"vac":true,"version":"7757534","steam_id":85568392925194467,"keywords":["nocrits","nodmgspread","payload","uncletopia"],"game_id":440,"stv_port":27036,"stv_name":"Uncletopia | Sydney | 3 | All Maps | STV","players":null},{"server_id":396,"name":"Uncletopia | Sydney | 4 | All Maps","name_short":"syd-4","host":"syd-1.au.uncletopia.com","port":27045,"enabled":true,"region":"au","cc":"au","latitude":-33.865143,"longitude":151.2099,"reserved":0,"last_update":"0001-01-01T00:00:00Z","name_a2s":"Uncletopia | Sydney | 4 | All Maps","protocol":17,"map":"koth_lakeside_final","folder":"tf","game":"Team Fortress","app_id":440,"player_count":0,"max_players":24,"Bots":0,"server_type":"Dedicated","server_os":"Linux","password":true,"vac":true,"version":"7757534","steam_id":85568392925397958,"keywords":["cp","nocrits","nodmgspread","uncletopia"],"game_id":440,"stv_port":27046,"stv_name":"Uncletopia | Sydney | 4 | All Maps | STV","players":null},{"server_id":58,"name":"Uncletopia | Sydney | 5 | Stopwatch Beta","name_short":"syd-5","host":"syd-1.au.uncletopia.com","port":27055,"enabled":true,"region":"au","cc":"au","latitude":-33.865143,"longitude":151.2099,"reserved":0,"last_update":"0001-01-01T00:00:00Z","name_a2s":"Uncletopia | Sydney | 5 | Stopwatch Beta","protocol":17,"map":"koth_highpass","folder":"tf","game":"Team Fortress","app_id":440,"player_count":0,"max_players":24,"Bots":0,"server_type":"Dedicated","server_os":"Linux","password":true,"vac":true,"version":"7757534","steam_id":85568392925397959,"keywords":["cp","nocrits","nodmgspread","uncletopia"],"game_id":440,"stv_port":27056,"stv_name":"Uncletopia | Sydney | 5 | Stopwatch Beta | STV","players":null},{"server_id":59,"name":"Uncletopia | Sydney | 6 | Community","name_short":"syd-6","host":"syd-1.au.uncletopia.com","port":27065,"enabled":true,"region":"au","cc":"au","latitude":-33.865143,"longitude":151.2099,"reserved":0,"last_update":"0001-01-01T00:00:00Z","name_a2s":"Uncletopia | Sydney | 6 | Community","protocol":17,"map":"workshop/cp_sulfur_rc2.ugc619869471","folder":"tf","game":"Team Fortress","app_id":440,"player_count":0,"max_players":24,"Bots":0,"server_type":"Dedicated","server_os":"Linux","password":true,"vac":true,"version":"7757534","steam_id":85568392925397960,"keywords":["cp","nocrits","nodmgspread","uncletopia"],"game_id":440,"stv_port":27066,"stv_name":"Uncletopia | Sydney | 6 | Community | STV","players":null},{"server_id":49,"name":"Uncletopia | Warsaw | 1 | All Maps","name_short":"waw-1","host":"waw-1.pl.uncletopia.com","port":27015,"enabled":true,"region":"eu","cc":"pl","latitude":52.2297,"longitude":21.017532,"reserved":0,"last_update":"0001-01-01T00:00:00Z","name_a2s":"","protocol":0,"map":"","folder":"","game":"","app_id":0,"player_count":0,"max_players":0,"Bots":0,"server_type":"","server_os":"","password":false,"vac":false,"version":"","steam_id":0,"keywords":null,"game_id":0,"stv_port":0,"stv_name":"","players":null},{"server_id":50,"name":"Uncletopia | Warsaw | 2 | All Maps","name_short":"waw-2","host":"waw-1.pl.uncletopia.com","port":27025,"enabled":true,"region":"eu","cc":"pl","latitude":52.2297,"longitude":21.017532,"reserved":0,"last_update":"0001-01-01T00:00:00Z","name_a2s":"Uncletopia | Warsaw | 2 | All Maps","protocol":17,"map":"koth_lakeside_final","folder":"tf","game":"Team Fortress","app_id":440,"player_count":0,"max_players":24,"Bots":0,"server_type":"Dedicated","server_os":"Linux","password":true,"vac":true,"version":"7757534","steam_id":85568392925397851,"keywords":["cp","nocrits","nodmgspread","uncletopia"],"game_id":440,"stv_port":27026,"stv_name":"Uncletopia | Warsaw | 2 | All Maps | STV","players":null},{"server_id":51,"name":"Uncletopia | Warsaw | 3 | All Maps","name_short":"waw-3","host":"waw-1.pl.uncletopia.com","port":27035,"enabled":true,"region":"eu","cc":"pl","latitude":52.2297,"longitude":21.017532,"reserved":0,"last_update":"0001-01-01T00:00:00Z","name_a2s":"Uncletopia | Warsaw | 3 | All Maps","protocol":17,"map":"koth_cascade","folder":"tf","game":"Team Fortress","app_id":440,"player_count":0,"max_players":24,"Bots":0,"server_type":"Dedicated","server_os":"Linux","password":true,"vac":true,"version":"7757534","steam_id":85568392925397852,"keywords":["cp","nocrits","nodmgspread","uncletopia"],"game_id":440,"stv_port":27036,"stv_name":"Uncletopia | Warsaw | 3 | All Maps | STV","players":null},{"server_id":52,"name":"Uncletopia | Warsaw | 4 | All Maps","name_short":"waw-4","host":"waw-1.pl.uncletopia.com","port":27045,"enabled":true,"region":"eu","cc":"pl","latitude":52.2297,"longitude":21.017532,"reserved":0,"last_update":"0001-01-01T00:00:00Z","name_a2s":"Uncletopia | Warsaw | 4 | All Maps","protocol":17,"map":"pl_borneo","folder":"tf","game":"Team Fortress","app_id":440,"player_count":0,"max_players":24,"Bots":0,"server_type":"Dedicated","server_os":"Linux","password":true,"vac":true,"version":"7757534","steam_id":85568392925397853,"keywords":["nocrits","nodmgspread","payload","uncletopia"],"game_id":440,"stv_port":27046,"stv_name":"Uncletopia | Warsaw | 4 | All Maps | STV","players":null},{"server_id":53,"name":"Uncletopia | Warsaw | 5 | Stopwatch Beta","name_short":"waw-5","host":"waw-1.pl.uncletopia.com","port":27055,"enabled":true,"region":"eu","cc":"pl","latitude":52.2297,"longitude":21.017532,"reserved":0,"last_update":"0001-01-01T00:00:00Z","name_a2s":"Uncletopia | Warsaw | 5 | Stopwatch Beta","protocol":17,"map":"pl_barnblitz","folder":"tf","game":"Team Fortress","app_id":440,"player_count":0,"max_players":24,"Bots":0,"server_type":"Dedicated","server_os":"Linux","password":true,"vac":true,"version":"7757534","steam_id":85568392925397854,"keywords":["nocrits","nodmgspread","payload","uncletopia"],"game_id":440,"stv_port":27056,"stv_name":"Uncletopia | Warsaw | 5 | Stopwatch Beta | STV","players":null},{"server_id":54,"name":"Uncletopia | Warsaw | 6 | Community","name_short":"waw-6","host":"waw-1.pl.uncletopia.com","port":27065,"enabled":true,"region":"eu","cc":"pl","latitude":52.2297,"longitude":21.017532,"reserved":0,"last_update":"0001-01-01T00:00:00Z","name_a2s":"Uncletopia | Warsaw | 6 | Community","protocol":17,"map":"workshop/koth_trenchfoot_b1a.ugc731436616","folder":"tf","game":"Team Fortress","app_id":440,"player_count":0,"max_players":24,"Bots":0,"server_type":"Dedicated","server_os":"Linux","password":true,"vac":true,"version":"7757534","steam_id":85568392925397856,"keywords":["cp","nocrits","nodmgspread","uncletopia"],"game_id":440,"stv_port":27066,"stv_name":"Uncletopia | Warsaw | 6 | Community | STV","players":null}]}