{"status":true,"message":"","result":[{"server_id":9,"name":"Uncletopia | Atlanta | 1 | All Maps","name_short":"atl-1","host":"atl-1.us.uncletopia.com","port":27015,"enabled":true,"region":"us-east","cc":"us","latitude":33.753746,"longitude":-84.38633,"reserved":0,"last_update":"0001-01-01T00:00:00Z","name_a2s":"Uncletopia | Atlanta | 1 | All Maps","protocol":17,"map":"pl_badwater","folder":"tf","game":"Team Fortress","app_id":440,"player_count":24,"max_players":24,"Bots":0,"server_type":"Dedicated","server_os":"Linux","password":true,"vac":true,"version":"7961495","steam_id":85568392924469982,"keywords":["nocrits","nodmgspread","payload","uncletopia"],"game_id":440,"stv_port":27016,"stv_name":"Uncletopia | Atlanta | 1 | All Maps | STV","players":[{"user_id":357,"name":"Jabawakai","steam_id":76561198088881254,"connected_time":39000000000,"state":"active","ping":66},{"user_id":355,"name":"BIG HOG","steam_id":76561198079923652,"connected_time":388000000000,"state":"active","ping":61},{"user_id":326,"name":"JellyPopTM","steam_id":76561198099975634,"connected_time":1649000000000,"state":"active","ping":81},{"user_id":316,"name":"[Name Pending]","steam_id":76561198094685223,"connected_time":1907000000000,"state":"active","ping":61},{"user_id":334,"name":"BaconLol","steam_id":76561199125317999,"connected_time":999000000000,"state":"active","ping":173},{"user_id":291,"name":"trianamarco780","steam_id":76561199084319677,"connected_time":4246000000000,"state":"active","ping":91},{"user_id":354,"name":"Yam Jazzy Jim","steam_id":76561198000788950,"connected_time":543000000000,"state":"active","ping":82},{"user_id":292,"name":"gallowsCalibrator","steam_id":76561198404707578,"connected_time":4193000000000,"state":"active","ping":45},{"user_id":314,"name":"stair_tilez","steam_id":76561198279678111,"connected_time":1919000000000,"state":"active","ping":87},{"user_id":300,"name":"Echo","steam_id":76561198072092594,"connected_time":3630000000000,"state":"active","ping":46},{"user_id":320,"name":"Firedust19","steam_id":76561198153238631,"connected_time":1837000000000,"state":"active","ping":112},{"user_id":333,"name":"Sheembs","steam_id":76561199010524390,"connected_time":1021000000000,"state":"active","ping":54},{"user_id":322,"name":"Buffalo Soldier","steam_id":76561198089364545,"connected_time":1822000000000,"state":"active","ping":59},{"user_id":356,"name":"Duck","steam_id":76561198303483056,"connected_time":297000000000,"state":"active","ping":95},{"user_id":296,"name":"Chernov","steam_id":76561198014463424,"connected_time":4056000000000,"state":"active","ping":59},{"user_id":274,"name":"Decolour","steam_id":76561199045608372,"connected_time":5927000000000,"state":"active","ping":72},{"user_id":258,"name":"Kuri","steam_id":76561199037050183,"connected_time":7162000000000,"state":"active","ping":84},{"user_id":324,"name":"Forossa","steam_id":76561198108085345,"connected_time":1817000000000,"state":"active","ping":43},{"user_id":315,"name":"Sinta","steam_id":76561198098398841,"connected_time":1910000000000,"state":"active","ping":50},{"user_id":336,"name":"lu","steam_id":76561198080731872,"connected_time":988000000000,"state":"active","ping":72},{"user_id":325,"name":"RyInc","steam_id":76561198874261643,"connected_time":1817000000000,"state":"active","ping":64},{"user_id":332,"name":"ATL1 | to4st","steam_id":76561198981009008,"connected_time":1207000000000,"state":"active","ping":74},{"user_id":348,"name":"lil hog","steam_id":76561199230929836,"connected_time":688000000000,"state":"active","ping":97},{"user_id":353,"name":"ATL1 | Uganda Knuckles lll","steam_id":76561199121276474,"connected_time":585000000000,"state":"active","ping":94}]},{"server_id":104,"name":"Uncletopia | Atlanta | 2 | All Maps","name_short":"atl-2","host":"atl-1.us.uncletopia.com","port":27025,"enabled":true,"region":"us-east","cc":"us","latitude":33.753746,"longitude":-84.38633,"reserved":0,"last_update":"0001-01-01T00:00:00Z","name_a2s":"Uncletopia | Atlanta | 2 | All Maps","protocol":17,"map":"pl_upward","folder":"tf","game":"Team Fortress","app_id":440,"player_count":23,"max_players":24,"Bots":0,"server_type":"Dedicated","server_os":"Linux","password":true,"vac":true,"version":"7961495","steam_id":85568392924469983,"keywords":["nocrits","nodmgspread","payload","uncletopia"],"game_id":440,"stv_port":27026,"stv_name":"Uncletopia | Atlanta | 2 | All Maps | STV","players":[{"user_id":299,"name":"Nekoma","steam_id":76561198115044116,"connected_time":2210000000000,"state":"active","ping":161},{"user_id":300,"name":"ATL69 | weewa","steam_id":76561198064876090,"connected_time":2206000000000,"state":"active","ping":59},{"user_id":186,"name":"ZombieSlayer77","steam_id":76561199023974356,"connected_time":8430000000000,"state":"active","ping":69},{"user_id":371,"name":"Bennet","steam_id":76561198194582382,"connected_time":242000000000,"state":"active","ping":55},{"user_id":266,"name":"sanxi's cave","steam_id":76561199034371191,"connected_time":3064000000000,"state":"active","ping":169},{"user_id":366,"name":"Manny Heffley","steam_id":76561198138869460,"connected_time":408000000000,"state":"active","ping":84},{"user_id":267,"name":"vareh","steam_id":76561197993190926,"connected_time":3018000000000,"state":"active","ping":125},{"user_id":356,"name":"Vin","steam_id":76561198043601929,"connected_time":758000000000,"state":"active","ping":113},{"user_id":348,"name":"Erchius","steam_id":76561198256892300,"connected_time":1143000000000,"state":"active","ping":63},{"user_id":372,"name":"LIVE SCUNT REACTION","steam_id":76561198432668439,"connected_time":231000000000,"state":"active","ping":78},{"user_id":302,"name":"Captain Bug","steam_id":76561198137763878,"connected_time":2191000000000,"state":"active","ping":71},{"user_id":303,"name":"Poo","steam_id":76561198265144507,"connected_time":2175000000000,"state":"active","ping":83},{"user_id":370,"name":"sez","steam_id":76561199465922101,"connected_time":257000000000,"state":"active","ping":131},{"user_id":226,"name":"Highground","steam_id":76561199197544789,"connected_time":5499000000000,"state":"active","ping":125},{"user_id":373,"name":"bunceian","steam_id":76561198975662918,"connected_time":190000000000,"state":"active","ping":132},{"user_id":141,"name":"Indigo","steam_id":76561198430362969,"connected_time":9898000000000,"state":"active","ping":68},{"user_id":246,"name":"k0ka","steam_id":76561198247969962,"connected_time":4051000000000,"state":"active","ping":67},{"user_id":306,"name":"Fox","steam_id":76561198076635466,"connected_time":2136000000000,"state":"active","ping":53},{"user_id":263,"name":"Orceus","steam_id":76561198254906285,"connected_time":3152000000000,"state":"active","ping":136},{"user_id":268,"name":"dirty30","steam_id":76561198021226566,"connected_time":3012000000000,"state":"active","ping":105},{"user_id":310,"name":"Dragus","steam_id":76561198032967285,"connected_time":1999000000000,"state":"active","ping":74},{"user_id":360,"name":"Hertz","steam_id":76561198310927351,"connected_time":671000000000,"state":"active","ping":131},{"user_id":249,"name":"T_is_for_Toenail","steam_id":76561198297066505,"connected_time":3823000000000,"state":"active","ping":73}]},{"server_id":400,"name":"Uncletopia | Atlanta | 3 | Stopwatch","name_short":"atl-3","host":"atl-1.us.uncletopia.com","port":27035,"enabled":true,"region":"us-east","cc":"us","latitude":33.753746,"longitude":-84.38633,"reserved":0,"last_update":"0001-01-01T00:00:00Z","name_a2s":"Uncletopia | Atlanta | 3 | Stopwatch","protocol":17,"map":"workshop/koth_bagel_rc6.ugc2514036946","folder":"tf","game":"Team Fortress","app_id":440,"player_count":0,"max_players":24,"Bots":0,"server_type":"Dedicated","server_os":"Linux","password":true,"vac":true,"version":"7961495","steam_id":85568392924515187,"keywords":["cp","nocrits","nodmgspread","uncletopia"],"game_id":440,"stv_port":27036,"stv_name":"Uncletopia | Atlanta | 3 | Stopwatch | STV","players":null},{"server_id":401,"name":"Uncletopia | Atlanta | 4 | Community","name_short":"atl-4","host":"atl-1.us.uncletopia.com","port":27045,"enabled":true,"region":"us-east","cc":"us","latitude":33.753746,"longitude":-84.38633,"reserved":0,"last_update":"0001-01-01T00:00:00Z","name_a2s":"Uncletopia | Atlanta | 4 | Community","protocol":17,"map":"workshop/koth_kemptown_rc1.ugc767410655","folder":"tf","game":"Team Fortress","app_id":440,"player_count":0,"max_players":24,"Bots":0,"server_type":"Dedicated","server_os":"Linux","password":true,"vac":true,"version":"7961495","steam_id":85568392924515188,"keywords":["cp","nocrits","nodmgspread","uncletopia"],"game_id":440,"stv_port":27046,"stv_name":"Uncletopia | Atlanta | 4 | Community | STV","players":null},{"server_id":2,"name":"Uncletopia | Chicago | 1 | All Maps","name_short":"chi-1","host":"chi-1.us.uncletopia.com","port":27015,"enabled":true,"region":"us-central","cc":"us","latitude":41.881832,"longitude":-87.62318,"reserved":0,"last_update":"0001-01-01T00:00:00Z","name_a2s":"Uncletopia | Chicago | 1 | All Maps","protocol":17,"map":"cp_sunshine","folder":"tf","game":"Team Fortress","app_id":440,"player_count":24,"max_players":24,"Bots":0,"server_type":"Dedicated","server_os":"Linux","password":true,"vac":true,"version":"7961495","steam_id":85568392924469984,"keywords":["cp","nocrits","nodmgspread","uncletopia"],"game_id":440,"stv_port":27016,"stv_name":"Uncletopia | Chicago | 1 | All Maps | STV","players":[{"user_id":488,"name":"Robo Boss","steam_id":76561199067098696,"connected_time":991000000000,"state":"active","ping":95},{"user_id":459,"name":"Puck Norris","steam_id":76561198151256410,"connected_time":2848000000000,"state":"active","ping":142},{"user_id":471,"name":"sansa musa","steam_id":76561198163723555,"connected_time":1450000000000,"state":"active","ping":60},{"user_id":498,"name":"for the king","steam_id":76561197973488858,"connected_time":525000000000,"state":"active","ping":60},{"user_id":502,"name":"Thefriendlyrussian","steam_id":76561199023796787,"connected_time":267000000000,"state":"active","ping":113},{"user_id":457,"name":"-_-","steam_id":76561198005773253,"connected_time":3000000000000,"state":"active","ping":71},{"user_id":501,"name":"se√±or COCK","steam_id":76561198041643833,"connected_time":339000000000,"state":"active","ping":88},{"user_id":484,"name":"Reiner","steam_id":76561199201762178,"connected_time":1149000000000,"state":"active","ping":77},{"user_id":451,"name":"Esteban Delsin","steam_id":76561198433519639,"connected_time":3213000000000,"state":"active","ping":101},{"user_id":485,"name":"Bush.exe","steam_id":76561198124385307,"connected_time":1137000000000,"state":"active","ping":66},{"user_id":494,"name":"Reckless Klondike","steam_id":76561198060904416,"connected_time":750000000000,"state":"active","ping":79},{"user_id":475,"name":"desca","steam_id":76561198064628542,"connected_time":1353000000000,"state":"active","ping":72},{"user_id":503,"name":"King of Spies","steam_id":76561198090549460,"connected_time":210000000000,"state":"active","ping":62},{"user_id":504,"name":"Randumb","steam_id":76561199083286636,"connected_time":55000000000,"state":"active","ping":59},{"user_id":479,"name":"Dr Smeggman","steam_id":76561197966614845,"connected_time":1205000000000,"state":"active","ping":134},{"user_id":490,"name":"Ion{M}","steam_id":76561197993457435,"connected_time":907000000000,"state":"active","ping":74},{"user_id":447,"name":"Cristanc99","steam_id":76561198114715810,"connected_time":3443000000000,"state":"active","ping":60},{"user_id":456,"name":"Dead Face","steam_id":76561198857643139,"connected_time":3046000000000,"state":"active","ping":57},{"user_id":500,"name":"FinnaBust","steam_id":76561198397669078,"connected_time":385000000000,"state":"active","ping":67},{"user_id":482,"name":"Anyar","steam_id":76561198160174097,"connected_time":1162000000000,"state":"active","ping":77},{"user_id":505,"name":"TTVPlumSmug","steam_id":76561198103960265,"connected_time":14000000000,"state":"spawning","ping":58},{"user_id":470,"name":"Notsocreative","steam_id":76561198236372202,"connected_time":1470000000000,"state":"active","ping":80},{"user_id":495,"name":"Dr. Game and Watch","steam_id":76561197999615565,"connected_time":747000000000,"state":"active","ping":71},{"user_id":496,"name":"deimos","steam_id":76561198148357768,"connected_time":737000000000,"state":"active","ping":73}]},{"server_id":106,"name":"Uncletopia | Chicago | 2 | All Maps","name_short":"chi-2","host":"chi-1.us.uncletopia.com","port":27025,"enabled":true,"region":"us-central","cc":"us","latitude":41.881832,"longitude":-87.62318,"reserved":0,"last_update":"0001-01-01T00:00:00Z","name_a2s":"Uncletopia | Chicago | 2 | All Maps","protocol":17,"map":"pl_badwater","folder":"tf","game":"Team Fortress","app_id":440,"player_count":24,"max_players":24,"Bots":0,"server_type":"Dedicated","server_os":"Linux","password":true,"vac":true,"version":"7961495","steam_id":85568392924469985,"keywords":["nocrits","nodmgspread","payload","uncletopia"],"game_id":440,"stv_port":27026,"stv_name":"Uncletopia | Chicago | 2 | All Maps | STV","players":[{"user_id":587,"name":"purple diesel","steam_id":76561197976548449,"connected_time":2916000000000,"state":"active","ping":86},{"user_id":629,"name":"Tom","steam_id":76561198139202942,"connected_time":231000000000,"state":"active","ping":69},{"user_id":601,"name":"Silverio","steam_id":76561197999425381,"connected_time":2409000000000,"state":"active","ping":70},{"user_id":627,"name":"Deluxe_Taco34","steam_id":76561199037653437,"connected_time":418000000000,"state":"active","ping":113},{"user_id":635,"name":"BIG DUKE","steam_id":76561198041005562,"connected_time":2000000000,"state":"spawning","ping":39},{"user_id":599,"name":"crippledfrog133.‡∂û","steam_id":76561198115458307,"connected_time":2477000000000,"state":"active","ping":105},{"user_id":628,"name":"Real","steam_id":76561198119315680,"connected_time":300000000000,"state":"active","ping":55},{"user_id":497,"name":"Swash","steam_id":76561197969421355,"connected_time":7887000000000,"state":"active","ping":49},{"user_id":631,"name":"Lucide","steam_id":76561197998530400,"connected_time":203000000000,"state":"active","ping":103},{"user_id":608,"name":"Jesus","steam_id":76561198018890911,"connected_time":1980000000000,"state":"active","ping":69},{"user_id":607,"name":"GOLD WASH OVER ME","steam_id":76561198073630276,"connected_time":1998000000000,"state":"active","ping":56},{"user_id":623,"name":"whathashit69","steam_id":76561199013105760,"connected_time":916000000000,"state":"active","ping":122},{"user_id":633,"name":"Hamlindigo Blue‚Ñ¢","steam_id":76561198116337540,"connected_time":149000000000,"state":"active","ping":78},{"user_id":634,"name":"Hovg9000","steam_id":76561199191556710,"connected_time":134000000000,"state":"active","ping":83},{"user_id":625,"name":"Surin","steam_id":76561198008953177,"connected_time":679000000000,"state":"active","ping":78},{"user_id":616,"name":"Rya‚ò∫","steam_id":76561198370128860,"connected_time":1146000000000,"state":"active","ping":70},{"user_id":622,"name":"üçíbutaüçí","steam_id":76561198135538212,"connected_time":1070000000000,"state":"active","ping":53},{"user_id":619,"name":"marcus tillius","steam_id":76561197982832274,"connected_time":1124000000000,"state":"active","ping":61},{"user_id":620,"name":"peniblor","steam_id":76561198307923786,"connected_time":1123000000000,"state":"active","ping":132},{"user_id":535,"name":"Kiss Master","steam_id":76561198289572271,"connected_time":6315000000000,"state":"active","ping":82},{"user_id":585,"name":"upside down cat","steam_id":76561198028288349,"connected_time":3033000000000,"state":"active","ping":87},{"user_id":573,"name":"Nobody","steam_id":76561198286486517,"connected_time":3641000000000,"state":"active","ping":59},{"user_id":621,"name":"KYLE KYLESON","steam_id":76561198021920887,"connected_time":1111000000000,"state":"active","ping":37},{"user_id":569,"name":"Lia_Rein","steam_id":76561198151569597,"connected_time":4011000000000,"state":"active","ping":141}]},{"server_id":402,"name":"Uncletopia | Chicago | 3 | All Maps","name_short":"chi-3","host":"chi-1.us.uncletopia.com","port":27035,"enabled":true,"region":"us-central","cc":"us","latitude":41.881832,"longitude":-87.62318,"reserved":0,"last_update":"0001-01-01T00:00:00Z","name_a2s":"Uncletopia | Chicago | 3 | All Maps","protocol":17,"map":"pl_badwater","folder":"tf","game":"Team Fortress","app_id":440,"player_count":24,"max_players":24,"Bots":0,"server_type":"Dedicated","server_os":"Linux","password":true,"vac":true,"version":"7961495","steam_id":85568392924515191,"keywords":["nocrits","nodmgspread","payload","uncletopia"],"game_id":440,"stv_port":27036,"stv_name":"Uncletopia | Chicago | 3 | All Maps | STV","players":[{"user_id":187,"name":"Joyous Jenny","steam_id":76561198127998866,"connected_time":4549000000000,"state":"active","ping":78},{"user_id":238,"name":"hill of the king","steam_id":76561198099491925,"connected_time":1981000000000,"state":"active","ping":77},{"user_id":215,"name":"Whimsical Bruh","steam_id":76561199069973423,"connected_time":2880000000000,"state":"active","ping":56},{"user_id":256,"name":"YolkOnYou","steam_id":76561198088760655,"connected_time":414000000000,"state":"active","ping":103},{"user_id":232,"name":"Pizza","steam_id":76561198118748364,"connected_time":2171000000000,"state":"active","ping":78},{"user_id":241,"name":"axellinag15","steam_id":76561199188113751,"connected_time":1813000000000,"state":"active","ping":65},{"user_id":257,"name":"AkimboAoki","steam_id":76561198158323058,"connected_time":379000000000,"state":"active","ping":98},{"user_id":258,"name":"ChirurChien","steam_id":76561198010735211,"connected_time":374000000000,"state":"active","ping":140},{"user_id":233,"name":"Scum Knight | T.I.D.K.","steam_id":76561198282444763,"connected_time":2155000000000,"state":"active","ping":63},{"user_id":259,"name":"DankMemes4EV3R","steam_id":76561199012294783,"connected_time":351000000000,"state":"active","ping":59},{"user_id":177,"name":"FireQuiz","steam_id":76561198107357249,"connected_time":5549000000000,"state":"active","ping":103},{"user_id":260,"name":"Paulie Walnuts","steam_id":76561198148078451,"connected_time":351000000000,"state":"active","ping":75},{"user_id":235,"name":"Mixed Up","steam_id":76561198042570322,"connected_time":2122000000000,"state":"active","ping":57},{"user_id":263,"name":"KevilPo","steam_id":76561199244507267,"connected_time":112000000000,"state":"active","ping":71},{"user_id":245,"name":"LavenderSys","steam_id":76561198289106015,"connected_time":1190000000000,"state":"active","ping":81},{"user_id":236,"name":"aurro","steam_id":76561198315692300,"connected_time":2094000000000,"state":"active","ping":45},{"user_id":261,"name":"Zeloznog","steam_id":76561198210031789,"connected_time":251000000000,"state":"active","ping":105},{"user_id":220,"name":"Dokkibai","steam_id":76561198355935693,"connected_time":2757000000000,"state":"active","ping":48},{"user_id":221,"name":"dodecadron","steam_id":76561198027397222,"connected_time":2742000000000,"state":"active","ping":115},{"user_id":237,"name":"Dongus","steam_id":76561197979056451,"connected_time":2094000000000,"state":"active","ping":101},{"user_id":262,"name":"Cranial Brain Trauma","steam_id":76561198055876398,"connected_time":250000000000,"state":"active","ping":56},{"user_id":255,"name":"Bone Malone (bone mafia)","steam_id":76561199062081467,"connected_time":496000000000,"state":"active","ping":85},{"user_id":223,"name":"Hashmere","steam_id":76561198002797253,"connected_time":2660000000000,"state":"active","ping":83},{"user_id":207,"name":"Tired¬∞","steam_id":76561198072620682,"connected_time":3702000000000,"state":"active","ping":107}]},{"server_id":403,"name":"Uncletopia | Chicago | 4 | All Maps","name_short":"chi-4","host":"chi-1.us.uncletopia.com","port":27045,"enabled":true,"region":"us-central","cc":"us","latitude":41.881832,"longitude":-87.62318,"reserved":0,"last_update":"0001-01-01T00:00:00Z","name_a2s":"Uncletopia | Chicago | 4 | All Maps","protocol":17,"map":"cp_5gorge","folder":"tf","game":"Team Fortress","app_id":440,"player_count":19,"max_players":24,"Bots":0,"server_type":"Dedicated","server_os":"Linux","password":true,"vac":true,"version":"7961495","steam_id":85568392924515193,"keywords":["cp","nocrits","nodmgspread","uncletopia"],"game_id":440,"stv_port":27046,"stv_name":"Uncletopia | Chicago | 4 | All Maps | STV","players":[{"user_id":187,"name":"TheBrocklobster","steam_id":76561198039682984,"connected_time":497000000000,"state":"active","ping":109},{"user_id":184,"name":"Spirit","steam_id":76561198205388573,"connected_time":631000000000,"state":"active","ping":46},{"user_id":194,"name":"swifterino. (f2p)","steam_id":76561199226253326,"connected_time":95000000000,"state":"active","ping":65},{"user_id":144,"name":"The Jar","steam_id":76561198146013385,"connected_time":4398000000000,"state":"active","ping":74},{"user_id":135,"name":"Crombun","steam_id":76561198031559642,"connected_time":4804000000000,"state":"active","ping":76},{"user_id":189,"name":"Thepaperbag","steam_id":76561198992945912,"connected_time":433000000000,"state":"active","ping":65},{"user_id":192,"name":"CupFruit","steam_id":76561198983993193,"connected_time":209000000000,"state":"active","ping":65},{"user_id":193,"name":"Doofenshmirtz Gaming","steam_id":76561198963590002,"connected_time":179000000000,"state":"active","ping":180},{"user_id":180,"name":"frank","steam_id":76561198137777483,"connected_time":906000000000,"state":"active","ping":69},{"user_id":191,"name":"Mung Daal Gaming","steam_id":76561198365878178,"connected_time":363000000000,"state":"active","ping":56},{"user_id":186,"name":"I have no brain \u0026 i must scream","steam_id":76561198141344039,"connected_time":529000000000,"state":"active","ping":77},{"user_id":195,"name":"InchMan","steam_id":76561198272658825,"connected_time":93000000000,"state":"active","ping":292},{"user_id":172,"name":"ekgooby","steam_id":76561198043678479,"connected_time":1697000000000,"state":"active","ping":47},{"user_id":196,"name":"Jerumbo","steam_id":76561198920780345,"connected_time":77000000000,"state":"active","ping":49},{"user_id":143,"name":"Psychosis","steam_id":76561198078659070,"connected_time":4412000000000,"state":"active","ping":71},{"user_id":197,"name":"SCraig64","steam_id":76561198171251965,"connected_time":63000000000,"state":"active","ping":71},{"user_id":63,"name":"Amtyk","steam_id":76561197979130554,"connected_time":9499000000000,"state":"active","ping":63},{"user_id":173,"name":"dark souls boss","steam_id":76561198316610724,"connected_time":1696000000000,"state":"active","ping":92},{"user_id":198,"name":"UnforeseenCabbages","steam_id":76561198079386608,"connected_time":58000000000,"state":"active","ping":75}]},{"server_id":36,"name":"Uncletopia | Chicago | 5 | All Maps","name_short":"chi-5","host":"chi-2.us.uncletopia.com","port":27015,"enabled":true,"region":"us-central","cc":"us","latitude":41.881832,"longitude":-87.62318,"reserved":0,"last_update":"0001-01-01T00:00:00Z","name_a2s":"Uncletopia | Chicago | 5 | All Maps","protocol":17,"map":"pl_upward","folder":"tf","game":"Team Fortress","app_id":440,"player_count":21,"max_players":24,"Bots":0,"server_type":"Dedicated","server_os":"Linux","password":true,"vac":true,"version":"7961495","steam_id":85568392924866362,"keywords":["nocrits","nodmgspread","payload","uncletopia"],"game_id":440,"stv_port":27016,"stv_name":"Uncletopia | Chicago | 5 | All Maps | STV","players":[{"user_id":204,"name":"Cyberpunk McDonald's Play Place","steam_id":76561198063512035,"connected_time":2568000000000,"state":"active","ping":71},{"user_id":236,"name":"Tommy Pickles (Very Cool)","steam_id":76561198391261463,"connected_time":882000000000,"state":"active","ping":62},{"user_id":234,"name":"„ÇØ„Ç±„Ç§","steam_id":76561198215122444,"connected_time":1018000000000,"state":"active","ping":71},{"user_id":105,"name":"Beebo, Son of Beebo","steam_id":76561198055948497,"connected_time":8414000000000,"state":"active","ping":47},{"user_id":241,"name":"AT. SP2. puff","steam_id":76561199002203593,"connected_time":46000000000,"state":"spawning","ping":106},{"user_id":193,"name":"Prayut gaming","steam_id":76561198210919945,"connected_time":3558000000000,"state":"active","ping":143},{"user_id":228,"name":"Just washed","steam_id":76561199030160932,"connected_time":1170000000000,"state":"active","ping":75},{"user_id":229,"name":"Zeke l","steam_id":76561198811359709,"connected_time":1146000000000,"state":"active","ping":89},{"user_id":156,"name":"ctf_well","steam_id":76561198016826181,"connected_time":5444000000000,"state":"active","ping":70},{"user_id":238,"name":"IcyScrumpy","steam_id":76561198084605065,"connected_time":651000000000,"state":"active","ping":57},{"user_id":231,"name":"Satchamo","steam_id":76561198012968239,"connected_time":1111000000000,"state":"active","ping":75},{"user_id":206,"name":"twizted","steam_id":76561197960407274,"connected_time":2556000000000,"state":"active","ping":74},{"user_id":222,"name":"turbo shart","steam_id":76561198012351808,"connected_time":1595000000000,"state":"active","ping":145},{"user_id":111,"name":"gorf?","steam_id":76561198142286417,"connected_time":8370000000000,"state":"active","ping":57},{"user_id":163,"name":"Pika","steam_id":76561198068063436,"connected_time":5097000000000,"state":"active","ping":46},{"user_id":216,"name":"Astrocards","steam_id":76561199184079830,"connected_time":1905000000000,"state":"active","ping":56},{"user_id":235,"name":"Vaudeville Villain","steam_id":76561197991063996,"connected_time":932000000000,"state":"active","ping":57},{"user_id":239,"name":"femboy birb","steam_id":76561199198726572,"connected_time":634000000000,"state":"active","ping":79},{"user_id":240,"name":"NL |Quisy","steam_id":76561199441303454,"connected_time":412000000000,"state":"active","ping":86},{"user_id":237,"name":"New Mercenary","steam_id":76561198065921539,"connected_time":826000000000,"state":"active","ping":59},{"user_id":219,"name":"Team Fortress 3","steam_id":76561197961134531,"connected_time":1728000000000,"state":"active","ping":64}]},{"server_id":37,"name":"Uncletopia | Chicago | 6 | All Maps","name_short":"chi-6","host":"chi-2.us.uncletopia.com","port":27025,"enabled":true,"region":"us-central","cc":"us","latitude":41.881832,"longitude":-87.62318,"reserved":0,"last_update":"0001-01-01T00:00:00Z","name_a2s":"Uncletopia | Chicago | 6 | All Maps","protocol":17,"map":"koth_viaduct","folder":"tf","game":"Team Fortress","app_id":440,"player_count":1,"max_players":24,"Bots":0,"server_type":"Dedicated","server_os":"Linux","password":true,"vac":true,"version":"7961495","steam_id":85568392924866363,"keywords":["cp","nocrits","nodmgspread","uncletopia"],"game_id":440,"stv_port":27026,"stv_name":"Uncletopia | Chicago | 6 | All Maps | STV","players":[{"user_id":31,"name":"menonamed","steam_id":76561198199564382,"connected_time":2114000000000,"state":"active","ping":68}]},{"server_id":38,"name":"Uncletopia | Chicago | 7 | Stopwatch","name_short":"chi-7","host":"chi-2.us.uncletopia.com","port":27035,"enabled":true,"region":"us-central","cc":"us","latitude":41.881832,"longitude":-87.62318,"reserved":0,"last_update":"0001-01-01T00:00:00Z","name_a2s":"Uncletopia | Chicago | 7 | Stopwatch","protocol":17,"map":"cp_snakewater_final1","folder":"tf","game":"Team Fortress","app_id":440,"player_count":1,"max_players":24,"Bots":0,"server_type":"Dedicated","server_os":"Linux","password":true,"vac":true,"version":"7961495","steam_id":85568392924866364,"keywords":["cp","nocrits","nodmgspread","uncletopia"],"game_id":440,"stv_port":27036,"stv_name":"Uncletopia | Chicago | 7 | Stopwatch | STV","players":[{"user_id":25,"name":"timmy goodman","steam_id":76561199141433499,"connected_time":255000000000,"state":"active","ping":98}]},{"server_id":39,"name":"Uncletopia | Chicago | 8 | Community","name_short":"chi-8","host":"chi-2.us.uncletopia.com","port":27045,"enabled":true,"region":"us-central","cc":"us","latitude":41.881832,"longitude":-87.62318,"reserved":0,"last_update":"0001-01-01T00:00:00Z","name_a2s":"Uncletopia | Chicago | 8 | Community","protocol":17,"map":"workshop/cp_indulge.ugc528106646","folder":"tf","game":"Team Fortress","app_id":440,"player_count":0,"max_players":24,"Bots":0,"server_type":"Dedicated","server_os":"Linux","password":true,"vac":true,"version":"7961495","steam_id":85568392924866365,"keywords":["cp","nocrits","nodmgspread","uncletopia"],"game_id":440,"stv_port":27046,"stv_name":"Uncletopia | Chicago | 8 | Community | STV","players":null},{"server_id":8,"name":"Uncletopia | Dallas | 1 | All Maps","name_short":"dal-1","host":"dal-1.us.uncletopia.com","port":27015,"enabled":true,"region":"us-central","cc":"us","latitude":32.779167,"longitude":-96.80889,"reserved":0,"last_update":"0001-01-01T00:00:00Z","name_a2s":"Uncletopia | Dallas | 1 | All Maps","protocol":17,"map":"pl_hoodoo_final","folder":"tf","game":"Team Fortress","app_id":440,"player_count":24,"max_players":24,"Bots":0,"server_type":"Dedicated","server_os":"Linux","password":true,"vac":true,"version":"7961495","steam_id":85568392924469986,"keywords":["nocrits","nodmgspread","payload","uncletopia"],"game_id":440,"stv_port":27016,"stv_name":"Uncletopia | Dallas | 1 | All Maps | STV","players":[{"user_id":361,"name":"theManMan","steam_id":76561199488457138,"connected_time":6678000000000,"state":"active","ping":103},{"user_id":428,"name":"„ÄéHazon„Äè","steam_id":76561198119852107,"connected_time":2785000000000,"state":"active","ping":88},{"user_id":455,"name":"Snoman","steam_id":76561197969248675,"connected_time":1086000000000,"state":"active","ping":90},{"user_id":444,"name":"Trapilicious","steam_id":76561198061430457,"connected_time":1567000000000,"state":"active","ping":51},{"user_id":454,"name":"Cresant Ape","steam_id":76561198127425559,"connected_time":1118000000000,"state":"active","ping":61},{"user_id":463,"name":"Major Woody","steam_id":76561198835541533,"connected_time":248000000000,"state":"active","ping":60},{"user_id":470,"name":"McDonald","steam_id":76561199028533497,"connected_time":69000000000,"state":"spawning","ping":104},{"user_id":429,"name":"catfish from toontown","steam_id":76561198060070002,"connected_time":2694000000000,"state":"active","ping":59},{"user_id":443,"name":"vastrobotmax","steam_id":76561198417110724,"connected_time":1601000000000,"state":"active","ping":104},{"user_id":421,"name":"radicalPolio","steam_id":76561197961561855,"connected_time":3093000000000,"state":"active","ping":46},{"user_id":437,"name":"di0sm3lls","steam_id":76561199086139737,"connected_time":2152000000000,"state":"active","ping":72},{"user_id":468,"name":"pabbott123110","steam_id":76561199231739796,"connected_time":136000000000,"state":"active","ping":107},{"user_id":447,"name":"Pork Soda","steam_id":76561198119575082,"connected_time":1516000000000,"state":"active","ping":102},{"user_id":465,"name":"ElectronX","steam_id":76561198116034988,"connected_time":223000000000,"state":"active","ping":87},{"user_id":471,"name":"theranos drip","steam_id":76561198004882625,"connected_time":62000000000,"state":"active","ping":76},{"user_id":462,"name":"Mr. Hankey","steam_id":76561198872852200,"connected_time":457000000000,"state":"active","ping":129},{"user_id":439,"name":"Doop","steam_id":76561198849175421,"connected_time":2102000000000,"state":"active","ping":98},{"user_id":425,"name":"River Rat","steam_id":76561198116383976,"connected_time":2983000000000,"state":"active","ping":118},{"user_id":457,"name":"PhantomGamerModz","steam_id":76561198425172210,"connected_time":1016000000000,"state":"active","ping":63},{"user_id":469,"name":"Phos","steam_id":76561198122339506,"connected_time":114000000000,"state":"active","ping":70},{"user_id":427,"name":"Grand Piano Tuna","steam_id":76561198135137213,"connected_time":2924000000000,"state":"active","ping":50},{"user_id":459,"name":"Stoopnagle","steam_id":76561198011942560,"connected_time":935000000000,"state":"active","ping":104},{"user_id":416,"name":"DlTTO","steam_id":76561199427026752,"connected_time":3305000000000,"state":"active","ping":112},{"user_id":472,"name":"redarcher42","steam_id":76561199027887687,"connected_time":59000000000,"state":"active","ping":77}]},{"server_id":108,"name":"Uncletopia | Dallas | 2 | All Maps","name_short":"dal-2","host":"dal-1.us.uncletopia.com","port":27025,"enabled":true,"region":"us-central","cc":"us","latitude":32.779167,"longitude":-96.80889,"reserved":0,"last_update":"0001-01-01T00:00:00Z","name_a2s":"Uncletopia | Dallas | 2 | All Maps","protocol":17,"map":"cp_dustbowl","folder":"tf","game":"Team Fortress","app_id":440,"player_count":24,"max_players":24,"Bots":0,"server_type":"Dedicated","server_os":"Linux","password":true,"vac":true,"version":"7961495","steam_id":85568392924469988,"keywords":["cp","nocrits","nodmgspread","uncletopia"],"game_id":440,"stv_port":27026,"stv_name":"Uncletopia | Dallas | 2 | All Maps | STV","players":[{"user_id":291,"name":"Menacing","steam_id":76561198009093788,"connected_time":1366000000000,"state":"active","ping":48},{"user_id":292,"name":"uncletopia dallas 2 player","steam_id":76561198412786186,"connected_time":1336000000000,"state":"active","ping":45},{"user_id":304,"name":"Sammich Slinger","steam_id":76561198007644532,"connected_time":625000000000,"state":"active","ping":67},{"user_id":275,"name":"men kisser","steam_id":76561199026721822,"connected_time":2166000000000,"state":"active","ping":85},{"user_id":209,"name":"pafijohn","steam_id":76561198002535190,"connected_time":8367000000000,"state":"active","ping":73},{"user_id":284,"name":"Dosux2","steam_id":76561198390916062,"connected_time":1786000000000,"state":"active","ping":134},{"user_id":276,"name":"TeriyakiDynamite","steam_id":76561198050049346,"connected_time":2154000000000,"state":"active","ping":92},{"user_id":223,"name":"Mellou","steam_id":76561198212048740,"connected_time":6216000000000,"state":"active","ping":53},{"user_id":301,"name":"Bobletoob","steam_id":76561199184464900,"connected_time":946000000000,"state":"active","ping":85},{"user_id":289,"name":"Sam","steam_id":76561199057029718,"connected_time":1491000000000,"state":"active","ping":95},{"user_id":272,"name":"Slokestope","steam_id":76561197992717012,"connected_time":2249000000000,"state":"active","ping":65},{"user_id":300,"name":"Lemonade :3","steam_id":76561199109806211,"connected_time":975000000000,"state":"active","ping":74},{"user_id":302,"name":"Grify","steam_id":76561198012292317,"connected_time":893000000000,"state":"active","ping":97},{"user_id":293,"name":"TamerMushroom64","steam_id":76561199128190180,"connected_time":1308000000000,"state":"active","ping":152},{"user_id":306,"name":"Ursus Ludius","steam_id":76561198025470722,"connected_time":574000000000,"state":"active","ping":91},{"user_id":295,"name":"Jester","steam_id":76561198153102922,"connected_time":1261000000000,"state":"active","ping":60},{"user_id":241,"name":"BIG NOSE","steam_id":76561199374905157,"connected_time":5430000000000,"state":"active","ping":95},{"user_id":296,"name":"An00bis","steam_id":76561198044084508,"connected_time":1252000000000,"state":"active","ping":73},{"user_id":305,"name":"Red","steam_id":76561198001939529,"connected_time":604000000000,"state":"active","ping":86},{"user_id":298,"name":"EliaStar","steam_id":76561198965030150,"connected_time":1177000000000,"state":"active","ping":99},{"user_id":286,"name":"Balloon","steam_id":76561198068498829,"connected_time":1672000000000,"state":"active","ping":82},{"user_id":268,"name":"Wrath","steam_id":76561198103920554,"connected_time":2437000000000,"state":"active","ping":56},{"user_id":299,"name":"Jonatello","steam_id":76561198045699189,"connected_time":1157000000000,"state":"active","ping":111},{"user_id":255,"name":"Lord Mendigo","steam_id":76561198207957111,"connected_time":4744000000000,"state":"active","ping":192}]},{"server_id":404,"name":"Uncletopia | Dallas | 3 | All Maps","name_short":"dal-3","host":"dal-1.us.uncletopia.com","port":27035,"enabled":true,"region":"us-central","cc":"us","latitude":32.779167,"longitude":-96.80889,"reserved":0,"last_update":"0001-01-01T00:00:00Z","name_a2s":"Uncletopia | Dallas | 3 | All Maps","protocol":17,"map":"pl_upward","folder":"tf","game":"Team Fortress","app_id":440,"player_count":0,"max_players":24,"Bots":0,"server_type":"Dedicated","server_os":"Linux","password":true,"vac":true,"version":"7961495","steam_id":85568392924515219,"keywords":["nocrits","nodmgspread","payload","uncletopia"],"game_id":440,"stv_port":27036,"stv_name":"Uncletopia | Dallas | 3 | All Maps | STV","players":null},{"server_id":405,"name":"Uncletopia | Dallas | 4 | Community","name_short":"dal-4","host":"dal-1.us.uncletopia.com","port":27045,"enabled":true,"region":"us-central","cc":"us","latitude":32.779167,"longitude":-96.80889,"reserved":0,"last_update":"0001-01-01T00:00:00Z","name_a2s":"Uncletopia | Dallas | 4 | Community","protocol":17,"map":"pl_pier","folder":"tf","game":"Team Fortress","app_id":440,"player_count":0,"max_players":24,"Bots":0,"server_type":"Dedicated","server_os":"Linux","password":true,"vac":true,"version":"7961495","steam_id":85568392924515220,"keywords":["nocrits","nodmgspread","payload","uncletopia"],"game_id":440,"stv_port":27046,"stv_name":"Uncletopia | Dallas | 4 | Community | STV","players":null},{"server_id":5,"name":"Uncletopia | Frankfurt | 1 | All Maps","name_short":"frk-1","host":"frk-1.de.uncletopia.com","port":27015,"enabled":true,"region":"eu","cc":"de","latitude":50.110924,"longitude":8.682127,"reserved":0,"last_update":"0001-01-01T00:00:00Z","name_a2s":"Uncletopia | Frankfurt | 1 | All Maps","protocol":17,"map":"cp_process_final","folder":"tf","game":"Team Fortress","app_id":440,"player_count":24,"max_players":24,"Bots":0,"server_type":"Dedicated","server_os":"Linux","password":true,"vac":true,"version":"7961495","steam_id":85568392924469989,"keywords":["cp","nocrits","nodmgspread","uncletopia"],"game_id":440,"stv_port":27016,"stv_name":"Uncletopia | Frankfurt | 1 | All Maps | STV","players":[{"user_id":942,"name":"tully","steam_id":76561198058012525,"connected_time":5281000000000,"state":"active","ping":58},{"user_id":971,"name":"Bajas","steam_id":76561198179339326,"connected_time":3485000000000,"state":"active","ping":77},{"user_id":1009,"name":"Sweetcheesus","steam_id":76561198022299033,"connected_time":324000000000,"state":"active","ping":59},{"user_id":1004,"name":"xavier","steam_id":76561198076494034,"connected_time":1216000000000,"state":"active","ping":52},{"user_id":996,"name":"Invicator","steam_id":76561198082895461,"connected_time":1743000000000,"state":"active","ping":52},{"user_id":1001,"name":"QualityRubbish","steam_id":76561198069645046,"connected_time":1385000000000,"state":"active","ping":58},{"user_id":1006,"name":"Solima","steam_id":76561198045349099,"connected_time":468000000000,"state":"active","ping":45},{"user_id":959,"name":"Egor Pomidor","steam_id":76561199175688390,"connected_time":4558000000000,"state":"active","ping":74},{"user_id":1007,"name":"=OKB= P4NTH3R","steam_id":76561197999204603,"connected_time":353000000000,"state":"active","ping":62},{"user_id":987,"name":"Gen","steam_id":76561198021775885,"connected_time":2344000000000,"state":"active","ping":46},{"user_id":1008,"name":"MR BUBBLES","steam_id":76561198019005259,"connected_time":346000000000,"state":"active","ping":101},{"user_id":1019,"name":"KooK","steam_id":76561198805501766,"connected_time":74000000000,"state":"active","ping":73},{"user_id":1018,"name":"agent youppii","steam_id":76561198055264447,"connected_time":96000000000,"state":"active","ping":74},{"user_id":982,"name":"Ozzie","steam_id":76561197992915315,"connected_time":2813000000000,"state":"active","ping":75},{"user_id":977,"name":"Grim the lemon","steam_id":76561199083433988,"connected_time":3245000000000,"state":"active","ping":53},{"user_id":1020,"name":"Artificial.Ignorance","steam_id":76561198453090180,"connected_time":10000000000,"state":"spawning","ping":182},{"user_id":1005,"name":"etc","steam_id":76561197998394797,"connected_time":1206000000000,"state":"active","ping":55},{"user_id":950,"name":"hotdog.enjoyer09@yahoo.com","steam_id":76561198884908952,"connected_time":5194000000000,"state":"active","ping":60},{"user_id":910,"name":"Vershal Smershal","steam_id":76561198116223995,"connected_time":5825000000000,"state":"active","ping":58},{"user_id":1012,"name":"tm`","steam_id":76561197993580412,"connected_time":303000000000,"state":"active","ping":59},{"user_id":1013,"name":"Antomen","steam_id":76561198018565374,"connected_time":302000000000,"state":"active","ping":71},{"user_id":1014,"name":"elijah","steam_id":76561198093936708,"connected_time":298000000000,"state":"active","ping":67},{"user_id":920,"name":"Rarky","steam_id":76561198054398642,"connected_time":5696000000000,"state":"active","ping":54},{"user_id":1017,"name":"samurai karim","steam_id":76561198026409982,"connected_time":250000000000,"state":"active","ping":59}]},{"server_id":110,"name":"Uncletopia | Frankfurt | 2 | All Maps","name_short":"frk-2","host":"frk-1.de.uncletopia.com","port":27025,"enabled":true,"region":"eu","cc":"de","latitude":50.110924,"longitude":8.682127,"reserved":0,"last_update":"0001-01-01T00:00:00Z","name_a2s":"Uncletopia | Frankfurt | 2 | All Maps","protocol":17,"map":"cp_sunshine","folder":"tf","game":"Team Fortress","app_id":440,"player_count":0,"max_players":24,"Bots":0,"server_type":"Dedicated","server_os":"Linux","password":true,"vac":true,"version":"7961495","steam_id":85568392924469990,"keywords":["cp","nocrits","nodmgspread","uncletopia"],"game_id":440,"stv_port":27026,"stv_name":"Uncletopia | Frankfurt | 2 | All Maps | STV","players":null},{"server_id":308,"name":"Uncletopia | Frankfurt | 3 | All Maps","name_short":"frk-3","host":"frk-1.de.uncletopia.com","port":27035,"enabled":true,"region":"eu","cc":"de","latitude":50.110924,"longitude":8.682127,"reserved":0,"last_update":"0001-01-01T00:00:00Z","name_a2s":"Uncletopia | Frankfurt | 3 | All Maps","protocol":17,"map":"cp_snakewater_final1","folder":"tf","game":"Team Fortress","app_id":440,"player_count":4,"max_players":24,"Bots":0,"server_type":"Dedicated","server_os":"Linux","password":true,"vac":true,"version":"7961495","steam_id":85568392924504274,"keywords":["cp","nocrits","nodmgspread","uncletopia"],"game_id":440,"stv_port":27036,"stv_name":"Uncletopia | Frankfurt | 3 | All Maps | STV","players":[{"user_id":731,"name":"REN","steam_id":76561198000596385,"connected_time":412000000000,"state":"active","ping":114},{"user_id":735,"name":"—Ç–µ—Å—Ç–æ—Å—Ç–µ—Ä–æ–Ω–≤–∏–∑–ª\ufffd","steam_id":76561198107146733,"connected_time":332000000000,"state":"active","ping":75},{"user_id":706,"name":"wiserclub6","steam_id":76561198312144351,"connected_time":2894000000000,"state":"active","ping":85},{"user_id":722,"name":"–¥–∂–µ–≥–µ–º–∏ —Ö—ç–ø–∫–∏–Ω–≥—Å","steam_id":76561198131531394,"connected_time":1576000000000,"state":"active","ping":85}]},{"server_id":309,"name":"Uncletopia | Frankfurt | 4 | All Maps","name_short":"frk-4","host":"frk-1.de.uncletopia.com","port":27045,"enabled":true,"region":"eu","cc":"de","latitude":50.110924,"longitude":8.682127,"reserved":0,"last_update":"0001-01-01T00:00:00Z","name_a2s":"Uncletopia | Frankfurt | 4 | All Maps","protocol":17,"map":"cp_sunshine","folder":"tf","game":"Team Fortress","app_id":440,"player_count":24,"max_players":24,"Bots":0,"server_type":"Dedicated","server_os":"Linux","password":true,"vac":true,"version":"7961495","steam_id":85568392924504275,"keywords":["cp","nocrits","nodmgspread","uncletopia"],"game_id":440,"stv_port":27046,"stv_name":"Uncletopia | Frankfurt | 4 | All Maps | STV","players":[{"user_id":389,"name":"finbar","steam_id":76561198056812396,"connected_time":5771000000000,"state":"active","ping":74},{"user_id":474,"name":"Cillian","steam_id":76561199471571148,"connected_time":609000000000,"state":"active","ping":80},{"user_id":426,"name":"rob","steam_id":76561198122211848,"connected_time":3237000000000,"state":"active","ping":82},{"user_id":475,"name":"TidB","steam_id":76561198055342304,"connected_time":428000000000,"state":"active","ping":48},{"user_id":427,"name":"Rodak","steam_id":76561199135986344,"connected_time":3194000000000,"state":"active","ping":58},{"user_id":460,"name":"The Storm That Is Approaching","steam_id":76561198982155864,"connected_time":1084000000000,"state":"active","ping":73},{"user_id":428,"name":"Ash","steam_id":76561198272001890,"connected_time":2800000000000,"state":"active","ping":65},{"user_id":469,"name":"FJADL","steam_id":76561198237008214,"connected_time":894000000000,"state":"active","ping":75},{"user_id":473,"name":"Jimmy Poppadopolos","steam_id":76561198044825612,"connected_time":621000000000,"state":"active","ping":59},{"user_id":393,"name":"CumbustiblePunda","steam_id":76561197974274677,"connected_time":5712000000000,"state":"active","ping":45},{"user_id":464,"name":"flave","steam_id":76561198056372101,"connected_time":1022000000000,"state":"active","ping":64},{"user_id":343,"name":":)","steam_id":76561198181072689,"connected_time":9217000000000,"state":"active","ping":75},{"user_id":445,"name":"im not handicapped","steam_id":76561198254024874,"connected_time":1965000000000,"state":"active","ping":55},{"user_id":432,"name":"Nothing wrong with Lolicon","steam_id":76561198073005560,"connected_time":2599000000000,"state":"active","ping":70},{"user_id":476,"name":"xxxhd saplanan xxx","steam_id":76561199013654524,"connected_time":114000000000,"state":"active","ping":131},{"user_id":441,"name":"Vivid","steam_id":76561198346546144,"connected_time":2400000000000,"state":"active","ping":54},{"user_id":406,"name":"Tony","steam_id":76561198128993838,"connected_time":4895000000000,"state":"active","ping":70},{"user_id":446,"name":"joey deathrun","steam_id":76561198142070141,"connected_time":1964000000000,"state":"active","ping":71},{"user_id":402,"name":"Isak","steam_id":76561198085959762,"connected_time":5141000000000,"state":"active","ping":76},{"user_id":466,"name":"Odin","steam_id":76561198087800030,"connected_time":1003000000000,"state":"active","ping":46},{"user_id":440,"name":"Alienketchup","steam_id":76561197970585162,"connected_time":2543000000000,"state":"active","ping":76},{"user_id":467,"name":"waj","steam_id":76561198053628243,"connected_time":1003000000000,"state":"active","ping":57},{"user_id":448,"name":"mr.resetti","steam_id":76561198974520642,"connected_time":1957000000000,"state":"active","ping":59},{"user_id":451,"name":"MMMonkey | trade.tf","steam_id":76561198118917458,"connected_time":1843000000000,"state":"active","ping":114}]},{"server_id":310,"name":"Uncletopia | Frankfurt | 5 | All Maps","name_short":"frk-5","host":"frk-1.de.uncletopia.com","port":27055,"enabled":true,"region":"eu","cc":"de","latitude":50.110924,"longitude":8.682127,"reserved":0,"last_update":"0001-01-01T00:00:00Z","name_a2s":"Uncletopia | Frankfurt | 5 | All Maps","protocol":17,"map":"pl_snowycoast","folder":"tf","game":"Team Fortress","app_id":440,"player_count":23,"max_players":24,"Bots":0,"server_type":"Dedicated","server_os":"Linux","password":true,"vac":true,"version":"7961495","steam_id":85568392924504277,"keywords":["cp","nocrits","nodmgspread","uncletopia"],"game_id":440,"stv_port":27056,"stv_name":"Uncletopia | Frankfurt | 5 | All Maps | STV","players":[{"user_id":709,"name":"Carangn","steam_id":76561198246522590,"connected_time":1752000000000,"state":"connecting","ping":62},{"user_id":736,"name":"Demo #saveTF2","steam_id":76561198102850854,"connected_time":27000000000,"state":"connecting","ping":51},{"user_id":737,"name":"Stupid G00SE","steam_id":76561198347933433,"connected_time":16000000000,"state":"connecting","ping":78},{"user_id":738,"name":"Arc","steam_id":76561198805049375,"connected_time":11000000000,"state":"connecting","ping":125},{"user_id":729,"name":"Not A Fake Uncletopia Server","steam_id":76561198152871288,"connected_time":668000000000,"state":"connecting","ping":61},{"user_id":692,"name":"proph","steam_id":76561197998803950,"connected_time":2794000000000,"state":"connecting","ping":69},{"user_id":693,"name":"Dizzy","steam_id":76561198010192462,"connected_time":2693000000000,"state":"connecting","ping":73},{"user_id":728,"name":"Dr. Sus","steam_id":76561198344435644,"connected_time":689000000000,"state":"connecting","ping":76},{"user_id":699,"name":"committed to the bit","steam_id":76561198181368101,"connected_time":2306000000000,"state":"connecting","ping":64},{"user_id":680,"name":"Pyep","steam_id":76561199273799263,"connected_time":3230000000000,"state":"connecting","ping":75},{"user_id":730,"name":"filthy","steam_id":76561198089069719,"connected_time":666000000000,"state":"connecting","ping":81},{"user_id":732,"name":"My left foot itches","steam_id":76561198078411001,"connected_time":562000000000,"state":"connecting","ping":89},{"user_id":722,"name":"LOBZIK","steam_id":76561198114830120,"connected_time":1000000000000,"state":"connecting","ping":99},{"user_id":723,"name":"Mati [EST]","steam_id":76561197994743813,"connected_time":979000000000,"state":"spawning","ping":107},{"user_id":715,"name":"gaming (official)","steam_id":76561198106012909,"connected_time":1496000000000,"state":"connecting","ping":66},{"user_id":734,"name":"Suetolog","steam_id":76561199053090212,"connected_time":511000000000,"state":"connecting","ping":71},{"user_id":731,"name":"selzic ‚òÖ","steam_id":76561198068100717,"connected_time":659000000000,"state":"connecting","ping":75},{"user_id":721,"name":"Panzerwaffle","steam_id":76561198030382800,"connected_time":1156000000000,"state":"connecting","ping":59},{"user_id":689,"name":"LionKing","steam_id":76561198023399545,"connected_time":2953000000000,"state":"connecting","ping":64},{"user_id":702,"name":"kori","steam_id":76561198328824242,"connected_time":2199000000000,"state":"connecting","ping":77},{"user_id":727,"name":"Doobloon","steam_id":76561199354240457,"connected_time":744000000000,"state":"connecting","ping":65},{"user_id":706,"name":"slag9","steam_id":76561198056158882,"connected_time":1987000000000,"state":"connecting","ping":170},{"user_id":725,"name":"carno","steam_id":76561198829701958,"connected_time":849000000000,"state":"connecting","ping":81}]},{"server_id":311,"name":"Uncletopia | Frankfurt | 6 | All Maps","name_short":"frk-6","host":"frk-1.de.uncletopia.com","port":27065,"enabled":true,"region":"eu","cc":"de","latitude":50.110924,"longitude":8.682127,"reserved":0,"last_update":"0001-01-01T00:00:00Z","name_a2s":"Uncletopia | Frankfurt | 6 | All Maps","protocol":17,"map":"pl_swiftwater_final1","folder":"tf","game":"Team Fortress","app_id":440,"player_count":21,"max_players":24,"Bots":0,"server_type":"Dedicated","server_os":"Linux","password":true,"vac":true,"version":"7961495","steam_id":85568392924504278,"keywords":["nocrits","nodmgspread","payload","uncletopia"],"game_id":440,"stv_port":27066,"stv_name":"Uncletopia | Frankfurt | 6 | All Maps | STV","players":[{"user_id":774,"name":"Gordo Milanesa","steam_id":76561197995001070,"connected_time":3858000000000,"state":"active","ping":75},{"user_id":810,"name":"Tails8521","steam_id":76561198051747164,"connected_time":44000000000,"state":"active","ping":48},{"user_id":808,"name":"aqpw","steam_id":76561198346638308,"connected_time":285000000000,"state":"active","ping":60},{"user_id":789,"name":"Superior Cheerios","steam_id":76561198099831573,"connected_time":3002000000000,"state":"active","ping":143},{"user_id":809,"name":"golfmastr","steam_id":76561198993144124,"connected_time":51000000000,"state":"active","ping":70},{"user_id":811,"name":"Miguel","steam_id":76561199203829621,"connected_time":41000000000,"state":"active","ping":98},{"user_id":812,"name":"catboy extraordinaire","steam_id":76561197983889333,"connected_time":28000000000,"state":"spawning","ping":94},{"user_id":780,"name":"JustG","steam_id":76561198372638945,"connected_time":3690000000000,"state":"active","ping":61},{"user_id":807,"name":"Relic","steam_id":76561199499093258,"connected_time":359000000000,"state":"active","ping":49},{"user_id":788,"name":"m0‚Åß‚Åß ‚Åß‚Åß‚Åß‚Åßm","steam_id":76561198151388694,"connected_time":3147000000000,"state":"active","ping":62},{"user_id":794,"name":"Someone","steam_id":76561199030195879,"connected_time":2849000000000,"state":"active","ping":58},{"user_id":758,"name":"King Chuck's Suck and Fuck","steam_id":76561198030956814,"connected_time":5683000000000,"state":"active","ping":82},{"user_id":759,"name":"Ross from F.R.I.E.N.D.S.","steam_id":76561198008511665,"connected_time":5640000000000,"state":"active","ping":45},{"user_id":799,"name":"‚ò© Knightz ‚ò©","steam_id":76561198040936414,"connected_time":2625000000000,"state":"active","ping":113},{"user_id":795,"name":"I I | #SaveTF2","steam_id":76561199101935057,"connected_time":2843000000000,"state":"active","ping":92},{"user_id":749,"name":"Butters McKnife","steam_id":76561198007653168,"connected_time":6001000000000,"state":"active","ping":74},{"user_id":781,"name":"Pillow Full Of Spiders","steam_id":76561198249698432,"connected_time":3682000000000,"state":"active","ping":72},{"user_id":773,"name":"Carlo","steam_id":76561198276491098,"connected_time":3864000000000,"state":"active","ping":56},{"user_id":804,"name":"omnibombulator","steam_id":76561198025858897,"connected_time":880000000000,"state":"active","ping":60},{"user_id":729,"name":"Unreliable, funny and dangerous","steam_id":76561198050709790,"connected_time":6917000000000,"state":"active","ping":102},{"user_id":797,"name":"robbie","steam_id":76561198798195287,"connected_time":2809000000000,"state":"active","ping":176}]},{"server_id":23,"name":"Uncletopia | Frankfurt | 7 | Stopwatch","name_short":"frk-7","host":"frk-1.de.uncletopia.com","port":27075,"enabled":true,"region":"eu","cc":"de","latitude":50.110924,"longitude":8.682127,"reserved":0,"last_update":"0001-01-01T00:00:00Z","name_a2s":"Uncletopia | Frankfurt | 7 | Stopwatch","protocol":17,"map":"workshop/pl_vigil_rc10.ugc1266210012","folder":"tf","game":"Team Fortress","app_id":440,"player_count":0,"max_players":24,"Bots":0,"server_type":"Dedicated","server_os":"Linux","password":true,"vac":true,"version":"7961495","steam_id":85568392924742827,"keywords":["nocrits","nodmgspread","payload","uncletopia"],"game_id":440,"stv_port":27076,"stv_name":"Uncletopia | Frankfurt | 7 | Stopwatch | STV","players":null},{"server_id":24,"name":"Uncletopia | Frankfurt | 8 | Community","name_short":"frk-8","host":"frk-1.de.uncletopia.com","port":27085,"enabled":true,"region":"eu","cc":"de","latitude":50.110924,"longitude":8.682127,"reserved":0,"last_update":"0001-01-01T00:00:00Z","name_a2s":"Uncletopia | Frankfurt | 8 | Community","protocol":17,"map":"workshop/cp_villa_b19.ugc2113052569","folder":"tf","game":"Team Fortress","app_id":440,"player_count":0,"max_players":24,"Bots":0,"server_type":"Dedicated","server_os":"Linux","password":true,"vac":true,"version":"7961495","steam_id":85568392924742828,"keywords":["cp","nocrits","nodmgspread","uncletopia"],"game_id":440,"stv_port":27086,"stv_name":"Uncletopia | Frankfurt | 8 | Community | STV","players":null},{"server_id":202,"name":"Uncletopia | Hong Kong | 1 | All Maps","name_short":"hgk-1","host":"hgk-1.hk.uncletopia.com","port":27015,"enabled":true,"region":"asia","cc":"hk","latitude":22.302711,"longitude":114.177216,"reserved":0,"last_update":"0001-01-01T00:00:00Z","name_a2s":"Uncletopia | Hong Kong | 1 | All Maps","protocol":17,"map":"pl_frontier_final","folder":"tf","game":"Team Fortress","app_id":440,"player_count":0,"max_players":24,"Bots":0,"server_type":"Dedicated","server_os":"Linux","password":true,"vac":true,"version":"7961495","steam_id":85568392924494504,"keywords":["nocrits","nodmgspread","payload","uncletopia"],"game_id":440,"stv_port":27016,"stv_name":"Uncletopia | Hong Kong | 1 | All Maps | STV","players":null},{"server_id":1,"name":"Uncletopia | Los Angeles | 1 | All Maps","name_short":"lax-1","host":"lax-1.us.uncletopia.com","port":27015,"enabled":true,"region":"us-west","cc":"us","latitude":33.94279,"longitude":-118.41004,"reserved":0,"last_update":"0001-01-01T00:00:00Z","name_a2s":"Uncletopia | Los Angeles | 1 | All Maps","protocol":17,"map":"pl_upward","folder":"tf","game":"Team Fortress","app_id":440,"player_count":24,"max_players":24,"Bots":0,"server_type":"Dedicated","server_os":"Linux","password":true,"vac":true,"version":"7961495","steam_id":85568392924469991,"keywords":["nocrits","nodmgspread","payload","uncletopia"],"game_id":440,"stv_port":27016,"stv_name":"Uncletopia | Los Angeles | 1 | All Maps | STV","players":[{"user_id":192,"name":"what a fukkin","steam_id":76561198298442983,"connected_time":1113000000000,"state":"active","ping":78},{"user_id":166,"name":"willow","steam_id":76561198068266114,"connected_time":3722000000000,"state":"active","ping":77},{"user_id":130,"name":"elder lich joe biden","steam_id":76561198257134732,"connected_time":5247000000000,"state":"active","ping":88},{"user_id":156,"name":"based, lit, bussin' burrito","steam_id":76561198131567365,"connected_time":3901000000000,"state":"active","ping":70},{"user_id":157,"name":"green bean","steam_id":76561198113099204,"connected_time":3894000000000,"state":"active","ping":45},{"user_id":193,"name":"moe","steam_id":76561198929586245,"connected_time":986000000000,"state":"active","ping":42},{"user_id":173,"name":"Velgrauder","steam_id":76561198848526938,"connected_time":3050000000000,"state":"active","ping":100},{"user_id":174,"name":"flo rida","steam_id":76561198226169704,"connected_time":3038000000000,"state":"active","ping":56},{"user_id":162,"name":"Micah","steam_id":76561198006837982,"connected_time":3794000000000,"state":"active","ping":154},{"user_id":153,"name":"Maid 'n' China","steam_id":76561198423392976,"connected_time":4296000000000,"state":"active","ping":57},{"user_id":199,"name":"milkshaek","steam_id":76561198057737621,"connected_time":749000000000,"state":"active","ping":71},{"user_id":194,"name":"SomeName","steam_id":76561198055637632,"connected_time":980000000000,"state":"active","ping":65},{"user_id":207,"name":"Soft copper wings","steam_id":76561198092317849,"connected_time":19000000000,"state":"active","ping":47},{"user_id":183,"name":"Timmy The Tyrant","steam_id":76561199156409732,"connected_time":2198000000000,"state":"active","ping":72},{"user_id":175,"name":"d4ngerd4n","steam_id":76561198043758735,"connected_time":2774000000000,"state":"active","ping":58},{"user_id":208,"name":"keybuds","steam_id":76561198357664102,"connected_time":0,"state":"spawning","ping":31},{"user_id":186,"name":"JOHN WICK","steam_id":76561198091877422,"connected_time":1847000000000,"state":"active","ping":99},{"user_id":101,"name":"One Frame","steam_id":76561198143287731,"connected_time":7470000000000,"state":"active","ping":61},{"user_id":190,"name":"freeuzi$","steam_id":76561199261157737,"connected_time":1408000000000,"state":"active","ping":46},{"user_id":198,"name":"Pakimari","steam_id":76561199103296453,"connected_time":856000000000,"state":"active","ping":61},{"user_id":149,"name":"Madam Zo-Zo","steam_id":76561198136789464,"connected_time":4512000000000,"state":"active","ping":60},{"user_id":191,"name":"fire","steam_id":76561198044354279,"connected_time":1304000000000,"state":"active","ping":49},{"user_id":150,"name":"K2f","steam_id":76561198049600563,"connected_time":4445000000000,"state":"active","ping":46},{"user_id":202,"name":"Limp Pumpo Discography Fan Club","steam_id":76561198145748479,"connected_time":560000000000,"state":"active","ping":122}]},{"server_id":112,"name":"Uncletopia | Los Angeles | 2 | All Maps","name_short":"lax-2","host":"lax-1.us.uncletopia.com","port":27025,"enabled":true,"region":"us-west","cc":"us","latitude":33.94279,"longitude":-118.41004,"reserved":0,"last_update":"0001-01-01T00:00:00Z","name_a2s":"Uncletopia | Los Angeles | 2 | All Maps","protocol":17,"map":"pl_frontier_final","folder":"tf","game":"Team Fortress","app_id":440,"player_count":0,"max_players":24,"Bots":0,"server_type":"Dedicated","server_os":"Linux","password":true,"vac":true,"version":"7961495","steam_id":85568392924469992,"keywords":["nocrits","nodmgspread","payload","uncletopia"],"game_id":440,"stv_port":27026,"stv_name":"Uncletopia | Los Angeles | 2 | All Maps | STV","players":null},{"server_id":324,"name":"Uncletopia | Los Angeles | 3 | All Maps","name_short":"lax-3","host":"lax-1.us.uncletopia.com","port":27035,"enabled":true,"region":"us-west","cc":"us","latitude":33.94279,"longitude":-118.41004,"reserved":0,"last_update":"0001-01-01T00:00:00Z","name_a2s":"Uncletopia | Los Angeles | 3 | All Maps","protocol":17,"map":"koth_viaduct","folder":"tf","game":"Team Fortress","app_id":440,"player_count":0,"max_players":24,"Bots":0,"server_type":"Dedicated","server_os":"Linux","password":true,"vac":true,"version":"7961495","steam_id":85568392924510198,"keywords":["cp","nocrits","nodmgspread","uncletopia"],"game_id":440,"stv_port":27036,"stv_name":"Uncletopia | Los Angeles | 3 | All Maps | STV","players":null},{"server_id":25,"name":"Uncletopia | Los Angeles | 4 | Stopwatch","name_short":"lax-4","host":"lax-1.us.uncletopia.com","port":27045,"enabled":true,"region":"us-west","cc":"us","latitude":33.94279,"longitude":-118.41004,"reserved":0,"last_update":"0001-01-01T00:00:00Z","name_a2s":"Uncletopia | Los Angeles | 4 | Stopwatch","protocol":17,"map":"cp_snakewater_final1","folder":"tf","game":"Team Fortress","app_id":440,"player_count":0,"max_players":24,"Bots":0,"server_type":"Dedicated","server_os":"Linux","password":true,"vac":true,"version":"7961495","steam_id":85568392924510199,"keywords":["cp","nocrits","nodmgspread","uncletopia"],"game_id":440,"stv_port":27046,"stv_name":"Uncletopia | Los Angeles | 4 | Stopwatch | STV","players":null},{"server_id":11,"name":"Uncletopia | London | 1 | All Maps","name_short":"lon-1","host":"lon-1.uk.uncletopia.com","port":27015,"enabled":true,"region":"eu","cc":"gb","latitude":51.509865,"longitude":-0.118092,"reserved":0,"last_update":"0001-01-01T00:00:00Z","name_a2s":"Uncletopia | London | 1 | All Maps","protocol":17,"map":"cp_standin_final","folder":"tf","game":"Team Fortress","app_id":440,"player_count":24,"max_players":24,"Bots":0,"server_type":"Dedicated","server_os":"Linux","password":true,"vac":true,"version":"7961495","steam_id":85568392924367362,"keywords":["cp","nocrits","nodmgspread","uncletopia"],"game_id":440,"stv_port":27016,"stv_name":"Uncletopia | London | 1 | All Maps | STV","players":[{"user_id":681,"name":"bowchika wowa #SlavaUkraine","steam_id":76561198159564550,"connected_time":2161000000000,"state":"active","ping":72},{"user_id":701,"name":"Aaron","steam_id":76561197990046953,"connected_time":338000000000,"state":"active","ping":52},{"user_id":616,"name":"albert","steam_id":76561198353496134,"connected_time":8965000000000,"state":"active","ping":60},{"user_id":653,"name":"Zamorocian","steam_id":76561198076604017,"connected_time":4445000000000,"state":"active","ping":37},{"user_id":697,"name":"Charlie Brown","steam_id":76561199378865926,"connected_time":403000000000,"state":"active","ping":80},{"user_id":694,"name":"Stefman","steam_id":76561199025104038,"connected_time":434000000000,"state":"active","ping":42},{"user_id":674,"name":"lulebalule","steam_id":76561199211194890,"connected_time":2497000000000,"state":"active","ping":90},{"user_id":698,"name":"MG","steam_id":76561197992591715,"connected_time":400000000000,"state":"active","ping":73},{"user_id":695,"name":"i uber snipers","steam_id":76561198451638173,"connected_time":433000000000,"state":"active","ping":67},{"user_id":631,"name":"shooer!","steam_id":76561198110531281,"connected_time":7698000000000,"state":"active","ping":76},{"user_id":676,"name":"Minimi","steam_id":76561198873850443,"connected_time":2486000000000,"state":"active","ping":49},{"user_id":684,"name":"Anri Okita's Massive Milkers","steam_id":76561199186352720,"connected_time":1877000000000,"state":"active","ping":52},{"user_id":685,"name":"gibb (heLP HELP HELP)","steam_id":76561198074097655,"connected_time":1755000000000,"state":"active","ping":61},{"user_id":703,"name":"Mirror","steam_id":76561197963954925,"connected_time":211000000000,"state":"active","ping":30},{"user_id":673,"name":"Kphi(i)","steam_id":76561198970587061,"connected_time":2516000000000,"state":"active","ping":56},{"user_id":691,"name":"Slifer the SKY FURRY","steam_id":76561198062255803,"connected_time":1256000000000,"state":"active","ping":67},{"user_id":671,"name":"jimmy bob","steam_id":76561198319583692,"connected_time":2521000000000,"state":"active","ping":61},{"user_id":669,"name":"Skinny101","steam_id":76561197985599360,"connected_time":2660000000000,"state":"active","ping":53},{"user_id":699,"name":"Heisenburg on crak","steam_id":76561198318350624,"connected_time":395000000000,"state":"active","ping":76},{"user_id":672,"name":"KnugenIV","steam_id":76561198127091993,"connected_time":2519000000000,"state":"active","ping":59},{"user_id":700,"name":"BreadBubbles","steam_id":76561198174332826,"connected_time":382000000000,"state":"active","ping":56},{"user_id":686,"name":"map","steam_id":76561198370196400,"connected_time":1543000000000,"state":"active","ping":85},{"user_id":634,"name":"GoblinGaming (Jimmy Cob)","steam_id":76561198360395476,"connected_time":7360000000000,"state":"active","ping":31},{"user_id":688,"name":"ein","steam_id":76561198152162834,"connected_time":1316000000000,"state":"active","ping":106}]},{"server_id":114,"name":"Uncletopia | London | 2 | All Maps","name_short":"lon-2","host":"lon-1.uk.uncletopia.com","port":27025,"enabled":true,"region":"eu","cc":"gb","latitude":51.509865,"longitude":-0.118092,"reserved":0,"last_update":"0001-01-01T00:00:00Z","name_a2s":"Uncletopia | London | 2 | All Maps","protocol":17,"map":"pl_barnblitz","folder":"tf","game":"Team Fortress","app_id":440,"player_count":0,"max_players":24,"Bots":0,"server_type":"Dedicated","server_os":"Linux","password":true,"vac":true,"version":"7961495","steam_id":85568392924470941,"keywords":["nocrits","nodmgspread","payload","uncletopia"],"game_id":440,"stv_port":27026,"stv_name":"Uncletopia | London | 2 | All Maps | STV","players":null},{"server_id":320,"name":"Uncletopia | London | 3 | All Maps","name_short":"lon-3","host":"lon-1.uk.uncletopia.com","port":27035,"enabled":true,"region":"eu","cc":"gb","latitude":51.509865,"longitude":-0.118092,"reserved":0,"last_update":"0001-01-01T00:00:00Z","name_a2s":"Uncletopia | London | 3 | All Maps","protocol":17,"map":"koth_cascade","folder":"tf","game":"Team Fortress","app_id":440,"player_count":0,"max_players":24,"Bots":0,"server_type":"Dedicated","server_os":"Linux","password":true,"vac":true,"version":"7961495","steam_id":85568392924510192,"keywords":["cp","nocrits","nodmgspread","uncletopia"],"game_id":440,"stv_port":27036,"stv_name":"Uncletopia | London | 3 | All Maps | STV","players":null},{"server_id":321,"name":"Uncletopia | London | 4 | All Maps","name_short":"lon-4","host":"lon-1.uk.uncletopia.com","port":27045,"enabled":true,"region":"eu","cc":"gb","latitude":51.509865,"longitude":-0.118092,"reserved":0,"last_update":"0001-01-01T00:00:00Z","name_a2s":"Uncletopia | London | 4 | All Maps","protocol":17,"map":"cp_dustbowl","folder":"tf","game":"Team Fortress","app_id":440,"player_count":24,"max_players":24,"Bots":0,"server_type":"Dedicated","server_os":"Linux","password":true,"vac":true,"version":"7961495","steam_id":85568392924510193,"keywords":["cp","nocrits","nodmgspread","uncletopia"],"game_id":440,"stv_port":27046,"stv_name":"Uncletopia | London | 4 | All Maps | STV","players":[{"user_id":861,"name":"Tornado","steam_id":76561198025684320,"connected_time":743000000000,"state":"active","ping":40},{"user_id":823,"name":"puck","steam_id":76561198121260981,"connected_time":2064000000000,"state":"active","ping":39},{"user_id":837,"name":"mash","steam_id":76561198367669395,"connected_time":1757000000000,"state":"active","ping":97},{"user_id":851,"name":"Gotharski","steam_id":76561198012263719,"connected_time":967000000000,"state":"active","ping":89},{"user_id":846,"name":"Veteranjr","steam_id":76561197999836556,"connected_time":1184000000000,"state":"active","ping":59},{"user_id":856,"name":"Beeg","steam_id":76561198152269182,"connected_time":891000000000,"state":"active","ping":59},{"user_id":865,"name":"Korki","steam_id":76561198146829203,"connected_time":449000000000,"state":"active","ping":87},{"user_id":866,"name":"Woman (Real)","steam_id":76561199151823932,"connected_time":445000000000,"state":"active","ping":81},{"user_id":810,"name":"robindarozzer","steam_id":76561198118198074,"connected_time":2428000000000,"state":"active","ping":60},{"user_id":854,"name":"bl0ke","steam_id":76561198012526576,"connected_time":922000000000,"state":"active","ping":274},{"user_id":859,"name":"Saken","steam_id":76561198049075295,"connected_time":779000000000,"state":"active","ping":60},{"user_id":812,"name":"JarvoH","steam_id":76561198322804182,"connected_time":2387000000000,"state":"active","ping":54},{"user_id":863,"name":"Niyaah","steam_id":76561198110209191,"connected_time":623000000000,"state":"active","ping":64},{"user_id":870,"name":"Osama bin Harden","steam_id":76561198152681460,"connected_time":41000000000,"state":"active","ping":77},{"user_id":818,"name":"Hans The Orange","steam_id":76561198082167183,"connected_time":2204000000000,"state":"active","ping":70},{"user_id":838,"name":"angry russian man","steam_id":76561198386712795,"connected_time":1745000000000,"state":"active","ping":47},{"user_id":844,"name":"ChottageKeys","steam_id":76561198049312442,"connected_time":1437000000000,"state":"active","ping":49},{"user_id":869,"name":"dingledong","steam_id":76561198287096215,"connected_time":49000000000,"state":"active","ping":73},{"user_id":822,"name":"Lewylow","steam_id":76561198005425686,"connected_time":2084000000000,"state":"active","ping":53},{"user_id":824,"name":"wG toemas_","steam_id":76561198156188209,"connected_time":2060000000000,"state":"active","ping":45},{"user_id":825,"name":"hubert","steam_id":76561198057722639,"connected_time":2035000000000,"state":"active","ping":74},{"user_id":826,"name":"Agon","steam_id":76561198982948437,"connected_time":2033000000000,"state":"active","ping":87},{"user_id":827,"name":"smiley","steam_id":76561198042245117,"connected_time":2022000000000,"state":"active","ping":73},{"user_id":832,"name":"child cruncher","steam_id":76561199376433147,"connected_time":1889000000000,"state":"active","ping":49}]},{"server_id":21,"name":"Uncletopia | London | 5 | All Maps","name_short":"lon-5","host":"lon-1.uk.uncletopia.com","port":27055,"enabled":true,"region":"eu","cc":"gb","latitude":51.509865,"longitude":-0.118092,"reserved":0,"last_update":"0001-01-01T00:00:00Z","name_a2s":"Uncletopia | London | 5 | All Maps","protocol":17,"map":"koth_cascade","folder":"tf","game":"Team Fortress","app_id":440,"player_count":23,"max_players":24,"Bots":0,"server_type":"Dedicated","server_os":"Linux","password":true,"vac":true,"version":"7961495","steam_id":85568392924742829,"keywords":["cp","nocrits","nodmgspread","uncletopia"],"game_id":440,"stv_port":27056,"stv_name":"Uncletopia | London | 5 | All Maps | STV","players":[{"user_id":597,"name":"Mother","steam_id":76561198038282957,"connected_time":551000000000,"state":"active","ping":76},{"user_id":587,"name":"Ash","steam_id":76561198148738525,"connected_time":897000000000,"state":"active","ping":97},{"user_id":484,"name":"Demicore","steam_id":76561197976922136,"connected_time":8478000000000,"state":"active","ping":64},{"user_id":568,"name":"MakeItRainbow","steam_id":76561198045098064,"connected_time":1862000000000,"state":"active","ping":60},{"user_id":589,"name":"Equipment of war","steam_id":76561198030563843,"connected_time":654000000000,"state":"active","ping":69},{"user_id":584,"name":"Kamanie","steam_id":76561198135448255,"connected_time":969000000000,"state":"active","ping":60},{"user_id":585,"name":"George W Bush","steam_id":76561198846784757,"connected_time":920000000000,"state":"active","ping":61},{"user_id":590,"name":"VALHALLAH","steam_id":76561198334042273,"connected_time":646000000000,"state":"active","ping":59},{"user_id":461,"name":"Arturias","steam_id":76561198188720263,"connected_time":9233000000000,"state":"active","ping":55},{"user_id":603,"name":"Silver","steam_id":76561198175238807,"connected_time":206000000000,"state":"active","ping":53},{"user_id":591,"name":"Jacob L118","steam_id":76561198128436016,"connected_time":646000000000,"state":"active","ping":94},{"user_id":464,"name":"Nickbro101","steam_id":76561198044271692,"connected_time":9158000000000,"state":"active","ping":45},{"user_id":601,"name":"AftiksPL","steam_id":76561198875182686,"connected_time":323000000000,"state":"active","ping":105},{"user_id":483,"name":"(MAC) [BN] Crazyking","steam_id":76561198001668616,"connected_time":8518000000000,"state":"active","ping":68},{"user_id":551,"name":"Paulo Doutor","steam_id":76561198168674032,"connected_time":2772000000000,"state":"active","ping":85},{"user_id":598,"name":"W","steam_id":76561199501358967,"connected_time":468000000000,"state":"active","ping":72},{"user_id":540,"name":"randompixel","steam_id":76561198003941207,"connected_time":4194000000000,"state":"active","ping":50},{"user_id":599,"name":"Joejee","steam_id":76561199122423976,"connected_time":424000000000,"state":"active","ping":65},{"user_id":580,"name":"Fatmagic Mukbang ASMR","steam_id":76561198063492110,"connected_time":1327000000000,"state":"active","ping":79},{"user_id":561,"name":"The Dumbass","steam_id":76561198833392443,"connected_time":2384000000000,"state":"active","ping":75},{"user_id":595,"name":"SenitorD","steam_id":76561198088916978,"connected_time":567000000000,"state":"active","ping":56},{"user_id":596,"name":"Defender hunter","steam_id":76561198041458028,"connected_time":566000000000,"state":"active","ping":104},{"user_id":602,"name":"Marley","steam_id":76561198067663021,"connected_time":290000000000,"state":"active","ping":46}]},{"server_id":22,"name":"Uncletopia | London | 6 | All Maps","name_short":"lon-6","host":"lon-1.uk.uncletopia.com","port":27065,"enabled":true,"region":"eu","cc":"gb","latitude":51.509865,"longitude":-0.118092,"reserved":0,"last_update":"0001-01-01T00:00:00Z","name_a2s":"Uncletopia | London | 6 | All Maps","protocol":17,"map":"pl_borneo","folder":"tf","game":"Team Fortress","app_id":440,"player_count":24,"max_players":24,"Bots":0,"server_type":"Dedicated","server_os":"Linux","password":true,"vac":true,"version":"7961495","steam_id":85568392924742830,"keywords":["nocrits","nodmgspread","payload","uncletopia"],"game_id":440,"stv_port":27066,"stv_name":"Uncletopia | London | 6 | All Maps | STV","players":[{"user_id":438,"name":"meriones","steam_id":76561198034234373,"connected_time":32000000000,"state":"active","ping":35},{"user_id":391,"name":"wardex","steam_id":76561198058776834,"connected_time":2567000000000,"state":"active","ping":55},{"user_id":376,"name":"Pew","steam_id":76561198425388109,"connected_time":3138000000000,"state":"active","ping":67},{"user_id":375,"name":"JosepXXL","steam_id":76561198407124695,"connected_time":3191000000000,"state":"active","ping":86},{"user_id":431,"name":"BELADIT","steam_id":76561198011911501,"connected_time":364000000000,"state":"active","ping":75},{"user_id":432,"name":"Milk","steam_id":76561198125876588,"connected_time":313000000000,"state":"active","ping":42},{"user_id":369,"name":"Ninjeg","steam_id":76561197995307947,"connected_time":3959000000000,"state":"active","ping":66},{"user_id":437,"name":"swallowed 10 pennies please hel","steam_id":76561198055816412,"connected_time":68000000000,"state":"active","ping":45},{"user_id":421,"name":"Pan","steam_id":76561198436871448,"connected_time":1009000000000,"state":"active","ping":45},{"user_id":381,"name":"frenchie","steam_id":76561198178298931,"connected_time":2996000000000,"state":"active","ping":38},{"user_id":433,"name":"flr","steam_id":76561198249327786,"connected_time":269000000000,"state":"active","ping":89},{"user_id":427,"name":"Vyllckart","steam_id":76561198119172997,"connected_time":587000000000,"state":"active","ping":85},{"user_id":413,"name":"Superiumentarius","steam_id":76561198081642249,"connected_time":1309000000000,"state":"active","ping":60},{"user_id":429,"name":"f0x","steam_id":76561198072921704,"connected_time":469000000000,"state":"active","ping":54},{"user_id":422,"name":"yuck","steam_id":76561197987249568,"connected_time":947000000000,"state":"active","ping":105},{"user_id":409,"name":"soupalognionycrouton","steam_id":76561199021878433,"connected_time":1567000000000,"state":"active","ping":77},{"user_id":435,"name":"FoOzTV","steam_id":76561197998636728,"connected_time":183000000000,"state":"active","ping":54},{"user_id":423,"name":"Shlongulator","steam_id":76561198149779201,"connected_time":775000000000,"state":"active","ping":60},{"user_id":400,"name":"AhYesItsLarry","steam_id":76561198113895325,"connected_time":2260000000000,"state":"active","ping":73},{"user_id":366,"name":"MustangCricket","steam_id":76561197963408317,"connected_time":4125000000000,"state":"active","ping":57},{"user_id":320,"name":"powej","steam_id":76561198056381418,"connected_time":7419000000000,"state":"active","ping":30},{"user_id":418,"name":"Endi","steam_id":76561198914938199,"connected_time":1135000000000,"state":"active","ping":101},{"user_id":436,"name":"Insain Bolt!","steam_id":76561198025687726,"connected_time":152000000000,"state":"active","ping":75},{"user_id":419,"name":"panda","steam_id":76561198215136941,"connected_time":1067000000000,"state":"active","ping":117}]},{"server_id":40,"name":"Uncletopia | London | 7 | Stopwatch","name_short":"lon-7","host":"lon-1.uk.uncletopia.com","port":27075,"enabled":true,"region":"eu","cc":"gb","latitude":51.509865,"longitude":-0.118092,"reserved":0,"last_update":"0001-01-01T00:00:00Z","name_a2s":"Uncletopia | London | 7 | Stopwatch","protocol":17,"map":"koth_highpass","folder":"tf","game":"Team Fortress","app_id":440,"player_count":0,"max_players":24,"Bots":0,"server_type":"Dedicated","server_os":"Linux","password":true,"vac":true,"version":"7961495","steam_id":85568392924964314,"keywords":["cp","nocrits","nodmgspread","uncletopia"],"game_id":440,"stv_port":27076,"stv_name":"Uncletopia | London | 7 | Stopwatch | STV","players":null},{"server_id":41,"name":"Uncletopia | London | 8 | Community","name_short":"lon-8","host":"lon-1.uk.uncletopia.com","port":27085,"enabled":true,"region":"eu","cc":"gb","latitude":51.509865,"longitude":-0.118092,"reserved":0,"last_update":"0001-01-01T00:00:00Z","name_a2s":"Uncletopia | London | 8 | Community","protocol":17,"map":"workshop/pl_cactuscanyon_redux_final2.ugc2579644293","folder":"tf","game":"Team Fortress","app_id":440,"player_count":2,"max_players":24,"Bots":0,"server_type":"Dedicated","server_os":"Linux","password":true,"vac":true,"version":"7961495","steam_id":85568392924964315,"keywords":["nocrits","nodmgspread","payload","uncletopia"],"game_id":440,"stv_port":27086,"stv_name":"Uncletopia | London | 8 | Community | STV","players":[{"user_id":41,"name":"2fort's silliest soldier","steam_id":76561198128613675,"connected_time":1947000000000,"state":"active","ping":76},{"user_id":42,"name":"63756d","steam_id":76561198808699024,"connected_time":1878000000000,"state":"active","ping":71}]},{"server_id":300,"name":"Uncletopia | Montr√©al | 1 | One Thousand Uncles","name_short":"mtl-1","host":"mtl-1.ca.uncletopia.com","port":27015,"enabled":true,"region":"us-east","cc":"ca","latitude":45.50889,"longitude":-73.56167,"reserved":0,"last_update":"0001-01-01T00:00:00Z","name_a2s":"","protocol":0,"map":"","folder":"","game":"","app_id":0,"player_count":0,"max_players":0,"Bots":0,"server_type":"","server_os":"","password":false,"vac":false,"version":"","steam_id":0,"keywords":null,"game_id":0,"stv_port":0,"stv_name":"","players":null},{"server_id":301,"name":"Uncletopia | Montr√©al | 2 | One Thousand Uncles","name_short":"mtl-2","host":"mtl-1.ca.uncletopia.com","port":27025,"enabled":true,"region":"us-east","cc":"ca","latitude":45.50889,"longitude":-73.56167,"reserved":0,"last_update":"0001-01-01T00:00:00Z","name_a2s":"","protocol":0,"map":"","folder":"","game":"","app_id":0,"player_count":0,"max_players":0,"Bots":0,"server_type":"","server_os":"","password":false,"vac":false,"version":"","steam_id":0,"keywords":null,"game_id":0,"stv_port":0,"stv_name":"","players":null},{"server_id":302,"name":"Uncletopia | Montr√©al | 3 | One Thousand Uncles","name_short":"mtl-3","host":"mtl-1.ca.uncletopia.com","port":27035,"enabled":true,"region":"us-east","cc":"ca","latitude":45.50889,"longitude":-73.56167,"reserved":0,"last_update":"0001-01-01T00:00:00Z","name_a2s":"","protocol":0,"map":"","folder":"","game":"","app_id":0,"player_count":0,"max_players":0,"Bots":0,"server_type":"","server_os":"","password":false,"vac":false,"version":"","steam_id":0,"keywords":null,"game_id":0,"stv_port":0,"stv_name":"","players":null},{"server_id":13,"name":"Uncletopia | New York City | 1 | All Maps","name_short":"nyc-1","host":"nyc-1.us.uncletopia.com","port":27015,"enabled":true,"region":"us-east","cc":"us","latitude":40.73061,"longitude":-73.93524,"reserved":0,"last_update":"0001-01-01T00:00:00Z","name_a2s":"Uncletopia | New York City | 1 | All Maps","protocol":17,"map":"koth_nucleus","folder":"tf","game":"Team Fortress","app_id":440,"player_count":21,"max_players":24,"Bots":0,"server_type":"Dedicated","server_os":"Linux","password":true,"vac":true,"version":"7961495","steam_id":85568392924469993,"keywords":["cp","nocrits","nodmgspread","uncletopia"],"game_id":440,"stv_port":27016,"stv_name":"Uncletopia | New York City | 1 | All Maps | STV","players":[{"user_id":539,"name":"Detrimental","steam_id":76561199152388008,"connected_time":2000000000,"state":"spawning","ping":48},{"user_id":537,"name":"bobr","steam_id":76561198292896412,"connected_time":255000000000,"state":"active","ping":61},{"user_id":524,"name":"Prometheus (Zim)","steam_id":76561198045552121,"connected_time":979000000000,"state":"active","ping":97},{"user_id":485,"name":"Bacchus","steam_id":76561198113244990,"connected_time":3633000000000,"state":"active","ping":80},{"user_id":451,"name":"Fish Fisherman","steam_id":76561198018656022,"connected_time":5854000000000,"state":"active","ping":54},{"user_id":534,"name":"Tav, Devourer of Cheeks","steam_id":76561198021688160,"connected_time":483000000000,"state":"active","ping":61},{"user_id":488,"name":"Queso2469","steam_id":76561197993024580,"connected_time":3498000000000,"state":"active","ping":42},{"user_id":535,"name":"Juvice","steam_id":76561198843371502,"connected_time":477000000000,"state":"active","ping":41},{"user_id":525,"name":"ÓÉåÓÅ•HibekiÓÅ•ÓÉå","steam_id":76561198078053347,"connected_time":973000000000,"state":"active","ping":93},{"user_id":529,"name":"MOVEMENTPLAYER bladeefan12","steam_id":76561198274959371,"connected_time":819000000000,"state":"active","ping":53},{"user_id":503,"name":"Boot Mcstink","steam_id":76561199226873917,"connected_time":2322000000000,"state":"active","ping":86},{"user_id":516,"name":"Maurdakar","steam_id":76561197983420976,"connected_time":1397000000000,"state":"active","ping":82},{"user_id":530,"name":"Asanez3","steam_id":76561198037381436,"connected_time":731000000000,"state":"active","ping":59},{"user_id":522,"name":"Sir Metroid","steam_id":76561198091634196,"connected_time":1211000000000,"state":"active","ping":59},{"user_id":531,"name":"feleven","steam_id":76561198853721046,"connected_time":658000000000,"state":"active","ping":54},{"user_id":418,"name":"Neacrock","steam_id":76561199178338856,"connected_time":7601000000000,"state":"active","ping":54},{"user_id":536,"name":"Kreme","steam_id":76561198395851237,"connected_time":416000000000,"state":"active","ping":54},{"user_id":456,"name":"BeerPowder","steam_id":76561198058129400,"connected_time":5614000000000,"state":"active","ping":52},{"user_id":497,"name":"level 5 sentry","steam_id":76561199167176376,"connected_time":3055000000000,"state":"active","ping":83},{"user_id":533,"name":"mostly ham","steam_id":76561199479937232,"connected_time":555000000000,"state":"active","ping":69},{"user_id":499,"name":"Wahooka","steam_id":76561197962240925,"connected_time":2896000000000,"state":"active","ping":45}]},{"server_id":14,"name":"Uncletopia | New York City | 2 | All Maps","name_short":"nyc-2","host":"nyc-1.us.uncletopia.com","port":27025,"enabled":true,"region":"us-east","cc":"us","latitude":40.73061,"longitude":-73.93524,"reserved":0,"last_update":"0001-01-01T00:00:00Z","name_a2s":"Uncletopia | New York City | 2 | All Maps","protocol":17,"map":"pl_swiftwater_final1","folder":"tf","game":"Team Fortress","app_id":440,"player_count":24,"max_players":24,"Bots":0,"server_type":"Dedicated","server_os":"Linux","password":true,"vac":true,"version":"7961495","steam_id":85568392924469994,"keywords":["nocrits","nodmgspread","payload","uncletopia"],"game_id":440,"stv_port":27026,"stv_name":"Uncletopia | New York City | 2 | All Maps | STV","players":[{"user_id":338,"name":"Alejandro","steam_id":76561197970051493,"connected_time":5319000000000,"state":"active","ping":128},{"user_id":418,"name":"icerim","steam_id":76561199230463098,"connected_time":918000000000,"state":"active","ping":77},{"user_id":420,"name":"Cat on Your Porch","steam_id":76561197979078330,"connected_time":791000000000,"state":"active","ping":64},{"user_id":431,"name":"Gregory","steam_id":76561198188140871,"connected_time":463000000000,"state":"active","ping":63},{"user_id":342,"name":"Fog_Ballistic","steam_id":76561199074395345,"connected_time":4588000000000,"state":"active","ping":77},{"user_id":436,"name":"The Scourt","steam_id":76561198290866348,"connected_time":238000000000,"state":"active","ping":62},{"user_id":437,"name":"TF2 Ham","steam_id":76561199024930552,"connected_time":182000000000,"state":"active","ping":69},{"user_id":395,"name":"GESB","steam_id":76561198158584845,"connected_time":1803000000000,"state":"active","ping":59},{"user_id":422,"name":"LuckyTaco","steam_id":76561198871931383,"connected_time":773000000000,"state":"active","ping":65},{"user_id":345,"name":"Put A Fork In The Microwave","steam_id":76561199449924929,"connected_time":4558000000000,"state":"active","ping":102},{"user_id":347,"name":"Alex","steam_id":76561198829752579,"connected_time":4551000000000,"state":"active","ping":72},{"user_id":425,"name":"Person","steam_id":76561198093244204,"connected_time":703000000000,"state":"active","ping":65},{"user_id":438,"name":"Pattar","steam_id":76561198146276146,"connected_time":146000000000,"state":"active","ping":64},{"user_id":434,"name":"Top Frog","steam_id":76561198072793446,"connected_time":339000000000,"state":"active","ping":83},{"user_id":370,"name":"Mr_MagicMan","steam_id":76561198372713689,"connected_time":3556000000000,"state":"active","ping":121},{"user_id":388,"name":"Salam Ibn'dur","steam_id":76561198155872356,"connected_time":2404000000000,"state":"active","ping":35},{"user_id":428,"name":"Mipsiek","steam_id":76561198164013471,"connected_time":592000000000,"state":"active","ping":53},{"user_id":336,"name":"ninety9dragonfly","steam_id":76561198363406983,"connected_time":5343000000000,"state":"active","ping":126},{"user_id":383,"name":"Goat","steam_id":76561198068447650,"connected_time":2515000000000,"state":"active","ping":94},{"user_id":374,"name":"milk","steam_id":76561198813251405,"connected_time":3503000000000,"state":"active","ping":55},{"user_id":435,"name":"Plinko","steam_id":76561198884912425,"connected_time":308000000000,"state":"active","ping":53},{"user_id":430,"name":"jorjor wells","steam_id":76561199073429082,"connected_time":538000000000,"state":"active","ping":60},{"user_id":429,"name":"sadako","steam_id":76561198170642407,"connected_time":572000000000,"state":"active","ping":68},{"user_id":439,"name":"Defect Slay the Spire","steam_id":76561198055855534,"connected_time":45000000000,"state":"active","ping":58}]},{"server_id":15,"name":"Uncletopia | New York City | 3 | Stopwatch","name_short":"nyc-3","host":"nyc-1.us.uncletopia.com","port":27035,"enabled":true,"region":"us-east","cc":"us","latitude":40.73061,"longitude":-73.93524,"reserved":0,"last_update":"0001-01-01T00:00:00Z","name_a2s":"Uncletopia | New York City | 3 | Stopwatch","protocol":17,"map":"pl_snowycoast","folder":"tf","game":"Team Fortress","app_id":440,"player_count":0,"max_players":24,"Bots":0,"server_type":"Dedicated","server_os":"Linux","password":true,"vac":true,"version":"7961495","steam_id":85568392924742820,"keywords":["nocrits","nodmgspread","payload","uncletopia"],"game_id":440,"stv_port":27036,"stv_name":"Uncletopia | New York City | 3 | Stopwatch | STV","players":null},{"server_id":16,"name":"Uncletopia | New York City | 4 | Community","name_short":"nyc-4","host":"nyc-1.us.uncletopia.com","port":27045,"enabled":true,"region":"us-east","cc":"us","latitude":40.73061,"longitude":-73.93524,"reserved":0,"last_update":"0001-01-01T00:00:00Z","name_a2s":"Uncletopia | New York City | 4 | Community","protocol":17,"map":"workshop/koth_product_final.ugc454272353","folder":"tf","game":"Team Fortress","app_id":440,"player_count":0,"max_players":24,"Bots":0,"server_type":"Dedicated","server_os":"Linux","password":true,"vac":true,"version":"7961495","steam_id":85568392924742821,"keywords":["cp","nocrits","nodmgspread","uncletopia"],"game_id":440,"stv_port":27046,"stv_name":"Uncletopia | New York City | 4 | Community | STV","players":null},{"server_id":142,"name":"Uncletopia | S√£o Paulo | 1 | All Maps","name_short":"sao-1","host":"sao-1.br.uncletopia.com","port":27015,"enabled":true,"region":"sa","cc":"br","latitude":-23.533773,"longitude":-46.62529,"reserved":0,"last_update":"0001-01-01T00:00:00Z","name_a2s":"Uncletopia | S√£o Paulo | 1 | All Maps","protocol":17,"map":"koth_viaduct","folder":"tf","game":"Team Fortress","app_id":440,"player_count":0,"max_players":24,"Bots":0,"server_type":"Dedicated","server_os":"Linux","password":true,"vac":true,"version":"7961495","steam_id":85568392924469996,"keywords":["cp","nocrits","nodmgspread","uncletopia"],"game_id":440,"stv_port":27016,"stv_name":"Uncletopia | S√£o Paulo | 1 | All Maps | STV","players":null},{"server_id":143,"name":"Uncletopia | S√£o Paulo | 2 | Community","name_short":"sao-2","host":"sao-2.br.uncletopia.com","port":27015,"enabled":true,"region":"sa","cc":"br","latitude":-23.533773,"longitude":-46.62529,"reserved":0,"last_update":"0001-01-01T00:00:00Z","name_a2s":"Uncletopia | S√£o Paulo | 2 | Community","protocol":17,"map":"workshop/koth_kemptown_rc1.ugc767410655","folder":"tf","game":"Team Fortress","app_id":440,"player_count":0,"max_players":24,"Bots":0,"server_type":"Dedicated","server_os":"Linux","password":true,"vac":true,"version":"7961495","steam_id":85568392924485349,"keywords":["cp","nocrits","nodmgspread","uncletopia"],"game_id":440,"stv_port":27016,"stv_name":"Uncletopia | S√£o Paulo | 2 | Community | STV","players":null},{"server_id":7,"name":"Uncletopia | Seattle | 1 | All Maps","name_short":"sea-1","host":"sea-1.us.uncletopia.com","port":27015,"enabled":true,"region":"us-west","cc":"us","latitude":47.608013,"longitude":-122.33517,"reserved":0,"last_update":"0001-01-01T00:00:00Z","name_a2s":"Uncletopia | Seattle | 1 | All Maps","protocol":17,"map":"pl_barnblitz","folder":"tf","game":"Team Fortress","app_id":440,"player_count":24,"max_players":24,"Bots":0,"server_type":"Dedicated","server_os":"Linux","password":true,"vac":true,"version":"7961495","steam_id":85568392924469997,"keywords":["nocrits","nodmgspread","payload","uncletopia"],"game_id":440,"stv_port":27016,"stv_name":"Uncletopia | Seattle | 1 | All Maps | STV","players":[{"user_id":67,"name":"Master Of Whales","steam_id":76561198349104889,"connected_time":5398000000000,"state":"active","ping":77},{"user_id":124,"name":"TheMagicMrWaffle","steam_id":76561198104357256,"connected_time":8000000000,"state":"spawning","ping":62},{"user_id":100,"name":"Kohuh","steam_id":76561198861737544,"connected_time":2386000000000,"state":"active","ping":98},{"user_id":120,"name":"Arzee","steam_id":76561198857237473,"connected_time":256000000000,"state":"active","ping":65},{"user_id":68,"name":"rat who can kickflip","steam_id":76561198073620027,"connected_time":5382000000000,"state":"active","ping":44},{"user_id":101,"name":"Doppelg√§nger","steam_id":76561198036730436,"connected_time":2382000000000,"state":"active","ping":72},{"user_id":96,"name":"trackpad gaming | f2p","steam_id":76561198840414371,"connected_time":2474000000000,"state":"active","ping":45},{"user_id":90,"name":"lynks disease no sound","steam_id":76561198043465434,"connected_time":3587000000000,"state":"active","ping":82},{"user_id":112,"name":"purple hatsune miku","steam_id":76561198108844158,"connected_time":653000000000,"state":"active","ping":89},{"user_id":113,"name":"THE man is EPIC","steam_id":76561198085410777,"connected_time":617000000000,"state":"active","ping":111},{"user_id":119,"name":"Fh","steam_id":76561198000903511,"connected_time":387000000000,"state":"active","ping":60},{"user_id":106,"name":"mooney","steam_id":76561199110622484,"connected_time":1551000000000,"state":"active","ping":56},{"user_id":114,"name":"¬´D·µÉ ≥·µè.,,.T·µâ·µê·µñ¬ª","steam_id":76561198018185884,"connected_time":612000000000,"state":"active","ping":37},{"user_id":115,"name":"BLU3","steam_id":76561198059652670,"connected_time":580000000000,"state":"active","ping":49},{"user_id":121,"name":"Byte The Protogen","steam_id":76561199229871383,"connected_time":240000000000,"state":"active","ping":88},{"user_id":94,"name":"Perfume Department","steam_id":76561198128299594,"connected_time":3282000000000,"state":"active","ping":87},{"user_id":122,"name":"hungry kibten","steam_id":76561198184099558,"connected_time":182000000000,"state":"active","ping":34},{"user_id":109,"name":"Darkgigglemonster","steam_id":76561198870649125,"connected_time":1114000000000,"state":"active","ping":84},{"user_id":111,"name":"A UsedNom","steam_id":76561198402832756,"connected_time":795000000000,"state":"active","ping":57},{"user_id":74,"name":"Nom Skirrett","steam_id":76561198014600788,"connected_time":4856000000000,"state":"active","ping":69},{"user_id":116,"name":"wubber","steam_id":76561198286627157,"connected_time":570000000000,"state":"active","ping":76},{"user_id":117,"name":"IcarusIsBestGirl","steam_id":76561198998625008,"connected_time":563000000000,"state":"active","ping":78},{"user_id":123,"name":"Hyguy","steam_id":76561198193608742,"connected_time":170000000000,"state":"active","ping":85},{"user_id":98,"name":"Cosmo","steam_id":76561199085643398,"connected_time":2428000000000,"state":"active","ping":77}]},{"server_id":119,"name":"Uncletopia | Seattle | 2 | All Maps","name_short":"sea-2","host":"sea-1.us.uncletopia.com","port":27025,"enabled":true,"region":"us-west","cc":"us","latitude":47.608013,"longitude":-122.33517,"reserved":0,"last_update":"0001-01-01T00:00:00Z","name_a2s":"Uncletopia | Seattle | 2 | All Maps","protocol":17,"map":"pl_badwater","folder":"tf","game":"Team Fortress","app_id":440,"player_count":24,"max_players":24,"Bots":0,"server_type":"Dedicated","server_os":"Linux","password":true,"vac":true,"version":"7961495","steam_id":85568392924469998,"keywords":["nocrits","nodmgspread","payload","uncletopia"],"game_id":440,"stv_port":27026,"stv_name":"Uncletopia | Seattle | 2 | All Maps | STV","players":[{"user_id":513,"name":"goofy goober","steam_id":76561199024079388,"connected_time":2750000000000,"state":"active","ping":45},{"user_id":495,"name":"nat","steam_id":76561198179923093,"connected_time":3361000000000,"state":"active","ping":87},{"user_id":533,"name":"Greskrendtregk","steam_id":76561197969553142,"connected_time":1002000000000,"state":"active","ping":58},{"user_id":547,"name":"Canned Skull","steam_id":76561198044141498,"connected_time":385000000000,"state":"active","ping":75},{"user_id":493,"name":"doughboy","steam_id":76561198219012928,"connected_time":3450000000000,"state":"active","ping":75},{"user_id":526,"name":"Shrimps","steam_id":76561198983016709,"connected_time":1401000000000,"state":"active","ping":57},{"user_id":548,"name":"Punished Jeff #NeverSimpAgain","steam_id":76561198304252584,"connected_time":332000000000,"state":"active","ping":66},{"user_id":534,"name":"Dimple","steam_id":76561198980324190,"connected_time":990000000000,"state":"active","ping":59},{"user_id":514,"name":"Wheaty","steam_id":76561198003553412,"connected_time":2551000000000,"state":"active","ping":54},{"user_id":550,"name":"UncleMuscles","steam_id":76561198032539981,"connected_time":231000000000,"state":"active","ping":88},{"user_id":551,"name":"Epifiny","steam_id":76561198027958086,"connected_time":155000000000,"state":"active","ping":115},{"user_id":545,"name":"Aeris","steam_id":76561198287271028,"connected_time":466000000000,"state":"active","ping":97},{"user_id":546,"name":"no vc no c","steam_id":76561197989503095,"connected_time":465000000000,"state":"active","ping":157},{"user_id":502,"name":"FlexTape","steam_id":76561198871834867,"connected_time":3108000000000,"state":"active","ping":89},{"user_id":517,"name":"MoonDragon","steam_id":76561198113976591,"connected_time":2365000000000,"state":"active","ping":85},{"user_id":503,"name":"Cowboyfos","steam_id":76561199055740230,"connected_time":3079000000000,"state":"active","ping":67},{"user_id":504,"name":"Amateur Glaswegian","steam_id":76561198030851956,"connected_time":3078000000000,"state":"active","ping":47},{"user_id":518,"name":"wmjledger","steam_id":76561198443046861,"connected_time":2360000000000,"state":"active","ping":51},{"user_id":507,"name":"V A R M I N T","steam_id":76561198417042268,"connected_time":2911000000000,"state":"active","ping":60},{"user_id":549,"name":"limecatcher","steam_id":76561198440239483,"connected_time":282000000000,"state":"active","ping":99},{"user_id":525,"name":"Sock","steam_id":76561198315420000,"connected_time":1797000000000,"state":"active","ping":129},{"user_id":528,"name":"johnny","steam_id":76561198050225055,"connected_time":1072000000000,"state":"active","ping":75},{"user_id":538,"name":"malvery","steam_id":76561198076554933,"connected_time":845000000000,"state":"active","ping":45},{"user_id":539,"name":"Zano","steam_id":76561198066887048,"connected_time":810000000000,"state":"active","ping":72}]},{"server_id":406,"name":"Uncletopia | Seattle | 3 | Stopwatch","name_short":"sea-3","host":"sea-1.us.uncletopia.com","port":27035,"enabled":true,"region":"us-west","cc":"us","latitude":47.608013,"longitude":-122.33517,"reserved":0,"last_update":"0001-01-01T00:00:00Z","name_a2s":"Uncletopia | Seattle | 3 | Stopwatch","protocol":17,"map":"pl_upward","folder":"tf","game":"Team Fortress","app_id":440,"player_count":18,"max_players":24,"Bots":0,"server_type":"Dedicated","server_os":"Linux","password":true,"vac":true,"version":"7961495","steam_id":85568392924515217,"keywords":["nocrits","nodmgspread","payload","uncletopia"],"game_id":440,"stv_port":27036,"stv_name":"Uncletopia | Seattle | 3 | Stopwatch | STV","players":[{"user_id":4,"name":"DIRTSMOKER3000","steam_id":76561198044782657,"connected_time":2768000000000,"state":"active","ping":42},{"user_id":26,"name":"ƒê√Ø…ê»ê…π…¶…Üa","steam_id":76561198981411945,"connected_time":445000000000,"state":"active","ping":156},{"user_id":28,"name":"Seriously Bruh","steam_id":76561198070408485,"connected_time":337000000000,"state":"active","ping":47},{"user_id":10,"name":"Shrek Wazowski","steam_id":76561198811003850,"connected_time":2209000000000,"state":"active","ping":56},{"user_id":11,"name":"limeandjane4","steam_id":76561198304416744,"connected_time":1754000000000,"state":"active","ping":69},{"user_id":19,"name":"stuff","steam_id":76561198190770226,"connected_time":1129000000000,"state":"active","ping":44},{"user_id":27,"name":"Rabblerouser","steam_id":76561198127930963,"connected_time":430000000000,"state":"active","ping":47},{"user_id":15,"name":"TommyBoi","steam_id":76561198025528637,"connected_time":1351000000000,"state":"active","ping":40},{"user_id":16,"name":"Venat","steam_id":76561197997052326,"connected_time":1328000000000,"state":"active","ping":37},{"user_id":17,"name":"Dr.keinmann","steam_id":76561198360305514,"connected_time":1275000000000,"state":"active","ping":55},{"user_id":20,"name":"Joe Biden","steam_id":76561198056170906,"connected_time":1120000000000,"state":"active","ping":130},{"user_id":21,"name":"blue duck the 2nd","steam_id":76561198263142765,"connected_time":1074000000000,"state":"active","ping":74},{"user_id":22,"name":"SlitherDoodle","steam_id":76561198000275473,"connected_time":1050000000000,"state":"active","ping":77},{"user_id":32,"name":"turn around","steam_id":76561198046526036,"connected_time":90000000000,"state":"active","ping":74},{"user_id":30,"name":"EatSomeBEES","steam_id":76561198047334307,"connected_time":246000000000,"state":"active","ping":68},{"user_id":31,"name":"traj_e-d","steam_id":76561199154403199,"connected_time":195000000000,"state":"active","ping":59},{"user_id":33,"name":"Lightning_Mcqueen9","steam_id":76561198135756168,"connected_time":89000000000,"state":"active","ping":73},{"user_id":34,"name":"S1arBoi","steam_id":76561199122465492,"connected_time":0,"state":"spawning","ping":26}]},{"server_id":17,"name":"Uncletopia | San Francisco | 1 | All Maps","name_short":"sfo-1","host":"sfo-1.us.uncletopia.com","port":27015,"enabled":true,"region":"us-west","cc":"us","latitude":37.77397,"longitude":-122.4313,"reserved":0,"last_update":"0001-01-01T00:00:00Z","name_a2s":"Uncletopia | San Francisco | 1 | All Maps","protocol":17,"map":"koth_cascade","folder":"tf","game":"Team Fortress","app_id":440,"player_count":0,"max_players":24,"Bots":0,"server_type":"Dedicated","server_os":"Linux","password":true,"vac":true,"version":"7961495","steam_id":85568392924469999,"keywords":["cp","nocrits","nodmgspread","uncletopia"],"game_id":440,"stv_port":27016,"stv_name":"Uncletopia | San Francisco | 1 | All Maps | STV","players":null},{"server_id":18,"name":"Uncletopia | San Francisco | 2 | All Maps","name_short":"sfo-2","host":"sfo-1.us.uncletopia.com","port":27025,"enabled":true,"region":"us-west","cc":"us","latitude":37.77397,"longitude":-122.4313,"reserved":0,"last_update":"0001-01-01T00:00:00Z","name_a2s":"Uncletopia | San Francisco | 2 | All Maps","protocol":17,"map":"cp_dustbowl","folder":"tf","game":"Team Fortress","app_id":440,"player_count":0,"max_players":24,"Bots":0,"server_type":"Dedicated","server_os":"Linux","password":true,"vac":true,"version":"7961495","steam_id":85568392924470000,"keywords":["cp","nocrits","nodmgspread","uncletopia"],"game_id":440,"stv_port":27026,"stv_name":"Uncletopia | San Francisco | 2 | All Maps | STV","players":null},{"server_id":19,"name":"Uncletopia | San Francisco | 3 | Stopwatch","name_short":"sfo-3","host":"sfo-1.us.uncletopia.com","port":27035,"enabled":true,"region":"us-west","cc":"us","latitude":37.77397,"longitude":-122.4313,"reserved":0,"last_update":"0001-01-01T00:00:00Z","name_a2s":"Uncletopia | San Francisco | 3 | Stopwatch","protocol":17,"map":"pl_pier","folder":"tf","game":"Team Fortress","app_id":440,"player_count":0,"max_players":24,"Bots":0,"server_type":"Dedicated","server_os":"Linux","password":true,"vac":true,"version":"7961495","steam_id":85568392924742824,"keywords":["nocrits","nodmgspread","payload","uncletopia"],"game_id":440,"stv_port":27036,"stv_name":"Uncletopia | San Francisco | 3 | Stopwatch | STV","players":null},{"server_id":20,"name":"Uncletopia | San Francisco | 4 | Community","name_short":"sfo-4","host":"sfo-1.us.uncletopia.com","port":27045,"enabled":true,"region":"us-west","cc":"us","latitude":37.77397,"longitude":-122.4313,"reserved":0,"last_update":"0001-01-01T00:00:00Z","name_a2s":"Uncletopia | San Francisco | 4 | Community","protocol":17,"map":"workshop/koth_ashville_final.ugc2130459942","folder":"tf","game":"Team Fortress","app_id":440,"player_count":0,"max_players":24,"Bots":0,"server_type":"Dedicated","server_os":"Linux","password":true,"vac":true,"version":"7961495","steam_id":85568392924742826,"keywords":["cp","nocrits","nodmgspread","uncletopia"],"game_id":440,"stv_port":27046,"stv_name":"Uncletopia | San Francisco | 4 | Community | STV","players":null},{"server_id":141,"name":"Uncletopia | Sydney | 1 | All Maps","name_short":"syd-1","host":"syd-1.au.uncletopia.com","port":27015,"enabled":true,"region":"au","cc":"au","latitude":-33.865143,"longitude":151.2099,"reserved":0,"last_update":"0001-01-01T00:00:00Z","name_a2s":"Uncletopia | Sydney | 1 | All Maps","protocol":17,"map":"koth_viaduct","folder":"tf","game":"Team Fortress","app_id":440,"player_count":0,"max_players":24,"Bots":0,"server_type":"Dedicated","server_os":"Linux","password":true,"vac":true,"version":"7961495","steam_id":85568392924470001,"keywords":["cp","nocrits","nodmgspread","uncletopia"],"game_id":440,"stv_port":27016,"stv_name":"Uncletopia | Sydney | 1 | All Maps | STV","players":null},{"server_id":123,"name":"Uncletopia | Sydney | 2 | All Maps","name_short":"syd-2","host":"syd-1.au.uncletopia.com","port":27025,"enabled":true,"region":"au","cc":"au","latitude":-33.865143,"longitude":151.2099,"reserved":0,"last_update":"0001-01-01T00:00:00Z","name_a2s":"Uncletopia | Sydney | 2 | All Maps","protocol":17,"map":"koth_lakeside_final","folder":"tf","game":"Team Fortress","app_id":440,"player_count":0,"max_players":24,"Bots":0,"server_type":"Dedicated","server_os":"Linux","password":true,"vac":true,"version":"7961495","steam_id":85568392924470002,"keywords":["cp","nocrits","nodmgspread","uncletopia"],"game_id":440,"stv_port":27026,"stv_name":"Uncletopia | Sydney | 2 | All Maps | STV","players":null},{"server_id":395,"name":"Uncletopia | Sydney | 3 | All Maps","name_short":"syd-3","host":"syd-1.au.uncletopia.com","port":27035,"enabled":true,"region":"au","cc":"au","latitude":-33.865143,"longitude":151.2099,"reserved":0,"last_update":"0001-01-01T00:00:00Z","name_a2s":"Uncletopia | Sydney | 3 | All Maps","protocol":17,"map":"cp_mountainlab","folder":"tf","game":"Team Fortress","app_id":440,"player_count":0,"max_players":24,"Bots":0,"server_type":"Dedicated","server_os":"Linux","password":true,"vac":true,"version":"7961495","steam_id":85568392925194467,"keywords":["cp","nocrits","nodmgspread","uncletopia"],"game_id":440,"stv_port":27036,"stv_name":"Uncletopia | Sydney | 3 | All Maps | STV","players":null},{"server_id":396,"name":"Uncletopia | Sydney | 4 | All Maps","name_short":"syd-4","host":"syd-1.au.uncletopia.com","port":27045,"enabled":true,"region":"au","cc":"au","latitude":-33.865143,"longitude":151.2099,"reserved":0,"last_update":"0001-01-01T00:00:00Z","name_a2s":"Uncletopia | Sydney | 4 | All Maps","protocol":17,"map":"cp_process_final","folder":"tf","game":"Team Fortress","app_id":440,"player_count":0,"max_players":24,"Bots":0,"server_type":"Dedicated","server_os":"Linux","password":true,"vac":true,"version":"7961495","steam_id":85568392925397958,"keywords":["cp","nocrits","nodmgspread","uncletopia"],"game_id":440,"stv_port":27046,"stv_name":"Uncletopia | Sydney | 4 | All Maps | STV","players":null},{"server_id":58,"name":"Uncletopia | Sydney | 5 | Stopwatch","name_short":"syd-5","host":"syd-1.au.uncletopia.com","port":27055,"enabled":true,"region":"au","cc":"au","latitude":-33.865143,"longitude":151.2099,"reserved":0,"last_update":"0001-01-01T00:00:00Z","name_a2s":"Uncletopia | Sydney | 5 | Stopwatch","protocol":17,"map":"pl_frontier_final","folder":"tf","game":"Team Fortress","app_id":440,"player_count":0,"max_players":24,"Bots":0,"server_type":"Dedicated","server_os":"Linux","password":true,"vac":true,"version":"7961495","steam_id":85568392925397959,"keywords":["nocrits","nodmgspread","payload","uncletopia"],"game_id":440,"stv_port":27056,"stv_name":"Uncletopia | Sydney | 5 | Stopwatch | STV","players":null},{"server_id":59,"name":"Uncletopia | Sydney | 6 | Community","name_short":"syd-6","host":"syd-1.au.uncletopia.com","port":27065,"enabled":true,"region":"au","cc":"au","latitude":-33.865143,"longitude":151.2099,"reserved":0,"last_update":"0001-01-01T00:00:00Z","name_a2s":"Uncletopia | Sydney | 6 | Community","protocol":17,"map":"cp_sunshine","folder":"tf","game":"Team Fortress","app_id":440,"player_count":0,"max_players":24,"Bots":0,"server_type":"Dedicated","server_os":"Linux","password":true,"vac":true,"version":"7961495","steam_id":85568392925397960,"keywords":["cp","nocrits","nodmgspread","uncletopia"],"game_id":440,"stv_port":27066,"stv_name":"Uncletopia | Sydney | 6 | Community | STV","players":null},{"server_id":49,"name":"Uncletopia | Warsaw | 1 | One Thousand Uncles","name_short":"waw-1","host":"waw-1.pl.uncletopia.com","port":27015,"enabled":true,"region":"eu","cc":"pl","latitude":52.2297,"longitude":21.017532,"reserved":0,"last_update":"0001-01-01T00:00:00Z","name_a2s":"Uncletopia | Warsaw | 1 | One Thousand Uncles","protocol":17,"map":"cp_egypt_final","folder":"tf","game":"Team Fortress","app_id":440,"player_count":24,"max_players":32,"Bots":16,"server_type":"Dedicated","server_os":"Linux","password":true,"vac":true,"version":"7961495","steam_id":85568392925397850,"keywords":["alltalk","bots","cp","danepve","increased_maxplayers","nocrits","norespawntime","uncletopia"],"game_id":440,"stv_port":0,"stv_name":"","players":[{"user_id":728,"name":"jackthegreenlade","steam_id":76561199468264132,"connected_time":137000000000,"state":"active","ping":107},{"user_id":712,"name":"ourlittlemonkey","steam_id":76561199236499312,"connected_time":3369000000000,"state":"active","ping":226},{"user_id":711,"name":"nelipa84","steam_id":76561199259397833,"connected_time":3618000000000,"state":"active","ping":37},{"user_id":727,"name":"Hapy","steam_id":76561199157398169,"connected_time":624000000000,"state":"active","ping":182},{"user_id":715,"name":"dima_x26","steam_id":76561199202758594,"connected_time":2776000000000,"state":"active","ping":37},{"user_id":690,"name":"Professorstino","steam_id":76561199117907277,"connected_time":6025000000000,"state":"active","ping":156},{"user_id":691,"name":"demo flower","steam_id":76561199401272759,"connected_time":5924000000000,"state":"active","ping":65},{"user_id":725,"name":"witass220","steam_id":76561199111704888,"connected_time":691000000000,"state":"active","ping":54}]},{"server_id":50,"name":"Uncletopia | Warsaw | 2 | One Thousand Uncles","name_short":"waw-2","host":"waw-1.pl.uncletopia.com","port":27025,"enabled":true,"region":"eu","cc":"pl","latitude":52.2297,"longitude":21.017532,"reserved":0,"last_update":"0001-01-01T00:00:00Z","name_a2s":"Uncletopia | Warsaw | 2 | One Thousand Uncles","protocol":17,"map":"pl_upward","folder":"tf","game":"Team Fortress","app_id":440,"player_count":26,"max_players":32,"Bots":16,"server_type":"Dedicated","server_os":"Linux","password":true,"vac":true,"version":"7961495","steam_id":85568392925397851,"keywords":["alltalk","bots","danepve","increased_maxplayers","nocrits","norespawntime","payload","uncletopia"],"game_id":440,"stv_port":0,"stv_name":"","players":[{"user_id":183,"name":"penis atomizer 9000 üè≥Ô∏è?","steam_id":76561198864841966,"connected_time":2134000000000,"state":"active","ping":189},{"user_id":184,"name":"Sidflap","steam_id":76561198041652855,"connected_time":1556000000000,"state":"active","ping":83},{"user_id":186,"name":"DeBozMann_","steam_id":76561198266876790,"connected_time":720000000000,"state":"active","ping":85},{"user_id":177,"name":"bENtO","steam_id":76561198082076676,"connected_time":3071000000000,"state":"active","ping":56},{"user_id":187,"name":"Lucas096br","steam_id":76561198350760997,"connected_time":573000000000,"state":"active","ping":345},{"user_id":172,"name":"C++, Git and Linux Enjoyer","steam_id":76561198277310442,"connected_time":5008000000000,"state":"active","ping":79},{"user_id":180,"name":"Gregor Samsa","steam_id":76561198973069177,"connected_time":2581000000000,"state":"active","ping":60},{"user_id":188,"name":"Mr_Pulse_","steam_id":76561198095001602,"connected_time":542000000000,"state":"active","ping":105},{"user_id":190,"name":"sashagavrilchuk1","steam_id":76561199501726387,"connected_time":411000000000,"state":"active","ping":46},{"user_id":195,"name":"N3lly","steam_id":76561198815271970,"connected_time":63000000000,"state":"active","ping":77}]},{"server_id":51,"name":"Uncletopia | Warsaw | 3 | All Maps","name_short":"waw-3","host":"waw-1.pl.uncletopia.com","port":27035,"enabled":true,"region":"eu","cc":"pl","latitude":52.2297,"longitude":21.017532,"reserved":0,"last_update":"0001-01-01T00:00:00Z","name_a2s":"Uncletopia | Warsaw | 3 | All Maps","protocol":17,"map":"plr_pipeline","folder":"tf","game":"Team Fortress","app_id":440,"player_count":0,"max_players":24,"Bots":0,"server_type":"Dedicated","server_os":"Linux","password":true,"vac":true,"version":"7961495","steam_id":85568392925397852,"keywords":["nocrits","nodmgspread","payload","uncletopia"],"game_id":440,"stv_port":27036,"stv_name":"Uncletopia | Warsaw | 3 | All Maps | STV","players":null},{"server_id":52,"name":"Uncletopia | Warsaw | 4 | All Maps","name_short":"waw-4","host":"waw-1.pl.uncletopia.com","port":27045,"enabled":true,"region":"eu","cc":"pl","latitude":52.2297,"longitude":21.017532,"reserved":0,"last_update":"0001-01-01T00:00:00Z","name_a2s":"Uncletopia | Warsaw | 4 | All Maps","protocol":17,"map":"cp_sunshine","folder":"tf","game":"Team Fortress","app_id":440,"player_count":0,"max_players":24,"Bots":0,"server_type":"Dedicated","server_os":"Linux","password":true,"vac":true,"version":"7961495","steam_id":85568392925397853,"keywords":["cp","nocrits","nodmgspread","uncletopia"],"game_id":440,"stv_port":27046,"stv_name":"Uncletopia | Warsaw | 4 | All Maps | STV","players":null},{"server_id":53,"name":"Uncletopia | Warsaw | 5 | Stopwatch","name_short":"waw-5","host":"waw-1.pl.uncletopia.com","port":27055,"enabled":true,"region":"eu","cc":"pl","latitude":52.2297,"longitude":21.017532,"reserved":0,"last_update":"0001-01-01T00:00:00Z","name_a2s":"Uncletopia | Warsaw | 5 | Stopwatch","protocol":17,"map":"koth_lakeside_final","folder":"tf","game":"Team Fortress","app_id":440,"player_count":0,"max_players":24,"Bots":0,"server_type":"Dedicated","server_os":"Linux","password":true,"vac":true,"version":"7961495","steam_id":85568392925397854,"keywords":["cp","nocrits","nodmgspread","uncletopia"],"game_id":440,"stv_port":27056,"stv_name":"Uncletopia | Warsaw | 5 | Stopwatch | STV","players":null},{"server_id":54,"name":"Uncletopia | Warsaw | 6 | Community","name_short":"waw-6","host":"waw-1.pl.uncletopia.com","port":27065,"enabled":true,"region":"eu","cc":"pl","latitude":52.2297,"longitude":21.017532,"reserved":0,"last_update":"0001-01-01T00:00:00Z","name_a2s":"Uncletopia | Warsaw | 6 | Community","protocol":17,"map":"workshop/koth_ashville_final.ugc2130459942","folder":"tf","game":"Team Fortress","app_id":440,"player_count":0,"max_players":24,"Bots":0,"server_type":"Dedicated","server_os":"Linux","password":true,"vac":true,"version":"7961495","steam_id":85568392925397856,"keywords":["cp","nocrits","nodmgspread","uncletopia"],"game_id":440,"stv_port":27066,"stv_name":"Uncletopia | Warsaw | 6 | Community | STV","players":null}]}