{"status":true,"message":"","result":[{"server_id":9,"name":"Uncletopia | Atlanta | 1 | All Maps","name_short":"atl-1","host":"atl-1.us.uncletopia.com","port":27015,"enabled":true,"region":"us-east","cc":"us","latitude":33.753746,"longitude":-84.38633,"reserved":0,"last_update":"0001-01-01T00:00:00Z","name_a2s":"Uncletopia | Atlanta | 1 | All Maps","protocol":17,"map":"koth_cascade","folder":"tf","game":"Team Fortress","app_id":440,"player_count":24,"max_players":24,"Bots":0,"server_type":"Dedicated","server_os":"Linux","password":true,"vac":true,"version":"7961495","steam_id":85568392924469982,"keywords":["cp","nocrits","nodmgspread","uncletopia"],"game_id":440,"stv_port":27016,"stv_name":"Uncletopia | Atlanta | 1 | All Maps | STV","players":[{"user_id":107,"name":"--_Cook_--","steam_id":76561198080855748,"connected_time":1508000000000,"state":"active","ping":61},{"user_id":124,"name":"Jesus Burgess","steam_id":76561199343316814,"connected_time":91000000000,"state":"active","ping":58},{"user_id":111,"name":"Hvael","steam_id":76561198406463577,"connected_time":1039000000000,"state":"active","ping":75},{"user_id":71,"name":"Lilith","steam_id":76561198125102885,"connected_time":5492000000000,"state":"active","ping":69},{"user_id":120,"name":"Nathan Yeet","steam_id":76561198883966591,"connected_time":672000000000,"state":"active","ping":89},{"user_id":125,"name":"Quomples","steam_id":76561198140996628,"connected_time":30000000000,"state":"spawning","ping":70},{"user_id":89,"name":"CoffeeZombee","steam_id":76561198172708053,"connected_time":3272000000000,"state":"active","ping":74},{"user_id":62,"name":"dr. chungy","steam_id":76561198215559840,"connected_time":6243000000000,"state":"active","ping":60},{"user_id":57,"name":"Young-OG","steam_id":76561198058800479,"connected_time":6980000000000,"state":"active","ping":48},{"user_id":112,"name":"1995 Lexus LS400 II XF20 1UZ-FE","steam_id":76561199036420464,"connected_time":1020000000000,"state":"active","ping":161},{"user_id":72,"name":"NotoriousThicc","steam_id":76561198244650474,"connected_time":5491000000000,"state":"active","ping":106},{"user_id":122,"name":"AlmondMilk","steam_id":76561198151229725,"connected_time":288000000000,"state":"active","ping":97},{"user_id":93,"name":"Immoral Boi","steam_id":76561198069551646,"connected_time":2851000000000,"state":"active","ping":70},{"user_id":118,"name":"Syvant","steam_id":76561198122436709,"connected_time":837000000000,"state":"active","ping":86},{"user_id":101,"name":"TerracottaP","steam_id":76561199402983168,"connected_time":2145000000000,"state":"active","ping":67},{"user_id":113,"name":"stiGGy","steam_id":76561198049311931,"connected_time":1018000000000,"state":"active","ping":90},{"user_id":123,"name":"Bond","steam_id":76561198089262776,"connected_time":284000000000,"state":"active","ping":76},{"user_id":109,"name":"Nymatoid","steam_id":76561199167865978,"connected_time":1091000000000,"state":"active","ping":60},{"user_id":106,"name":"Jaeger","steam_id":76561199392187099,"connected_time":1553000000000,"state":"active","ping":72},{"user_id":117,"name":"james_bondage","steam_id":76561199476062624,"connected_time":914000000000,"state":"active","ping":85},{"user_id":104,"name":"Punchy","steam_id":76561198200000641,"connected_time":2045000000000,"state":"active","ping":68},{"user_id":83,"name":"Oxygen User","steam_id":76561199111975528,"connected_time":4508000000000,"state":"active","ping":67},{"user_id":114,"name":"Ernesto Papalo","steam_id":76561198348586698,"connected_time":988000000000,"state":"active","ping":116},{"user_id":116,"name":"Arrythmia","steam_id":76561198093748123,"connected_time":983000000000,"state":"active","ping":104}]},{"server_id":104,"name":"Uncletopia | Atlanta | 2 | All Maps","name_short":"atl-2","host":"atl-1.us.uncletopia.com","port":27025,"enabled":true,"region":"us-east","cc":"us","latitude":33.753746,"longitude":-84.38633,"reserved":0,"last_update":"0001-01-01T00:00:00Z","name_a2s":"Uncletopia | Atlanta | 2 | All Maps","protocol":17,"map":"pl_thundermountain","folder":"tf","game":"Team Fortress","app_id":440,"player_count":24,"max_players":24,"Bots":0,"server_type":"Dedicated","server_os":"Linux","password":true,"vac":true,"version":"7961495","steam_id":85568392924469983,"keywords":["nocrits","nodmgspread","payload","uncletopia"],"game_id":440,"stv_port":27026,"stv_name":"Uncletopia | Atlanta | 2 | All Maps | STV","players":[{"user_id":102,"name":"Magma","steam_id":76561198108261173,"connected_time":6000000000,"state":"active","ping":93},{"user_id":70,"name":"Primal","steam_id":76561197983118203,"connected_time":1828000000000,"state":"active","ping":89},{"user_id":99,"name":"Ken","steam_id":76561198233988068,"connected_time":341000000000,"state":"active","ping":80},{"user_id":88,"name":"YOU WHAT?!","steam_id":76561198418679471,"connected_time":614000000000,"state":"active","ping":45},{"user_id":101,"name":"he suckin on my rick til i mort","steam_id":76561198310711692,"connected_time":33000000000,"state":"active","ping":166},{"user_id":90,"name":"Xano","steam_id":76561198410316001,"connected_time":554000000000,"state":"active","ping":94},{"user_id":85,"name":"josh","steam_id":76561198110063909,"connected_time":676000000000,"state":"active","ping":58},{"user_id":78,"name":"fuckterry","steam_id":76561198271957738,"connected_time":1091000000000,"state":"active","ping":56},{"user_id":91,"name":"imng","steam_id":76561198014988031,"connected_time":518000000000,"state":"active","ping":60},{"user_id":100,"name":"Vonx Crane","steam_id":76561198205069715,"connected_time":62000000000,"state":"active","ping":183},{"user_id":23,"name":"Gluppo","steam_id":76561198379320087,"connected_time":3788000000000,"state":"active","ping":73},{"user_id":92,"name":"Troyer","steam_id":76561198038005881,"connected_time":506000000000,"state":"active","ping":58},{"user_id":75,"name":"Brown_Dream","steam_id":76561198975766145,"connected_time":1379000000000,"state":"active","ping":80},{"user_id":26,"name":"Grease Magician","steam_id":76561198285410854,"connected_time":3774000000000,"state":"active","ping":93},{"user_id":80,"name":"Lemon","steam_id":76561198108181398,"connected_time":1041000000000,"state":"active","ping":71},{"user_id":93,"name":"Jellojiggler","steam_id":76561198094320477,"connected_time":462000000000,"state":"active","ping":78},{"user_id":94,"name":"Lobco","steam_id":76561199243800888,"connected_time":454000000000,"state":"active","ping":64},{"user_id":79,"name":"kashroomski","steam_id":76561198057076267,"connected_time":1073000000000,"state":"active","ping":75},{"user_id":95,"name":"Faux Booz","steam_id":76561198083755379,"connected_time":447000000000,"state":"active","ping":115},{"user_id":34,"name":"Sunshine","steam_id":76561198885528098,"connected_time":3555000000000,"state":"active","ping":76},{"user_id":96,"name":"Lordofthekevins","steam_id":76561198169066956,"connected_time":444000000000,"state":"active","ping":91},{"user_id":81,"name":"ttv.SweetReverb","steam_id":76561198039256402,"connected_time":963000000000,"state":"active","ping":61},{"user_id":97,"name":"Legit_Jaxer","steam_id":76561198172234053,"connected_time":435000000000,"state":"active","ping":106},{"user_id":98,"name":"inshallah","steam_id":76561198165212575,"connected_time":429000000000,"state":"active","ping":86}]},{"server_id":400,"name":"Uncletopia | Atlanta | 3 | Stopwatch","name_short":"atl-3","host":"atl-1.us.uncletopia.com","port":27035,"enabled":true,"region":"us-east","cc":"us","latitude":33.753746,"longitude":-84.38633,"reserved":0,"last_update":"0001-01-01T00:00:00Z","name_a2s":"Uncletopia | Atlanta | 3 | Stopwatch","protocol":17,"map":"pl_badwater","folder":"tf","game":"Team Fortress","app_id":440,"player_count":0,"max_players":24,"Bots":0,"server_type":"Dedicated","server_os":"Linux","password":true,"vac":true,"version":"7961495","steam_id":85568392924515187,"keywords":["nocrits","nodmgspread","payload","uncletopia"],"game_id":440,"stv_port":27036,"stv_name":"Uncletopia | Atlanta | 3 | Stopwatch | STV","players":null},{"server_id":401,"name":"Uncletopia | Atlanta | 4 | Community","name_short":"atl-4","host":"atl-1.us.uncletopia.com","port":27045,"enabled":true,"region":"us-east","cc":"us","latitude":33.753746,"longitude":-84.38633,"reserved":0,"last_update":"0001-01-01T00:00:00Z","name_a2s":"Uncletopia | Atlanta | 4 | Community","protocol":17,"map":"workshop/cp_overgrown_rc8.ugc503939302","folder":"tf","game":"Team Fortress","app_id":440,"player_count":0,"max_players":24,"Bots":0,"server_type":"Dedicated","server_os":"Linux","password":true,"vac":true,"version":"7961495","steam_id":85568392924515188,"keywords":["cp","nocrits","nodmgspread","uncletopia"],"game_id":440,"stv_port":27046,"stv_name":"Uncletopia | Atlanta | 4 | Community | STV","players":null},{"server_id":2,"name":"Uncletopia | Chicago | 1 | All Maps","name_short":"chi-1","host":"chi-1.us.uncletopia.com","port":27015,"enabled":true,"region":"us-central","cc":"us","latitude":41.881832,"longitude":-87.62318,"reserved":0,"last_update":"0001-01-01T00:00:00Z","name_a2s":"Uncletopia | Chicago | 1 | All Maps","protocol":17,"map":"pl_snowycoast","folder":"tf","game":"Team Fortress","app_id":440,"player_count":24,"max_players":24,"Bots":0,"server_type":"Dedicated","server_os":"Linux","password":true,"vac":true,"version":"7961495","steam_id":85568392924469984,"keywords":["nocrits","nodmgspread","payload","uncletopia"],"game_id":440,"stv_port":27016,"stv_name":"Uncletopia | Chicago | 1 | All Maps | STV","players":[{"user_id":124,"name":"Deluxe_Taco34","steam_id":76561199037653437,"connected_time":3215000000000,"state":"active","ping":113},{"user_id":115,"name":"kasane defender","steam_id":76561199294792123,"connected_time":4325000000000,"state":"active","ping":49},{"user_id":141,"name":"Eomy","steam_id":76561198297783627,"connected_time":1200000000000,"state":"active","ping":79},{"user_id":143,"name":"TittyBoii69","steam_id":76561198096412234,"connected_time":996000000000,"state":"active","ping":61},{"user_id":122,"name":"GuyGoom","steam_id":76561198254522178,"connected_time":3223000000000,"state":"active","ping":60},{"user_id":126,"name":"aurro","steam_id":76561198315692300,"connected_time":3037000000000,"state":"active","ping":55},{"user_id":14,"name":"Nassu","steam_id":76561198147367577,"connected_time":11501000000000,"state":"active","ping":62},{"user_id":100,"name":"glue eater","steam_id":76561198858155238,"connected_time":6146000000000,"state":"active","ping":115},{"user_id":148,"name":"Little Skull Boi","steam_id":76561198093595888,"connected_time":926000000000,"state":"active","ping":91},{"user_id":136,"name":"ุ","steam_id":76561198170624701,"connected_time":2069000000000,"state":"active","ping":77},{"user_id":134,"name":"the.land.of.avalon","steam_id":76561198245431668,"connected_time":2085000000000,"state":"active","ping":58},{"user_id":106,"name":"thrompo","steam_id":76561197996845059,"connected_time":5051000000000,"state":"active","ping":61},{"user_id":84,"name":"ThatGamingKiwi","steam_id":76561199170522237,"connected_time":7464000000000,"state":"active","ping":71},{"user_id":152,"name":"nulldvi","steam_id":76561198009975601,"connected_time":33000000000,"state":"active","ping":70},{"user_id":140,"name":"Beau","steam_id":76561198162587622,"connected_time":1635000000000,"state":"active","ping":68},{"user_id":117,"name":"aiden","steam_id":76561198449527009,"connected_time":3937000000000,"state":"active","ping":80},{"user_id":123,"name":"Clean Lines","steam_id":76561197960691518,"connected_time":3223000000000,"state":"active","ping":58},{"user_id":149,"name":"Murt","steam_id":76561198044013350,"connected_time":886000000000,"state":"active","ping":87},{"user_id":137,"name":"TÖZI","steam_id":76561198045268695,"connected_time":2068000000000,"state":"active","ping":84},{"user_id":130,"name":"the sludge","steam_id":76561198268816354,"connected_time":2962000000000,"state":"active","ping":97},{"user_id":119,"name":"Kritzburgh","steam_id":76561198149466938,"connected_time":3935000000000,"state":"active","ping":61},{"user_id":151,"name":"glensanity","steam_id":76561199500265332,"connected_time":78000000000,"state":"active","ping":70},{"user_id":147,"name":"fresco","steam_id":76561199101199477,"connected_time":950000000000,"state":"active","ping":61},{"user_id":51,"name":"who ate the cheese","steam_id":76561198275408467,"connected_time":10076000000000,"state":"active","ping":45}]},{"server_id":106,"name":"Uncletopia | Chicago | 2 | All Maps","name_short":"chi-2","host":"chi-1.us.uncletopia.com","port":27025,"enabled":true,"region":"us-central","cc":"us","latitude":41.881832,"longitude":-87.62318,"reserved":0,"last_update":"0001-01-01T00:00:00Z","name_a2s":"Uncletopia | Chicago | 2 | All Maps","protocol":17,"map":"pl_badwater","folder":"tf","game":"Team Fortress","app_id":440,"player_count":0,"max_players":24,"Bots":0,"server_type":"Dedicated","server_os":"Linux","password":true,"vac":true,"version":"7961495","steam_id":85568392924469985,"keywords":["nocrits","nodmgspread","payload","uncletopia"],"game_id":440,"stv_port":27026,"stv_name":"Uncletopia | Chicago | 2 | All Maps | STV","players":null},{"server_id":402,"name":"Uncletopia | Chicago | 3 | All Maps","name_short":"chi-3","host":"chi-1.us.uncletopia.com","port":27035,"enabled":true,"region":"us-central","cc":"us","latitude":41.881832,"longitude":-87.62318,"reserved":0,"last_update":"0001-01-01T00:00:00Z","name_a2s":"Uncletopia | Chicago | 3 | All Maps","protocol":17,"map":"pl_upward","folder":"tf","game":"Team Fortress","app_id":440,"player_count":0,"max_players":24,"Bots":0,"server_type":"Dedicated","server_os":"Linux","password":true,"vac":true,"version":"7961495","steam_id":85568392924515191,"keywords":["nocrits","nodmgspread","payload","uncletopia"],"game_id":440,"stv_port":27036,"stv_name":"Uncletopia | Chicago | 3 | All Maps | STV","players":null},{"server_id":403,"name":"Uncletopia | Chicago | 4 | All Maps","name_short":"chi-4","host":"chi-1.us.uncletopia.com","port":27045,"enabled":true,"region":"us-central","cc":"us","latitude":41.881832,"longitude":-87.62318,"reserved":0,"last_update":"0001-01-01T00:00:00Z","name_a2s":"Uncletopia | Chicago | 4 | All Maps","protocol":17,"map":"pl_pier","folder":"tf","game":"Team Fortress","app_id":440,"player_count":20,"max_players":24,"Bots":0,"server_type":"Dedicated","server_os":"Linux","password":true,"vac":true,"version":"7961495","steam_id":85568392924515193,"keywords":["nocrits","nodmgspread","payload","uncletopia"],"game_id":440,"stv_port":27046,"stv_name":"Uncletopia | Chicago | 4 | All Maps | STV","players":[{"user_id":51,"name":"jp_pizza","steam_id":76561198308103061,"connected_time":1466000000000,"state":"connecting","ping":56},{"user_id":17,"name":"GH578","steam_id":76561199493262585,"connected_time":3214000000000,"state":"connecting","ping":123},{"user_id":18,"name":"Jade Greenleaf","steam_id":76561198304845413,"connected_time":3144000000000,"state":"connecting","ping":87},{"user_id":23,"name":"AWGER (don't uber)","steam_id":76561198284683624,"connected_time":2621000000000,"state":"connecting","ping":104},{"user_id":30,"name":"glitch","steam_id":76561197979495589,"connected_time":2065000000000,"state":"connecting","ping":81},{"user_id":53,"name":"Senior_Wrinkles","steam_id":76561198945742114,"connected_time":1404000000000,"state":"connecting","ping":73},{"user_id":47,"name":"Swedish Crowbar","steam_id":76561199105488936,"connected_time":1548000000000,"state":"connecting","ping":150},{"user_id":34,"name":"Kasane","steam_id":76561198209006780,"connected_time":1936000000000,"state":"connecting","ping":80},{"user_id":62,"name":"Dottovu Stan","steam_id":76561198204204055,"connected_time":613000000000,"state":"connecting","ping":81},{"user_id":64,"name":"/dev/null","steam_id":76561198042144148,"connected_time":227000000000,"state":"connecting","ping":96},{"user_id":60,"name":"peter_3178","steam_id":76561199440986678,"connected_time":994000000000,"state":"connecting","ping":92},{"user_id":66,"name":"need a dispenser here","steam_id":76561198060912995,"connected_time":82000000000,"state":"connecting","ping":58},{"user_id":40,"name":"AY azar ambulante","steam_id":76561198862831203,"connected_time":1739000000000,"state":"connecting","ping":198},{"user_id":43,"name":"Rornir","steam_id":76561198081829615,"connected_time":1681000000000,"state":"connecting","ping":50},{"user_id":57,"name":"Mr. Tickle","steam_id":76561198126684647,"connected_time":1142000000000,"state":"connecting","ping":69},{"user_id":50,"name":"4pi3","steam_id":76561199093363610,"connected_time":1509000000000,"state":"connecting","ping":92},{"user_id":52,"name":"Mig_Chungus","steam_id":76561198053410265,"connected_time":1461000000000,"state":"connecting","ping":197}]},{"server_id":36,"name":"Uncletopia | Chicago | 5 | All Maps","name_short":"chi-5","host":"chi-2.us.uncletopia.com","port":27015,"enabled":true,"region":"us-central","cc":"us","latitude":41.881832,"longitude":-87.62318,"reserved":0,"last_update":"0001-01-01T00:00:00Z","name_a2s":"Uncletopia | Chicago | 5 | All Maps","protocol":17,"map":"koth_viaduct","folder":"tf","game":"Team Fortress","app_id":440,"player_count":0,"max_players":24,"Bots":0,"server_type":"Dedicated","server_os":"Linux","password":true,"vac":true,"version":"7961495","steam_id":85568392924866362,"keywords":["cp","nocrits","nodmgspread","uncletopia"],"game_id":440,"stv_port":27016,"stv_name":"Uncletopia | Chicago | 5 | All Maps | STV","players":null},{"server_id":37,"name":"Uncletopia | Chicago | 6 | All Maps","name_short":"chi-6","host":"chi-2.us.uncletopia.com","port":27025,"enabled":true,"region":"us-central","cc":"us","latitude":41.881832,"longitude":-87.62318,"reserved":0,"last_update":"0001-01-01T00:00:00Z","name_a2s":"Uncletopia | Chicago | 6 | All Maps","protocol":17,"map":"pl_pier","folder":"tf","game":"Team Fortress","app_id":440,"player_count":0,"max_players":24,"Bots":0,"server_type":"Dedicated","server_os":"Linux","password":true,"vac":true,"version":"7961495","steam_id":85568392924866363,"keywords":["nocrits","nodmgspread","payload","uncletopia"],"game_id":440,"stv_port":27026,"stv_name":"Uncletopia | Chicago | 6 | All Maps | STV","players":null},{"server_id":38,"name":"Uncletopia | Chicago | 7 | Stopwatch","name_short":"chi-7","host":"chi-2.us.uncletopia.com","port":27035,"enabled":true,"region":"us-central","cc":"us","latitude":41.881832,"longitude":-87.62318,"reserved":0,"last_update":"0001-01-01T00:00:00Z","name_a2s":"Uncletopia | Chicago | 7 | Stopwatch","protocol":17,"map":"pl_badwater","folder":"tf","game":"Team Fortress","app_id":440,"player_count":0,"max_players":24,"Bots":0,"server_type":"Dedicated","server_os":"Linux","password":true,"vac":true,"version":"7961495","steam_id":85568392924866364,"keywords":["nocrits","nodmgspread","payload","uncletopia"],"game_id":440,"stv_port":27036,"stv_name":"Uncletopia | Chicago | 7 | Stopwatch | STV","players":null},{"server_id":39,"name":"Uncletopia | Chicago | 8 | Community","name_short":"chi-8","host":"chi-2.us.uncletopia.com","port":27045,"enabled":true,"region":"us-central","cc":"us","latitude":41.881832,"longitude":-87.62318,"reserved":0,"last_update":"0001-01-01T00:00:00Z","name_a2s":"Uncletopia | Chicago | 8 | Community","protocol":17,"map":"pl_pier","folder":"tf","game":"Team Fortress","app_id":440,"player_count":0,"max_players":24,"Bots":0,"server_type":"Dedicated","server_os":"Linux","password":true,"vac":true,"version":"7961495","steam_id":85568392924866365,"keywords":["nocrits","nodmgspread","payload","uncletopia"],"game_id":440,"stv_port":27046,"stv_name":"Uncletopia | Chicago | 8 | Community | STV","players":null},{"server_id":8,"name":"Uncletopia | Dallas | 1 | All Maps","name_short":"dal-1","host":"dal-1.us.uncletopia.com","port":27015,"enabled":true,"region":"us-central","cc":"us","latitude":32.779167,"longitude":-96.80889,"reserved":0,"last_update":"0001-01-01T00:00:00Z","name_a2s":"Uncletopia | Dallas | 1 | All Maps","protocol":17,"map":"koth_viaduct","folder":"tf","game":"Team Fortress","app_id":440,"player_count":11,"max_players":24,"Bots":0,"server_type":"Dedicated","server_os":"Linux","password":true,"vac":true,"version":"7961495","steam_id":85568392924469986,"keywords":["cp","nocrits","nodmgspread","uncletopia"],"game_id":440,"stv_port":27016,"stv_name":"Uncletopia | Dallas | 1 | All Maps | STV","players":[{"user_id":4,"name":"Stimpry","steam_id":76561199055662248,"connected_time":2290000000000,"state":"active","ping":93},{"user_id":5,"name":"ZAWZARK","steam_id":76561199137607070,"connected_time":2273000000000,"state":"active","ping":76},{"user_id":11,"name":"Mom","steam_id":76561198207936000,"connected_time":767000000000,"state":"active","ping":75},{"user_id":12,"name":"colorblindwizardlvl5","steam_id":76561199208988804,"connected_time":332000000000,"state":"active","ping":69},{"user_id":10,"name":"Squigly","steam_id":76561198084811625,"connected_time":973000000000,"state":"active","ping":73},{"user_id":14,"name":"The janitor(El coyote)","steam_id":76561198414300607,"connected_time":292000000000,"state":"active","ping":84},{"user_id":16,"name":"mkl","steam_id":76561197986401685,"connected_time":252000000000,"state":"active","ping":53},{"user_id":17,"name":"Thequirka","steam_id":76561198968058652,"connected_time":182000000000,"state":"active","ping":98},{"user_id":18,"name":"Reginald the Deceased Gentleman","steam_id":76561198322068512,"connected_time":151000000000,"state":"active","ping":78},{"user_id":19,"name":"Fidel Cashflo","steam_id":76561198026610331,"connected_time":109000000000,"state":"active","ping":61},{"user_id":20,"name":"hatchetax","steam_id":76561199013337543,"connected_time":64000000000,"state":"active","ping":62}]},{"server_id":108,"name":"Uncletopia | Dallas | 2 | All Maps","name_short":"dal-2","host":"dal-1.us.uncletopia.com","port":27025,"enabled":true,"region":"us-central","cc":"us","latitude":32.779167,"longitude":-96.80889,"reserved":0,"last_update":"0001-01-01T00:00:00Z","name_a2s":"Uncletopia | Dallas | 2 | All Maps","protocol":17,"map":"pl_barnblitz","folder":"tf","game":"Team Fortress","app_id":440,"player_count":24,"max_players":24,"Bots":0,"server_type":"Dedicated","server_os":"Linux","password":true,"vac":true,"version":"7961495","steam_id":85568392924469988,"keywords":["nocrits","nodmgspread","payload","uncletopia"],"game_id":440,"stv_port":27026,"stv_name":"Uncletopia | Dallas | 2 | All Maps | STV","players":[{"user_id":67,"name":"Kirby","steam_id":76561199161858008,"connected_time":2454000000000,"state":"active","ping":74},{"user_id":90,"name":"Moonflower ✦","steam_id":76561198191782483,"connected_time":591000000000,"state":"active","ping":49},{"user_id":64,"name":"pickup truck with huge honks","steam_id":76561198111447214,"connected_time":2626000000000,"state":"active","ping":89},{"user_id":80,"name":"men kisser","steam_id":76561199026721822,"connected_time":964000000000,"state":"active","ping":83},{"user_id":61,"name":"Mr. Krabs AGH AGH AGH","steam_id":76561198068266632,"connected_time":3017000000000,"state":"active","ping":62},{"user_id":69,"name":"Magik","steam_id":76561198099726660,"connected_time":2391000000000,"state":"active","ping":71},{"user_id":92,"name":"Zetta","steam_id":76561198045710113,"connected_time":447000000000,"state":"active","ping":85},{"user_id":93,"name":"number 1 edalyn clawthorne love","steam_id":76561198163238434,"connected_time":403000000000,"state":"active","ping":92},{"user_id":85,"name":"tf2player001","steam_id":76561199497314797,"connected_time":939000000000,"state":"active","ping":119},{"user_id":59,"name":"Cooki","steam_id":76561198051705314,"connected_time":3192000000000,"state":"active","ping":106},{"user_id":74,"name":"GoGo","steam_id":76561198023080645,"connected_time":2131000000000,"state":"active","ping":96},{"user_id":57,"name":"Sweet Tooth","steam_id":76561198830158092,"connected_time":3712000000000,"state":"active","ping":84},{"user_id":87,"name":"jdm","steam_id":76561199497603020,"connected_time":891000000000,"state":"active","ping":76},{"user_id":60,"name":"TeriyakiDynamite","steam_id":76561198050049346,"connected_time":3140000000000,"state":"active","ping":95},{"user_id":84,"name":"Lemonade Juice","steam_id":76561198402892608,"connected_time":952000000000,"state":"active","ping":72},{"user_id":86,"name":"soccer2010","steam_id":76561198404271005,"connected_time":939000000000,"state":"active","ping":87},{"user_id":28,"name":"Boot Mcstink","steam_id":76561199226873917,"connected_time":4833000000000,"state":"active","ping":88},{"user_id":95,"name":"Prsm","steam_id":76561198053344995,"connected_time":50000000000,"state":"active","ping":86},{"user_id":78,"name":"John Calibur","steam_id":76561197999986606,"connected_time":1684000000000,"state":"active","ping":67},{"user_id":94,"name":"SaaxoM","steam_id":76561198208256603,"connected_time":339000000000,"state":"active","ping":76},{"user_id":34,"name":"ihave80hp","steam_id":76561199251621911,"connected_time":4752000000000,"state":"active","ping":66},{"user_id":96,"name":"VOLCON","steam_id":76561198116023052,"connected_time":17000000000,"state":"spawning","ping":90},{"user_id":72,"name":"Major Woody","steam_id":76561198835541533,"connected_time":2278000000000,"state":"active","ping":60},{"user_id":79,"name":"omar","steam_id":76561198240028484,"connected_time":1595000000000,"state":"active","ping":81}]},{"server_id":404,"name":"Uncletopia | Dallas | 3 | All Maps","name_short":"dal-3","host":"dal-1.us.uncletopia.com","port":27035,"enabled":true,"region":"us-central","cc":"us","latitude":32.779167,"longitude":-96.80889,"reserved":0,"last_update":"0001-01-01T00:00:00Z","name_a2s":"Uncletopia | Dallas | 3 | All Maps","protocol":17,"map":"koth_viaduct","folder":"tf","game":"Team Fortress","app_id":440,"player_count":0,"max_players":24,"Bots":0,"server_type":"Dedicated","server_os":"Linux","password":true,"vac":true,"version":"7961495","steam_id":85568392924515219,"keywords":["cp","nocrits","nodmgspread","uncletopia"],"game_id":440,"stv_port":27036,"stv_name":"Uncletopia | Dallas | 3 | All Maps | STV","players":null},{"server_id":405,"name":"Uncletopia | Dallas | 4 | Community","name_short":"dal-4","host":"dal-1.us.uncletopia.com","port":27045,"enabled":true,"region":"us-central","cc":"us","latitude":32.779167,"longitude":-96.80889,"reserved":0,"last_update":"0001-01-01T00:00:00Z","name_a2s":"Uncletopia | Dallas | 4 | Community","protocol":17,"map":"pl_pier","folder":"tf","game":"Team Fortress","app_id":440,"player_count":0,"max_players":24,"Bots":0,"server_type":"Dedicated","server_os":"Linux","password":true,"vac":true,"version":"7961495","steam_id":85568392924515220,"keywords":["nocrits","nodmgspread","payload","uncletopia"],"game_id":440,"stv_port":27046,"stv_name":"Uncletopia | Dallas | 4 | Community | STV","players":null},{"server_id":5,"name":"Uncletopia | Frankfurt | 1 | All Maps","name_short":"frk-1","host":"frk-1.de.uncletopia.com","port":27015,"enabled":true,"region":"eu","cc":"de","latitude":50.110924,"longitude":8.682127,"reserved":0,"last_update":"0001-01-01T00:00:00Z","name_a2s":"Uncletopia | Frankfurt | 1 | All Maps","protocol":17,"map":"cp_mercenarypark","folder":"tf","game":"Team Fortress","app_id":440,"player_count":24,"max_players":24,"Bots":0,"server_type":"Dedicated","server_os":"Linux","password":true,"vac":true,"version":"7961495","steam_id":85568392924469989,"keywords":["cp","nocrits","nodmgspread","uncletopia"],"game_id":440,"stv_port":27016,"stv_name":"Uncletopia | Frankfurt | 1 | All Maps | STV","players":[{"user_id":574,"name":"begging for frags","steam_id":76561198044210844,"connected_time":1415000000000,"state":"active","ping":60},{"user_id":552,"name":"Pighead_08","steam_id":76561199060466647,"connected_time":2461000000000,"state":"active","ping":106},{"user_id":587,"name":"Scout","steam_id":76561198992898803,"connected_time":844000000000,"state":"active","ping":70},{"user_id":580,"name":"R!not","steam_id":76561197986328786,"connected_time":1298000000000,"state":"active","ping":45},{"user_id":588,"name":"Napoleon","steam_id":76561198074757450,"connected_time":842000000000,"state":"active","ping":45},{"user_id":595,"name":"Jeffrey Harpen","steam_id":76561199073314677,"connected_time":577000000000,"state":"active","ping":69},{"user_id":563,"name":"svepitos","steam_id":76561198287351235,"connected_time":2117000000000,"state":"active","ping":69},{"user_id":589,"name":"Duke","steam_id":76561198041713602,"connected_time":838000000000,"state":"active","ping":45},{"user_id":590,"name":"Arigato Gozaimasu!","steam_id":76561198052342856,"connected_time":822000000000,"state":"active","ping":64},{"user_id":578,"name":"Bread","steam_id":76561198065231771,"connected_time":1337000000000,"state":"active","ping":79},{"user_id":541,"name":"Cookies and Bakies","steam_id":76561198017442928,"connected_time":2880000000000,"state":"active","ping":62},{"user_id":596,"name":"Rodia","steam_id":76561197968293161,"connected_time":535000000000,"state":"active","ping":66},{"user_id":536,"name":"LOBZIK","steam_id":76561198114830120,"connected_time":3250000000000,"state":"active","ping":77},{"user_id":584,"name":"Soerlssoelssöen","steam_id":76561197993060585,"connected_time":978000000000,"state":"active","ping":67},{"user_id":582,"name":"mt","steam_id":76561197961319303,"connected_time":1108000000000,"state":"active","ping":49},{"user_id":591,"name":"shadow39344","steam_id":76561198090639618,"connected_time":779000000000,"state":"active","ping":65},{"user_id":473,"name":"6'11\" Jaden Smith","steam_id":76561198059674196,"connected_time":6673000000000,"state":"active","ping":52},{"user_id":583,"name":"Makłowicz","steam_id":76561198281831506,"connected_time":1088000000000,"state":"active","ping":80},{"user_id":568,"name":"Ottetal","steam_id":76561198018528609,"connected_time":2055000000000,"state":"active","ping":66},{"user_id":593,"name":"Retrograde_","steam_id":76561198155371354,"connected_time":650000000000,"state":"active","ping":65},{"user_id":572,"name":"FJADL","steam_id":76561198237008214,"connected_time":1627000000000,"state":"active","ping":75},{"user_id":474,"name":"Family Disser","steam_id":76561198278967055,"connected_time":6654000000000,"state":"active","ping":69},{"user_id":594,"name":"—ฅ/ᐠ. ̫ .ᐟ\\ฅ—meow","steam_id":76561198010662796,"connected_time":649000000000,"state":"active","ping":57},{"user_id":534,"name":"silicon based life form","steam_id":76561199127121346,"connected_time":3323000000000,"state":"active","ping":71}]},{"server_id":110,"name":"Uncletopia | Frankfurt | 2 | All Maps","name_short":"frk-2","host":"frk-1.de.uncletopia.com","port":27025,"enabled":true,"region":"eu","cc":"de","latitude":50.110924,"longitude":8.682127,"reserved":0,"last_update":"0001-01-01T00:00:00Z","name_a2s":"Uncletopia | Frankfurt | 2 | All Maps","protocol":17,"map":"pl_upward","folder":"tf","game":"Team Fortress","app_id":440,"player_count":24,"max_players":24,"Bots":0,"server_type":"Dedicated","server_os":"Linux","password":true,"vac":true,"version":"7961495","steam_id":85568392924469990,"keywords":["nocrits","nodmgspread","payload","uncletopia"],"game_id":440,"stv_port":27026,"stv_name":"Uncletopia | Frankfurt | 2 | All Maps | STV","players":[{"user_id":87,"name":"else1","steam_id":76561197996558319,"connected_time":9422000000000,"state":"active","ping":81},{"user_id":213,"name":"Walter Hartwell White","steam_id":76561199057003365,"connected_time":738000000000,"state":"active","ping":66},{"user_id":204,"name":"pervert","steam_id":76561198977948250,"connected_time":971000000000,"state":"active","ping":58},{"user_id":157,"name":"꧁༒Xenon༒꧂","steam_id":76561198120502313,"connected_time":3418000000000,"state":"active","ping":55},{"user_id":215,"name":"Mr Lemon","steam_id":76561198054685254,"connected_time":373000000000,"state":"active","ping":69},{"user_id":200,"name":"Raven","steam_id":76561198036076305,"connected_time":1053000000000,"state":"active","ping":45},{"user_id":217,"name":"kluri","steam_id":76561198084518962,"connected_time":213000000000,"state":"active","ping":65},{"user_id":205,"name":"G_raff","steam_id":76561199048512726,"connected_time":955000000000,"state":"active","ping":74},{"user_id":202,"name":"rex110","steam_id":76561198159631448,"connected_time":1041000000000,"state":"active","ping":70},{"user_id":207,"name":"Subterranean","steam_id":76561198106684566,"connected_time":932000000000,"state":"active","ping":75},{"user_id":185,"name":"NALA","steam_id":76561198039806469,"connected_time":2250000000000,"state":"active","ping":64},{"user_id":208,"name":"BIG Dave Gaming","steam_id":76561199170843929,"connected_time":899000000000,"state":"active","ping":51},{"user_id":198,"name":"Peskyplumber64","steam_id":76561198044458330,"connected_time":1212000000000,"state":"active","ping":65},{"user_id":218,"name":"SUSHII","steam_id":76561198086702651,"connected_time":197000000000,"state":"active","ping":62},{"user_id":209,"name":"Xanics","steam_id":76561198187813929,"connected_time":898000000000,"state":"active","ping":64},{"user_id":192,"name":"Albon","steam_id":76561198060378881,"connected_time":1756000000000,"state":"active","ping":59},{"user_id":186,"name":"big angry russian man","steam_id":76561198297812094,"connected_time":2098000000000,"state":"active","ping":107},{"user_id":166,"name":"Lyell","steam_id":76561198350329389,"connected_time":3291000000000,"state":"active","ping":83},{"user_id":189,"name":"Citromfa","steam_id":76561198427549600,"connected_time":1869000000000,"state":"active","ping":90},{"user_id":178,"name":"michalstrach13","steam_id":76561199004687217,"connected_time":2850000000000,"state":"active","ping":71},{"user_id":169,"name":"After8","steam_id":76561198090750865,"connected_time":3261000000000,"state":"active","ping":73},{"user_id":210,"name":"etc","steam_id":76561197998394797,"connected_time":896000000000,"state":"active","ping":54},{"user_id":219,"name":"Storm's Foreshadow","steam_id":76561198098462526,"connected_time":184000000000,"state":"active","ping":65},{"user_id":211,"name":"SirClyan","steam_id":76561199196651938,"connected_time":887000000000,"state":"active","ping":84}]},{"server_id":308,"name":"Uncletopia | Frankfurt | 3 | All Maps","name_short":"frk-3","host":"frk-1.de.uncletopia.com","port":27035,"enabled":true,"region":"eu","cc":"de","latitude":50.110924,"longitude":8.682127,"reserved":0,"last_update":"0001-01-01T00:00:00Z","name_a2s":"Uncletopia | Frankfurt | 3 | All Maps","protocol":17,"map":"cp_dustbowl","folder":"tf","game":"Team Fortress","app_id":440,"player_count":24,"max_players":24,"Bots":0,"server_type":"Dedicated","server_os":"Linux","password":true,"vac":true,"version":"7961495","steam_id":85568392924504274,"keywords":["cp","nocrits","nodmgspread","uncletopia"],"game_id":440,"stv_port":27036,"stv_name":"Uncletopia | Frankfurt | 3 | All Maps | STV","players":[{"user_id":267,"name":"CRITICAL_HIT!","steam_id":76561198349330393,"connected_time":3775000000000,"state":"active","ping":76},{"user_id":335,"name":"cockroach","steam_id":76561198841841656,"connected_time":157000000000,"state":"active","ping":70},{"user_id":321,"name":"Creative","steam_id":76561198835034247,"connected_time":901000000000,"state":"active","ping":79},{"user_id":286,"name":"Mitrixie","steam_id":76561198842023498,"connected_time":3298000000000,"state":"active","ping":94},{"user_id":332,"name":"Gabriel","steam_id":76561198183609875,"connected_time":413000000000,"state":"active","ping":60},{"user_id":311,"name":"Old Beavis","steam_id":76561198065951617,"connected_time":1249000000000,"state":"active","ping":61},{"user_id":260,"name":"Rlanser","steam_id":76561199071682473,"connected_time":4402000000000,"state":"active","ping":84},{"user_id":325,"name":"Pyromancer","steam_id":76561198136260717,"connected_time":812000000000,"state":"active","ping":53},{"user_id":327,"name":"Broex","steam_id":76561198213082531,"connected_time":726000000000,"state":"active","ping":76},{"user_id":300,"name":"cirrem","steam_id":76561198265192382,"connected_time":2378000000000,"state":"active","ping":63},{"user_id":304,"name":"jona3838","steam_id":76561199097658195,"connected_time":1965000000000,"state":"active","ping":103},{"user_id":338,"name":"Mr Fruitypebbles","steam_id":76561198133823242,"connected_time":48000000000,"state":"active","ping":71},{"user_id":322,"name":"please","steam_id":76561199036865103,"connected_time":890000000000,"state":"active","ping":88},{"user_id":313,"name":"Maybe","steam_id":76561198274455278,"connected_time":1215000000000,"state":"active","ping":82},{"user_id":309,"name":"hhhhhh","steam_id":76561198031982574,"connected_time":1596000000000,"state":"active","ping":52},{"user_id":312,"name":"ashley","steam_id":76561198448551449,"connected_time":1243000000000,"state":"active","ping":46},{"user_id":333,"name":"Tea Follet","steam_id":76561198852408734,"connected_time":251000000000,"state":"active","ping":75},{"user_id":326,"name":"Jara.","steam_id":76561197992207165,"connected_time":776000000000,"state":"active","ping":94},{"user_id":329,"name":"Grønkjær","steam_id":76561198041075280,"connected_time":605000000000,"state":"active","ping":61},{"user_id":328,"name":"iryaxu_","steam_id":76561199438597996,"connected_time":650000000000,"state":"active","ping":95},{"user_id":289,"name":"Porta","steam_id":76561198298292261,"connected_time":3199000000000,"state":"active","ping":89},{"user_id":334,"name":"Pikdy","steam_id":76561199492395972,"connected_time":248000000000,"state":"active","ping":59},{"user_id":306,"name":"dyslexia enjoyer","steam_id":76561198418500572,"connected_time":1852000000000,"state":"active","ping":61},{"user_id":337,"name":"промокашка","steam_id":76561199064297073,"connected_time":83000000000,"state":"active","ping":152}]},{"server_id":309,"name":"Uncletopia | Frankfurt | 4 | All Maps","name_short":"frk-4","host":"frk-1.de.uncletopia.com","port":27045,"enabled":true,"region":"eu","cc":"de","latitude":50.110924,"longitude":8.682127,"reserved":0,"last_update":"0001-01-01T00:00:00Z","name_a2s":"Uncletopia | Frankfurt | 4 | All Maps","protocol":17,"map":"pl_thundermountain","folder":"tf","game":"Team Fortress","app_id":440,"player_count":24,"max_players":24,"Bots":0,"server_type":"Dedicated","server_os":"Linux","password":true,"vac":true,"version":"7961495","steam_id":85568392924504275,"keywords":["nocrits","nodmgspread","payload","uncletopia"],"game_id":440,"stv_port":27046,"stv_name":"Uncletopia | Frankfurt | 4 | All Maps | STV","players":[{"user_id":171,"name":"fexxor","steam_id":76561198030051719,"connected_time":637000000000,"state":"active","ping":76},{"user_id":126,"name":"chair 2.0","steam_id":76561199233470150,"connected_time":3385000000000,"state":"active","ping":45},{"user_id":156,"name":"lore","steam_id":76561198120984188,"connected_time":2312000000000,"state":"active","ping":59},{"user_id":161,"name":"d1sk","steam_id":76561197986511308,"connected_time":1616000000000,"state":"active","ping":60},{"user_id":162,"name":"Largo","steam_id":76561198844368927,"connected_time":1585000000000,"state":"active","ping":73},{"user_id":172,"name":"sad bitch kiki","steam_id":76561198838277022,"connected_time":629000000000,"state":"active","ping":67},{"user_id":132,"name":"m.morhac123","steam_id":76561199202883261,"connected_time":3031000000000,"state":"active","ping":60},{"user_id":137,"name":"hasansaeedifar","steam_id":76561198974563618,"connected_time":2828000000000,"state":"active","ping":166},{"user_id":174,"name":"über dem Menschen","steam_id":76561199228732234,"connected_time":613000000000,"state":"active","ping":80},{"user_id":177,"name":"Gordon","steam_id":76561198088042034,"connected_time":485000000000,"state":"active","ping":97},{"user_id":136,"name":"jangomango","steam_id":76561198357591412,"connected_time":2875000000000,"state":"active","ping":80},{"user_id":152,"name":"angry russian man","steam_id":76561198386712795,"connected_time":2600000000000,"state":"active","ping":61},{"user_id":173,"name":"JepCabestany","steam_id":76561198123812578,"connected_time":628000000000,"state":"active","ping":92},{"user_id":176,"name":"Pitipit","steam_id":76561198343333412,"connected_time":566000000000,"state":"active","ping":104},{"user_id":158,"name":"Huskai","steam_id":76561198141512362,"connected_time":2031000000000,"state":"active","ping":49},{"user_id":181,"name":"Tomato","steam_id":76561199124472513,"connected_time":4000000000,"state":"spawning","ping":153},{"user_id":170,"name":"Rapid24","steam_id":76561199200809266,"connected_time":671000000000,"state":"active","ping":94},{"user_id":178,"name":"|{R}abbit| | :D killer ™","steam_id":76561198082959281,"connected_time":463000000000,"state":"active","ping":125},{"user_id":146,"name":"W.","steam_id":76561198097420050,"connected_time":2664000000000,"state":"active","ping":69},{"user_id":166,"name":"battlerunerlite","steam_id":76561199220041060,"connected_time":1347000000000,"state":"active","ping":93},{"user_id":148,"name":"chiti-bilouttes","steam_id":76561199084788915,"connected_time":2660000000000,"state":"active","ping":48},{"user_id":179,"name":"ItsGertje","steam_id":76561199063680083,"connected_time":396000000000,"state":"active","ping":58},{"user_id":164,"name":"DRAGONFLY","steam_id":76561198104896547,"connected_time":1568000000000,"state":"active","ping":70},{"user_id":180,"name":"Shoe Gayser","steam_id":76561198063127464,"connected_time":379000000000,"state":"active","ping":71}]},{"server_id":310,"name":"Uncletopia | Frankfurt | 5 | All Maps","name_short":"frk-5","host":"frk-1.de.uncletopia.com","port":27055,"enabled":true,"region":"eu","cc":"de","latitude":50.110924,"longitude":8.682127,"reserved":0,"last_update":"0001-01-01T00:00:00Z","name_a2s":"Uncletopia | Frankfurt | 5 | All Maps","protocol":17,"map":"cp_process_final","folder":"tf","game":"Team Fortress","app_id":440,"player_count":24,"max_players":24,"Bots":0,"server_type":"Dedicated","server_os":"Linux","password":true,"vac":true,"version":"7961495","steam_id":85568392924504277,"keywords":["cp","nocrits","nodmgspread","uncletopia"],"game_id":440,"stv_port":27056,"stv_name":"Uncletopia | Frankfurt | 5 | All Maps | STV","players":[{"user_id":409,"name":"big lady","steam_id":76561197971716998,"connected_time":2104000000000,"state":"active","ping":56},{"user_id":447,"name":"personformemes","steam_id":76561198334557763,"connected_time":434000000000,"state":"active","ping":61},{"user_id":443,"name":"CampMaster49","steam_id":76561198353096926,"connected_time":743000000000,"state":"active","ping":101},{"user_id":410,"name":"Laitse","steam_id":76561198073247480,"connected_time":2078000000000,"state":"active","ping":82},{"user_id":459,"name":"Ecin","steam_id":76561198816655769,"connected_time":71000000000,"state":"active","ping":57},{"user_id":446,"name":"PASTAMANIA!","steam_id":76561197967858558,"connected_time":464000000000,"state":"active","ping":58},{"user_id":445,"name":"cutelenina","steam_id":76561199406557264,"connected_time":501000000000,"state":"active","ping":71},{"user_id":451,"name":"pablo","steam_id":76561198089285014,"connected_time":298000000000,"state":"active","ping":71},{"user_id":415,"name":"faden","steam_id":76561198172147593,"connected_time":1895000000000,"state":"active","ping":93},{"user_id":377,"name":"s a i","steam_id":76561197970379754,"connected_time":4504000000000,"state":"active","ping":47},{"user_id":458,"name":"Javier dorsaless","steam_id":76561198179324075,"connected_time":228000000000,"state":"active","ping":70},{"user_id":452,"name":"Reihenhausbewohner","steam_id":76561198049820307,"connected_time":286000000000,"state":"active","ping":73},{"user_id":453,"name":"ღKiri ✿","steam_id":76561198818035498,"connected_time":270000000000,"state":"active","ping":60},{"user_id":454,"name":"Carlo","steam_id":76561198276491098,"connected_time":260000000000,"state":"active","ping":57},{"user_id":455,"name":"Bombilla","steam_id":76561198084281798,"connected_time":256000000000,"state":"active","ping":76},{"user_id":456,"name":"I-I","steam_id":76561198267969436,"connected_time":253000000000,"state":"active","ping":60},{"user_id":424,"name":"souli","steam_id":76561198820206418,"connected_time":1795000000000,"state":"active","ping":60},{"user_id":444,"name":"Udinese Dion","steam_id":76561198067931573,"connected_time":709000000000,"state":"active","ping":49},{"user_id":429,"name":"Jethro Tull","steam_id":76561199034041634,"connected_time":1682000000000,"state":"active","ping":70},{"user_id":457,"name":"sam_","steam_id":76561198814734120,"connected_time":243000000000,"state":"active","ping":103},{"user_id":433,"name":"Plop_","steam_id":76561198112567921,"connected_time":1540000000000,"state":"active","ping":48},{"user_id":437,"name":"Fenix (RUS)","steam_id":76561198399886365,"connected_time":1367000000000,"state":"active","ping":87},{"user_id":440,"name":"Hej sokoły!","steam_id":76561198406300604,"connected_time":1096000000000,"state":"active","ping":91},{"user_id":436,"name":"Bananeninja","steam_id":76561198053399320,"connected_time":1431000000000,"state":"active","ping":47}]},{"server_id":311,"name":"Uncletopia | Frankfurt | 6 | All Maps","name_short":"frk-6","host":"frk-1.de.uncletopia.com","port":27065,"enabled":true,"region":"eu","cc":"de","latitude":50.110924,"longitude":8.682127,"reserved":0,"last_update":"0001-01-01T00:00:00Z","name_a2s":"Uncletopia | Frankfurt | 6 | All Maps","protocol":17,"map":"pl_borneo","folder":"tf","game":"Team Fortress","app_id":440,"player_count":24,"max_players":24,"Bots":0,"server_type":"Dedicated","server_os":"Linux","password":true,"vac":true,"version":"7961495","steam_id":85568392924504278,"keywords":["nocrits","nodmgspread","payload","uncletopia"],"game_id":440,"stv_port":27066,"stv_name":"Uncletopia | Frankfurt | 6 | All Maps | STV","players":[{"user_id":313,"name":"Rei Ayanami","steam_id":76561198405980575,"connected_time":303000000000,"state":"active","ping":58},{"user_id":321,"name":"Michael","steam_id":76561198003146906,"connected_time":161000000000,"state":"active","ping":54},{"user_id":274,"name":"SuntanPikachu","steam_id":76561198121242476,"connected_time":3054000000000,"state":"active","ping":71},{"user_id":284,"name":"тестостеронвизл\ufffd","steam_id":76561198107146733,"connected_time":2243000000000,"state":"active","ping":70},{"user_id":303,"name":"ⓅⓁⓈ | Pink Panther","steam_id":76561198046434381,"connected_time":1167000000000,"state":"active","ping":52},{"user_id":327,"name":"zssz","steam_id":76561198148400154,"connected_time":22000000000,"state":"spawning","ping":59},{"user_id":290,"name":"Pvt Talbot","steam_id":76561198261001389,"connected_time":1947000000000,"state":"active","ping":57},{"user_id":317,"name":"tf2 enjoyer","steam_id":76561199043416615,"connected_time":228000000000,"state":"active","ping":60},{"user_id":297,"name":"alfus","steam_id":76561198071003109,"connected_time":1392000000000,"state":"active","ping":59},{"user_id":326,"name":"Rocket.Blade","steam_id":76561198063104145,"connected_time":107000000000,"state":"active","ping":52},{"user_id":319,"name":"ye blya","steam_id":76561198065393726,"connected_time":190000000000,"state":"active","ping":90},{"user_id":320,"name":"onixed766","steam_id":76561198995478547,"connected_time":173000000000,"state":"active","ping":61},{"user_id":298,"name":"Mozzaza","steam_id":76561198156316111,"connected_time":1391000000000,"state":"active","ping":134},{"user_id":322,"name":"Apollo","steam_id":76561198866054007,"connected_time":154000000000,"state":"active","ping":78},{"user_id":300,"name":"The Holy Bible","steam_id":76561197967683724,"connected_time":1355000000000,"state":"active","ping":59},{"user_id":233,"name":"---","steam_id":76561198092283741,"connected_time":5471000000000,"state":"active","ping":59},{"user_id":309,"name":"Bulgur","steam_id":76561198015064675,"connected_time":637000000000,"state":"active","ping":60},{"user_id":311,"name":"generic alias","steam_id":76561198271607226,"connected_time":462000000000,"state":"active","ping":97},{"user_id":323,"name":"Hundehunde (137)","steam_id":76561198028683991,"connected_time":137000000000,"state":"active","ping":48},{"user_id":324,"name":"H...","steam_id":76561197984299377,"connected_time":136000000000,"state":"active","ping":50},{"user_id":282,"name":"cister0","steam_id":76561198130195469,"connected_time":2397000000000,"state":"active","ping":76},{"user_id":325,"name":"Penguinmark","steam_id":76561199057089501,"connected_time":125000000000,"state":"active","ping":147},{"user_id":306,"name":"Swegumbre","steam_id":76561198253855048,"connected_time":859000000000,"state":"active","ping":45},{"user_id":312,"name":"Gabys","steam_id":76561198282892553,"connected_time":429000000000,"state":"active","ping":72}]},{"server_id":23,"name":"Uncletopia | Frankfurt | 7 | Stopwatch","name_short":"frk-7","host":"frk-1.de.uncletopia.com","port":27075,"enabled":true,"region":"eu","cc":"de","latitude":50.110924,"longitude":8.682127,"reserved":0,"last_update":"0001-01-01T00:00:00Z","name_a2s":"Uncletopia | Frankfurt | 7 | Stopwatch","protocol":17,"map":"workshop/koth_ramjam_rc1.ugc459778887","folder":"tf","game":"Team Fortress","app_id":440,"player_count":0,"max_players":24,"Bots":0,"server_type":"Dedicated","server_os":"Linux","password":true,"vac":true,"version":"7961495","steam_id":85568392924742827,"keywords":["cp","nocrits","nodmgspread","uncletopia"],"game_id":440,"stv_port":27076,"stv_name":"Uncletopia | Frankfurt | 7 | Stopwatch | STV","players":null},{"server_id":24,"name":"Uncletopia | Frankfurt | 8 | Community","name_short":"frk-8","host":"frk-1.de.uncletopia.com","port":27085,"enabled":true,"region":"eu","cc":"de","latitude":50.110924,"longitude":8.682127,"reserved":0,"last_update":"0001-01-01T00:00:00Z","name_a2s":"Uncletopia | Frankfurt | 8 | Community","protocol":17,"map":"workshop/pl_corrode_rc2.ugc546577989","folder":"tf","game":"Team Fortress","app_id":440,"player_count":0,"max_players":24,"Bots":0,"server_type":"Dedicated","server_os":"Linux","password":true,"vac":true,"version":"7961495","steam_id":85568392924742828,"keywords":["nocrits","nodmgspread","payload","uncletopia"],"game_id":440,"stv_port":27086,"stv_name":"Uncletopia | Frankfurt | 8 | Community | STV","players":null},{"server_id":202,"name":"Uncletopia | Hong Kong | 1 | All Maps","name_short":"hgk-1","host":"hgk-1.hk.uncletopia.com","port":27015,"enabled":true,"region":"asia","cc":"hk","latitude":22.302711,"longitude":114.177216,"reserved":0,"last_update":"0001-01-01T00:00:00Z","name_a2s":"Uncletopia | Hong Kong | 1 | All Maps","protocol":17,"map":"koth_king","folder":"tf","game":"Team Fortress","app_id":440,"player_count":5,"max_players":24,"Bots":0,"server_type":"Dedicated","server_os":"Linux","password":true,"vac":true,"version":"7961495","steam_id":85568392924494504,"keywords":["cp","nocrits","nodmgspread","uncletopia"],"game_id":440,"stv_port":27016,"stv_name":"Uncletopia | Hong Kong | 1 | All Maps | STV","players":[{"user_id":369,"name":"Barbatruc","steam_id":76561198119019916,"connected_time":3267000000000,"state":"active","ping":283},{"user_id":377,"name":"Kurtie","steam_id":76561198144737876,"connected_time":2075000000000,"state":"active","ping":57},{"user_id":382,"name":"Денис стетхем","steam_id":76561198816376616,"connected_time":469000000000,"state":"active","ping":254},{"user_id":364,"name":"Lt. yong dong","steam_id":76561198342233196,"connected_time":3532000000000,"state":"active","ping":58},{"user_id":279,"name":"母の肉団子@hao123.com","steam_id":76561198069561896,"connected_time":12711000000000,"state":"active","ping":32}]},{"server_id":1,"name":"Uncletopia | Los Angeles | 1 | All Maps","name_short":"lax-1","host":"lax-1.us.uncletopia.com","port":27015,"enabled":true,"region":"us-west","cc":"us","latitude":33.94279,"longitude":-118.41004,"reserved":0,"last_update":"0001-01-01T00:00:00Z","name_a2s":"Uncletopia | Los Angeles | 1 | All Maps","protocol":17,"map":"koth_viaduct","folder":"tf","game":"Team Fortress","app_id":440,"player_count":0,"max_players":24,"Bots":0,"server_type":"Dedicated","server_os":"Linux","password":true,"vac":true,"version":"7961495","steam_id":85568392924469991,"keywords":["cp","nocrits","nodmgspread","uncletopia"],"game_id":440,"stv_port":27016,"stv_name":"Uncletopia | Los Angeles | 1 | All Maps | STV","players":null},{"server_id":112,"name":"Uncletopia | Los Angeles | 2 | All Maps","name_short":"lax-2","host":"lax-1.us.uncletopia.com","port":27025,"enabled":true,"region":"us-west","cc":"us","latitude":33.94279,"longitude":-118.41004,"reserved":0,"last_update":"0001-01-01T00:00:00Z","name_a2s":"Uncletopia | Los Angeles | 2 | All Maps","protocol":17,"map":"koth_viaduct","folder":"tf","game":"Team Fortress","app_id":440,"player_count":0,"max_players":24,"Bots":0,"server_type":"Dedicated","server_os":"Linux","password":true,"vac":true,"version":"7961495","steam_id":85568392924469992,"keywords":["cp","nocrits","nodmgspread","uncletopia"],"game_id":440,"stv_port":27026,"stv_name":"Uncletopia | Los Angeles | 2 | All Maps | STV","players":null},{"server_id":324,"name":"Uncletopia | Los Angeles | 3 | All Maps","name_short":"lax-3","host":"lax-1.us.uncletopia.com","port":27035,"enabled":true,"region":"us-west","cc":"us","latitude":33.94279,"longitude":-118.41004,"reserved":0,"last_update":"0001-01-01T00:00:00Z","name_a2s":"Uncletopia | Los Angeles | 3 | All Maps","protocol":17,"map":"pl_barnblitz","folder":"tf","game":"Team Fortress","app_id":440,"player_count":0,"max_players":24,"Bots":0,"server_type":"Dedicated","server_os":"Linux","password":true,"vac":true,"version":"7961495","steam_id":85568392924510198,"keywords":["nocrits","nodmgspread","payload","uncletopia"],"game_id":440,"stv_port":27036,"stv_name":"Uncletopia | Los Angeles | 3 | All Maps | STV","players":null},{"server_id":25,"name":"Uncletopia | Los Angeles | 4 | Stopwatch","name_short":"lax-4","host":"lax-1.us.uncletopia.com","port":27045,"enabled":true,"region":"us-west","cc":"us","latitude":33.94279,"longitude":-118.41004,"reserved":0,"last_update":"0001-01-01T00:00:00Z","name_a2s":"Uncletopia | Los Angeles | 4 | Stopwatch","protocol":17,"map":"pl_barnblitz","folder":"tf","game":"Team Fortress","app_id":440,"player_count":0,"max_players":24,"Bots":0,"server_type":"Dedicated","server_os":"Linux","password":true,"vac":true,"version":"7961495","steam_id":85568392924510199,"keywords":["nocrits","nodmgspread","payload","uncletopia"],"game_id":440,"stv_port":27046,"stv_name":"Uncletopia | Los Angeles | 4 | Stopwatch | STV","players":null},{"server_id":11,"name":"Uncletopia | London | 1 | All Maps","name_short":"lon-1","host":"lon-1.uk.uncletopia.com","port":27015,"enabled":true,"region":"eu","cc":"gb","latitude":51.509865,"longitude":-0.118092,"reserved":0,"last_update":"0001-01-01T00:00:00Z","name_a2s":"Uncletopia | London | 1 | All Maps","protocol":17,"map":"cp_foundry","folder":"tf","game":"Team Fortress","app_id":440,"player_count":24,"max_players":24,"Bots":0,"server_type":"Dedicated","server_os":"Linux","password":true,"vac":true,"version":"7961495","steam_id":85568392924367362,"keywords":["cp","nocrits","nodmgspread","uncletopia"],"game_id":440,"stv_port":27016,"stv_name":"Uncletopia | London | 1 | All Maps | STV","players":[{"user_id":454,"name":"Finkaksu Devourer of Sour Candy","steam_id":76561198201389163,"connected_time":6203000000000,"state":"active","ping":72},{"user_id":535,"name":"Andreus","steam_id":76561199403926001,"connected_time":168000000000,"state":"active","ping":70},{"user_id":536,"name":"Topia","steam_id":76561198163571788,"connected_time":168000000000,"state":"active","ping":95},{"user_id":518,"name":"ExotiiC ☯","steam_id":76561198046149866,"connected_time":2590000000000,"state":"active","ping":63},{"user_id":521,"name":"Miku.Hatsune.2007","steam_id":76561198199687607,"connected_time":2501000000000,"state":"active","ping":64},{"user_id":496,"name":"Ville","steam_id":76561198137424821,"connected_time":4062000000000,"state":"active","ping":68},{"user_id":523,"name":"⚧aura⚧","steam_id":76561198066258544,"connected_time":2264000000000,"state":"active","ping":68},{"user_id":533,"name":"three rats in a trenchcoat","steam_id":76561197983889333,"connected_time":244000000000,"state":"active","ping":74},{"user_id":537,"name":"Kora","steam_id":76561198343198306,"connected_time":6000000000,"state":"spawning","ping":60},{"user_id":525,"name":"charlotte","steam_id":76561198075129898,"connected_time":2229000000000,"state":"active","ping":30},{"user_id":509,"name":"Keyboss1Tona","steam_id":76561199212039138,"connected_time":3175000000000,"state":"active","ping":57},{"user_id":500,"name":"Fearly","steam_id":76561198798684016,"connected_time":3771000000000,"state":"active","ping":46},{"user_id":534,"name":"ein","steam_id":76561198152162834,"connected_time":176000000000,"state":"active","ping":101},{"user_id":530,"name":"Flarp von Karma","steam_id":76561198043855292,"connected_time":1569000000000,"state":"active","ping":50},{"user_id":522,"name":"whimsy.","steam_id":76561198878171763,"connected_time":2282000000000,"state":"active","ping":50},{"user_id":511,"name":"albert","steam_id":76561198353496134,"connected_time":3144000000000,"state":"active","ping":54},{"user_id":493,"name":"Watereaters","steam_id":76561198165489058,"connected_time":4445000000000,"state":"active","ping":65},{"user_id":528,"name":"The Boss","steam_id":76561198426522902,"connected_time":1991000000000,"state":"active","ping":55},{"user_id":402,"name":"Lartsa","steam_id":76561198275690230,"connected_time":9882000000000,"state":"active","ping":108},{"user_id":520,"name":"kelpie (eepiest girl)","steam_id":76561198128327529,"connected_time":2548000000000,"state":"active","ping":46},{"user_id":504,"name":"BeanyBen","steam_id":76561198150585233,"connected_time":3486000000000,"state":"active","ping":53},{"user_id":529,"name":"Clown :o)","steam_id":76561198074657015,"connected_time":1713000000000,"state":"active","ping":59},{"user_id":531,"name":"Ismael Ahmad Kanabawi","steam_id":76561198066295629,"connected_time":1246000000000,"state":"active","ping":60},{"user_id":467,"name":"Imperialis","steam_id":76561198453956039,"connected_time":5824000000000,"state":"active","ping":57}]},{"server_id":114,"name":"Uncletopia | London | 2 | All Maps","name_short":"lon-2","host":"lon-1.uk.uncletopia.com","port":27025,"enabled":true,"region":"eu","cc":"gb","latitude":51.509865,"longitude":-0.118092,"reserved":0,"last_update":"0001-01-01T00:00:00Z","name_a2s":"Uncletopia | London | 2 | All Maps","protocol":17,"map":"koth_harvest_final","folder":"tf","game":"Team Fortress","app_id":440,"player_count":23,"max_players":24,"Bots":0,"server_type":"Dedicated","server_os":"Linux","password":true,"vac":true,"version":"7961495","steam_id":85568392924470941,"keywords":["cp","nocrits","nodmgspread","uncletopia"],"game_id":440,"stv_port":27026,"stv_name":"Uncletopia | London | 2 | All Maps | STV","players":[{"user_id":230,"name":"Pontos","steam_id":76561198056855411,"connected_time":172000000000,"state":"active","ping":85},{"user_id":215,"name":"Woman (Real)","steam_id":76561199151823932,"connected_time":1193000000000,"state":"active","ping":87},{"user_id":189,"name":"Scrooge Mc Clunk","steam_id":76561198885945084,"connected_time":3253000000000,"state":"active","ping":64},{"user_id":150,"name":"K.V. #RemoveRandomCrits","steam_id":76561197994832993,"connected_time":4665000000000,"state":"active","ping":82},{"user_id":225,"name":"lawn","steam_id":76561198001243486,"connected_time":300000000000,"state":"active","ping":40},{"user_id":221,"name":"AAAAAAAAAAAAAAAAAAAAAAAAAAA","steam_id":76561198102125260,"connected_time":702000000000,"state":"active","ping":87},{"user_id":172,"name":"machineshot","steam_id":76561198035661903,"connected_time":3791000000000,"state":"active","ping":90},{"user_id":226,"name":"Venom","steam_id":76561197965947211,"connected_time":266000000000,"state":"active","ping":65},{"user_id":212,"name":"Funni Gui","steam_id":76561198364599033,"connected_time":1552000000000,"state":"active","ping":48},{"user_id":219,"name":"JC","steam_id":76561198029213352,"connected_time":915000000000,"state":"active","ping":40},{"user_id":222,"name":"BLINKY","steam_id":76561198990110546,"connected_time":551000000000,"state":"active","ping":112},{"user_id":211,"name":"Sir Cauterize","steam_id":76561198047079422,"connected_time":1588000000000,"state":"active","ping":55},{"user_id":227,"name":"Prince Flip","steam_id":76561198023462157,"connected_time":234000000000,"state":"active","ping":52},{"user_id":232,"name":"Haggabah,WhoPliesTheUmbralPath","steam_id":76561198846984399,"connected_time":78000000000,"state":"active","ping":88},{"user_id":204,"name":"kadanov","steam_id":76561198055365234,"connected_time":1833000000000,"state":"active","ping":103},{"user_id":193,"name":"soil.dirt.earth","steam_id":76561198014377623,"connected_time":2858000000000,"state":"active","ping":44},{"user_id":229,"name":"Cold Heart","steam_id":76561198109838745,"connected_time":197000000000,"state":"spawning","ping":69},{"user_id":164,"name":"cp lover","steam_id":76561198413275515,"connected_time":4376000000000,"state":"active","ping":78},{"user_id":206,"name":"CrangSign","steam_id":76561198370580355,"connected_time":1821000000000,"state":"active","ping":58},{"user_id":224,"name":"Dr. Le Quack","steam_id":76561197995711176,"connected_time":415000000000,"state":"active","ping":90},{"user_id":213,"name":"Wife left me for a Romanian","steam_id":76561198992352692,"connected_time":1382000000000,"state":"active","ping":80},{"user_id":218,"name":"I Love Filtered Water","steam_id":76561198016042113,"connected_time":1057000000000,"state":"active","ping":88},{"user_id":231,"name":"AI | Davidoscki","steam_id":76561198129166046,"connected_time":120000000000,"state":"active","ping":113}]},{"server_id":320,"name":"Uncletopia | London | 3 | All Maps","name_short":"lon-3","host":"lon-1.uk.uncletopia.com","port":27035,"enabled":true,"region":"eu","cc":"gb","latitude":51.509865,"longitude":-0.118092,"reserved":0,"last_update":"0001-01-01T00:00:00Z","name_a2s":"Uncletopia | London | 3 | All Maps","protocol":17,"map":"pl_pier","folder":"tf","game":"Team Fortress","app_id":440,"player_count":24,"max_players":24,"Bots":0,"server_type":"Dedicated","server_os":"Linux","password":true,"vac":true,"version":"7961495","steam_id":85568392924510192,"keywords":["nocrits","nodmgspread","payload","uncletopia"],"game_id":440,"stv_port":27036,"stv_name":"Uncletopia | London | 3 | All Maps | STV","players":[{"user_id":88,"name":"FoOzTV","steam_id":76561197998636728,"connected_time":629000000000,"state":"active","ping":59},{"user_id":73,"name":"DaisyTheCat","steam_id":76561198241732704,"connected_time":987000000000,"state":"active","ping":48},{"user_id":95,"name":"SLoW","steam_id":76561198032650972,"connected_time":478000000000,"state":"active","ping":110},{"user_id":66,"name":"mud","steam_id":76561198141497461,"connected_time":1147000000000,"state":"active","ping":73},{"user_id":60,"name":"yuno appreciator","steam_id":76561198083286511,"connected_time":1511000000000,"state":"active","ping":34},{"user_id":79,"name":"[EXDr]Specky","steam_id":76561198302518477,"connected_time":803000000000,"state":"active","ping":55},{"user_id":98,"name":"RLCrazyCat3","steam_id":76561197983757878,"connected_time":45000000000,"state":"spawning","ping":72},{"user_id":96,"name":"Testy","steam_id":76561198169996602,"connected_time":466000000000,"state":"active","ping":66},{"user_id":97,"name":"KFC Manager","steam_id":76561198066374956,"connected_time":374000000000,"state":"active","ping":87},{"user_id":78,"name":"jovi_","steam_id":76561198449280552,"connected_time":868000000000,"state":"active","ping":84},{"user_id":57,"name":"NESS","steam_id":76561197995225318,"connected_time":1688000000000,"state":"active","ping":49},{"user_id":81,"name":"VampireSunflower","steam_id":76561199007012355,"connected_time":781000000000,"state":"active","ping":57},{"user_id":82,"name":"Deez nuts","steam_id":76561199429562693,"connected_time":768000000000,"state":"active","ping":74},{"user_id":64,"name":"IgnatiusFlange","steam_id":76561198102456416,"connected_time":1276000000000,"state":"active","ping":60},{"user_id":69,"name":"GameEndAllBrits","steam_id":76561198170733921,"connected_time":1119000000000,"state":"active","ping":59},{"user_id":70,"name":"RABBAIT UDDERS","steam_id":76561198169852789,"connected_time":1116000000000,"state":"active","ping":44},{"user_id":71,"name":"The Twice-Gorped Morp","steam_id":76561198052636352,"connected_time":1064000000000,"state":"active","ping":46},{"user_id":91,"name":"miruku","steam_id":76561198010340861,"connected_time":580000000000,"state":"active","ping":49},{"user_id":89,"name":"ThiccSkin Detective","steam_id":76561198989449047,"connected_time":629000000000,"state":"active","ping":127},{"user_id":93,"name":"Pancholín","steam_id":76561198262777640,"connected_time":547000000000,"state":"active","ping":70},{"user_id":86,"name":"JSX","steam_id":76561198039097662,"connected_time":722000000000,"state":"active","ping":75},{"user_id":90,"name":"TheEventGuy","steam_id":76561197972797744,"connected_time":608000000000,"state":"active","ping":70},{"user_id":92,"name":"Gkiller","steam_id":76561198169086450,"connected_time":563000000000,"state":"active","ping":92},{"user_id":94,"name":"Pats (Gifted items Collector)","steam_id":76561198418538887,"connected_time":543000000000,"state":"active","ping":79}]},{"server_id":321,"name":"Uncletopia | London | 4 | All Maps","name_short":"lon-4","host":"lon-1.uk.uncletopia.com","port":27045,"enabled":true,"region":"eu","cc":"gb","latitude":51.509865,"longitude":-0.118092,"reserved":0,"last_update":"0001-01-01T00:00:00Z","name_a2s":"Uncletopia | London | 4 | All Maps","protocol":17,"map":"koth_cascade","folder":"tf","game":"Team Fortress","app_id":440,"player_count":0,"max_players":24,"Bots":0,"server_type":"Dedicated","server_os":"Linux","password":true,"vac":true,"version":"7961495","steam_id":85568392924510193,"keywords":["cp","nocrits","nodmgspread","uncletopia"],"game_id":440,"stv_port":27046,"stv_name":"Uncletopia | London | 4 | All Maps | STV","players":null},{"server_id":21,"name":"Uncletopia | London | 5 | All Maps","name_short":"lon-5","host":"lon-1.uk.uncletopia.com","port":27055,"enabled":true,"region":"eu","cc":"gb","latitude":51.509865,"longitude":-0.118092,"reserved":0,"last_update":"0001-01-01T00:00:00Z","name_a2s":"Uncletopia | London | 5 | All Maps","protocol":17,"map":"koth_lakeside_final","folder":"tf","game":"Team Fortress","app_id":440,"player_count":2,"max_players":24,"Bots":0,"server_type":"Dedicated","server_os":"Linux","password":true,"vac":true,"version":"7961495","steam_id":85568392924742829,"keywords":["cp","nocrits","nodmgspread","uncletopia"],"game_id":440,"stv_port":27056,"stv_name":"Uncletopia | London | 5 | All Maps | STV","players":[{"user_id":7,"name":"Versus","steam_id":76561198882476443,"connected_time":2211000000000,"state":"active","ping":85},{"user_id":8,"name":"Xstronger_guyX","steam_id":76561199226332490,"connected_time":2128000000000,"state":"active","ping":85}]},{"server_id":22,"name":"Uncletopia | London | 6 | All Maps","name_short":"lon-6","host":"lon-1.uk.uncletopia.com","port":27065,"enabled":true,"region":"eu","cc":"gb","latitude":51.509865,"longitude":-0.118092,"reserved":0,"last_update":"0001-01-01T00:00:00Z","name_a2s":"Uncletopia | London | 6 | All Maps","protocol":17,"map":"koth_lakeside_final","folder":"tf","game":"Team Fortress","app_id":440,"player_count":0,"max_players":24,"Bots":0,"server_type":"Dedicated","server_os":"Linux","password":true,"vac":true,"version":"7961495","steam_id":85568392924742830,"keywords":["cp","nocrits","nodmgspread","uncletopia"],"game_id":440,"stv_port":27066,"stv_name":"Uncletopia | London | 6 | All Maps | STV","players":null},{"server_id":40,"name":"Uncletopia | London | 7 | Stopwatch","name_short":"lon-7","host":"lon-1.uk.uncletopia.com","port":27075,"enabled":true,"region":"eu","cc":"gb","latitude":51.509865,"longitude":-0.118092,"reserved":0,"last_update":"0001-01-01T00:00:00Z","name_a2s":"Uncletopia | London | 7 | Stopwatch","protocol":17,"map":"koth_lakeside_final","folder":"tf","game":"Team Fortress","app_id":440,"player_count":0,"max_players":24,"Bots":0,"server_type":"Dedicated","server_os":"Linux","password":true,"vac":true,"version":"7961495","steam_id":85568392924964314,"keywords":["cp","nocrits","nodmgspread","uncletopia"],"game_id":440,"stv_port":27076,"stv_name":"Uncletopia | London | 7 | Stopwatch | STV","players":null},{"server_id":41,"name":"Uncletopia | London | 8 | Community","name_short":"lon-8","host":"lon-1.uk.uncletopia.com","port":27085,"enabled":true,"region":"eu","cc":"gb","latitude":51.509865,"longitude":-0.118092,"reserved":0,"last_update":"0001-01-01T00:00:00Z","name_a2s":"Uncletopia | London | 8 | Community","protocol":17,"map":"cp_snakewater_final1","folder":"tf","game":"Team Fortress","app_id":440,"player_count":0,"max_players":24,"Bots":0,"server_type":"Dedicated","server_os":"Linux","password":true,"vac":true,"version":"7961495","steam_id":85568392924964315,"keywords":["cp","nocrits","nodmgspread","uncletopia"],"game_id":440,"stv_port":27086,"stv_name":"Uncletopia | London | 8 | Community | STV","players":null},{"server_id":300,"name":"Uncletopia | Montréal | 1 | One Thousand Uncles","name_short":"mtl-1","host":"mtl-1.ca.uncletopia.com","port":27015,"enabled":true,"region":"us-east","cc":"ca","latitude":45.50889,"longitude":-73.56167,"reserved":0,"last_update":"0001-01-01T00:00:00Z","name_a2s":"","protocol":0,"map":"","folder":"","game":"","app_id":0,"player_count":0,"max_players":0,"Bots":0,"server_type":"","server_os":"","password":false,"vac":false,"version":"","steam_id":0,"keywords":null,"game_id":0,"stv_port":0,"stv_name":"","players":null},{"server_id":301,"name":"Uncletopia | Montréal | 2 | One Thousand Uncles","name_short":"mtl-2","host":"mtl-1.ca.uncletopia.com","port":27025,"enabled":true,"region":"us-east","cc":"ca","latitude":45.50889,"longitude":-73.56167,"reserved":0,"last_update":"0001-01-01T00:00:00Z","name_a2s":"","protocol":0,"map":"","folder":"","game":"","app_id":0,"player_count":0,"max_players":0,"Bots":0,"server_type":"","server_os":"","password":false,"vac":false,"version":"","steam_id":0,"keywords":null,"game_id":0,"stv_port":0,"stv_name":"","players":null},{"server_id":302,"name":"Uncletopia | Montréal | 3 | One Thousand Uncles","name_short":"mtl-3","host":"mtl-1.ca.uncletopia.com","port":27035,"enabled":true,"region":"us-east","cc":"ca","latitude":45.50889,"longitude":-73.56167,"reserved":0,"last_update":"0001-01-01T00:00:00Z","name_a2s":"","protocol":0,"map":"","folder":"","game":"","app_id":0,"player_count":0,"max_players":0,"Bots":0,"server_type":"","server_os":"","password":false,"vac":false,"version":"","steam_id":0,"keywords":null,"game_id":0,"stv_port":0,"stv_name":"","players":null},{"server_id":13,"name":"Uncletopia | New York City | 1 | All Maps","name_short":"nyc-1","host":"nyc-1.us.uncletopia.com","port":27015,"enabled":true,"region":"us-east","cc":"us","latitude":40.73061,"longitude":-73.93524,"reserved":0,"last_update":"0001-01-01T00:00:00Z","name_a2s":"Uncletopia | New York City | 1 | All Maps","protocol":17,"map":"cp_sunshine","folder":"tf","game":"Team Fortress","app_id":440,"player_count":0,"max_players":24,"Bots":0,"server_type":"Dedicated","server_os":"Linux","password":true,"vac":true,"version":"7961495","steam_id":85568392924469993,"keywords":["cp","nocrits","nodmgspread","uncletopia"],"game_id":440,"stv_port":27016,"stv_name":"Uncletopia | New York City | 1 | All Maps | STV","players":null},{"server_id":14,"name":"Uncletopia | New York City | 2 | All Maps","name_short":"nyc-2","host":"nyc-1.us.uncletopia.com","port":27025,"enabled":true,"region":"us-east","cc":"us","latitude":40.73061,"longitude":-73.93524,"reserved":0,"last_update":"0001-01-01T00:00:00Z","name_a2s":"Uncletopia | New York City | 2 | All Maps","protocol":17,"map":"pl_snowycoast","folder":"tf","game":"Team Fortress","app_id":440,"player_count":0,"max_players":24,"Bots":0,"server_type":"Dedicated","server_os":"Linux","password":true,"vac":true,"version":"7961495","steam_id":85568392924469994,"keywords":["nocrits","nodmgspread","payload","uncletopia"],"game_id":440,"stv_port":27026,"stv_name":"Uncletopia | New York City | 2 | All Maps | STV","players":null},{"server_id":15,"name":"Uncletopia | New York City | 3 | Stopwatch","name_short":"nyc-3","host":"nyc-1.us.uncletopia.com","port":27035,"enabled":true,"region":"us-east","cc":"us","latitude":40.73061,"longitude":-73.93524,"reserved":0,"last_update":"0001-01-01T00:00:00Z","name_a2s":"Uncletopia | New York City | 3 | Stopwatch","protocol":17,"map":"pl_snowycoast","folder":"tf","game":"Team Fortress","app_id":440,"player_count":0,"max_players":24,"Bots":0,"server_type":"Dedicated","server_os":"Linux","password":true,"vac":true,"version":"7961495","steam_id":85568392924742820,"keywords":["nocrits","nodmgspread","payload","uncletopia"],"game_id":440,"stv_port":27036,"stv_name":"Uncletopia | New York City | 3 | Stopwatch | STV","players":null},{"server_id":16,"name":"Uncletopia | New York City | 4 | Community","name_short":"nyc-4","host":"nyc-1.us.uncletopia.com","port":27045,"enabled":true,"region":"us-east","cc":"us","latitude":40.73061,"longitude":-73.93524,"reserved":0,"last_update":"0001-01-01T00:00:00Z","name_a2s":"Uncletopia | New York City | 4 | Community","protocol":17,"map":"workshop/koth_synthetic_rc6a.ugc1549817316","folder":"tf","game":"Team Fortress","app_id":440,"player_count":0,"max_players":24,"Bots":0,"server_type":"Dedicated","server_os":"Linux","password":true,"vac":true,"version":"7961495","steam_id":85568392924742821,"keywords":["cp","nocrits","nodmgspread","uncletopia"],"game_id":440,"stv_port":27046,"stv_name":"Uncletopia | New York City | 4 | Community | STV","players":null},{"server_id":142,"name":"Uncletopia | São Paulo | 1 | All Maps","name_short":"sao-1","host":"sao-1.br.uncletopia.com","port":27015,"enabled":true,"region":"sa","cc":"br","latitude":-23.533773,"longitude":-46.62529,"reserved":0,"last_update":"0001-01-01T00:00:00Z","name_a2s":"Uncletopia | São Paulo | 1 | All Maps","protocol":17,"map":"koth_lakeside_final","folder":"tf","game":"Team Fortress","app_id":440,"player_count":2,"max_players":24,"Bots":0,"server_type":"Dedicated","server_os":"Linux","password":true,"vac":true,"version":"7961495","steam_id":85568392924469996,"keywords":["cp","nocrits","nodmgspread","uncletopia"],"game_id":440,"stv_port":27016,"stv_name":"Uncletopia | São Paulo | 1 | All Maps | STV","players":[{"user_id":5,"name":"O corvo","steam_id":76561199433196951,"connected_time":722000000000,"state":"active","ping":55},{"user_id":6,"name":"Fusca Gelado","steam_id":76561199099131491,"connected_time":696000000000,"state":"active","ping":45}]},{"server_id":143,"name":"Uncletopia | São Paulo | 2 | Community","name_short":"sao-2","host":"sao-2.br.uncletopia.com","port":27015,"enabled":true,"region":"sa","cc":"br","latitude":-23.533773,"longitude":-46.62529,"reserved":0,"last_update":"0001-01-01T00:00:00Z","name_a2s":"Uncletopia | São Paulo | 2 | Community","protocol":17,"map":"workshop/pl_cashworks_final1.ugc2904065412","folder":"tf","game":"Team Fortress","app_id":440,"player_count":0,"max_players":24,"Bots":0,"server_type":"Dedicated","server_os":"Linux","password":true,"vac":true,"version":"7961495","steam_id":85568392924485349,"keywords":["nocrits","nodmgspread","payload","uncletopia"],"game_id":440,"stv_port":27016,"stv_name":"Uncletopia | São Paulo | 2 | Community | STV","players":null},{"server_id":7,"name":"Uncletopia | Seattle | 1 | All Maps","name_short":"sea-1","host":"sea-1.us.uncletopia.com","port":27015,"enabled":true,"region":"us-west","cc":"us","latitude":47.608013,"longitude":-122.33517,"reserved":0,"last_update":"0001-01-01T00:00:00Z","name_a2s":"Uncletopia | Seattle | 1 | All Maps","protocol":17,"map":"pl_swiftwater_final1","folder":"tf","game":"Team Fortress","app_id":440,"player_count":0,"max_players":24,"Bots":0,"server_type":"Dedicated","server_os":"Linux","password":true,"vac":true,"version":"7961495","steam_id":85568392924469997,"keywords":["nocrits","nodmgspread","payload","uncletopia"],"game_id":440,"stv_port":27016,"stv_name":"Uncletopia | Seattle | 1 | All Maps | STV","players":null},{"server_id":119,"name":"Uncletopia | Seattle | 2 | All Maps","name_short":"sea-2","host":"sea-1.us.uncletopia.com","port":27025,"enabled":true,"region":"us-west","cc":"us","latitude":47.608013,"longitude":-122.33517,"reserved":0,"last_update":"0001-01-01T00:00:00Z","name_a2s":"Uncletopia | Seattle | 2 | All Maps","protocol":17,"map":"cp_process_final","folder":"tf","game":"Team Fortress","app_id":440,"player_count":0,"max_players":24,"Bots":0,"server_type":"Dedicated","server_os":"Linux","password":true,"vac":true,"version":"7961495","steam_id":85568392924469998,"keywords":["cp","nocrits","nodmgspread","uncletopia"],"game_id":440,"stv_port":27026,"stv_name":"Uncletopia | Seattle | 2 | All Maps | STV","players":null},{"server_id":406,"name":"Uncletopia | Seattle | 3 | Stopwatch","name_short":"sea-3","host":"sea-1.us.uncletopia.com","port":27035,"enabled":true,"region":"us-west","cc":"us","latitude":47.608013,"longitude":-122.33517,"reserved":0,"last_update":"0001-01-01T00:00:00Z","name_a2s":"Uncletopia | Seattle | 3 | Stopwatch","protocol":17,"map":"pl_pier","folder":"tf","game":"Team Fortress","app_id":440,"player_count":0,"max_players":24,"Bots":0,"server_type":"Dedicated","server_os":"Linux","password":true,"vac":true,"version":"7961495","steam_id":85568392924515217,"keywords":["nocrits","nodmgspread","payload","uncletopia"],"game_id":440,"stv_port":27036,"stv_name":"Uncletopia | Seattle | 3 | Stopwatch | STV","players":null},{"server_id":17,"name":"Uncletopia | San Francisco | 1 | All Maps","name_short":"sfo-1","host":"sfo-1.us.uncletopia.com","port":27015,"enabled":true,"region":"us-west","cc":"us","latitude":37.77397,"longitude":-122.4313,"reserved":0,"last_update":"0001-01-01T00:00:00Z","name_a2s":"Uncletopia | San Francisco | 1 | All Maps","protocol":17,"map":"koth_cascade","folder":"tf","game":"Team Fortress","app_id":440,"player_count":0,"max_players":24,"Bots":0,"server_type":"Dedicated","server_os":"Linux","password":true,"vac":true,"version":"7961495","steam_id":85568392924469999,"keywords":["cp","nocrits","nodmgspread","uncletopia"],"game_id":440,"stv_port":27016,"stv_name":"Uncletopia | San Francisco | 1 | All Maps | STV","players":null},{"server_id":18,"name":"Uncletopia | San Francisco | 2 | All Maps","name_short":"sfo-2","host":"sfo-1.us.uncletopia.com","port":27025,"enabled":true,"region":"us-west","cc":"us","latitude":37.77397,"longitude":-122.4313,"reserved":0,"last_update":"0001-01-01T00:00:00Z","name_a2s":"Uncletopia | San Francisco | 2 | All Maps","protocol":17,"map":"pl_frontier_final","folder":"tf","game":"Team Fortress","app_id":440,"player_count":4,"max_players":24,"Bots":0,"server_type":"Dedicated","server_os":"Linux","password":true,"vac":true,"version":"7961495","steam_id":85568392924470000,"keywords":["nocrits","nodmgspread","payload","uncletopia"],"game_id":440,"stv_port":27026,"stv_name":"Uncletopia | San Francisco | 2 | All Maps | STV","players":[{"user_id":3,"name":"Sticky Man","steam_id":76561199068340760,"connected_time":941000000000,"state":"active","ping":91},{"user_id":4,"name":"SomeFatKid","steam_id":76561199067572106,"connected_time":937000000000,"state":"active","ping":88},{"user_id":5,"name":"Oktayey","steam_id":76561198143213426,"connected_time":735000000000,"state":"active","ping":42},{"user_id":6,"name":"Vagrant","steam_id":76561198242536886,"connected_time":430000000000,"state":"active","ping":107}]},{"server_id":19,"name":"Uncletopia | San Francisco | 3 | Stopwatch","name_short":"sfo-3","host":"sfo-1.us.uncletopia.com","port":27035,"enabled":true,"region":"us-west","cc":"us","latitude":37.77397,"longitude":-122.4313,"reserved":0,"last_update":"0001-01-01T00:00:00Z","name_a2s":"Uncletopia | San Francisco | 3 | Stopwatch","protocol":17,"map":"pl_pier","folder":"tf","game":"Team Fortress","app_id":440,"player_count":0,"max_players":24,"Bots":0,"server_type":"Dedicated","server_os":"Linux","password":true,"vac":true,"version":"7961495","steam_id":85568392924742824,"keywords":["nocrits","nodmgspread","payload","uncletopia"],"game_id":440,"stv_port":27036,"stv_name":"Uncletopia | San Francisco | 3 | Stopwatch | STV","players":null},{"server_id":20,"name":"Uncletopia | San Francisco | 4 | Community","name_short":"sfo-4","host":"sfo-1.us.uncletopia.com","port":27045,"enabled":true,"region":"us-west","cc":"us","latitude":37.77397,"longitude":-122.4313,"reserved":0,"last_update":"0001-01-01T00:00:00Z","name_a2s":"Uncletopia | San Francisco | 4 | Community","protocol":17,"map":"pl_pier","folder":"tf","game":"Team Fortress","app_id":440,"player_count":0,"max_players":24,"Bots":0,"server_type":"Dedicated","server_os":"Linux","password":true,"vac":true,"version":"7961495","steam_id":85568392924742826,"keywords":["nocrits","nodmgspread","payload","uncletopia"],"game_id":440,"stv_port":27046,"stv_name":"Uncletopia | San Francisco | 4 | Community | STV","players":null},{"server_id":141,"name":"Uncletopia | Sydney | 1 | All Maps","name_short":"syd-1","host":"syd-1.au.uncletopia.com","port":27015,"enabled":true,"region":"au","cc":"au","latitude":-33.865143,"longitude":151.2099,"reserved":0,"last_update":"0001-01-01T00:00:00Z","name_a2s":"Uncletopia | Sydney | 1 | All Maps","protocol":17,"map":"ctf_2fort","folder":"tf","game":"Team Fortress","app_id":440,"player_count":0,"max_players":24,"Bots":0,"server_type":"Dedicated","server_os":"Linux","password":true,"vac":true,"version":"7961495","steam_id":85568392924470001,"keywords":["ctf","nocrits","nodmgspread","uncletopia"],"game_id":440,"stv_port":27016,"stv_name":"Uncletopia | Sydney | 1 | All Maps | STV","players":null},{"server_id":123,"name":"Uncletopia | Sydney | 2 | All Maps","name_short":"syd-2","host":"syd-1.au.uncletopia.com","port":27025,"enabled":true,"region":"au","cc":"au","latitude":-33.865143,"longitude":151.2099,"reserved":0,"last_update":"0001-01-01T00:00:00Z","name_a2s":"Uncletopia | Sydney | 2 | All Maps","protocol":17,"map":"cp_mountainlab","folder":"tf","game":"Team Fortress","app_id":440,"player_count":0,"max_players":24,"Bots":0,"server_type":"Dedicated","server_os":"Linux","password":true,"vac":true,"version":"7961495","steam_id":85568392924470002,"keywords":["cp","nocrits","nodmgspread","uncletopia"],"game_id":440,"stv_port":27026,"stv_name":"Uncletopia | Sydney | 2 | All Maps | STV","players":null},{"server_id":395,"name":"Uncletopia | Sydney | 3 | All Maps","name_short":"syd-3","host":"syd-1.au.uncletopia.com","port":27035,"enabled":true,"region":"au","cc":"au","latitude":-33.865143,"longitude":151.2099,"reserved":0,"last_update":"0001-01-01T00:00:00Z","name_a2s":"Uncletopia | Sydney | 3 | All Maps","protocol":17,"map":"koth_cascade","folder":"tf","game":"Team Fortress","app_id":440,"player_count":0,"max_players":24,"Bots":0,"server_type":"Dedicated","server_os":"Linux","password":true,"vac":true,"version":"7961495","steam_id":85568392925194467,"keywords":["cp","nocrits","nodmgspread","uncletopia"],"game_id":440,"stv_port":27036,"stv_name":"Uncletopia | Sydney | 3 | All Maps | STV","players":null},{"server_id":396,"name":"Uncletopia | Sydney | 4 | All Maps","name_short":"syd-4","host":"syd-1.au.uncletopia.com","port":27045,"enabled":true,"region":"au","cc":"au","latitude":-33.865143,"longitude":151.2099,"reserved":0,"last_update":"0001-01-01T00:00:00Z","name_a2s":"Uncletopia | Sydney | 4 | All Maps","protocol":17,"map":"cp_snakewater_final1","folder":"tf","game":"Team Fortress","app_id":440,"player_count":0,"max_players":24,"Bots":0,"server_type":"Dedicated","server_os":"Linux","password":true,"vac":true,"version":"7961495","steam_id":85568392925397958,"keywords":["cp","nocrits","nodmgspread","uncletopia"],"game_id":440,"stv_port":27046,"stv_name":"Uncletopia | Sydney | 4 | All Maps | STV","players":null},{"server_id":58,"name":"Uncletopia | Sydney | 5 | Stopwatch","name_short":"syd-5","host":"syd-1.au.uncletopia.com","port":27055,"enabled":true,"region":"au","cc":"au","latitude":-33.865143,"longitude":151.2099,"reserved":0,"last_update":"0001-01-01T00:00:00Z","name_a2s":"Uncletopia | Sydney | 5 | Stopwatch","protocol":17,"map":"pl_frontier_final","folder":"tf","game":"Team Fortress","app_id":440,"player_count":0,"max_players":24,"Bots":0,"server_type":"Dedicated","server_os":"Linux","password":true,"vac":true,"version":"7961495","steam_id":85568392925397959,"keywords":["nocrits","nodmgspread","payload","uncletopia"],"game_id":440,"stv_port":27056,"stv_name":"Uncletopia | Sydney | 5 | Stopwatch | STV","players":null},{"server_id":59,"name":"Uncletopia | Sydney | 6 | Community","name_short":"syd-6","host":"syd-1.au.uncletopia.com","port":27065,"enabled":true,"region":"au","cc":"au","latitude":-33.865143,"longitude":151.2099,"reserved":0,"last_update":"0001-01-01T00:00:00Z","name_a2s":"Uncletopia | Sydney | 6 | Community","protocol":17,"map":"workshop/koth_product_final.ugc454272353","folder":"tf","game":"Team Fortress","app_id":440,"player_count":0,"max_players":24,"Bots":0,"server_type":"Dedicated","server_os":"Linux","password":true,"vac":true,"version":"7961495","steam_id":85568392925397960,"keywords":["cp","nocrits","nodmgspread","uncletopia"],"game_id":440,"stv_port":27066,"stv_name":"Uncletopia | Sydney | 6 | Community | STV","players":null},{"server_id":49,"name":"Uncletopia | Warsaw | 1 | One Thousand Uncles","name_short":"waw-1","host":"waw-1.pl.uncletopia.com","port":27015,"enabled":true,"region":"eu","cc":"pl","latitude":52.2297,"longitude":21.017532,"reserved":0,"last_update":"0001-01-01T00:00:00Z","name_a2s":"Uncletopia | Warsaw | 1 | One Thousand Uncles","protocol":17,"map":"pl_upward","folder":"tf","game":"Team Fortress","app_id":440,"player_count":28,"max_players":32,"Bots":16,"server_type":"Dedicated","server_os":"Linux","password":true,"vac":true,"version":"7961495","steam_id":85568392925397850,"keywords":["alltalk","bots","danepve","increased_maxplayers","nocrits","norespawntime","payload","uncletopia"],"game_id":440,"stv_port":0,"stv_name":"","players":[{"user_id":417,"name":"banana milkshake","steam_id":76561198439914445,"connected_time":4920000000000,"state":"active","ping":65},{"user_id":448,"name":"질먹는 사람861","steam_id":76561199084680369,"connected_time":2035000000000,"state":"active","ping":44},{"user_id":471,"name":"demo flower","steam_id":76561199401272759,"connected_time":1204000000000,"state":"active","ping":72},{"user_id":398,"name":"Gamer_X","steam_id":76561198085349286,"connected_time":5568000000000,"state":"active","ping":94},{"user_id":426,"name":"Kotlet schabowy","steam_id":76561198048983509,"connected_time":3331000000000,"state":"active","ping":40},{"user_id":422,"name":"UkrХлєб","steam_id":76561198388896707,"connected_time":4089000000000,"state":"active","ping":73},{"user_id":420,"name":"Kretes","steam_id":76561198982786431,"connected_time":4527000000000,"state":"active","ping":42},{"user_id":474,"name":"Riky95","steam_id":76561198095289436,"connected_time":289000000000,"state":"active","ping":63},{"user_id":450,"name":"OutOfDucks","steam_id":76561198166376227,"connected_time":1846000000000,"state":"active","ping":73},{"user_id":472,"name":"xanderomeister","steam_id":76561198882550389,"connected_time":1116000000000,"state":"active","ping":56},{"user_id":451,"name":"the baddest boy in btd5","steam_id":76561199487914508,"connected_time":1630000000000,"state":"active","ping":33},{"user_id":452,"name":"ChicCk","steam_id":76561198873205468,"connected_time":1459000000000,"state":"active","ping":49}]},{"server_id":50,"name":"Uncletopia | Warsaw | 2 | One Thousand Uncles","name_short":"waw-2","host":"waw-1.pl.uncletopia.com","port":27025,"enabled":true,"region":"eu","cc":"pl","latitude":52.2297,"longitude":21.017532,"reserved":0,"last_update":"0001-01-01T00:00:00Z","name_a2s":"Uncletopia | Warsaw | 2 | One Thousand Uncles","protocol":17,"map":"pl_thundermountain","folder":"tf","game":"Team Fortress","app_id":440,"player_count":0,"max_players":32,"Bots":0,"server_type":"Dedicated","server_os":"Linux","password":true,"vac":true,"version":"7961495","steam_id":85568392925397851,"keywords":["alltalk","danepve","increased_maxplayers","nocrits","norespawntime","payload","uncletopia"],"game_id":440,"stv_port":0,"stv_name":"","players":null},{"server_id":51,"name":"Uncletopia | Warsaw | 3 | All Maps","name_short":"waw-3","host":"waw-1.pl.uncletopia.com","port":27035,"enabled":true,"region":"eu","cc":"pl","latitude":52.2297,"longitude":21.017532,"reserved":0,"last_update":"0001-01-01T00:00:00Z","name_a2s":"Uncletopia | Warsaw | 3 | All Maps","protocol":17,"map":"pl_swiftwater_final1","folder":"tf","game":"Team Fortress","app_id":440,"player_count":0,"max_players":24,"Bots":0,"server_type":"Dedicated","server_os":"Linux","password":true,"vac":true,"version":"7961495","steam_id":85568392925397852,"keywords":["nocrits","nodmgspread","payload","uncletopia"],"game_id":440,"stv_port":27036,"stv_name":"Uncletopia | Warsaw | 3 | All Maps | STV","players":null},{"server_id":52,"name":"Uncletopia | Warsaw | 4 | All Maps","name_short":"waw-4","host":"waw-1.pl.uncletopia.com","port":27045,"enabled":true,"region":"eu","cc":"pl","latitude":52.2297,"longitude":21.017532,"reserved":0,"last_update":"0001-01-01T00:00:00Z","name_a2s":"Uncletopia | Warsaw | 4 | All Maps","protocol":17,"map":"cp_sunshine","folder":"tf","game":"Team Fortress","app_id":440,"player_count":4,"max_players":24,"Bots":0,"server_type":"Dedicated","server_os":"Linux","password":true,"vac":true,"version":"7961495","steam_id":85568392925397853,"keywords":["cp","nocrits","nodmgspread","uncletopia"],"game_id":440,"stv_port":27046,"stv_name":"Uncletopia | Warsaw | 4 | All Maps | STV","players":[{"user_id":14,"name":"Mustanng0_0","steam_id":76561199364528772,"connected_time":920000000000,"state":"active","ping":59},{"user_id":17,"name":"Neams","steam_id":76561199170899841,"connected_time":421000000000,"state":"active","ping":54},{"user_id":18,"name":"Turecki Gołąb","steam_id":76561199116183115,"connected_time":252000000000,"state":"active","ping":48},{"user_id":19,"name":"dup","steam_id":76561199273931051,"connected_time":139000000000,"state":"active","ping":70}]},{"server_id":53,"name":"Uncletopia | Warsaw | 5 | Stopwatch","name_short":"waw-5","host":"waw-1.pl.uncletopia.com","port":27055,"enabled":true,"region":"eu","cc":"pl","latitude":52.2297,"longitude":21.017532,"reserved":0,"last_update":"0001-01-01T00:00:00Z","name_a2s":"Uncletopia | Warsaw | 5 | Stopwatch","protocol":17,"map":"cp_snakewater_final1","folder":"tf","game":"Team Fortress","app_id":440,"player_count":0,"max_players":24,"Bots":0,"server_type":"Dedicated","server_os":"Linux","password":true,"vac":true,"version":"7961495","steam_id":85568392925397854,"keywords":["cp","nocrits","nodmgspread","uncletopia"],"game_id":440,"stv_port":27056,"stv_name":"Uncletopia | Warsaw | 5 | Stopwatch | STV","players":null},{"server_id":54,"name":"Uncletopia | Warsaw | 6 | Community","name_short":"waw-6","host":"waw-1.pl.uncletopia.com","port":27065,"enabled":true,"region":"eu","cc":"pl","latitude":52.2297,"longitude":21.017532,"reserved":0,"last_update":"0001-01-01T00:00:00Z","name_a2s":"Uncletopia | Warsaw | 6 | Community","protocol":17,"map":"workshop/pl_badwater_pro_v12.ugc2142942074","folder":"tf","game":"Team Fortress","app_id":440,"player_count":0,"max_players":24,"Bots":0,"server_type":"Dedicated","server_os":"Linux","password":true,"vac":true,"version":"7961495","steam_id":85568392925397856,"keywords":["nocrits","nodmgspread","payload","uncletopia"],"game_id":440,"stv_port":27066,"stv_name":"Uncletopia | Warsaw | 6 | Community | STV","players":null}]}