{"status":true,"message":"","result":[{"server_id":9,"name":"Uncletopia | Atlanta | 1 | All Maps","name_short":"atl-1","host":"atl-1.us.uncletopia.com","port":27015,"enabled":true,"region":"us-east","cc":"us","latitude":33.753746,"longitude":-84.38633,"reserved":0,"last_update":"0001-01-01T00:00:00Z","name_a2s":"Uncletopia | Atlanta | 1 | All Maps","protocol":17,"map":"pl_swiftwater_final1","folder":"tf","game":"Team Fortress","app_id":440,"player_count":23,"max_players":24,"Bots":0,"server_type":"Dedicated","server_os":"Linux","password":true,"vac":true,"version":"7882260","steam_id":85568392924469982,"keywords":["nocrits","nodmgspread","payload","uncletopia"],"game_id":440,"stv_port":27016,"stv_name":"Uncletopia | Atlanta | 1 | All Maps | STV","players":[{"user_id":364,"name":"Brown_Dream","steam_id":76561198975766145,"connected_time":4687000000000,"state":"active","ping":64},{"user_id":392,"name":"FHC | Nyle","steam_id":76561198045652639,"connected_time":2705000000000,"state":"active","ping":114},{"user_id":417,"name":"mel0n","steam_id":76561198034817244,"connected_time":673000000000,"state":"active","ping":60},{"user_id":431,"name":"momlover949","steam_id":76561198076693017,"connected_time":127000000000,"state":"active","ping":107},{"user_id":428,"name":"Kasodani Kyouko","steam_id":76561198023178589,"connected_time":180000000000,"state":"active","ping":93},{"user_id":419,"name":"Mei Hatsume","steam_id":76561198110243186,"connected_time":437000000000,"state":"active","ping":48},{"user_id":399,"name":"Tweedlefame","steam_id":76561198066867150,"connected_time":1921000000000,"state":"active","ping":60},{"user_id":378,"name":"DuckMann","steam_id":76561198197058638,"connected_time":3319000000000,"state":"active","ping":46},{"user_id":429,"name":"Moonshine ❤","steam_id":76561198845493062,"connected_time":172000000000,"state":"active","ping":116},{"user_id":369,"name":"minty","steam_id":76561198096347625,"connected_time":4232000000000,"state":"active","ping":60},{"user_id":415,"name":"Ashes!","steam_id":76561197998475441,"connected_time":850000000000,"state":"active","ping":81},{"user_id":414,"name":"rizzard of oz","steam_id":76561198040907214,"connected_time":933000000000,"state":"active","ping":45},{"user_id":426,"name":"Mazdamundi!","steam_id":76561198044691081,"connected_time":206000000000,"state":"active","ping":56},{"user_id":418,"name":"Rockhead","steam_id":76561197995196535,"connected_time":641000000000,"state":"active","ping":72},{"user_id":424,"name":"little bear cub","steam_id":76561198044006334,"connected_time":234000000000,"state":"active","ping":106},{"user_id":397,"name":"kite","steam_id":76561198346516392,"connected_time":2160000000000,"state":"active","ping":86},{"user_id":423,"name":"Onyx","steam_id":76561198275349640,"connected_time":242000000000,"state":"active","ping":77},{"user_id":420,"name":"Ġ1 ♦ Synth","steam_id":76561198058660228,"connected_time":424000000000,"state":"active","ping":46},{"user_id":404,"name":"OddSlaush","steam_id":76561198043898488,"connected_time":1344000000000,"state":"active","ping":97},{"user_id":409,"name":"Jarate  Gaming","steam_id":76561199025028968,"connected_time":1184000000000,"state":"active","ping":74},{"user_id":413,"name":"bkiller","steam_id":76561198029265697,"connected_time":1030000000000,"state":"active","ping":58},{"user_id":430,"name":"Elud4","steam_id":76561198049072796,"connected_time":163000000000,"state":"active","ping":94},{"user_id":422,"name":"ChubbySolution","steam_id":76561198160468964,"connected_time":243000000000,"state":"active","ping":77}]},{"server_id":104,"name":"Uncletopia | Atlanta | 2 | All Maps","name_short":"atl-2","host":"atl-1.us.uncletopia.com","port":27025,"enabled":true,"region":"us-east","cc":"us","latitude":33.753746,"longitude":-84.38633,"reserved":0,"last_update":"0001-01-01T00:00:00Z","name_a2s":"Uncletopia | Atlanta | 2 | All Maps","protocol":17,"map":"pl_swiftwater_final1","folder":"tf","game":"Team Fortress","app_id":440,"player_count":24,"max_players":24,"Bots":0,"server_type":"Dedicated","server_os":"Linux","password":true,"vac":true,"version":"7882260","steam_id":85568392924469983,"keywords":["nocrits","nodmgspread","payload","uncletopia"],"game_id":440,"stv_port":27026,"stv_name":"Uncletopia | Atlanta | 2 | All Maps | STV","players":[{"user_id":314,"name":"KFC Rat","steam_id":76561198135128086,"connected_time":581000000000,"state":"active","ping":113},{"user_id":296,"name":"dr peppah chug!","steam_id":76561198068835693,"connected_time":1545000000000,"state":"active","ping":105},{"user_id":311,"name":"JonnyTF2  (steel fucker)","steam_id":76561198398531250,"connected_time":1030000000000,"state":"active","ping":60},{"user_id":278,"name":"clopherite","steam_id":76561198860351700,"connected_time":3180000000000,"state":"active","ping":83},{"user_id":289,"name":"wolfgrey139","steam_id":76561199206554751,"connected_time":2487000000000,"state":"active","ping":70},{"user_id":290,"name":"Menacing Pile of Frogs","steam_id":76561198360134800,"connected_time":2150000000000,"state":"active","ping":69},{"user_id":317,"name":"Nukeboy","steam_id":76561198147058560,"connected_time":429000000000,"state":"active","ping":119},{"user_id":315,"name":"Moonman327","steam_id":76561197992616059,"connected_time":570000000000,"state":"active","ping":60},{"user_id":304,"name":"vessel of ruin","steam_id":76561198094512992,"connected_time":1175000000000,"state":"active","ping":67},{"user_id":316,"name":"Darkmaen","steam_id":76561198060543390,"connected_time":465000000000,"state":"active","ping":138},{"user_id":318,"name":"Vanya","steam_id":76561198042631561,"connected_time":423000000000,"state":"active","ping":76},{"user_id":306,"name":"Flying Soldier","steam_id":76561198433554581,"connected_time":1116000000000,"state":"active","ping":84},{"user_id":307,"name":"Helloppl65","steam_id":76561198272420658,"connected_time":1108000000000,"state":"active","ping":115},{"user_id":308,"name":"PkFireBad","steam_id":76561198175693743,"connected_time":1102000000000,"state":"active","ping":56},{"user_id":292,"name":"vcn","steam_id":76561198354473513,"connected_time":2088000000000,"state":"active","ping":74},{"user_id":294,"name":"Mae","steam_id":76561198085815757,"connected_time":2073000000000,"state":"active","ping":77},{"user_id":265,"name":"Aloha :3","steam_id":76561198148517055,"connected_time":4015000000000,"state":"active","ping":117},{"user_id":309,"name":"g00bur","steam_id":76561197993622520,"connected_time":1084000000000,"state":"active","ping":69},{"user_id":310,"name":"milo","steam_id":76561199061380038,"connected_time":1041000000000,"state":"active","ping":45},{"user_id":312,"name":"lost in spaaaaace","steam_id":76561199085974120,"connected_time":975000000000,"state":"active","ping":78},{"user_id":298,"name":"TURTLEPOOL21","steam_id":76561198278212264,"connected_time":1422000000000,"state":"active","ping":45},{"user_id":321,"name":"squidDMV","steam_id":76561199481268436,"connected_time":399000000000,"state":"active","ping":76},{"user_id":322,"name":"Flowers","steam_id":76561198031669899,"connected_time":394000000000,"state":"active","ping":87},{"user_id":325,"name":"shitting","steam_id":76561198098781227,"connected_time":271000000000,"state":"active","ping":77}]},{"server_id":400,"name":"Uncletopia | Atlanta | 3 | Community","name_short":"atl-3","host":"atl-1.us.uncletopia.com","port":27035,"enabled":true,"region":"us-east","cc":"us","latitude":33.753746,"longitude":-84.38633,"reserved":0,"last_update":"0001-01-01T00:00:00Z","name_a2s":"Uncletopia | Atlanta | 3 | Community","protocol":17,"map":"workshop/cp_fulgur_rc2a.ugc2068252300","folder":"tf","game":"Team Fortress","app_id":440,"player_count":0,"max_players":24,"Bots":0,"server_type":"Dedicated","server_os":"Linux","password":true,"vac":true,"version":"7882260","steam_id":85568392924515187,"keywords":["cp","nocrits","nodmgspread","uncletopia"],"game_id":440,"stv_port":27036,"stv_name":"Uncletopia | Atlanta | 3 | Community | STV","players":null},{"server_id":401,"name":"Uncletopia | Atlanta | 4 | No Payload","name_short":"atl-4","host":"atl-1.us.uncletopia.com","port":27045,"enabled":true,"region":"us-east","cc":"us","latitude":33.753746,"longitude":-84.38633,"reserved":0,"last_update":"0001-01-01T00:00:00Z","name_a2s":"","protocol":0,"map":"","folder":"","game":"","app_id":0,"player_count":0,"max_players":0,"Bots":0,"server_type":"","server_os":"","password":false,"vac":false,"version":"","steam_id":0,"keywords":null,"game_id":0,"stv_port":0,"stv_name":"","players":null},{"server_id":2,"name":"Uncletopia | Chicago | 1 | All Maps","name_short":"chi-1","host":"chi-1.us.uncletopia.com","port":27015,"enabled":true,"region":"us-central","cc":"us","latitude":41.881832,"longitude":-87.62318,"reserved":0,"last_update":"0001-01-01T00:00:00Z","name_a2s":"Uncletopia | Chicago | 1 | All Maps","protocol":17,"map":"pl_swiftwater_final1","folder":"tf","game":"Team Fortress","app_id":440,"player_count":24,"max_players":24,"Bots":0,"server_type":"Dedicated","server_os":"Linux","password":true,"vac":true,"version":"7882260","steam_id":85568392924469984,"keywords":["nocrits","nodmgspread","payload","uncletopia"],"game_id":440,"stv_port":27016,"stv_name":"Uncletopia | Chicago | 1 | All Maps | STV","players":[{"user_id":251,"name":"DarthEthanBoy","steam_id":76561198441643581,"connected_time":140000000000,"state":"active","ping":70},{"user_id":255,"name":"0","steam_id":76561198046055673,"connected_time":31000000000,"state":"active","ping":71},{"user_id":256,"name":"Griffin","steam_id":76561198159339442,"connected_time":30000000000,"state":"active","ping":68},{"user_id":238,"name":"Gnarly Shark Bite","steam_id":76561198004058342,"connected_time":410000000000,"state":"active","ping":69},{"user_id":243,"name":"feliser","steam_id":76561198084336096,"connected_time":299000000000,"state":"active","ping":52},{"user_id":254,"name":"Oog (meth cooker)","steam_id":76561199371685870,"connected_time":48000000000,"state":"active","ping":67},{"user_id":257,"name":"sex (real)","steam_id":76561198396414319,"connected_time":25000000000,"state":"active","ping":109},{"user_id":253,"name":"Ultra","steam_id":76561198204547111,"connected_time":73000000000,"state":"spawning","ping":54},{"user_id":258,"name":"The Lunatic is in the House","steam_id":76561197987055430,"connected_time":24000000000,"state":"spawning","ping":53},{"user_id":163,"name":"✿ Flores","steam_id":76561198106938500,"connected_time":5449000000000,"state":"active","ping":97},{"user_id":187,"name":"wise","steam_id":76561198030066204,"connected_time":3324000000000,"state":"active","ping":50},{"user_id":173,"name":"RADIO","steam_id":76561198044489449,"connected_time":4929000000000,"state":"active","ping":64},{"user_id":247,"name":"Imagina","steam_id":76561198044300818,"connected_time":254000000000,"state":"active","ping":89},{"user_id":235,"name":"AterPan","steam_id":76561199084128806,"connected_time":565000000000,"state":"active","ping":47},{"user_id":242,"name":"CrunchCisco","steam_id":76561199162724832,"connected_time":362000000000,"state":"active","ping":85},{"user_id":160,"name":"Takyon","steam_id":76561198172075186,"connected_time":5898000000000,"state":"active","ping":164},{"user_id":245,"name":"ItsBakerboyJ","steam_id":76561198183654439,"connected_time":295000000000,"state":"active","ping":75},{"user_id":249,"name":"Cutter Locus","steam_id":76561198415857614,"connected_time":235000000000,"state":"active","ping":57},{"user_id":246,"name":"Rhutebeer","steam_id":76561198018302761,"connected_time":283000000000,"state":"active","ping":102},{"user_id":212,"name":"Gaben Gaming","steam_id":76561198330119627,"connected_time":1889000000000,"state":"active","ping":75},{"user_id":213,"name":"CoconutNeutral","steam_id":76561198277110108,"connected_time":1798000000000,"state":"active","ping":85},{"user_id":239,"name":"Riandox","steam_id":76561198130577326,"connected_time":399000000000,"state":"active","ping":62},{"user_id":250,"name":"ZackPlayz","steam_id":76561198393823932,"connected_time":234000000000,"state":"active","ping":101},{"user_id":259,"name":"batmanjones10","steam_id":76561198031968744,"connected_time":16000000000,"state":"spawning","ping":63}]},{"server_id":106,"name":"Uncletopia | Chicago | 2 | All Maps","name_short":"chi-2","host":"chi-1.us.uncletopia.com","port":27025,"enabled":true,"region":"us-central","cc":"us","latitude":41.881832,"longitude":-87.62318,"reserved":0,"last_update":"0001-01-01T00:00:00Z","name_a2s":"Uncletopia | Chicago | 2 | All Maps","protocol":17,"map":"cp_gorge","folder":"tf","game":"Team Fortress","app_id":440,"player_count":24,"max_players":24,"Bots":0,"server_type":"Dedicated","server_os":"Linux","password":true,"vac":true,"version":"7882260","steam_id":85568392924469985,"keywords":["cp","nocrits","nodmgspread","uncletopia"],"game_id":440,"stv_port":27026,"stv_name":"Uncletopia | Chicago | 2 | All Maps | STV","players":[{"user_id":103,"name":"J.G. Klaus","steam_id":76561198001111196,"connected_time":5234000000000,"state":"active","ping":61},{"user_id":161,"name":"Floating Peasant","steam_id":76561198000183671,"connected_time":559000000000,"state":"active","ping":61},{"user_id":144,"name":"Adam (Cursed Confetti Creature)","steam_id":76561198317690197,"connected_time":1163000000000,"state":"active","ping":45},{"user_id":129,"name":"Fimbulvetr","steam_id":76561198108264202,"connected_time":2976000000000,"state":"active","ping":70},{"user_id":152,"name":"Pete","steam_id":76561198070499160,"connected_time":974000000000,"state":"active","ping":51},{"user_id":135,"name":"Deathpill","steam_id":76561197994404793,"connected_time":2820000000000,"state":"active","ping":73},{"user_id":130,"name":"Grilled Jizo","steam_id":76561199250875340,"connected_time":2894000000000,"state":"active","ping":73},{"user_id":150,"name":"RarestGuide","steam_id":76561198050338923,"connected_time":1068000000000,"state":"active","ping":70},{"user_id":138,"name":"Crumbledorf","steam_id":76561198986546469,"connected_time":2759000000000,"state":"active","ping":54},{"user_id":121,"name":"Pongallow","steam_id":76561198146876078,"connected_time":3578000000000,"state":"active","ping":47},{"user_id":162,"name":"swag messiah","steam_id":76561198204995668,"connected_time":383000000000,"state":"active","ping":75},{"user_id":32,"name":"Trippy","steam_id":76561199090730294,"connected_time":11713000000000,"state":"active","ping":61},{"user_id":157,"name":"click","steam_id":76561198328618417,"connected_time":662000000000,"state":"active","ping":106},{"user_id":155,"name":"john trevolta","steam_id":76561197998867160,"connected_time":717000000000,"state":"active","ping":94},{"user_id":158,"name":"Wermware [Active] v. 14.9","steam_id":76561198240217520,"connected_time":630000000000,"state":"active","ping":60},{"user_id":159,"name":"BigNugs","steam_id":76561198056402610,"connected_time":611000000000,"state":"active","ping":70},{"user_id":139,"name":"Keyboardbreaker","steam_id":76561198372836132,"connected_time":2545000000000,"state":"active","ping":114},{"user_id":122,"name":"Uwu Micster","steam_id":76561198843890616,"connected_time":3547000000000,"state":"active","ping":76},{"user_id":125,"name":"Poonky","steam_id":76561197987430735,"connected_time":3366000000000,"state":"active","ping":168},{"user_id":141,"name":"Will4Fun","steam_id":76561198302268726,"connected_time":2207000000000,"state":"active","ping":120},{"user_id":140,"name":"StonedGiant","steam_id":76561197984386932,"connected_time":2441000000000,"state":"active","ping":58},{"user_id":112,"name":"Meet 'n' Steve Kingdom, Fuck","steam_id":76561198030291655,"connected_time":4325000000000,"state":"active","ping":51},{"user_id":163,"name":"God's Strongest Italian","steam_id":76561199161996764,"connected_time":337000000000,"state":"active","ping":135},{"user_id":124,"name":"Critscare","steam_id":76561198087712508,"connected_time":3386000000000,"state":"active","ping":45}]},{"server_id":402,"name":"Uncletopia | Chicago | 3 | All Maps","name_short":"chi-3","host":"chi-1.us.uncletopia.com","port":27035,"enabled":true,"region":"us-central","cc":"us","latitude":41.881832,"longitude":-87.62318,"reserved":0,"last_update":"0001-01-01T00:00:00Z","name_a2s":"Uncletopia | Chicago | 3 | All Maps","protocol":17,"map":"koth_nucleus","folder":"tf","game":"Team Fortress","app_id":440,"player_count":23,"max_players":24,"Bots":0,"server_type":"Dedicated","server_os":"Linux","password":true,"vac":true,"version":"7882260","steam_id":85568392924515191,"keywords":["cp","nocrits","nodmgspread","uncletopia"],"game_id":440,"stv_port":27036,"stv_name":"Uncletopia | Chicago | 3 | All Maps | STV","players":[{"user_id":299,"name":"Wild_Rumpus","steam_id":76561198066393719,"connected_time":1749000000000,"state":"active","ping":45},{"user_id":255,"name":"Yoshimelon","steam_id":76561198253054325,"connected_time":4684000000000,"state":"active","ping":74},{"user_id":304,"name":"Xx-CostcoShopper-xX","steam_id":76561198066429444,"connected_time":1647000000000,"state":"active","ping":60},{"user_id":316,"name":"chaffy","steam_id":76561198021754567,"connected_time":436000000000,"state":"active","ping":54},{"user_id":322,"name":"Limp Bizkit's Number 1 fan","steam_id":76561198820444541,"connected_time":13000000000,"state":"active","ping":91},{"user_id":300,"name":"MondoDong","steam_id":76561197991400109,"connected_time":1741000000000,"state":"active","ping":56},{"user_id":298,"name":"bane","steam_id":76561198196769297,"connected_time":1752000000000,"state":"active","ping":59},{"user_id":289,"name":"Praise Hero","steam_id":76561198071362210,"connected_time":2748000000000,"state":"active","ping":62},{"user_id":268,"name":"baguette","steam_id":76561198066048980,"connected_time":3388000000000,"state":"active","ping":39},{"user_id":297,"name":"Red_Hatkins","steam_id":76561198214004105,"connected_time":1894000000000,"state":"active","ping":84},{"user_id":315,"name":"Also Known As Assteeth","steam_id":76561198049837377,"connected_time":532000000000,"state":"active","ping":55},{"user_id":272,"name":"๖ۣۜChit0","steam_id":76561198110146760,"connected_time":3305000000000,"state":"active","ping":58},{"user_id":318,"name":"Jonny","steam_id":76561198072507309,"connected_time":267000000000,"state":"active","ping":98},{"user_id":311,"name":"Silverio","steam_id":76561197999425381,"connected_time":707000000000,"state":"active","ping":71},{"user_id":275,"name":"Joshua31704","steam_id":76561198125898714,"connected_time":3270000000000,"state":"active","ping":81},{"user_id":320,"name":"Craf227","steam_id":76561198196211121,"connected_time":229000000000,"state":"active","ping":84},{"user_id":312,"name":"Ja","steam_id":76561198396340174,"connected_time":695000000000,"state":"active","ping":66},{"user_id":321,"name":"scrotal recall","steam_id":76561198135945598,"connected_time":166000000000,"state":"active","ping":85},{"user_id":279,"name":"Samrizo el Chorizo","steam_id":76561198009838162,"connected_time":3258000000000,"state":"active","ping":66},{"user_id":314,"name":"an inebriated newt fancier","steam_id":76561197985428155,"connected_time":600000000000,"state":"active","ping":59},{"user_id":281,"name":"A Puppy","steam_id":76561198828184456,"connected_time":3192000000000,"state":"active","ping":63},{"user_id":283,"name":"maS","steam_id":76561198033846407,"connected_time":3162000000000,"state":"active","ping":63},{"user_id":305,"name":"GreatColorGreen","steam_id":76561198284546954,"connected_time":1646000000000,"state":"active","ping":56}]},{"server_id":403,"name":"Uncletopia | Chicago | 4 | All Maps","name_short":"chi-4","host":"chi-1.us.uncletopia.com","port":27045,"enabled":true,"region":"us-central","cc":"us","latitude":41.881832,"longitude":-87.62318,"reserved":0,"last_update":"0001-01-01T00:00:00Z","name_a2s":"Uncletopia | Chicago | 4 | All Maps","protocol":17,"map":"cp_dustbowl","folder":"tf","game":"Team Fortress","app_id":440,"player_count":22,"max_players":24,"Bots":0,"server_type":"Dedicated","server_os":"Linux","password":true,"vac":true,"version":"7882260","steam_id":85568392924515193,"keywords":["cp","nocrits","nodmgspread","uncletopia"],"game_id":440,"stv_port":27046,"stv_name":"Uncletopia | Chicago | 4 | All Maps | STV","players":[{"user_id":148,"name":"Nftyy","steam_id":76561198164550495,"connected_time":8000000000,"state":"spawning","ping":67},{"user_id":72,"name":"Hob-Goblin Jim The IV","steam_id":76561199046650666,"connected_time":5327000000000,"state":"active","ping":52},{"user_id":140,"name":"I Like Cheese","steam_id":76561198006265659,"connected_time":332000000000,"state":"active","ping":71},{"user_id":122,"name":"Walla","steam_id":76561198103379757,"connected_time":1766000000000,"state":"active","ping":49},{"user_id":123,"name":"izzydex","steam_id":76561199101531034,"connected_time":1759000000000,"state":"active","ping":61},{"user_id":124,"name":"☆Nebula-Belt☆","steam_id":76561198151250806,"connected_time":1723000000000,"state":"active","ping":70},{"user_id":138,"name":"Rec","steam_id":76561198022813906,"connected_time":389000000000,"state":"active","ping":59},{"user_id":147,"name":"Mindset","steam_id":76561198107074449,"connected_time":58000000000,"state":"active","ping":55},{"user_id":135,"name":"Hamzom","steam_id":76561198335474854,"connected_time":506000000000,"state":"active","ping":81},{"user_id":116,"name":"Maverick","steam_id":76561198322829814,"connected_time":2516000000000,"state":"active","ping":80},{"user_id":119,"name":"brian.dahlmann","steam_id":76561198360431651,"connected_time":2104000000000,"state":"active","ping":84},{"user_id":110,"name":"Mastermind","steam_id":76561198127783432,"connected_time":2998000000000,"state":"active","ping":72},{"user_id":142,"name":"Joe Biden","steam_id":76561198238699798,"connected_time":226000000000,"state":"active","ping":84},{"user_id":93,"name":"Johnbug1","steam_id":76561198066898527,"connected_time":4160000000000,"state":"active","ping":53},{"user_id":96,"name":"Smol Zuzu","steam_id":76561198042446540,"connected_time":4111000000000,"state":"active","ping":77},{"user_id":146,"name":"büddeh","steam_id":76561198070735936,"connected_time":128000000000,"state":"active","ping":54},{"user_id":137,"name":"Jak(i)","steam_id":76561198076823144,"connected_time":437000000000,"state":"active","ping":63},{"user_id":143,"name":"pogo","steam_id":76561198148913461,"connected_time":220000000000,"state":"active","ping":59},{"user_id":99,"name":"Axel Beoulve","steam_id":76561198126511231,"connected_time":4093000000000,"state":"active","ping":120},{"user_id":144,"name":"SASQUATCH","steam_id":76561198308120431,"connected_time":211000000000,"state":"active","ping":115},{"user_id":127,"name":"Corpe","steam_id":76561198054490549,"connected_time":1667000000000,"state":"active","ping":102},{"user_id":65,"name":"ZAZABLOON DEALER","steam_id":76561198031675881,"connected_time":6401000000000,"state":"active","ping":44}]},{"server_id":36,"name":"Uncletopia | Chicago | 5 | All Maps","name_short":"chi-5","host":"chi-2.us.uncletopia.com","port":27015,"enabled":true,"region":"us-central","cc":"us","latitude":41.881832,"longitude":-87.62318,"reserved":0,"last_update":"0001-01-01T00:00:00Z","name_a2s":"Uncletopia | Chicago | 5 | All Maps","protocol":17,"map":"pl_snowycoast","folder":"tf","game":"Team Fortress","app_id":440,"player_count":24,"max_players":24,"Bots":0,"server_type":"Dedicated","server_os":"Linux","password":true,"vac":true,"version":"7882260","steam_id":85568392924866362,"keywords":["nocrits","nodmgspread","payload","uncletopia"],"game_id":440,"stv_port":27016,"stv_name":"Uncletopia | Chicago | 5 | All Maps | STV","players":[{"user_id":306,"name":"Chip Skylark","steam_id":76561198148263717,"connected_time":1922000000000,"state":"active","ping":68},{"user_id":320,"name":"Snake Handler","steam_id":76561198027198306,"connected_time":1041000000000,"state":"active","ping":60},{"user_id":279,"name":"[GL] Lord Stolas","steam_id":76561199228319575,"connected_time":3346000000000,"state":"active","ping":97},{"user_id":325,"name":"True","steam_id":76561198168708790,"connected_time":639000000000,"state":"active","ping":54},{"user_id":326,"name":"Hate of War","steam_id":76561199178358956,"connected_time":498000000000,"state":"active","ping":112},{"user_id":327,"name":"Bonk Co.","steam_id":76561198009355408,"connected_time":417000000000,"state":"active","ping":104},{"user_id":345,"name":"Bᵢg Bₒₛₛ","steam_id":76561198090271815,"connected_time":108000000000,"state":"active","ping":122},{"user_id":304,"name":"Dr. Kaytastrophee, PhD","steam_id":76561198012418739,"connected_time":2061000000000,"state":"active","ping":69},{"user_id":329,"name":"Kazuto Kurosaki #savetf2","steam_id":76561199132440619,"connected_time":347000000000,"state":"active","ping":65},{"user_id":330,"name":"Rohi Mig","steam_id":76561198113623627,"connected_time":326000000000,"state":"active","ping":101},{"user_id":331,"name":"Bad Rollout","steam_id":76561197971948876,"connected_time":313000000000,"state":"active","ping":87},{"user_id":332,"name":"Father","steam_id":76561199053396750,"connected_time":285000000000,"state":"active","ping":86},{"user_id":311,"name":"Addy \u003c3","steam_id":76561198045819723,"connected_time":1647000000000,"state":"active","ping":87},{"user_id":333,"name":"One Shot and A Miss","steam_id":76561198124269698,"connected_time":264000000000,"state":"active","ping":63},{"user_id":338,"name":"Sammich Slinger","steam_id":76561198007644532,"connected_time":194000000000,"state":"active","ping":92},{"user_id":336,"name":"serendipity","steam_id":76561198095087127,"connected_time":207000000000,"state":"active","ping":56},{"user_id":337,"name":"delight","steam_id":76561197980280272,"connected_time":206000000000,"state":"active","ping":101},{"user_id":339,"name":"CRUSADER CORE","steam_id":76561198839182428,"connected_time":193000000000,"state":"active","ping":70},{"user_id":340,"name":"Sunshine Moon","steam_id":76561198022604491,"connected_time":192000000000,"state":"active","ping":152},{"user_id":341,"name":"most tater of all","steam_id":76561198295713840,"connected_time":188000000000,"state":"active","ping":71},{"user_id":307,"name":"Ðalia","steam_id":76561198135518210,"connected_time":1767000000000,"state":"active","ping":102},{"user_id":342,"name":"ElectronX","steam_id":76561198116034988,"connected_time":184000000000,"state":"active","ping":103},{"user_id":343,"name":"irritable vowel syndrome","steam_id":76561198117033273,"connected_time":183000000000,"state":"active","ping":146},{"user_id":344,"name":"pure sun","steam_id":76561198089225457,"connected_time":164000000000,"state":"active","ping":105}]},{"server_id":37,"name":"Uncletopia | Chicago | 6 | All Maps","name_short":"chi-6","host":"chi-2.us.uncletopia.com","port":27025,"enabled":true,"region":"us-central","cc":"us","latitude":41.881832,"longitude":-87.62318,"reserved":0,"last_update":"0001-01-01T00:00:00Z","name_a2s":"Uncletopia | Chicago | 6 | All Maps","protocol":17,"map":"cp_altitude","folder":"tf","game":"Team Fortress","app_id":440,"player_count":0,"max_players":24,"Bots":0,"server_type":"Dedicated","server_os":"Linux","password":true,"vac":true,"version":"7882260","steam_id":85568392924866363,"keywords":["cp","nocrits","nodmgspread","uncletopia"],"game_id":440,"stv_port":27026,"stv_name":"Uncletopia | Chicago | 6 | All Maps | STV","players":null},{"server_id":38,"name":"Uncletopia | Chicago | 7 | Stopwatch Beta","name_short":"chi-7","host":"chi-2.us.uncletopia.com","port":27035,"enabled":true,"region":"us-central","cc":"us","latitude":41.881832,"longitude":-87.62318,"reserved":0,"last_update":"0001-01-01T00:00:00Z","name_a2s":"Uncletopia | Chicago | 7 | Stopwatch Beta","protocol":17,"map":"pl_upward","folder":"tf","game":"Team Fortress","app_id":440,"player_count":0,"max_players":24,"Bots":0,"server_type":"Dedicated","server_os":"Linux","password":true,"vac":true,"version":"7882260","steam_id":85568392924866364,"keywords":["nocrits","nodmgspread","payload","uncletopia"],"game_id":440,"stv_port":27036,"stv_name":"Uncletopia | Chicago | 7 | Stopwatch Beta | STV","players":null},{"server_id":39,"name":"Uncletopia | Chicago | 8 | Community","name_short":"chi-8","host":"chi-2.us.uncletopia.com","port":27045,"enabled":true,"region":"us-central","cc":"us","latitude":41.881832,"longitude":-87.62318,"reserved":0,"last_update":"0001-01-01T00:00:00Z","name_a2s":"Uncletopia | Chicago | 8 | Community","protocol":17,"map":"workshop/cp_glacier_rc6.ugc2905735376","folder":"tf","game":"Team Fortress","app_id":440,"player_count":0,"max_players":24,"Bots":0,"server_type":"Dedicated","server_os":"Linux","password":true,"vac":true,"version":"7882260","steam_id":85568392924866365,"keywords":["cp","nocrits","nodmgspread","uncletopia"],"game_id":440,"stv_port":27046,"stv_name":"Uncletopia | Chicago | 8 | Community | STV","players":null},{"server_id":8,"name":"Uncletopia | Dallas | 1 | All Maps","name_short":"dal-1","host":"dal-1.us.uncletopia.com","port":27015,"enabled":true,"region":"us-central","cc":"us","latitude":32.779167,"longitude":-96.80889,"reserved":0,"last_update":"0001-01-01T00:00:00Z","name_a2s":"Uncletopia | Dallas | 1 | All Maps","protocol":17,"map":"pl_borneo","folder":"tf","game":"Team Fortress","app_id":440,"player_count":24,"max_players":24,"Bots":0,"server_type":"Dedicated","server_os":"Linux","password":true,"vac":true,"version":"7882260","steam_id":85568392924469986,"keywords":["nocrits","nodmgspread","payload","uncletopia"],"game_id":440,"stv_port":27016,"stv_name":"Uncletopia | Dallas | 1 | All Maps | STV","players":[{"user_id":476,"name":"geen","steam_id":76561197999318398,"connected_time":1795000000000,"state":"active","ping":101},{"user_id":485,"name":"sithreis","steam_id":76561198000564263,"connected_time":1408000000000,"state":"active","ping":67},{"user_id":450,"name":"Aka","steam_id":76561198083086202,"connected_time":2757000000000,"state":"active","ping":57},{"user_id":477,"name":"Gibby","steam_id":76561199336569123,"connected_time":1794000000000,"state":"active","ping":127},{"user_id":495,"name":"errant","steam_id":76561197961758410,"connected_time":715000000000,"state":"active","ping":44},{"user_id":465,"name":"ReGaBe","steam_id":76561198126005470,"connected_time":2170000000000,"state":"active","ping":108},{"user_id":452,"name":"Paladin","steam_id":76561198047617528,"connected_time":2707000000000,"state":"active","ping":105},{"user_id":478,"name":"Zune","steam_id":76561198119382708,"connected_time":1788000000000,"state":"active","ping":175},{"user_id":481,"name":"lanoc","steam_id":76561198055415367,"connected_time":1743000000000,"state":"active","ping":60},{"user_id":471,"name":"Where The F**K I Am?","steam_id":76561197986530028,"connected_time":2020000000000,"state":"active","ping":93},{"user_id":502,"name":"fapasaurusrex","steam_id":76561197994951255,"connected_time":315000000000,"state":"active","ping":60},{"user_id":456,"name":"JKEMEISTR","steam_id":76561198082146326,"connected_time":2645000000000,"state":"active","ping":94},{"user_id":504,"name":"Nyplestheclown","steam_id":76561198028600291,"connected_time":140000000000,"state":"active","ping":54},{"user_id":499,"name":"Melaza Madera","steam_id":76561199031977210,"connected_time":512000000000,"state":"active","ping":62},{"user_id":501,"name":"Jango","steam_id":76561198084589742,"connected_time":442000000000,"state":"active","ping":76},{"user_id":469,"name":"/ GTC / Nailtheslayer","steam_id":76561198117749559,"connected_time":2075000000000,"state":"active","ping":114},{"user_id":438,"name":"Alkimia","steam_id":76561198385763137,"connected_time":3164000000000,"state":"active","ping":189},{"user_id":480,"name":"unfathomable depths of sadness ","steam_id":76561198048925904,"connected_time":1755000000000,"state":"active","ping":86},{"user_id":503,"name":"Ferguson","steam_id":76561198121349387,"connected_time":280000000000,"state":"active","ping":68},{"user_id":500,"name":"gun spy training arc","steam_id":76561198400058665,"connected_time":499000000000,"state":"active","ping":87},{"user_id":482,"name":"❤[CandySwirl]❤","steam_id":76561198817361963,"connected_time":1734000000000,"state":"active","ping":109},{"user_id":473,"name":"Sup m8","steam_id":76561198081659121,"connected_time":1956000000000,"state":"active","ping":44},{"user_id":505,"name":"Underwear Monster","steam_id":76561198175742775,"connected_time":34000000000,"state":"spawning","ping":74},{"user_id":442,"name":"Drakon","steam_id":76561198078210822,"connected_time":3027000000000,"state":"active","ping":97}]},{"server_id":108,"name":"Uncletopia | Dallas | 2 | All Maps","name_short":"dal-2","host":"dal-1.us.uncletopia.com","port":27025,"enabled":true,"region":"us-central","cc":"us","latitude":32.779167,"longitude":-96.80889,"reserved":0,"last_update":"0001-01-01T00:00:00Z","name_a2s":"Uncletopia | Dallas | 2 | All Maps","protocol":17,"map":"pl_snowycoast","folder":"tf","game":"Team Fortress","app_id":440,"player_count":24,"max_players":24,"Bots":0,"server_type":"Dedicated","server_os":"Linux","password":true,"vac":true,"version":"7882260","steam_id":85568392924469988,"keywords":["nocrits","nodmgspread","payload","uncletopia"],"game_id":440,"stv_port":27026,"stv_name":"Uncletopia | Dallas | 2 | All Maps | STV","players":[{"user_id":402,"name":"fuzze","steam_id":76561198214461775,"connected_time":26000000000,"state":"active","ping":93},{"user_id":370,"name":"trobin120","steam_id":76561199122420273,"connected_time":1819000000000,"state":"active","ping":78},{"user_id":403,"name":"SadChicken λ","steam_id":76561198082458968,"connected_time":12000000000,"state":"active","ping":87},{"user_id":376,"name":"Girl [Big Gock Edition]","steam_id":76561198276385778,"connected_time":1514000000000,"state":"active","ping":91},{"user_id":356,"name":"NO AUDIO BLASTING BAD RELIGION","steam_id":76561198096221632,"connected_time":2789000000000,"state":"active","ping":60},{"user_id":378,"name":"Tele Co","steam_id":76561198041909269,"connected_time":1108000000000,"state":"active","ping":61},{"user_id":379,"name":"penis scout","steam_id":76561199105479508,"connected_time":1077000000000,"state":"active","ping":79},{"user_id":380,"name":"i eated sand","steam_id":76561198062763756,"connected_time":1071000000000,"state":"active","ping":70},{"user_id":372,"name":"Blu Moon","steam_id":76561199475829930,"connected_time":1727000000000,"state":"active","ping":56},{"user_id":393,"name":"死","steam_id":76561198127525888,"connected_time":518000000000,"state":"active","ping":47},{"user_id":391,"name":"SadVeggie","steam_id":76561198163430099,"connected_time":843000000000,"state":"active","ping":92},{"user_id":359,"name":"GarbageBin","steam_id":76561199067367646,"connected_time":2749000000000,"state":"active","ping":95},{"user_id":329,"name":"C3L3RY","steam_id":76561198068754154,"connected_time":4989000000000,"state":"active","ping":88},{"user_id":382,"name":"ChottoAMinute","steam_id":76561198873157775,"connected_time":1032000000000,"state":"active","ping":44},{"user_id":383,"name":"MEDIC!!!","steam_id":76561198265522923,"connected_time":1022000000000,"state":"active","ping":46},{"user_id":398,"name":"Drapph","steam_id":76561199384213314,"connected_time":120000000000,"state":"active","ping":72},{"user_id":400,"name":"E. Gordbort","steam_id":76561198094231961,"connected_time":45000000000,"state":"connecting","ping":166},{"user_id":308,"name":"I fuck nightmares","steam_id":76561198085813708,"connected_time":6983000000000,"state":"active","ping":69},{"user_id":390,"name":"Fresh0c0","steam_id":76561198271933283,"connected_time":868000000000,"state":"active","ping":77},{"user_id":401,"name":"quacks","steam_id":76561198077934343,"connected_time":31000000000,"state":"active","ping":31},{"user_id":387,"name":"Atlas","steam_id":76561198127975050,"connected_time":986000000000,"state":"active","ping":64},{"user_id":388,"name":"Shitter","steam_id":76561198152570304,"connected_time":985000000000,"state":"active","ping":82},{"user_id":404,"name":"minecraft","steam_id":76561198104345201,"connected_time":12000000000,"state":"active","ping":77},{"user_id":330,"name":"hforce11","steam_id":76561198087647130,"connected_time":4988000000000,"state":"active","ping":63}]},{"server_id":5,"name":"Uncletopia | Frankfurt | 1 | All Maps","name_short":"frk-1","host":"frk-1.de.uncletopia.com","port":27015,"enabled":true,"region":"eu","cc":"de","latitude":50.110924,"longitude":8.682127,"reserved":0,"last_update":"0001-01-01T00:00:00Z","name_a2s":"Uncletopia | Frankfurt | 1 | All Maps","protocol":17,"map":"pl_frontier_final","folder":"tf","game":"Team Fortress","app_id":440,"player_count":24,"max_players":24,"Bots":0,"server_type":"Dedicated","server_os":"Linux","password":true,"vac":true,"version":"7882260","steam_id":85568392924469989,"keywords":["nocrits","nodmgspread","payload","uncletopia"],"game_id":440,"stv_port":27016,"stv_name":"Uncletopia | Frankfurt | 1 | All Maps | STV","players":[{"user_id":639,"name":"ne0n","steam_id":76561198032101031,"connected_time":2921000000000,"state":"active","ping":98},{"user_id":631,"name":"paguro","steam_id":76561198119560871,"connected_time":3297000000000,"state":"active","ping":62},{"user_id":626,"name":"Gaxkang","steam_id":76561198125768571,"connected_time":3379000000000,"state":"active","ping":70},{"user_id":675,"name":"Mion","steam_id":76561198132206682,"connected_time":847000000000,"state":"active","ping":55},{"user_id":621,"name":"2BCD","steam_id":76561198178254946,"connected_time":3716000000000,"state":"active","ping":61},{"user_id":658,"name":"birb","steam_id":76561198084891833,"connected_time":2252000000000,"state":"active","ping":55},{"user_id":641,"name":"✈","steam_id":76561198296214683,"connected_time":2883000000000,"state":"active","ping":69},{"user_id":655,"name":"sinJR","steam_id":76561198375912686,"connected_time":2377000000000,"state":"active","ping":114},{"user_id":635,"name":"TGmetal","steam_id":76561198263726754,"connected_time":3058000000000,"state":"active","ping":83},{"user_id":672,"name":"Fin","steam_id":76561198090117916,"connected_time":972000000000,"state":"active","ping":82},{"user_id":617,"name":"cl","steam_id":76561199436640904,"connected_time":4042000000000,"state":"active","ping":75},{"user_id":564,"name":"moodic gaming","steam_id":76561198100957443,"connected_time":8784000000000,"state":"active","ping":75},{"user_id":660,"name":"pyro gaming","steam_id":76561198087970118,"connected_time":2140000000000,"state":"active","ping":86},{"user_id":652,"name":"Voks_","steam_id":76561198159687785,"connected_time":2551000000000,"state":"active","ping":89},{"user_id":643,"name":"Mammut","steam_id":76561198056773933,"connected_time":2864000000000,"state":"active","ping":46},{"user_id":673,"name":"Vitamin Weee","steam_id":76561199183937747,"connected_time":937000000000,"state":"active","ping":83},{"user_id":676,"name":"Asbestos Poisoning","steam_id":76561198075571406,"connected_time":798000000000,"state":"active","ping":98},{"user_id":682,"name":"akciq ⁧⁧respect","steam_id":76561198390963456,"connected_time":43000000000,"state":"active","ping":72},{"user_id":677,"name":"Yelowchy","steam_id":76561198199416121,"connected_time":769000000000,"state":"active","ping":60},{"user_id":679,"name":"H2n9","steam_id":76561198055811259,"connected_time":682000000000,"state":"active","ping":82},{"user_id":657,"name":"united chunk","steam_id":76561199017850298,"connected_time":2294000000000,"state":"active","ping":65},{"user_id":681,"name":"ricky pee pee","steam_id":76561198152620745,"connected_time":486000000000,"state":"active","ping":72},{"user_id":664,"name":"tiia","steam_id":76561198046196005,"connected_time":2072000000000,"state":"active","ping":45},{"user_id":665,"name":"flr","steam_id":76561198249327786,"connected_time":2063000000000,"state":"active","ping":60}]},{"server_id":110,"name":"Uncletopia | Frankfurt | 2 | All Maps","name_short":"frk-2","host":"frk-1.de.uncletopia.com","port":27025,"enabled":true,"region":"eu","cc":"de","latitude":50.110924,"longitude":8.682127,"reserved":0,"last_update":"0001-01-01T00:00:00Z","name_a2s":"Uncletopia | Frankfurt | 2 | All Maps","protocol":17,"map":"cp_snakewater_final1","folder":"tf","game":"Team Fortress","app_id":440,"player_count":23,"max_players":24,"Bots":0,"server_type":"Dedicated","server_os":"Linux","password":true,"vac":true,"version":"7882260","steam_id":85568392924469990,"keywords":["cp","nocrits","nodmgspread","uncletopia"],"game_id":440,"stv_port":27026,"stv_name":"Uncletopia | Frankfurt | 2 | All Maps | STV","players":[{"user_id":284,"name":"schmick h_stt 0","steam_id":76561198039537958,"connected_time":1258000000000,"state":"active","ping":59},{"user_id":265,"name":"burgz","steam_id":76561198109955787,"connected_time":2538000000000,"state":"active","ping":59},{"user_id":267,"name":"mp1mp2mp3","steam_id":76561198088967665,"connected_time":2441000000000,"state":"active","ping":84},{"user_id":256,"name":"Пися Толстый","steam_id":76561198172046813,"connected_time":2812000000000,"state":"active","ping":71},{"user_id":285,"name":"mean","steam_id":76561198003212528,"connected_time":969000000000,"state":"active","ping":67},{"user_id":243,"name":"Adopted?","steam_id":76561198118667043,"connected_time":3798000000000,"state":"active","ping":55},{"user_id":293,"name":"DeCypher \u003c3","steam_id":76561198171992619,"connected_time":299000000000,"state":"active","ping":79},{"user_id":264,"name":"protëin","steam_id":76561197998423616,"connected_time":2559000000000,"state":"active","ping":75},{"user_id":258,"name":"spy","steam_id":76561198364943570,"connected_time":2664000000000,"state":"active","ping":135},{"user_id":260,"name":"Salesman Doren","steam_id":76561198076098142,"connected_time":2632000000000,"state":"active","ping":69},{"user_id":291,"name":"Kamanie","steam_id":76561198135448255,"connected_time":377000000000,"state":"active","ping":48},{"user_id":262,"name":"Grade","steam_id":76561198072027023,"connected_time":2624000000000,"state":"active","ping":95},{"user_id":250,"name":"Artik","steam_id":76561198038991453,"connected_time":3082000000000,"state":"active","ping":51},{"user_id":288,"name":"Rolloden","steam_id":76561198069414404,"connected_time":832000000000,"state":"active","ping":57},{"user_id":186,"name":"bossievossie","steam_id":76561198836337543,"connected_time":7085000000000,"state":"active","ping":79},{"user_id":246,"name":"Dr Ludwig","steam_id":76561198426522902,"connected_time":3625000000000,"state":"active","ping":64},{"user_id":296,"name":"European_Fox","steam_id":76561198053691182,"connected_time":208000000000,"state":"active","ping":81},{"user_id":223,"name":"Dr Sex","steam_id":76561198029044617,"connected_time":5142000000000,"state":"active","ping":61},{"user_id":277,"name":"Gety0","steam_id":76561198044387185,"connected_time":2020000000000,"state":"active","ping":89},{"user_id":271,"name":"Mr.O #deletesniper","steam_id":76561198039567498,"connected_time":2385000000000,"state":"active","ping":62},{"user_id":272,"name":"tirr0j","steam_id":76561198061949211,"connected_time":2365000000000,"state":"active","ping":71},{"user_id":273,"name":"Invoker-sama","steam_id":76561198128470403,"connected_time":2351000000000,"state":"active","ping":108},{"user_id":292,"name":"Jameegi","steam_id":76561197970466542,"connected_time":358000000000,"state":"active","ping":65}]},{"server_id":308,"name":"Uncletopia | Frankfurt | 3 | All Maps","name_short":"frk-3","host":"frk-1.de.uncletopia.com","port":27035,"enabled":true,"region":"eu","cc":"de","latitude":50.110924,"longitude":8.682127,"reserved":0,"last_update":"0001-01-01T00:00:00Z","name_a2s":"Uncletopia | Frankfurt | 3 | All Maps","protocol":17,"map":"pl_frontier_final","folder":"tf","game":"Team Fortress","app_id":440,"player_count":0,"max_players":24,"Bots":0,"server_type":"Dedicated","server_os":"Linux","password":true,"vac":true,"version":"7882260","steam_id":85568392924504274,"keywords":["nocrits","nodmgspread","payload","uncletopia"],"game_id":440,"stv_port":27036,"stv_name":"Uncletopia | Frankfurt | 3 | All Maps | STV","players":null},{"server_id":309,"name":"Uncletopia | Frankfurt | 4 | All Maps","name_short":"frk-4","host":"frk-1.de.uncletopia.com","port":27045,"enabled":true,"region":"eu","cc":"de","latitude":50.110924,"longitude":8.682127,"reserved":0,"last_update":"0001-01-01T00:00:00Z","name_a2s":"Uncletopia | Frankfurt | 4 | All Maps","protocol":17,"map":"pl_frontier_final","folder":"tf","game":"Team Fortress","app_id":440,"player_count":24,"max_players":24,"Bots":0,"server_type":"Dedicated","server_os":"Linux","password":true,"vac":true,"version":"7882260","steam_id":85568392924504275,"keywords":["nocrits","nodmgspread","payload","uncletopia"],"game_id":440,"stv_port":27046,"stv_name":"Uncletopia | Frankfurt | 4 | All Maps | STV","players":[{"user_id":104,"name":"Not A Fake Uncletopia Server","steam_id":76561198152871288,"connected_time":4282000000000,"state":"active","ping":63},{"user_id":153,"name":"agent youppii","steam_id":76561198055264447,"connected_time":702000000000,"state":"active","ping":72},{"user_id":154,"name":"I own the penis scooter","steam_id":76561198173218318,"connected_time":697000000000,"state":"active","ping":59},{"user_id":155,"name":"Goose of Wisdom","steam_id":76561198233465044,"connected_time":696000000000,"state":"active","ping":161},{"user_id":105,"name":"w+m1","steam_id":76561198010428082,"connected_time":4230000000000,"state":"active","ping":78},{"user_id":147,"name":"wvwaxhtp","steam_id":76561198237038646,"connected_time":1610000000000,"state":"active","ping":61},{"user_id":152,"name":"Vershal Smershal","steam_id":76561198116223995,"connected_time":731000000000,"state":"active","ping":59},{"user_id":144,"name":"Halal Goku","steam_id":76561198161822358,"connected_time":1855000000000,"state":"active","ping":56},{"user_id":157,"name":"BSantos57","steam_id":76561198000597094,"connected_time":624000000000,"state":"active","ping":79},{"user_id":160,"name":"slippin jimmy","steam_id":76561198090788590,"connected_time":582000000000,"state":"active","ping":55},{"user_id":133,"name":"bruh","steam_id":76561197993922244,"connected_time":2744000000000,"state":"active","ping":50},{"user_id":134,"name":"ryft #freenioh","steam_id":76561198429138254,"connected_time":2740000000000,"state":"active","ping":69},{"user_id":159,"name":"gentlefardy","steam_id":76561199098960193,"connected_time":604000000000,"state":"active","ping":71},{"user_id":161,"name":"Jonno","steam_id":76561198023443744,"connected_time":576000000000,"state":"active","ping":70},{"user_id":162,"name":"modavak","steam_id":76561198946290908,"connected_time":568000000000,"state":"active","ping":106},{"user_id":149,"name":"bean","steam_id":76561198161013815,"connected_time":895000000000,"state":"active","ping":65},{"user_id":163,"name":"Envy","steam_id":76561198132723219,"connected_time":558000000000,"state":"active","ping":96},{"user_id":170,"name":"Yung Autism","steam_id":76561198021110471,"connected_time":212000000000,"state":"active","ping":94},{"user_id":76,"name":"Brook","steam_id":76561198451604319,"connected_time":6275000000000,"state":"active","ping":95},{"user_id":165,"name":"Adrheus","steam_id":76561198149775630,"connected_time":518000000000,"state":"active","ping":77},{"user_id":166,"name":"saggyballsack@whitehouse.gov","steam_id":76561198055363275,"connected_time":511000000000,"state":"active","ping":53},{"user_id":167,"name":"congo","steam_id":76561198236836866,"connected_time":492000000000,"state":"active","ping":76},{"user_id":169,"name":"Cornelius Shacklebart","steam_id":76561198000735878,"connected_time":443000000000,"state":"active","ping":61}]},{"server_id":310,"name":"Uncletopia | Frankfurt | 5 | All Maps","name_short":"frk-5","host":"frk-1.de.uncletopia.com","port":27055,"enabled":true,"region":"eu","cc":"de","latitude":50.110924,"longitude":8.682127,"reserved":0,"last_update":"0001-01-01T00:00:00Z","name_a2s":"Uncletopia | Frankfurt | 5 | All Maps","protocol":17,"map":"koth_viaduct","folder":"tf","game":"Team Fortress","app_id":440,"player_count":0,"max_players":24,"Bots":0,"server_type":"Dedicated","server_os":"Linux","password":true,"vac":true,"version":"7882260","steam_id":85568392924504277,"keywords":["cp","nocrits","nodmgspread","uncletopia"],"game_id":440,"stv_port":27056,"stv_name":"Uncletopia | Frankfurt | 5 | All Maps | STV","players":null},{"server_id":311,"name":"Uncletopia | Frankfurt | 6 | All Maps","name_short":"frk-6","host":"frk-1.de.uncletopia.com","port":27065,"enabled":true,"region":"eu","cc":"de","latitude":50.110924,"longitude":8.682127,"reserved":0,"last_update":"0001-01-01T00:00:00Z","name_a2s":"Uncletopia | Frankfurt | 6 | All Maps","protocol":17,"map":"cp_dustbowl","folder":"tf","game":"Team Fortress","app_id":440,"player_count":0,"max_players":24,"Bots":0,"server_type":"Dedicated","server_os":"Linux","password":true,"vac":true,"version":"7882260","steam_id":85568392924504278,"keywords":["cp","nocrits","nodmgspread","uncletopia"],"game_id":440,"stv_port":27066,"stv_name":"Uncletopia | Frankfurt | 6 | All Maps | STV","players":null},{"server_id":23,"name":"Uncletopia | Frankfurt | 7 | Stopwatch Beta","name_short":"frk-7","host":"frk-1.de.uncletopia.com","port":27075,"enabled":true,"region":"eu","cc":"de","latitude":50.110924,"longitude":8.682127,"reserved":0,"last_update":"0001-01-01T00:00:00Z","name_a2s":"Uncletopia | Frankfurt | 7 | Stopwatch Beta","protocol":17,"map":"pl_swiftwater_final1","folder":"tf","game":"Team Fortress","app_id":440,"player_count":0,"max_players":24,"Bots":0,"server_type":"Dedicated","server_os":"Linux","password":true,"vac":true,"version":"7882260","steam_id":85568392924742827,"keywords":["nocrits","nodmgspread","payload","uncletopia"],"game_id":440,"stv_port":27076,"stv_name":"Uncletopia | Frankfurt | 7 | Stopwatch Beta | STV","players":null},{"server_id":24,"name":"Uncletopia | Frankfurt | 8 | Community","name_short":"frk-8","host":"frk-1.de.uncletopia.com","port":27085,"enabled":true,"region":"eu","cc":"de","latitude":50.110924,"longitude":8.682127,"reserved":0,"last_update":"0001-01-01T00:00:00Z","name_a2s":"Uncletopia | Frankfurt | 8 | Community","protocol":17,"map":"workshop/pl_eruption_b9a.ugc2807898013","folder":"tf","game":"Team Fortress","app_id":440,"player_count":1,"max_players":24,"Bots":0,"server_type":"Dedicated","server_os":"Linux","password":true,"vac":true,"version":"7882260","steam_id":85568392924742828,"keywords":["nocrits","nodmgspread","payload","uncletopia"],"game_id":440,"stv_port":27086,"stv_name":"Uncletopia | Frankfurt | 8 | Community | STV","players":[{"user_id":38,"name":"HentaiEnjoyer","steam_id":76561198148361982,"connected_time":155000000000,"state":"active","ping":54}]},{"server_id":202,"name":"Uncletopia | Hong Kong | 1 | All Maps","name_short":"hgk-1","host":"hgk-1.hk.uncletopia.com","port":27015,"enabled":true,"region":"asia","cc":"hk","latitude":22.302711,"longitude":114.177216,"reserved":0,"last_update":"0001-01-01T00:00:00Z","name_a2s":"Uncletopia | Hong Kong | 1 | All Maps","protocol":17,"map":"koth_viaduct","folder":"tf","game":"Team Fortress","app_id":440,"player_count":0,"max_players":24,"Bots":0,"server_type":"Dedicated","server_os":"Linux","password":true,"vac":true,"version":"7882260","steam_id":85568392924494504,"keywords":["cp","nocrits","nodmgspread","uncletopia"],"game_id":440,"stv_port":27016,"stv_name":"Uncletopia | Hong Kong | 1 | All Maps | STV","players":null},{"server_id":1,"name":"Uncletopia | Los Angeles | 1 | All Maps","name_short":"lax-1","host":"lax-1.us.uncletopia.com","port":27015,"enabled":true,"region":"us-west","cc":"us","latitude":33.94279,"longitude":-118.41004,"reserved":0,"last_update":"0001-01-01T00:00:00Z","name_a2s":"Uncletopia | Los Angeles | 1 | All Maps","protocol":17,"map":"pl_badwater","folder":"tf","game":"Team Fortress","app_id":440,"player_count":24,"max_players":24,"Bots":0,"server_type":"Dedicated","server_os":"Linux","password":true,"vac":true,"version":"7882260","steam_id":85568392924469991,"keywords":["nocrits","nodmgspread","payload","uncletopia"],"game_id":440,"stv_port":27016,"stv_name":"Uncletopia | Los Angeles | 1 | All Maps | STV","players":[{"user_id":260,"name":"riSygneD","steam_id":76561198331618687,"connected_time":830000000000,"state":"active","ping":23},{"user_id":148,"name":"Lysander Crow","steam_id":76561198214659356,"connected_time":10396000000000,"state":"active","ping":61},{"user_id":269,"name":"dAiLyGrInD","steam_id":76561198163531915,"connected_time":597000000000,"state":"active","ping":90},{"user_id":238,"name":"a chicken","steam_id":76561198313121580,"connected_time":1757000000000,"state":"active","ping":48},{"user_id":239,"name":"SolarusD","steam_id":76561198029279861,"connected_time":1720000000000,"state":"active","ping":52},{"user_id":262,"name":"Lionel Messi","steam_id":76561198226207032,"connected_time":803000000000,"state":"active","ping":101},{"user_id":263,"name":"TheRiGuy21","steam_id":76561199466243640,"connected_time":795000000000,"state":"active","ping":91},{"user_id":191,"name":"TTV/ChadMorningWood","steam_id":76561198139832291,"connected_time":5402000000000,"state":"active","ping":51},{"user_id":264,"name":"Brain Magic","steam_id":76561198010201477,"connected_time":793000000000,"state":"active","ping":58},{"user_id":225,"name":"Tmiracle","steam_id":76561198052375275,"connected_time":2087000000000,"state":"active","ping":46},{"user_id":249,"name":"mao zedong","steam_id":76561199060687332,"connected_time":1290000000000,"state":"active","ping":55},{"user_id":251,"name":"plz talk about dogs","steam_id":76561198062924973,"connected_time":1279000000000,"state":"active","ping":58},{"user_id":270,"name":"DragoDuck","steam_id":76561198385685683,"connected_time":558000000000,"state":"active","ping":96},{"user_id":242,"name":"drevott74","steam_id":76561199262592779,"connected_time":1674000000000,"state":"active","ping":89},{"user_id":221,"name":"Thequirka #ForFountainMann","steam_id":76561198968058652,"connected_time":2358000000000,"state":"active","ping":75},{"user_id":265,"name":"Jimmy","steam_id":76561198857959855,"connected_time":774000000000,"state":"active","ping":43},{"user_id":258,"name":"samvaluez","steam_id":76561199213743808,"connected_time":924000000000,"state":"active","ping":71},{"user_id":272,"name":"Bad Bitch Fumbler","steam_id":76561199093733603,"connected_time":43000000000,"state":"active","ping":48},{"user_id":259,"name":"pafijohn","steam_id":76561198002535190,"connected_time":889000000000,"state":"active","ping":47},{"user_id":271,"name":"semillams cuenta","steam_id":76561199223089296,"connected_time":373000000000,"state":"active","ping":150},{"user_id":253,"name":"squash","steam_id":76561198150281353,"connected_time":1247000000000,"state":"active","ping":87},{"user_id":235,"name":"sassy loli","steam_id":76561198402316065,"connected_time":1841000000000,"state":"active","ping":102},{"user_id":266,"name":"oil","steam_id":76561198099980149,"connected_time":773000000000,"state":"active","ping":46},{"user_id":267,"name":"parangatang","steam_id":76561198050311948,"connected_time":759000000000,"state":"active","ping":80}]},{"server_id":112,"name":"Uncletopia | Los Angeles | 2 | All Maps","name_short":"lax-2","host":"lax-1.us.uncletopia.com","port":27025,"enabled":true,"region":"us-west","cc":"us","latitude":33.94279,"longitude":-118.41004,"reserved":0,"last_update":"0001-01-01T00:00:00Z","name_a2s":"Uncletopia | Los Angeles | 2 | All Maps","protocol":17,"map":"koth_highpass","folder":"tf","game":"Team Fortress","app_id":440,"player_count":0,"max_players":24,"Bots":0,"server_type":"Dedicated","server_os":"Linux","password":true,"vac":true,"version":"7882260","steam_id":85568392924469992,"keywords":["cp","nocrits","nodmgspread","uncletopia"],"game_id":440,"stv_port":27026,"stv_name":"Uncletopia | Los Angeles | 2 | All Maps | STV","players":null},{"server_id":324,"name":"Uncletopia | Los Angeles | 3 | All Maps","name_short":"lax-3","host":"lax-1.us.uncletopia.com","port":27035,"enabled":true,"region":"us-west","cc":"us","latitude":33.94279,"longitude":-118.41004,"reserved":0,"last_update":"0001-01-01T00:00:00Z","name_a2s":"Uncletopia | Los Angeles | 3 | All Maps","protocol":17,"map":"pl_swiftwater_final1","folder":"tf","game":"Team Fortress","app_id":440,"player_count":0,"max_players":24,"Bots":0,"server_type":"Dedicated","server_os":"Linux","password":true,"vac":true,"version":"7882260","steam_id":85568392924510198,"keywords":["nocrits","nodmgspread","payload","uncletopia"],"game_id":440,"stv_port":27036,"stv_name":"Uncletopia | Los Angeles | 3 | All Maps | STV","players":null},{"server_id":25,"name":"Uncletopia | Los Angeles | 4 | Stopwatch Beta","name_short":"lax-4","host":"lax-1.us.uncletopia.com","port":27045,"enabled":true,"region":"us-west","cc":"us","latitude":33.94279,"longitude":-118.41004,"reserved":0,"last_update":"0001-01-01T00:00:00Z","name_a2s":"Uncletopia | Los Angeles | 4 | Stopwatch Beta","protocol":17,"map":"koth_viaduct","folder":"tf","game":"Team Fortress","app_id":440,"player_count":0,"max_players":24,"Bots":0,"server_type":"Dedicated","server_os":"Linux","password":true,"vac":true,"version":"7882260","steam_id":85568392924510199,"keywords":["cp","nocrits","nodmgspread","uncletopia"],"game_id":440,"stv_port":27046,"stv_name":"Uncletopia | Los Angeles | 4 | Stopwatch Beta | STV","players":null},{"server_id":11,"name":"Uncletopia | London | 1 | All Maps","name_short":"lon-1","host":"lon-1.uk.uncletopia.com","port":27015,"enabled":true,"region":"eu","cc":"gb","latitude":51.509865,"longitude":-0.118092,"reserved":0,"last_update":"0001-01-01T00:00:00Z","name_a2s":"Uncletopia | London | 1 | All Maps","protocol":17,"map":"pl_frontier_final","folder":"tf","game":"Team Fortress","app_id":440,"player_count":5,"max_players":24,"Bots":0,"server_type":"Dedicated","server_os":"Linux","password":true,"vac":true,"version":"7882260","steam_id":85568392924367362,"keywords":["nocrits","nodmgspread","payload","uncletopia"],"game_id":440,"stv_port":27016,"stv_name":"Uncletopia | London | 1 | All Maps | STV","players":[{"user_id":514,"name":"Ignoramus Khan","steam_id":76561198111695218,"connected_time":164000000000,"state":"active","ping":96},{"user_id":516,"name":"Pomson 6000","steam_id":76561198344588858,"connected_time":147000000000,"state":"active","ping":66},{"user_id":517,"name":"CAMON ENGELAND","steam_id":76561198054301125,"connected_time":129000000000,"state":"active","ping":88},{"user_id":519,"name":"bigdallus","steam_id":76561198079207537,"connected_time":111000000000,"state":"active","ping":48},{"user_id":521,"name":"UltimateAura","steam_id":76561198338361324,"connected_time":105000000000,"state":"active","ping":37}]},{"server_id":114,"name":"Uncletopia | London | 2 | All Maps","name_short":"lon-2","host":"lon-1.uk.uncletopia.com","port":27025,"enabled":true,"region":"eu","cc":"gb","latitude":51.509865,"longitude":-0.118092,"reserved":0,"last_update":"0001-01-01T00:00:00Z","name_a2s":"Uncletopia | London | 2 | All Maps","protocol":17,"map":"pl_snowycoast","folder":"tf","game":"Team Fortress","app_id":440,"player_count":24,"max_players":24,"Bots":0,"server_type":"Dedicated","server_os":"Linux","password":true,"vac":true,"version":"7882260","steam_id":85568392924470941,"keywords":["nocrits","nodmgspread","payload","uncletopia"],"game_id":440,"stv_port":27026,"stv_name":"Uncletopia | London | 2 | All Maps | STV","players":[{"user_id":432,"name":"Kibby","steam_id":76561197990056450,"connected_time":4291000000000,"state":"active","ping":51},{"user_id":507,"name":"Haha?","steam_id":76561198056882245,"connected_time":364000000000,"state":"active","ping":35},{"user_id":504,"name":"Dirty Joe","steam_id":76561198142418870,"connected_time":499000000000,"state":"active","ping":40},{"user_id":498,"name":"Kestrel","steam_id":76561198144033005,"connected_time":907000000000,"state":"active","ping":46},{"user_id":409,"name":"Birdseye","steam_id":76561198025852216,"connected_time":6285000000000,"state":"active","ping":45},{"user_id":505,"name":"kilo","steam_id":76561198015641339,"connected_time":411000000000,"state":"active","ping":77},{"user_id":477,"name":"Milk","steam_id":76561198125876588,"connected_time":1646000000000,"state":"active","ping":45},{"user_id":508,"name":"Jackie Johnny","steam_id":76561198137726995,"connected_time":275000000000,"state":"active","ping":75},{"user_id":487,"name":"DelaNo","steam_id":76561199125086655,"connected_time":1150000000000,"state":"active","ping":39},{"user_id":496,"name":"POZO chachiply","steam_id":76561198316355509,"connected_time":997000000000,"state":"active","ping":66},{"user_id":483,"name":"Flying Squirrel","steam_id":76561198005202791,"connected_time":1383000000000,"state":"active","ping":75},{"user_id":510,"name":"Tommy","steam_id":76561198111137125,"connected_time":29000000000,"state":"active","ping":60},{"user_id":446,"name":"reformed i swear","steam_id":76561198152392309,"connected_time":3028000000000,"state":"active","ping":59},{"user_id":497,"name":"POU cherry","steam_id":76561199006915718,"connected_time":994000000000,"state":"active","ping":60},{"user_id":471,"name":"dun-Dun-DUUUUUN!!","steam_id":76561198193357946,"connected_time":1982000000000,"state":"active","ping":103},{"user_id":490,"name":"U1F","steam_id":76561198053700703,"connected_time":1123000000000,"state":"active","ping":47},{"user_id":499,"name":"★Lily","steam_id":76561198014774371,"connected_time":860000000000,"state":"active","ping":42},{"user_id":500,"name":"Odyssey","steam_id":76561198085086145,"connected_time":820000000000,"state":"active","ping":61},{"user_id":415,"name":"soggy minced meat","steam_id":76561198058012525,"connected_time":5995000000000,"state":"active","ping":76},{"user_id":481,"name":"Son Goku","steam_id":76561199383437138,"connected_time":1449000000000,"state":"active","ping":121},{"user_id":511,"name":"Alan Tuning","steam_id":76561198018028959,"connected_time":25000000000,"state":"active","ping":60},{"user_id":352,"name":"Space","steam_id":76561198021572167,"connected_time":9795000000000,"state":"active","ping":45},{"user_id":502,"name":"HUGO","steam_id":76561198317134996,"connected_time":786000000000,"state":"active","ping":90},{"user_id":503,"name":"Scrungis","steam_id":76561198151247843,"connected_time":785000000000,"state":"active","ping":66}]},{"server_id":320,"name":"Uncletopia | London | 3 | All Maps","name_short":"lon-3","host":"lon-1.uk.uncletopia.com","port":27035,"enabled":true,"region":"eu","cc":"gb","latitude":51.509865,"longitude":-0.118092,"reserved":0,"last_update":"0001-01-01T00:00:00Z","name_a2s":"Uncletopia | London | 3 | All Maps","protocol":17,"map":"cp_dustbowl","folder":"tf","game":"Team Fortress","app_id":440,"player_count":24,"max_players":24,"Bots":0,"server_type":"Dedicated","server_os":"Linux","password":true,"vac":true,"version":"7882260","steam_id":85568392924510192,"keywords":["cp","nocrits","nodmgspread","uncletopia"],"game_id":440,"stv_port":27036,"stv_name":"Uncletopia | London | 3 | All Maps | STV","players":[{"user_id":880,"name":"Francis \"The Viper\" Higgins","steam_id":76561198285745399,"connected_time":1198000000000,"state":"active","ping":45},{"user_id":886,"name":"Reijyn","steam_id":76561198325279337,"connected_time":977000000000,"state":"active","ping":84},{"user_id":864,"name":"truebosnianking","steam_id":76561199440060597,"connected_time":2056000000000,"state":"active","ping":88},{"user_id":890,"name":"I Got Spurs","steam_id":76561198328046904,"connected_time":864000000000,"state":"active","ping":98},{"user_id":882,"name":"Famous Anus","steam_id":76561198413675639,"connected_time":1124000000000,"state":"active","ping":64},{"user_id":911,"name":"The Power","steam_id":76561198060566884,"connected_time":354000000000,"state":"active","ping":40},{"user_id":885,"name":"Mobster Tortoise","steam_id":76561199036837091,"connected_time":1035000000000,"state":"active","ping":86},{"user_id":917,"name":"risco1bolota","steam_id":76561198323074603,"connected_time":8000000000,"state":"spawning","ping":112},{"user_id":916,"name":"Crisp Rat","steam_id":76561198252853460,"connected_time":54000000000,"state":"active","ping":51},{"user_id":806,"name":"TheFluffyCrano","steam_id":76561198058832960,"connected_time":5128000000000,"state":"active","ping":54},{"user_id":893,"name":"ChPerette","steam_id":76561198060004887,"connected_time":808000000000,"state":"active","ping":44},{"user_id":894,"name":"Acr0man","steam_id":76561198165459621,"connected_time":802000000000,"state":"active","ping":79},{"user_id":896,"name":"Eggie","steam_id":76561199018655610,"connected_time":733000000000,"state":"active","ping":118},{"user_id":847,"name":"Dzan50","steam_id":76561198059758591,"connected_time":3031000000000,"state":"active","ping":94},{"user_id":868,"name":"dioggo","steam_id":76561198316467957,"connected_time":1819000000000,"state":"active","ping":71},{"user_id":897,"name":"mook","steam_id":76561198175543442,"connected_time":707000000000,"state":"active","ping":80},{"user_id":898,"name":"jovi_","steam_id":76561198449280552,"connected_time":706000000000,"state":"active","ping":54},{"user_id":871,"name":"Zakvins","steam_id":76561198012032303,"connected_time":1764000000000,"state":"active","ping":83},{"user_id":907,"name":".moe","steam_id":76561198153974095,"connected_time":561000000000,"state":"active","ping":36},{"user_id":905,"name":"mały #tf2pickup.pl","steam_id":76561198074409147,"connected_time":654000000000,"state":"active","ping":66},{"user_id":912,"name":"GoblinGaming","steam_id":76561198360395476,"connected_time":191000000000,"state":"active","ping":44},{"user_id":902,"name":"ashdu0j","steam_id":76561198410955546,"connected_time":682000000000,"state":"active","ping":83},{"user_id":909,"name":"Gent","steam_id":76561198037167890,"connected_time":434000000000,"state":"active","ping":79},{"user_id":904,"name":"DuskDragon911","steam_id":76561198996036702,"connected_time":668000000000,"state":"active","ping":84}]},{"server_id":321,"name":"Uncletopia | London | 4 | All Maps","name_short":"lon-4","host":"lon-1.uk.uncletopia.com","port":27045,"enabled":true,"region":"eu","cc":"gb","latitude":51.509865,"longitude":-0.118092,"reserved":0,"last_update":"0001-01-01T00:00:00Z","name_a2s":"Uncletopia | London | 4 | All Maps","protocol":17,"map":"pl_barnblitz","folder":"tf","game":"Team Fortress","app_id":440,"player_count":23,"max_players":24,"Bots":0,"server_type":"Dedicated","server_os":"Linux","password":true,"vac":true,"version":"7882260","steam_id":85568392924510193,"keywords":["nocrits","nodmgspread","payload","uncletopia"],"game_id":440,"stv_port":27046,"stv_name":"Uncletopia | London | 4 | All Maps | STV","players":[{"user_id":270,"name":"shits in urinals","steam_id":76561199480942903,"connected_time":1193000000000,"state":"active","ping":75},{"user_id":280,"name":"glyph","steam_id":76561197980736364,"connected_time":733000000000,"state":"active","ping":81},{"user_id":221,"name":"Lyncurion","steam_id":76561199260022725,"connected_time":5189000000000,"state":"active","ping":78},{"user_id":239,"name":"Štěpán","steam_id":76561198275742101,"connected_time":3551000000000,"state":"active","ping":73},{"user_id":271,"name":"shankz","steam_id":76561198128803260,"connected_time":1189000000000,"state":"active","ping":44},{"user_id":275,"name":"Godzilla! TrashVerN","steam_id":76561197977444051,"connected_time":1104000000000,"state":"active","ping":74},{"user_id":186,"name":"✪ qua ✪","steam_id":76561198066408333,"connected_time":8671000000000,"state":"active","ping":75},{"user_id":272,"name":"AneveX","steam_id":76561198111905804,"connected_time":1186000000000,"state":"active","ping":64},{"user_id":287,"name":"Ramen Kun","steam_id":76561198100070668,"connected_time":16000000000,"state":"spawning","ping":70},{"user_id":206,"name":"Mitrev","steam_id":76561198157124880,"connected_time":6208000000000,"state":"active","ping":61},{"user_id":207,"name":"CottonPicker404","steam_id":76561199485020000,"connected_time":6206000000000,"state":"active","ping":84},{"user_id":283,"name":"誰かが見ている","steam_id":76561198834913692,"connected_time":543000000000,"state":"active","ping":81},{"user_id":181,"name":"AftiksPL","steam_id":76561198875182686,"connected_time":8949000000000,"state":"active","ping":100},{"user_id":235,"name":"Gubbly Bubbins","steam_id":76561198101451654,"connected_time":3631000000000,"state":"active","ping":45},{"user_id":253,"name":"Nameless","steam_id":76561198084215731,"connected_time":1941000000000,"state":"active","ping":42},{"user_id":281,"name":"margaret thatcher's girl power","steam_id":76561199401283123,"connected_time":720000000000,"state":"active","ping":60},{"user_id":285,"name":"Pip","steam_id":76561198049587565,"connected_time":481000000000,"state":"active","ping":50},{"user_id":209,"name":"Jnyu","steam_id":76561198070532575,"connected_time":5920000000000,"state":"active","ping":85},{"user_id":286,"name":"BoBunny McGlitter","steam_id":76561198057403817,"connected_time":321000000000,"state":"active","ping":62},{"user_id":258,"name":"elsuedi","steam_id":76561198074722832,"connected_time":1823000000000,"state":"active","ping":60},{"user_id":259,"name":"LarsInABox","steam_id":76561198028329262,"connected_time":1799000000000,"state":"active","ping":74},{"user_id":279,"name":"Donutella","steam_id":76561198193972491,"connected_time":825000000000,"state":"active","ping":47},{"user_id":193,"name":"MrBigStu234","steam_id":76561198211599767,"connected_time":7509000000000,"state":"active","ping":57}]},{"server_id":21,"name":"Uncletopia | London | 5 | All Maps","name_short":"lon-5","host":"lon-1.uk.uncletopia.com","port":27055,"enabled":true,"region":"eu","cc":"gb","latitude":51.509865,"longitude":-0.118092,"reserved":0,"last_update":"0001-01-01T00:00:00Z","name_a2s":"Uncletopia | London | 5 | All Maps","protocol":17,"map":"pl_frontier_final","folder":"tf","game":"Team Fortress","app_id":440,"player_count":0,"max_players":24,"Bots":0,"server_type":"Dedicated","server_os":"Linux","password":true,"vac":true,"version":"7882260","steam_id":85568392924742829,"keywords":["nocrits","nodmgspread","payload","uncletopia"],"game_id":440,"stv_port":27056,"stv_name":"Uncletopia | London | 5 | All Maps | STV","players":null},{"server_id":22,"name":"Uncletopia | London | 6 | All Maps","name_short":"lon-6","host":"lon-1.uk.uncletopia.com","port":27065,"enabled":true,"region":"eu","cc":"gb","latitude":51.509865,"longitude":-0.118092,"reserved":0,"last_update":"0001-01-01T00:00:00Z","name_a2s":"Uncletopia | London | 6 | All Maps","protocol":17,"map":"cp_mountainlab","folder":"tf","game":"Team Fortress","app_id":440,"player_count":0,"max_players":24,"Bots":0,"server_type":"Dedicated","server_os":"Linux","password":true,"vac":true,"version":"7882260","steam_id":85568392924742830,"keywords":["cp","nocrits","nodmgspread","uncletopia"],"game_id":440,"stv_port":27066,"stv_name":"Uncletopia | London | 6 | All Maps | STV","players":null},{"server_id":40,"name":"Uncletopia | London | 7 | No Payload","name_short":"lon-7","host":"lon-1.uk.uncletopia.com","port":27075,"enabled":true,"region":"eu","cc":"gb","latitude":51.509865,"longitude":-0.118092,"reserved":0,"last_update":"0001-01-01T00:00:00Z","name_a2s":"Uncletopia | London | 7 | No Payload","protocol":17,"map":"koth_nucleus","folder":"tf","game":"Team Fortress","app_id":440,"player_count":0,"max_players":24,"Bots":0,"server_type":"Dedicated","server_os":"Linux","password":true,"vac":true,"version":"7882260","steam_id":85568392924964314,"keywords":["cp","nocrits","nodmgspread","uncletopia"],"game_id":440,"stv_port":27076,"stv_name":"Uncletopia | London | 7 | No Payload | STV","players":null},{"server_id":41,"name":"Uncletopia | London | 8 | Community","name_short":"lon-8","host":"lon-1.uk.uncletopia.com","port":27085,"enabled":true,"region":"eu","cc":"gb","latitude":51.509865,"longitude":-0.118092,"reserved":0,"last_update":"0001-01-01T00:00:00Z","name_a2s":"Uncletopia | London | 8 | Community","protocol":17,"map":"workshop/cp_croissant_final.ugc458840209","folder":"tf","game":"Team Fortress","app_id":440,"player_count":0,"max_players":24,"Bots":0,"server_type":"Dedicated","server_os":"Linux","password":true,"vac":true,"version":"7882260","steam_id":85568392924964315,"keywords":["cp","nocrits","nodmgspread","uncletopia"],"game_id":440,"stv_port":27086,"stv_name":"Uncletopia | London | 8 | Community | STV","players":null},{"server_id":300,"name":"Uncletopia | Montréal | 1 | All Maps","name_short":"mtl-1","host":"mtl-1.ca.uncletopia.com","port":27015,"enabled":true,"region":"us-east","cc":"ca","latitude":45.50889,"longitude":-73.56167,"reserved":0,"last_update":"0001-01-01T00:00:00Z","name_a2s":"Uncletopia | Montréal | 1 | All Maps","protocol":17,"map":"pl_snowycoast","folder":"tf","game":"Team Fortress","app_id":440,"player_count":0,"max_players":24,"Bots":0,"server_type":"Dedicated","server_os":"Linux","password":true,"vac":true,"version":"7882260","steam_id":85568392924500087,"keywords":["nocrits","nodmgspread","payload","uncletopia"],"game_id":440,"stv_port":27016,"stv_name":"Uncletopia | Montréal | 1 | All Maps | STV","players":null},{"server_id":301,"name":"Uncletopia | Montréal | 2 | All Maps","name_short":"mtl-2","host":"mtl-1.ca.uncletopia.com","port":27025,"enabled":true,"region":"us-east","cc":"ca","latitude":45.50889,"longitude":-73.56167,"reserved":0,"last_update":"0001-01-01T00:00:00Z","name_a2s":"Uncletopia | Montréal | 2 | All Maps","protocol":17,"map":"pl_swiftwater_final1","folder":"tf","game":"Team Fortress","app_id":440,"player_count":0,"max_players":24,"Bots":0,"server_type":"Dedicated","server_os":"Linux","password":true,"vac":true,"version":"7882260","steam_id":85568392924500088,"keywords":["nocrits","nodmgspread","payload","uncletopia"],"game_id":440,"stv_port":27026,"stv_name":"Uncletopia | Montréal | 2 | All Maps | STV","players":null},{"server_id":302,"name":"Uncletopia | Montréal | 3 | All Maps","name_short":"mtl-3","host":"mtl-1.ca.uncletopia.com","port":27035,"enabled":true,"region":"us-east","cc":"ca","latitude":45.50889,"longitude":-73.56167,"reserved":0,"last_update":"0001-01-01T00:00:00Z","name_a2s":"Uncletopia | Montréal | 3 | All Maps","protocol":17,"map":"pl_upward","folder":"tf","game":"Team Fortress","app_id":440,"player_count":0,"max_players":24,"Bots":0,"server_type":"Dedicated","server_os":"Linux","password":true,"vac":true,"version":"7882260","steam_id":85568392924500089,"keywords":["nocrits","nodmgspread","payload","uncletopia"],"game_id":440,"stv_port":27036,"stv_name":"Uncletopia | Montréal | 3 | All Maps | STV","players":null},{"server_id":303,"name":"Uncletopia | Montréal | 4 | No Payload","name_short":"mtl-4","host":"mtl-1.ca.uncletopia.com","port":27045,"enabled":true,"region":"us-east","cc":"ca","latitude":45.50889,"longitude":-73.56167,"reserved":0,"last_update":"0001-01-01T00:00:00Z","name_a2s":"Uncletopia | Montréal | 4 | No Payload","protocol":17,"map":"koth_highpass","folder":"tf","game":"Team Fortress","app_id":440,"player_count":0,"max_players":24,"Bots":0,"server_type":"Dedicated","server_os":"Linux","password":true,"vac":true,"version":"7882260","steam_id":85568392924500090,"keywords":["cp","nocrits","nodmgspread","uncletopia"],"game_id":440,"stv_port":27046,"stv_name":"Uncletopia | Montréal | 4 | No Payload | STV","players":null},{"server_id":13,"name":"Uncletopia | New York City | 1 | All Maps","name_short":"nyc-1","host":"nyc-1.us.uncletopia.com","port":27015,"enabled":true,"region":"us-east","cc":"us","latitude":40.73061,"longitude":-73.93524,"reserved":0,"last_update":"0001-01-01T00:00:00Z","name_a2s":"Uncletopia | New York City | 1 | All Maps","protocol":17,"map":"pl_frontier_final","folder":"tf","game":"Team Fortress","app_id":440,"player_count":24,"max_players":24,"Bots":0,"server_type":"Dedicated","server_os":"Linux","password":true,"vac":true,"version":"7882260","steam_id":85568392924469993,"keywords":["nocrits","nodmgspread","payload","uncletopia"],"game_id":440,"stv_port":27016,"stv_name":"Uncletopia | New York City | 1 | All Maps | STV","players":[{"user_id":383,"name":"Sorbet Shark Cookie","steam_id":76561198133082665,"connected_time":1644000000000,"state":"active","ping":120},{"user_id":389,"name":"Public Masturbator","steam_id":76561198139539447,"connected_time":935000000000,"state":"active","ping":59},{"user_id":402,"name":"g_shadow09","steam_id":76561199067728816,"connected_time":30000000000,"state":"spawning","ping":108},{"user_id":358,"name":"drdoofus123","steam_id":76561198016826181,"connected_time":2005000000000,"state":"active","ping":63},{"user_id":356,"name":"SasukeGOD","steam_id":76561199077255310,"connected_time":2098000000000,"state":"active","ping":82},{"user_id":393,"name":"n_sacco","steam_id":76561198432818448,"connected_time":739000000000,"state":"active","ping":82},{"user_id":366,"name":"Lupin_ch","steam_id":76561197995281903,"connected_time":1860000000000,"state":"active","ping":145},{"user_id":360,"name":"Frank the Tank","steam_id":76561198014574925,"connected_time":1990000000000,"state":"active","ping":68},{"user_id":346,"name":"saib","steam_id":76561198966980576,"connected_time":2426000000000,"state":"active","ping":48},{"user_id":361,"name":"Matt","steam_id":76561198008108521,"connected_time":1990000000000,"state":"active","ping":71},{"user_id":399,"name":"Olifont","steam_id":76561198141162919,"connected_time":148000000000,"state":"active","ping":68},{"user_id":340,"name":"ikaes","steam_id":76561198834496029,"connected_time":3032000000000,"state":"active","ping":54},{"user_id":392,"name":"Kuai","steam_id":76561198321216513,"connected_time":828000000000,"state":"active","ping":55},{"user_id":395,"name":"glue sniffer","steam_id":76561198044689778,"connected_time":583000000000,"state":"active","ping":48},{"user_id":337,"name":"Stuff550","steam_id":76561198823316498,"connected_time":3223000000000,"state":"active","ping":100},{"user_id":262,"name":"MellowBoy-2354","steam_id":76561199080630632,"connected_time":9361000000000,"state":"active","ping":93},{"user_id":367,"name":"Get Beaned","steam_id":76561198391590820,"connected_time":1855000000000,"state":"active","ping":127},{"user_id":401,"name":"Str0mboli","steam_id":76561198155003395,"connected_time":126000000000,"state":"active","ping":50},{"user_id":404,"name":"Frost ♥","steam_id":76561198168870617,"connected_time":28000000000,"state":"active","ping":49},{"user_id":398,"name":"meat glasses","steam_id":76561198046742645,"connected_time":190000000000,"state":"active","ping":60},{"user_id":369,"name":"Dr. drippenstein","steam_id":76561198209380493,"connected_time":1804000000000,"state":"active","ping":43},{"user_id":264,"name":"Wahooka","steam_id":76561197962240925,"connected_time":9344000000000,"state":"active","ping":45},{"user_id":380,"name":"sam","steam_id":76561198217362968,"connected_time":1691000000000,"state":"active","ping":64},{"user_id":343,"name":"Eazy_Peazy16","steam_id":76561198079056194,"connected_time":2843000000000,"state":"active","ping":81}]},{"server_id":14,"name":"Uncletopia | New York City | 2 | All Maps","name_short":"nyc-2","host":"nyc-1.us.uncletopia.com","port":27025,"enabled":true,"region":"us-east","cc":"us","latitude":40.73061,"longitude":-73.93524,"reserved":0,"last_update":"0001-01-01T00:00:00Z","name_a2s":"Uncletopia | New York City | 2 | All Maps","protocol":17,"map":"koth_lakeside_final","folder":"tf","game":"Team Fortress","app_id":440,"player_count":1,"max_players":24,"Bots":0,"server_type":"Dedicated","server_os":"Linux","password":true,"vac":true,"version":"7882260","steam_id":85568392924469994,"keywords":["cp","nocrits","nodmgspread","uncletopia"],"game_id":440,"stv_port":27026,"stv_name":"Uncletopia | New York City | 2 | All Maps | STV","players":[{"user_id":40,"name":"samoclutch #kony2012","steam_id":76561199094965146,"connected_time":60000000000,"state":"spawning","ping":37}]},{"server_id":15,"name":"Uncletopia | New York City | 3 | Stopwatch Beta","name_short":"nyc-3","host":"nyc-1.us.uncletopia.com","port":27035,"enabled":true,"region":"us-east","cc":"us","latitude":40.73061,"longitude":-73.93524,"reserved":0,"last_update":"0001-01-01T00:00:00Z","name_a2s":"Uncletopia | New York City | 3 | Stopwatch Beta","protocol":17,"map":"workshop/koth_bagel_rc6.ugc2514036946","folder":"tf","game":"Team Fortress","app_id":440,"player_count":24,"max_players":24,"Bots":0,"server_type":"Dedicated","server_os":"Linux","password":true,"vac":true,"version":"7882260","steam_id":85568392924742820,"keywords":["cp","nocrits","nodmgspread","uncletopia"],"game_id":440,"stv_port":27036,"stv_name":"Uncletopia | New York City | 3 | Stopwatch Beta | STV","players":[{"user_id":51,"name":"Mani","steam_id":76561198139428711,"connected_time":1336000000000,"state":"active","ping":74},{"user_id":64,"name":"H-manFTW","steam_id":76561198316122689,"connected_time":509000000000,"state":"active","ping":60},{"user_id":40,"name":"Ratty Rat","steam_id":76561199404116447,"connected_time":2288000000000,"state":"active","ping":75},{"user_id":55,"name":"joemoe84g","steam_id":76561199141651280,"connected_time":848000000000,"state":"active","ping":83},{"user_id":56,"name":"frizzle fried","steam_id":76561198062991744,"connected_time":829000000000,"state":"active","ping":51},{"user_id":57,"name":"saturn","steam_id":76561198348918232,"connected_time":760000000000,"state":"active","ping":68},{"user_id":26,"name":"cement drinker","steam_id":76561198151334798,"connected_time":3054000000000,"state":"active","ping":56},{"user_id":43,"name":"Yeag","steam_id":76561198870349289,"connected_time":1847000000000,"state":"active","ping":80},{"user_id":44,"name":"turtle","steam_id":76561198072178607,"connected_time":1822000000000,"state":"active","ping":66},{"user_id":31,"name":"mush","steam_id":76561198310089797,"connected_time":2761000000000,"state":"active","ping":76},{"user_id":58,"name":"Sparkk","steam_id":76561198060705509,"connected_time":690000000000,"state":"active","ping":63},{"user_id":34,"name":"concrete_car","steam_id":76561198388207363,"connected_time":2632000000000,"state":"active","ping":75},{"user_id":37,"name":"Snazzy_","steam_id":76561198014803098,"connected_time":2523000000000,"state":"active","ping":59},{"user_id":46,"name":"The Notorious J.A.V","steam_id":76561198329087915,"connected_time":1652000000000,"state":"active","ping":119},{"user_id":67,"name":"thundah! LFT snipe S15","steam_id":76561199159928133,"connected_time":369000000000,"state":"active","ping":64},{"user_id":72,"name":"dylanm0909","steam_id":76561198042433442,"connected_time":154000000000,"state":"active","ping":135},{"user_id":60,"name":"Swifgz","steam_id":76561198162875756,"connected_time":616000000000,"state":"active","ping":53},{"user_id":69,"name":"x_kaz","steam_id":76561198313241509,"connected_time":286000000000,"state":"active","ping":55},{"user_id":62,"name":"catrinaisahuman","steam_id":76561198281355729,"connected_time":594000000000,"state":"active","ping":89},{"user_id":66,"name":"bojack from the show bojack hor","steam_id":76561198053006712,"connected_time":488000000000,"state":"active","ping":44},{"user_id":73,"name":"angry auby","steam_id":76561198088024854,"connected_time":153000000000,"state":"active","ping":100},{"user_id":78,"name":"Talloran","steam_id":76561198837255509,"connected_time":21000000000,"state":"active","ping":172},{"user_id":79,"name":"Rumpus Fugly","steam_id":76561198095118127,"connected_time":17000000000,"state":"active","ping":101},{"user_id":80,"name":"Cube","steam_id":76561199021614213,"connected_time":15000000000,"state":"active","ping":166}]},{"server_id":16,"name":"Uncletopia | New York City | 4 | Community","name_short":"nyc-4","host":"nyc-1.us.uncletopia.com","port":27045,"enabled":true,"region":"us-east","cc":"us","latitude":40.73061,"longitude":-73.93524,"reserved":0,"last_update":"0001-01-01T00:00:00Z","name_a2s":"Uncletopia | New York City | 4 | Community","protocol":17,"map":"cp_altitude","folder":"tf","game":"Team Fortress","app_id":440,"player_count":0,"max_players":24,"Bots":0,"server_type":"Dedicated","server_os":"Linux","password":true,"vac":true,"version":"7882260","steam_id":85568392924742821,"keywords":["cp","nocrits","nodmgspread","uncletopia"],"game_id":440,"stv_port":27046,"stv_name":"Uncletopia | New York City | 4 | Community | STV","players":null},{"server_id":142,"name":"Uncletopia | São Paulo | 1 | All Maps","name_short":"sao-1","host":"sao-1.br.uncletopia.com","port":27015,"enabled":true,"region":"sa","cc":"br","latitude":-23.533773,"longitude":-46.62529,"reserved":0,"last_update":"0001-01-01T00:00:00Z","name_a2s":"Uncletopia | São Paulo | 1 | All Maps","protocol":17,"map":"koth_highpass","folder":"tf","game":"Team Fortress","app_id":440,"player_count":0,"max_players":24,"Bots":0,"server_type":"Dedicated","server_os":"Linux","password":true,"vac":true,"version":"7882260","steam_id":85568392924469996,"keywords":["cp","nocrits","nodmgspread","uncletopia"],"game_id":440,"stv_port":27016,"stv_name":"Uncletopia | São Paulo | 1 | All Maps | STV","players":null},{"server_id":143,"name":"Uncletopia | São Paulo | 2 | All Maps","name_short":"sao-2","host":"sao-2.br.uncletopia.com","port":27015,"enabled":true,"region":"sa","cc":"br","latitude":-23.533773,"longitude":-46.62529,"reserved":0,"last_update":"0001-01-01T00:00:00Z","name_a2s":"Uncletopia | São Paulo | 2 | All Maps","protocol":17,"map":"pl_borneo","folder":"tf","game":"Team Fortress","app_id":440,"player_count":0,"max_players":24,"Bots":0,"server_type":"Dedicated","server_os":"Linux","password":true,"vac":true,"version":"7882260","steam_id":85568392924485349,"keywords":["nocrits","nodmgspread","payload","uncletopia"],"game_id":440,"stv_port":27016,"stv_name":"Uncletopia | São Paulo | 2 | All Maps | STV","players":null},{"server_id":7,"name":"Uncletopia | Seattle | 1 | All Maps","name_short":"sea-1","host":"sea-1.us.uncletopia.com","port":27015,"enabled":true,"region":"us-west","cc":"us","latitude":47.608013,"longitude":-122.33517,"reserved":0,"last_update":"0001-01-01T00:00:00Z","name_a2s":"Uncletopia | Seattle | 1 | All Maps","protocol":17,"map":"koth_harvest_final","folder":"tf","game":"Team Fortress","app_id":440,"player_count":24,"max_players":24,"Bots":0,"server_type":"Dedicated","server_os":"Linux","password":true,"vac":true,"version":"7882260","steam_id":85568392924469997,"keywords":["cp","nocrits","nodmgspread","uncletopia"],"game_id":440,"stv_port":27016,"stv_name":"Uncletopia | Seattle | 1 | All Maps | STV","players":[{"user_id":490,"name":"BlazedBunny","steam_id":76561198243610560,"connected_time":1074000000000,"state":"active","ping":75},{"user_id":507,"name":"O","steam_id":76561198450073779,"connected_time":41000000000,"state":"active","ping":43},{"user_id":498,"name":"Jolly","steam_id":76561198116357972,"connected_time":802000000000,"state":"active","ping":69},{"user_id":491,"name":"sperklebonge [NF]","steam_id":76561199083692251,"connected_time":1018000000000,"state":"active","ping":129},{"user_id":505,"name":"Ruben","steam_id":76561198048508642,"connected_time":193000000000,"state":"active","ping":49},{"user_id":471,"name":"CareFree Brie","steam_id":76561198868697407,"connected_time":2092000000000,"state":"active","ping":68},{"user_id":506,"name":"dust | she/it","steam_id":76561198045218909,"connected_time":180000000000,"state":"active","ping":39},{"user_id":466,"name":"The Hoagie Hero","steam_id":76561198057569298,"connected_time":2326000000000,"state":"active","ping":120},{"user_id":504,"name":"my monitor is off","steam_id":76561198074499537,"connected_time":255000000000,"state":"active","ping":77},{"user_id":485,"name":"Banana Patrick","steam_id":76561198258067237,"connected_time":1228000000000,"state":"active","ping":120},{"user_id":502,"name":"Masotan","steam_id":76561199047187302,"connected_time":537000000000,"state":"active","ping":105},{"user_id":226,"name":"lox","steam_id":76561198288531493,"connected_time":17049000000000,"state":"active","ping":58},{"user_id":472,"name":"mobe","steam_id":76561198121633820,"connected_time":2070000000000,"state":"active","ping":81},{"user_id":474,"name":"ScumLord","steam_id":76561198079621608,"connected_time":1934000000000,"state":"active","ping":49},{"user_id":477,"name":"Scorpianswag","steam_id":76561198260651036,"connected_time":1686000000000,"state":"active","ping":60},{"user_id":455,"name":"mutedx10","steam_id":76561198253556858,"connected_time":3002000000000,"state":"active","ping":94},{"user_id":486,"name":"Mr. Computer","steam_id":76561198136878831,"connected_time":1206000000000,"state":"active","ping":55},{"user_id":501,"name":"nav","steam_id":76561198872608266,"connected_time":580000000000,"state":"active","ping":115},{"user_id":495,"name":"triangleman","steam_id":76561198972733542,"connected_time":897000000000,"state":"active","ping":111},{"user_id":493,"name":"Jo","steam_id":76561198060447015,"connected_time":981000000000,"state":"active","ping":119},{"user_id":476,"name":"smeasly","steam_id":76561198028718812,"connected_time":1783000000000,"state":"active","ping":30},{"user_id":496,"name":"tiananmensquare1989","steam_id":76561199076837870,"connected_time":871000000000,"state":"active","ping":147},{"user_id":503,"name":"minerkid2004","steam_id":76561198044262827,"connected_time":493000000000,"state":"active","ping":64},{"user_id":439,"name":"Boyaredeen","steam_id":76561198880492636,"connected_time":4511000000000,"state":"active","ping":54}]},{"server_id":119,"name":"Uncletopia | Seattle | 2 | All Maps","name_short":"sea-2","host":"sea-1.us.uncletopia.com","port":27025,"enabled":true,"region":"us-west","cc":"us","latitude":47.608013,"longitude":-122.33517,"reserved":0,"last_update":"0001-01-01T00:00:00Z","name_a2s":"Uncletopia | Seattle | 2 | All Maps","protocol":17,"map":"ctf_2fort","folder":"tf","game":"Team Fortress","app_id":440,"player_count":24,"max_players":24,"Bots":0,"server_type":"Dedicated","server_os":"Linux","password":true,"vac":true,"version":"7882260","steam_id":85568392924469998,"keywords":["ctf","nocrits","nodmgspread","uncletopia"],"game_id":440,"stv_port":27026,"stv_name":"Uncletopia | Seattle | 2 | All Maps | STV","players":[{"user_id":225,"name":"ProbiusSC","steam_id":76561198379167322,"connected_time":3947000000000,"state":"active","ping":66},{"user_id":123,"name":"G. Howard Dee","steam_id":76561198058382812,"connected_time":9840000000000,"state":"active","ping":76},{"user_id":285,"name":"Burrbank","steam_id":76561198042888060,"connected_time":149000000000,"state":"active","ping":128},{"user_id":268,"name":"NotHere","steam_id":76561198074810309,"connected_time":719000000000,"state":"active","ping":118},{"user_id":267,"name":"Tanz","steam_id":76561199274838956,"connected_time":819000000000,"state":"active","ping":44},{"user_id":289,"name":"topaz_cat","steam_id":76561199486620842,"connected_time":13000000000,"state":"active","ping":99},{"user_id":287,"name":"gloobern","steam_id":76561198341190679,"connected_time":114000000000,"state":"active","ping":61},{"user_id":270,"name":"Integral","steam_id":76561198158225481,"connected_time":645000000000,"state":"active","ping":81},{"user_id":271,"name":"grassyboulder","steam_id":76561199083593292,"connected_time":579000000000,"state":"active","ping":81},{"user_id":283,"name":"KodamaLlama","steam_id":76561198104510111,"connected_time":225000000000,"state":"active","ping":98},{"user_id":273,"name":"BoX_hEaD101","steam_id":76561198200875467,"connected_time":410000000000,"state":"active","ping":92},{"user_id":274,"name":"White Bread Enthusiast","steam_id":76561199204589742,"connected_time":382000000000,"state":"active","ping":115},{"user_id":275,"name":"The Wise Guy","steam_id":76561198031080216,"connected_time":373000000000,"state":"active","ping":64},{"user_id":278,"name":"Mormon Discoball","steam_id":76561198028006216,"connected_time":296000000000,"state":"active","ping":76},{"user_id":276,"name":"Konnor","steam_id":76561199136300254,"connected_time":349000000000,"state":"active","ping":75},{"user_id":250,"name":"ZeDoktor","steam_id":76561198067035643,"connected_time":2781000000000,"state":"active","ping":55},{"user_id":277,"name":"doggato","steam_id":76561198114914855,"connected_time":334000000000,"state":"active","ping":34},{"user_id":284,"name":"inphlate","steam_id":76561199016973013,"connected_time":187000000000,"state":"active","ping":143},{"user_id":286,"name":"Flabio","steam_id":76561197992803183,"connected_time":129000000000,"state":"active","ping":99},{"user_id":281,"name":"SnakeyK","steam_id":76561198038414152,"connected_time":241000000000,"state":"active","ping":87},{"user_id":253,"name":"ALonelyGhostE","steam_id":76561198184787290,"connected_time":2653000000000,"state":"active","ping":67},{"user_id":201,"name":"Cinnifox","steam_id":76561198068773971,"connected_time":4995000000000,"state":"active","ping":63},{"user_id":282,"name":"stealth317","steam_id":76561198025362067,"connected_time":235000000000,"state":"active","ping":126},{"user_id":220,"name":"wmjledger","steam_id":76561198443046861,"connected_time":4186000000000,"state":"active","ping":58}]},{"server_id":406,"name":"Uncletopia | Seattle | 3 | Stopwatch Beta","name_short":"sea-3","host":"sea-1.us.uncletopia.com","port":27035,"enabled":true,"region":"us-west","cc":"us","latitude":47.608013,"longitude":-122.33517,"reserved":0,"last_update":"0001-01-01T00:00:00Z","name_a2s":"Uncletopia | Seattle | 3 | Stopwatch Beta","protocol":17,"map":"koth_viaduct","folder":"tf","game":"Team Fortress","app_id":440,"player_count":0,"max_players":24,"Bots":0,"server_type":"Dedicated","server_os":"Linux","password":true,"vac":true,"version":"7882260","steam_id":85568392924515217,"keywords":["cp","nocrits","nodmgspread","uncletopia"],"game_id":440,"stv_port":27036,"stv_name":"Uncletopia | Seattle | 3 | Stopwatch Beta | STV","players":null},{"server_id":17,"name":"Uncletopia | San Francisco | 1 | All Maps","name_short":"sfo-1","host":"sfo-1.us.uncletopia.com","port":27015,"enabled":true,"region":"us-west","cc":"us","latitude":37.77397,"longitude":-122.4313,"reserved":0,"last_update":"0001-01-01T00:00:00Z","name_a2s":"Uncletopia | San Francisco | 1 | All Maps","protocol":17,"map":"koth_cascade","folder":"tf","game":"Team Fortress","app_id":440,"player_count":0,"max_players":24,"Bots":0,"server_type":"Dedicated","server_os":"Linux","password":true,"vac":true,"version":"7882260","steam_id":85568392924469999,"keywords":["cp","nocrits","nodmgspread","uncletopia"],"game_id":440,"stv_port":27016,"stv_name":"Uncletopia | San Francisco | 1 | All Maps | STV","players":null},{"server_id":18,"name":"Uncletopia | San Francisco | 2 | All Maps","name_short":"sfo-2","host":"sfo-1.us.uncletopia.com","port":27025,"enabled":true,"region":"us-west","cc":"us","latitude":37.77397,"longitude":-122.4313,"reserved":0,"last_update":"0001-01-01T00:00:00Z","name_a2s":"Uncletopia | San Francisco | 2 | All Maps","protocol":17,"map":"cp_dustbowl","folder":"tf","game":"Team Fortress","app_id":440,"player_count":0,"max_players":24,"Bots":0,"server_type":"Dedicated","server_os":"Linux","password":true,"vac":true,"version":"7882260","steam_id":85568392924470000,"keywords":["cp","nocrits","nodmgspread","uncletopia"],"game_id":440,"stv_port":27026,"stv_name":"Uncletopia | San Francisco | 2 | All Maps | STV","players":null},{"server_id":19,"name":"Uncletopia | San Francisco | 3 | Stopwatch Beta","name_short":"sfo-3","host":"sfo-1.us.uncletopia.com","port":27035,"enabled":true,"region":"us-west","cc":"us","latitude":37.77397,"longitude":-122.4313,"reserved":0,"last_update":"0001-01-01T00:00:00Z","name_a2s":"Uncletopia | San Francisco | 3 | Stopwatch Beta","protocol":17,"map":"pl_snowycoast","folder":"tf","game":"Team Fortress","app_id":440,"player_count":0,"max_players":24,"Bots":0,"server_type":"Dedicated","server_os":"Linux","password":true,"vac":true,"version":"7882260","steam_id":85568392924742824,"keywords":["nocrits","nodmgspread","payload","uncletopia"],"game_id":440,"stv_port":27036,"stv_name":"Uncletopia | San Francisco | 3 | Stopwatch Beta | STV","players":null},{"server_id":20,"name":"Uncletopia | San Francisco | 4 | Community","name_short":"sfo-4","host":"sfo-1.us.uncletopia.com","port":27045,"enabled":true,"region":"us-west","cc":"us","latitude":37.77397,"longitude":-122.4313,"reserved":0,"last_update":"0001-01-01T00:00:00Z","name_a2s":"Uncletopia | San Francisco | 4 | Community","protocol":17,"map":"workshop/koth_ramjam_rc1.ugc459778887","folder":"tf","game":"Team Fortress","app_id":440,"player_count":0,"max_players":24,"Bots":0,"server_type":"Dedicated","server_os":"Linux","password":true,"vac":true,"version":"7882260","steam_id":85568392924742826,"keywords":["cp","nocrits","nodmgspread","uncletopia"],"game_id":440,"stv_port":27046,"stv_name":"Uncletopia | San Francisco | 4 | Community | STV","players":null},{"server_id":141,"name":"Uncletopia | Sydney | 1 | All Maps","name_short":"syd-1","host":"syd-1.au.uncletopia.com","port":27015,"enabled":true,"region":"au","cc":"au","latitude":-33.865143,"longitude":151.2099,"reserved":0,"last_update":"0001-01-01T00:00:00Z","name_a2s":"Uncletopia | Sydney | 1 | All Maps","protocol":17,"map":"pl_barnblitz","folder":"tf","game":"Team Fortress","app_id":440,"player_count":0,"max_players":24,"Bots":0,"server_type":"Dedicated","server_os":"Linux","password":true,"vac":true,"version":"7882260","steam_id":85568392924470001,"keywords":["nocrits","nodmgspread","payload","uncletopia"],"game_id":440,"stv_port":27016,"stv_name":"Uncletopia | Sydney | 1 | All Maps | STV","players":null},{"server_id":123,"name":"Uncletopia | Sydney | 2 | All Maps","name_short":"syd-2","host":"syd-1.au.uncletopia.com","port":27025,"enabled":true,"region":"au","cc":"au","latitude":-33.865143,"longitude":151.2099,"reserved":0,"last_update":"0001-01-01T00:00:00Z","name_a2s":"Uncletopia | Sydney | 2 | All Maps","protocol":17,"map":"cp_process_final","folder":"tf","game":"Team Fortress","app_id":440,"player_count":0,"max_players":24,"Bots":0,"server_type":"Dedicated","server_os":"Linux","password":true,"vac":true,"version":"7882260","steam_id":85568392924470002,"keywords":["cp","nocrits","nodmgspread","uncletopia"],"game_id":440,"stv_port":27026,"stv_name":"Uncletopia | Sydney | 2 | All Maps | STV","players":null},{"server_id":395,"name":"Uncletopia | Sydney | 3 | All Maps","name_short":"syd-3","host":"syd-1.au.uncletopia.com","port":27035,"enabled":true,"region":"au","cc":"au","latitude":-33.865143,"longitude":151.2099,"reserved":0,"last_update":"0001-01-01T00:00:00Z","name_a2s":"Uncletopia | Sydney | 3 | All Maps","protocol":17,"map":"pl_badwater","folder":"tf","game":"Team Fortress","app_id":440,"player_count":0,"max_players":24,"Bots":0,"server_type":"Dedicated","server_os":"Linux","password":true,"vac":true,"version":"7882260","steam_id":85568392925194467,"keywords":["nocrits","nodmgspread","payload","uncletopia"],"game_id":440,"stv_port":27036,"stv_name":"Uncletopia | Sydney | 3 | All Maps | STV","players":null},{"server_id":396,"name":"Uncletopia | Sydney | 4 | All Maps","name_short":"syd-4","host":"syd-1.au.uncletopia.com","port":27045,"enabled":true,"region":"au","cc":"au","latitude":-33.865143,"longitude":151.2099,"reserved":0,"last_update":"0001-01-01T00:00:00Z","name_a2s":"Uncletopia | Sydney | 4 | All Maps","protocol":17,"map":"cp_altitude","folder":"tf","game":"Team Fortress","app_id":440,"player_count":0,"max_players":24,"Bots":0,"server_type":"Dedicated","server_os":"Linux","password":true,"vac":true,"version":"7882260","steam_id":85568392925397958,"keywords":["cp","nocrits","nodmgspread","uncletopia"],"game_id":440,"stv_port":27046,"stv_name":"Uncletopia | Sydney | 4 | All Maps | STV","players":null},{"server_id":58,"name":"Uncletopia | Sydney | 5 | Stopwatch Beta","name_short":"syd-5","host":"syd-1.au.uncletopia.com","port":27055,"enabled":true,"region":"au","cc":"au","latitude":-33.865143,"longitude":151.2099,"reserved":0,"last_update":"0001-01-01T00:00:00Z","name_a2s":"Uncletopia | Sydney | 5 | Stopwatch Beta","protocol":17,"map":"koth_viaduct","folder":"tf","game":"Team Fortress","app_id":440,"player_count":0,"max_players":24,"Bots":0,"server_type":"Dedicated","server_os":"Linux","password":true,"vac":true,"version":"7882260","steam_id":85568392925397959,"keywords":["cp","nocrits","nodmgspread","uncletopia"],"game_id":440,"stv_port":27056,"stv_name":"Uncletopia | Sydney | 5 | Stopwatch Beta | STV","players":null},{"server_id":59,"name":"Uncletopia | Sydney | 6 | Community","name_short":"syd-6","host":"syd-1.au.uncletopia.com","port":27065,"enabled":true,"region":"au","cc":"au","latitude":-33.865143,"longitude":151.2099,"reserved":0,"last_update":"0001-01-01T00:00:00Z","name_a2s":"Uncletopia | Sydney | 6 | Community","protocol":17,"map":"pl_upward","folder":"tf","game":"Team Fortress","app_id":440,"player_count":0,"max_players":24,"Bots":0,"server_type":"Dedicated","server_os":"Linux","password":true,"vac":true,"version":"7882260","steam_id":85568392925397960,"keywords":["nocrits","nodmgspread","payload","uncletopia"],"game_id":440,"stv_port":27066,"stv_name":"Uncletopia | Sydney | 6 | Community | STV","players":null},{"server_id":49,"name":"Uncletopia | Warsaw | 1 | All Maps","name_short":"waw-1","host":"waw-1.pl.uncletopia.com","port":27015,"enabled":true,"region":"eu","cc":"pl","latitude":52.2297,"longitude":21.017532,"reserved":0,"last_update":"0001-01-01T00:00:00Z","name_a2s":"","protocol":0,"map":"","folder":"","game":"","app_id":0,"player_count":0,"max_players":0,"Bots":0,"server_type":"","server_os":"","password":false,"vac":false,"version":"","steam_id":0,"keywords":null,"game_id":0,"stv_port":0,"stv_name":"","players":null},{"server_id":50,"name":"Uncletopia | Warsaw | 2 | All Maps","name_short":"waw-2","host":"waw-1.pl.uncletopia.com","port":27025,"enabled":true,"region":"eu","cc":"pl","latitude":52.2297,"longitude":21.017532,"reserved":0,"last_update":"0001-01-01T00:00:00Z","name_a2s":"Uncletopia | Warsaw | 2 | All Maps","protocol":17,"map":"pl_barnblitz","folder":"tf","game":"Team Fortress","app_id":440,"player_count":0,"max_players":24,"Bots":0,"server_type":"Dedicated","server_os":"Linux","password":true,"vac":true,"version":"7882260","steam_id":85568392925397851,"keywords":["nocrits","nodmgspread","payload","uncletopia"],"game_id":440,"stv_port":27026,"stv_name":"Uncletopia | Warsaw | 2 | All Maps | STV","players":null},{"server_id":51,"name":"Uncletopia | Warsaw | 3 | All Maps","name_short":"waw-3","host":"waw-1.pl.uncletopia.com","port":27035,"enabled":true,"region":"eu","cc":"pl","latitude":52.2297,"longitude":21.017532,"reserved":0,"last_update":"0001-01-01T00:00:00Z","name_a2s":"Uncletopia | Warsaw | 3 | All Maps","protocol":17,"map":"cp_process_final","folder":"tf","game":"Team Fortress","app_id":440,"player_count":0,"max_players":24,"Bots":0,"server_type":"Dedicated","server_os":"Linux","password":true,"vac":true,"version":"7882260","steam_id":85568392925397852,"keywords":["cp","nocrits","nodmgspread","uncletopia"],"game_id":440,"stv_port":27036,"stv_name":"Uncletopia | Warsaw | 3 | All Maps | STV","players":null},{"server_id":52,"name":"Uncletopia | Warsaw | 4 | All Maps","name_short":"waw-4","host":"waw-1.pl.uncletopia.com","port":27045,"enabled":true,"region":"eu","cc":"pl","latitude":52.2297,"longitude":21.017532,"reserved":0,"last_update":"0001-01-01T00:00:00Z","name_a2s":"Uncletopia | Warsaw | 4 | All Maps","protocol":17,"map":"pl_snowycoast","folder":"tf","game":"Team Fortress","app_id":440,"player_count":0,"max_players":24,"Bots":0,"server_type":"Dedicated","server_os":"Linux","password":true,"vac":true,"version":"7882260","steam_id":85568392925397853,"keywords":["nocrits","nodmgspread","payload","uncletopia"],"game_id":440,"stv_port":27046,"stv_name":"Uncletopia | Warsaw | 4 | All Maps | STV","players":null},{"server_id":53,"name":"Uncletopia | Warsaw | 5 | Stopwatch Beta","name_short":"waw-5","host":"waw-1.pl.uncletopia.com","port":27055,"enabled":true,"region":"eu","cc":"pl","latitude":52.2297,"longitude":21.017532,"reserved":0,"last_update":"0001-01-01T00:00:00Z","name_a2s":"Uncletopia | Warsaw | 5 | Stopwatch Beta","protocol":17,"map":"koth_highpass","folder":"tf","game":"Team Fortress","app_id":440,"player_count":0,"max_players":24,"Bots":0,"server_type":"Dedicated","server_os":"Linux","password":true,"vac":true,"version":"7882260","steam_id":85568392925397854,"keywords":["cp","nocrits","nodmgspread","uncletopia"],"game_id":440,"stv_port":27056,"stv_name":"Uncletopia | Warsaw | 5 | Stopwatch Beta | STV","players":null},{"server_id":54,"name":"Uncletopia | Warsaw | 6 | Community","name_short":"waw-6","host":"waw-1.pl.uncletopia.com","port":27065,"enabled":true,"region":"eu","cc":"pl","latitude":52.2297,"longitude":21.017532,"reserved":0,"last_update":"0001-01-01T00:00:00Z","name_a2s":"Uncletopia | Warsaw | 6 | Community","protocol":17,"map":"workshop/koth_trenchfoot_b1a.ugc731436616","folder":"tf","game":"Team Fortress","app_id":440,"player_count":0,"max_players":24,"Bots":0,"server_type":"Dedicated","server_os":"Linux","password":true,"vac":true,"version":"7882260","steam_id":85568392925397856,"keywords":["cp","nocrits","nodmgspread","uncletopia"],"game_id":440,"stv_port":27066,"stv_name":"Uncletopia | Warsaw | 6 | Community | STV","players":null}]}