{"status":true,"message":"","result":[{"server_id":9,"name":"Uncletopia | Atlanta | 1 | All Maps","name_short":"atl-1","host":"atl-1.us.uncletopia.com","port":27015,"enabled":true,"region":"us-east","cc":"us","latitude":33.753746,"longitude":-84.38633,"reserved":0,"last_update":"0001-01-01T00:00:00Z","name_a2s":"Uncletopia | Atlanta | 1 | All Maps","protocol":17,"map":"koth_viaduct","folder":"tf","game":"Team Fortress","app_id":440,"player_count":0,"max_players":24,"Bots":0,"server_type":"Dedicated","server_os":"Linux","password":true,"vac":true,"version":"7882260","steam_id":85568392924469982,"keywords":["cp","nocrits","nodmgspread","uncletopia"],"game_id":440,"stv_port":27016,"stv_name":"Uncletopia | Atlanta | 1 | All Maps | STV","players":null},{"server_id":104,"name":"Uncletopia | Atlanta | 2 | All Maps","name_short":"atl-2","host":"atl-1.us.uncletopia.com","port":27025,"enabled":true,"region":"us-east","cc":"us","latitude":33.753746,"longitude":-84.38633,"reserved":0,"last_update":"0001-01-01T00:00:00Z","name_a2s":"Uncletopia | Atlanta | 2 | All Maps","protocol":17,"map":"cp_process_final","folder":"tf","game":"Team Fortress","app_id":440,"player_count":0,"max_players":24,"Bots":0,"server_type":"Dedicated","server_os":"Linux","password":true,"vac":true,"version":"7882260","steam_id":85568392924469983,"keywords":["cp","nocrits","nodmgspread","uncletopia"],"game_id":440,"stv_port":27026,"stv_name":"Uncletopia | Atlanta | 2 | All Maps | STV","players":null},{"server_id":400,"name":"Uncletopia | Atlanta | 3 | Community","name_short":"atl-3","host":"atl-1.us.uncletopia.com","port":27035,"enabled":true,"region":"us-east","cc":"us","latitude":33.753746,"longitude":-84.38633,"reserved":0,"last_update":"0001-01-01T00:00:00Z","name_a2s":"Uncletopia | Atlanta | 3 | Community","protocol":17,"map":"cp_sunshine","folder":"tf","game":"Team Fortress","app_id":440,"player_count":0,"max_players":24,"Bots":0,"server_type":"Dedicated","server_os":"Linux","password":true,"vac":true,"version":"7882260","steam_id":85568392924515187,"keywords":["cp","nocrits","nodmgspread","uncletopia"],"game_id":440,"stv_port":27036,"stv_name":"Uncletopia | Atlanta | 3 | Community | STV","players":null},{"server_id":401,"name":"Uncletopia | Atlanta | 4 | No Payload","name_short":"atl-4","host":"atl-1.us.uncletopia.com","port":27045,"enabled":true,"region":"us-east","cc":"us","latitude":33.753746,"longitude":-84.38633,"reserved":0,"last_update":"0001-01-01T00:00:00Z","name_a2s":"","protocol":0,"map":"","folder":"","game":"","app_id":0,"player_count":0,"max_players":0,"Bots":0,"server_type":"","server_os":"","password":false,"vac":false,"version":"","steam_id":0,"keywords":null,"game_id":0,"stv_port":0,"stv_name":"","players":null},{"server_id":2,"name":"Uncletopia | Chicago | 1 | All Maps","name_short":"chi-1","host":"chi-1.us.uncletopia.com","port":27015,"enabled":true,"region":"us-central","cc":"us","latitude":41.881832,"longitude":-87.62318,"reserved":0,"last_update":"0001-01-01T00:00:00Z","name_a2s":"Uncletopia | Chicago | 1 | All Maps","protocol":17,"map":"pl_frontier_final","folder":"tf","game":"Team Fortress","app_id":440,"player_count":6,"max_players":24,"Bots":0,"server_type":"Dedicated","server_os":"Linux","password":true,"vac":true,"version":"7882260","steam_id":85568392924469984,"keywords":["nocrits","nodmgspread","payload","uncletopia"],"game_id":440,"stv_port":27016,"stv_name":"Uncletopia | Chicago | 1 | All Maps | STV","players":[{"user_id":14,"name":"Zizen","steam_id":76561199011832069,"connected_time":518000000000,"state":"active","ping":98},{"user_id":17,"name":"Porktimus Rind","steam_id":76561198050582941,"connected_time":288000000000,"state":"active","ping":45},{"user_id":13,"name":"Frok","steam_id":76561199213363196,"connected_time":623000000000,"state":"active","ping":160},{"user_id":8,"name":"ZombieDog[N8]","steam_id":76561198056076918,"connected_time":694000000000,"state":"active","ping":73},{"user_id":9,"name":"Stauxie","steam_id":76561198255030077,"connected_time":688000000000,"state":"active","ping":75},{"user_id":16,"name":"senorpapel","steam_id":76561198040507073,"connected_time":449000000000,"state":"active","ping":58}]},{"server_id":106,"name":"Uncletopia | Chicago | 2 | All Maps","name_short":"chi-2","host":"chi-1.us.uncletopia.com","port":27025,"enabled":true,"region":"us-central","cc":"us","latitude":41.881832,"longitude":-87.62318,"reserved":0,"last_update":"0001-01-01T00:00:00Z","name_a2s":"Uncletopia | Chicago | 2 | All Maps","protocol":17,"map":"pl_frontier_final","folder":"tf","game":"Team Fortress","app_id":440,"player_count":0,"max_players":24,"Bots":0,"server_type":"Dedicated","server_os":"Linux","password":true,"vac":true,"version":"7882260","steam_id":85568392924469985,"keywords":["nocrits","nodmgspread","payload","uncletopia"],"game_id":440,"stv_port":27026,"stv_name":"Uncletopia | Chicago | 2 | All Maps | STV","players":null},{"server_id":402,"name":"Uncletopia | Chicago | 3 | All Maps","name_short":"chi-3","host":"chi-1.us.uncletopia.com","port":27035,"enabled":true,"region":"us-central","cc":"us","latitude":41.881832,"longitude":-87.62318,"reserved":0,"last_update":"0001-01-01T00:00:00Z","name_a2s":"Uncletopia | Chicago | 3 | All Maps","protocol":17,"map":"pl_snowycoast","folder":"tf","game":"Team Fortress","app_id":440,"player_count":0,"max_players":24,"Bots":0,"server_type":"Dedicated","server_os":"Linux","password":true,"vac":true,"version":"7882260","steam_id":85568392924515191,"keywords":["nocrits","nodmgspread","payload","uncletopia"],"game_id":440,"stv_port":27036,"stv_name":"Uncletopia | Chicago | 3 | All Maps | STV","players":null},{"server_id":403,"name":"Uncletopia | Chicago | 4 | All Maps","name_short":"chi-4","host":"chi-1.us.uncletopia.com","port":27045,"enabled":true,"region":"us-central","cc":"us","latitude":41.881832,"longitude":-87.62318,"reserved":0,"last_update":"0001-01-01T00:00:00Z","name_a2s":"Uncletopia | Chicago | 4 | All Maps","protocol":17,"map":"koth_cascade","folder":"tf","game":"Team Fortress","app_id":440,"player_count":0,"max_players":24,"Bots":0,"server_type":"Dedicated","server_os":"Linux","password":true,"vac":true,"version":"7882260","steam_id":85568392924515193,"keywords":["cp","nocrits","nodmgspread","uncletopia"],"game_id":440,"stv_port":27046,"stv_name":"Uncletopia | Chicago | 4 | All Maps | STV","players":null},{"server_id":36,"name":"Uncletopia | Chicago | 5 | All Maps","name_short":"chi-5","host":"chi-2.us.uncletopia.com","port":27015,"enabled":true,"region":"us-central","cc":"us","latitude":41.881832,"longitude":-87.62318,"reserved":0,"last_update":"0001-01-01T00:00:00Z","name_a2s":"Uncletopia | Chicago | 5 | All Maps","protocol":17,"map":"pl_badwater","folder":"tf","game":"Team Fortress","app_id":440,"player_count":0,"max_players":24,"Bots":0,"server_type":"Dedicated","server_os":"Linux","password":true,"vac":true,"version":"7882260","steam_id":85568392924866362,"keywords":["nocrits","nodmgspread","payload","uncletopia"],"game_id":440,"stv_port":27016,"stv_name":"Uncletopia | Chicago | 5 | All Maps | STV","players":null},{"server_id":37,"name":"Uncletopia | Chicago | 6 | All Maps","name_short":"chi-6","host":"chi-2.us.uncletopia.com","port":27025,"enabled":true,"region":"us-central","cc":"us","latitude":41.881832,"longitude":-87.62318,"reserved":0,"last_update":"0001-01-01T00:00:00Z","name_a2s":"Uncletopia | Chicago | 6 | All Maps","protocol":17,"map":"koth_cascade","folder":"tf","game":"Team Fortress","app_id":440,"player_count":0,"max_players":24,"Bots":0,"server_type":"Dedicated","server_os":"Linux","password":true,"vac":true,"version":"7882260","steam_id":85568392924866363,"keywords":["cp","nocrits","nodmgspread","uncletopia"],"game_id":440,"stv_port":27026,"stv_name":"Uncletopia | Chicago | 6 | All Maps | STV","players":null},{"server_id":38,"name":"Uncletopia | Chicago | 7 | Stopwatch Beta","name_short":"chi-7","host":"chi-2.us.uncletopia.com","port":27035,"enabled":true,"region":"us-central","cc":"us","latitude":41.881832,"longitude":-87.62318,"reserved":0,"last_update":"0001-01-01T00:00:00Z","name_a2s":"Uncletopia | Chicago | 7 | Stopwatch Beta","protocol":17,"map":"pl_borneo","folder":"tf","game":"Team Fortress","app_id":440,"player_count":0,"max_players":24,"Bots":0,"server_type":"Dedicated","server_os":"Linux","password":true,"vac":true,"version":"7882260","steam_id":85568392924866364,"keywords":["nocrits","nodmgspread","payload","uncletopia"],"game_id":440,"stv_port":27036,"stv_name":"Uncletopia | Chicago | 7 | Stopwatch Beta | STV","players":null},{"server_id":39,"name":"Uncletopia | Chicago | 8 | Community","name_short":"chi-8","host":"chi-2.us.uncletopia.com","port":27045,"enabled":true,"region":"us-central","cc":"us","latitude":41.881832,"longitude":-87.62318,"reserved":0,"last_update":"0001-01-01T00:00:00Z","name_a2s":"Uncletopia | Chicago | 8 | Community","protocol":17,"map":"cp_snakewater_final1","folder":"tf","game":"Team Fortress","app_id":440,"player_count":0,"max_players":24,"Bots":0,"server_type":"Dedicated","server_os":"Linux","password":true,"vac":true,"version":"7882260","steam_id":85568392924866365,"keywords":["cp","nocrits","nodmgspread","uncletopia"],"game_id":440,"stv_port":27046,"stv_name":"Uncletopia | Chicago | 8 | Community | STV","players":null},{"server_id":8,"name":"Uncletopia | Dallas | 1 | All Maps","name_short":"dal-1","host":"dal-1.us.uncletopia.com","port":27015,"enabled":true,"region":"us-central","cc":"us","latitude":32.779167,"longitude":-96.80889,"reserved":0,"last_update":"0001-01-01T00:00:00Z","name_a2s":"Uncletopia | Dallas | 1 | All Maps","protocol":17,"map":"pl_pier","folder":"tf","game":"Team Fortress","app_id":440,"player_count":19,"max_players":24,"Bots":0,"server_type":"Dedicated","server_os":"Linux","password":true,"vac":true,"version":"7882260","steam_id":85568392924469986,"keywords":["nocrits","nodmgspread","payload","uncletopia"],"game_id":440,"stv_port":27016,"stv_name":"Uncletopia | Dallas | 1 | All Maps | STV","players":[{"user_id":15,"name":"Ferran, Loathsome Hogsqueezer","steam_id":76561198004480302,"connected_time":612000000000,"state":"active","ping":95},{"user_id":5,"name":"15inchcamboy","steam_id":76561199136651289,"connected_time":692000000000,"state":"active","ping":75},{"user_id":19,"name":"RainboomCrash","steam_id":76561198065612273,"connected_time":571000000000,"state":"active","ping":94},{"user_id":23,"name":"Zeodexic","steam_id":76561198055636655,"connected_time":335000000000,"state":"active","ping":83},{"user_id":8,"name":"Cliffigriff","steam_id":76561198121924499,"connected_time":689000000000,"state":"active","ping":57},{"user_id":9,"name":"tacofever","steam_id":76561198010966507,"connected_time":682000000000,"state":"active","ping":73},{"user_id":10,"name":"T√ñZI","steam_id":76561198045268695,"connected_time":682000000000,"state":"active","ping":99},{"user_id":12,"name":"Bald Rice","steam_id":76561199019142767,"connected_time":678000000000,"state":"active","ping":62},{"user_id":13,"name":"ClutchSR","steam_id":76561199018366378,"connected_time":677000000000,"state":"active","ping":87},{"user_id":25,"name":"BIG HOG","steam_id":76561198079923652,"connected_time":160000000000,"state":"active","ping":55},{"user_id":20,"name":"Poppet","steam_id":76561198012301951,"connected_time":534000000000,"state":"active","ping":78},{"user_id":26,"name":"Albino Jellyfish","steam_id":76561198208561097,"connected_time":152000000000,"state":"active","ping":83},{"user_id":22,"name":"rice white","steam_id":76561198320732910,"connected_time":422000000000,"state":"active","ping":91},{"user_id":24,"name":"lentil","steam_id":76561198079359870,"connected_time":283000000000,"state":"active","ping":218},{"user_id":27,"name":"YourNansFlipFlops","steam_id":76561199363301288,"connected_time":140000000000,"state":"active","ping":195},{"user_id":28,"name":"Pastor John","steam_id":76561198216484412,"connected_time":124000000000,"state":"active","ping":84},{"user_id":29,"name":"Zelith","steam_id":76561198234980480,"connected_time":99000000000,"state":"active","ping":75},{"user_id":30,"name":"Flytfisk","steam_id":76561198005803012,"connected_time":56000000000,"state":"active","ping":179},{"user_id":31,"name":"Sneakinsed","steam_id":76561199102075970,"connected_time":8000000000,"state":"spawning","ping":93}]},{"server_id":108,"name":"Uncletopia | Dallas | 2 | All Maps","name_short":"dal-2","host":"dal-1.us.uncletopia.com","port":27025,"enabled":true,"region":"us-central","cc":"us","latitude":32.779167,"longitude":-96.80889,"reserved":0,"last_update":"0001-01-01T00:00:00Z","name_a2s":"Uncletopia | Dallas | 2 | All Maps","protocol":17,"map":"pl_barnblitz","folder":"tf","game":"Team Fortress","app_id":440,"player_count":0,"max_players":24,"Bots":0,"server_type":"Dedicated","server_os":"Linux","password":true,"vac":true,"version":"7882260","steam_id":85568392924469988,"keywords":["nocrits","nodmgspread","payload","uncletopia"],"game_id":440,"stv_port":27026,"stv_name":"Uncletopia | Dallas | 2 | All Maps | STV","players":null},{"server_id":5,"name":"Uncletopia | Frankfurt | 1 | All Maps","name_short":"frk-1","host":"frk-1.de.uncletopia.com","port":27015,"enabled":true,"region":"eu","cc":"de","latitude":50.110924,"longitude":8.682127,"reserved":0,"last_update":"0001-01-01T00:00:00Z","name_a2s":"Uncletopia | Frankfurt | 1 | All Maps","protocol":17,"map":"cp_dustbowl","folder":"tf","game":"Team Fortress","app_id":440,"player_count":23,"max_players":24,"Bots":0,"server_type":"Dedicated","server_os":"Linux","password":true,"vac":true,"version":"7882260","steam_id":85568392924469989,"keywords":["cp","nocrits","nodmgspread","uncletopia"],"game_id":440,"stv_port":27016,"stv_name":"Uncletopia | Frankfurt | 1 | All Maps | STV","players":[{"user_id":113,"name":"gagalak","steam_id":76561198089979108,"connected_time":172000000000,"state":"active","ping":90},{"user_id":110,"name":"Wenolainen","steam_id":76561198334592800,"connected_time":389000000000,"state":"active","ping":81},{"user_id":60,"name":"doopsuiker","steam_id":76561198025916703,"connected_time":4177000000000,"state":"active","ping":70},{"user_id":109,"name":"Murphy","steam_id":76561198271394131,"connected_time":397000000000,"state":"active","ping":54},{"user_id":68,"name":"kyuta","steam_id":76561198382281653,"connected_time":3727000000000,"state":"active","ping":75},{"user_id":111,"name":"chocolate pudding","steam_id":76561198214356923,"connected_time":365000000000,"state":"active","ping":52},{"user_id":112,"name":"chem‚≠ë","steam_id":76561198972045654,"connected_time":313000000000,"state":"active","ping":167},{"user_id":93,"name":"KnusprigeKloake","steam_id":76561198051422734,"connected_time":1796000000000,"state":"active","ping":39},{"user_id":114,"name":"NANI?!?!?!","steam_id":76561198172078559,"connected_time":119000000000,"state":"active","ping":88},{"user_id":108,"name":"1 greg fan","steam_id":76561199052146306,"connected_time":468000000000,"state":"active","ping":155},{"user_id":86,"name":"TheWerelizard","steam_id":76561198060638325,"connected_time":2450000000000,"state":"active","ping":45},{"user_id":104,"name":"Ravioli","steam_id":76561198831900441,"connected_time":525000000000,"state":"active","ping":89},{"user_id":42,"name":"hipster_doofus","steam_id":76561197970902697,"connected_time":5451000000000,"state":"active","ping":71},{"user_id":54,"name":"Mephistopheles","steam_id":76561199033390312,"connected_time":4571000000000,"state":"active","ping":112},{"user_id":115,"name":"LF_NEONwarrior234","steam_id":76561198214982895,"connected_time":44000000000,"state":"active","ping":84},{"user_id":103,"name":"KubachaCZ","steam_id":76561198209972968,"connected_time":555000000000,"state":"active","ping":60},{"user_id":106,"name":"Otets_Vladimir","steam_id":76561198000417918,"connected_time":523000000000,"state":"active","ping":71},{"user_id":96,"name":"Kumquat","steam_id":76561198200490386,"connected_time":1425000000000,"state":"active","ping":64},{"user_id":84,"name":"^_^","steam_id":76561198032359132,"connected_time":2468000000000,"state":"active","ping":61},{"user_id":55,"name":"mindas","steam_id":76561198056839438,"connected_time":4541000000000,"state":"active","ping":65},{"user_id":98,"name":"„ÉÜ„Ç§„É´„Çπ","steam_id":76561198022403271,"connected_time":1302000000000,"state":"active","ping":45},{"user_id":80,"name":"Dicartal","steam_id":76561198295793592,"connected_time":2716000000000,"state":"active","ping":135},{"user_id":85,"name":"Timpanojnoj","steam_id":76561197970334448,"connected_time":2465000000000,"state":"active","ping":75}]},{"server_id":110,"name":"Uncletopia | Frankfurt | 2 | All Maps","name_short":"frk-2","host":"frk-1.de.uncletopia.com","port":27025,"enabled":true,"region":"eu","cc":"de","latitude":50.110924,"longitude":8.682127,"reserved":0,"last_update":"0001-01-01T00:00:00Z","name_a2s":"Uncletopia | Frankfurt | 2 | All Maps","protocol":17,"map":"pl_thundermountain","folder":"tf","game":"Team Fortress","app_id":440,"player_count":24,"max_players":24,"Bots":0,"server_type":"Dedicated","server_os":"Linux","password":true,"vac":true,"version":"7882260","steam_id":85568392924469990,"keywords":["nocrits","nodmgspread","payload","uncletopia"],"game_id":440,"stv_port":27026,"stv_name":"Uncletopia | Frankfurt | 2 | All Maps | STV","players":[{"user_id":91,"name":"azzy","steam_id":76561198061293740,"connected_time":741000000000,"state":"active","ping":84},{"user_id":94,"name":"simon","steam_id":76561198880361394,"connected_time":681000000000,"state":"active","ping":52},{"user_id":99,"name":"Phiphler","steam_id":76561197994055715,"connected_time":293000000000,"state":"active","ping":61},{"user_id":64,"name":"romaingallo","steam_id":76561198268112907,"connected_time":2140000000000,"state":"active","ping":68},{"user_id":89,"name":"[T]aKer","steam_id":76561198001778013,"connected_time":800000000000,"state":"active","ping":50},{"user_id":98,"name":"Beni ü¶ßüçå","steam_id":76561198011340227,"connected_time":325000000000,"state":"active","ping":75},{"user_id":80,"name":"B.batt","steam_id":76561198998684199,"connected_time":1310000000000,"state":"active","ping":119},{"user_id":88,"name":"Sample Texan","steam_id":76561198186701543,"connected_time":897000000000,"state":"active","ping":73},{"user_id":69,"name":"El`Capitano Flex","steam_id":76561198061813730,"connected_time":1924000000000,"state":"active","ping":60},{"user_id":59,"name":"alice","steam_id":76561198269200388,"connected_time":2347000000000,"state":"active","ping":75},{"user_id":93,"name":"Cross Breeze","steam_id":76561198043420803,"connected_time":690000000000,"state":"active","ping":58},{"user_id":23,"name":"Bottle O' Scrumpy","steam_id":76561199244250562,"connected_time":4782000000000,"state":"active","ping":84},{"user_id":71,"name":"rock","steam_id":76561198093488870,"connected_time":1819000000000,"state":"active","ping":80},{"user_id":76,"name":"Spinyapickle","steam_id":76561198086653667,"connected_time":1528000000000,"state":"active","ping":90},{"user_id":60,"name":"Nicholas Angel","steam_id":76561198434652604,"connected_time":2347000000000,"state":"active","ping":102},{"user_id":61,"name":"L1RG0","steam_id":76561198329274068,"connected_time":2342000000000,"state":"active","ping":73},{"user_id":55,"name":"Fat Pigeon","steam_id":76561198817940142,"connected_time":2654000000000,"state":"active","ping":60},{"user_id":96,"name":"–ö–∞–í–æ–∫–∞–¥–∑–µüò¥","steam_id":76561198272589995,"connected_time":504000000000,"state":"active","ping":153},{"user_id":85,"name":"i eat babies","steam_id":76561198388750592,"connected_time":1196000000000,"state":"active","ping":59},{"user_id":87,"name":"Mitrev","steam_id":76561198157124880,"connected_time":1040000000000,"state":"active","ping":61},{"user_id":83,"name":"damn, that bussy can squirt","steam_id":76561198050214002,"connected_time":1243000000000,"state":"active","ping":63},{"user_id":95,"name":"Korean Game Designer","steam_id":76561198329996506,"connected_time":676000000000,"state":"active","ping":142},{"user_id":42,"name":"le big mac","steam_id":76561199026378253,"connected_time":4271000000000,"state":"active","ping":55},{"user_id":90,"name":"christoph","steam_id":76561198862617811,"connected_time":781000000000,"state":"active","ping":71}]},{"server_id":308,"name":"Uncletopia | Frankfurt | 3 | All Maps","name_short":"frk-3","host":"frk-1.de.uncletopia.com","port":27035,"enabled":true,"region":"eu","cc":"de","latitude":50.110924,"longitude":8.682127,"reserved":0,"last_update":"0001-01-01T00:00:00Z","name_a2s":"Uncletopia | Frankfurt | 3 | All Maps","protocol":17,"map":"koth_highpass","folder":"tf","game":"Team Fortress","app_id":440,"player_count":1,"max_players":24,"Bots":0,"server_type":"Dedicated","server_os":"Linux","password":true,"vac":true,"version":"7882260","steam_id":85568392924504274,"keywords":["cp","nocrits","nodmgspread","uncletopia"],"game_id":440,"stv_port":27036,"stv_name":"Uncletopia | Frankfurt | 3 | All Maps | STV","players":[{"user_id":6,"name":"Skelli","steam_id":76561198066933519,"connected_time":432000000000,"state":"active","ping":115}]},{"server_id":309,"name":"Uncletopia | Frankfurt | 4 | All Maps","name_short":"frk-4","host":"frk-1.de.uncletopia.com","port":27045,"enabled":true,"region":"eu","cc":"de","latitude":50.110924,"longitude":8.682127,"reserved":0,"last_update":"0001-01-01T00:00:00Z","name_a2s":"Uncletopia | Frankfurt | 4 | All Maps","protocol":17,"map":"cp_snakewater_final1","folder":"tf","game":"Team Fortress","app_id":440,"player_count":23,"max_players":24,"Bots":0,"server_type":"Dedicated","server_os":"Linux","password":true,"vac":true,"version":"7882260","steam_id":85568392924504275,"keywords":["cp","nocrits","nodmgspread","uncletopia"],"game_id":440,"stv_port":27046,"stv_name":"Uncletopia | Frankfurt | 4 | All Maps | STV","players":[{"user_id":176,"name":"Corpus Christi","steam_id":76561198417999443,"connected_time":2952000000000,"state":"active","ping":100},{"user_id":214,"name":"Turk Scout","steam_id":76561198975267711,"connected_time":58000000000,"state":"active","ping":114},{"user_id":207,"name":"Real Lad‚Ñ¢","steam_id":76561198053730933,"connected_time":924000000000,"state":"active","ping":69},{"user_id":199,"name":"El_Kommadante","steam_id":76561198079551685,"connected_time":1398000000000,"state":"active","ping":78},{"user_id":208,"name":"Marchioly","steam_id":76561198335079215,"connected_time":402000000000,"state":"active","ping":104},{"user_id":210,"name":"JustTRAsh","steam_id":76561198802668992,"connected_time":302000000000,"state":"active","ping":94},{"user_id":196,"name":"Wololo","steam_id":76561197972235375,"connected_time":1660000000000,"state":"active","ping":62},{"user_id":92,"name":"Rin-Nakaret","steam_id":76561197971051188,"connected_time":8834000000000,"state":"active","ping":72},{"user_id":190,"name":"Koli","steam_id":76561197992428783,"connected_time":2415000000000,"state":"active","ping":50},{"user_id":206,"name":"EtTuFruit","steam_id":76561199100798111,"connected_time":1023000000000,"state":"active","ping":64},{"user_id":192,"name":"Bread","steam_id":76561198145232617,"connected_time":2050000000000,"state":"active","ping":52},{"user_id":215,"name":"Santiago De Marinis","steam_id":76561198134307059,"connected_time":26000000000,"state":"active","ping":66},{"user_id":211,"name":"Glenn Quagmire","steam_id":76561199348527880,"connected_time":220000000000,"state":"active","ping":90},{"user_id":212,"name":"kranet ‚Ññ535","steam_id":76561198343910974,"connected_time":198000000000,"state":"active","ping":84},{"user_id":140,"name":"Mac Bean","steam_id":76561198133782205,"connected_time":5084000000000,"state":"active","ping":120},{"user_id":204,"name":"snovi","steam_id":76561198984436595,"connected_time":1305000000000,"state":"active","ping":68},{"user_id":191,"name":"skith","steam_id":76561198192190569,"connected_time":2182000000000,"state":"active","ping":70},{"user_id":165,"name":"mge_—Å–ø–∞–Ω—á–±–æ–±256","steam_id":76561198129314304,"connected_time":3731000000000,"state":"active","ping":123},{"user_id":177,"name":"Musicano","steam_id":76561198114541088,"connected_time":2937000000000,"state":"active","ping":90},{"user_id":188,"name":"engineer","steam_id":76561198298938176,"connected_time":2662000000000,"state":"active","ping":103},{"user_id":166,"name":"cult","steam_id":76561198188647690,"connected_time":3209000000000,"state":"active","ping":67},{"user_id":185,"name":"dorak","steam_id":76561198818037965,"connected_time":2811000000000,"state":"active","ping":105},{"user_id":198,"name":"Matteo Il Biondo","steam_id":76561198315389475,"connected_time":1557000000000,"state":"active","ping":87}]},{"server_id":310,"name":"Uncletopia | Frankfurt | 5 | All Maps","name_short":"frk-5","host":"frk-1.de.uncletopia.com","port":27055,"enabled":true,"region":"eu","cc":"de","latitude":50.110924,"longitude":8.682127,"reserved":0,"last_update":"0001-01-01T00:00:00Z","name_a2s":"Uncletopia | Frankfurt | 5 | All Maps","protocol":17,"map":"pl_barnblitz","folder":"tf","game":"Team Fortress","app_id":440,"player_count":24,"max_players":24,"Bots":0,"server_type":"Dedicated","server_os":"Linux","password":true,"vac":true,"version":"7882260","steam_id":85568392924504277,"keywords":["nocrits","nodmgspread","payload","uncletopia"],"game_id":440,"stv_port":27056,"stv_name":"Uncletopia | Frankfurt | 5 | All Maps | STV","players":[{"user_id":11,"name":"Jhesus","steam_id":76561198778605978,"connected_time":1600000000000,"state":"active","ping":111},{"user_id":10,"name":"WALTER WHITE","steam_id":76561199147666336,"connected_time":1642000000000,"state":"active","ping":64},{"user_id":47,"name":"Yanniki","steam_id":76561197986058110,"connected_time":509000000000,"state":"active","ping":68},{"user_id":13,"name":"Foreskin Gamer","steam_id":76561198283106341,"connected_time":1552000000000,"state":"active","ping":58},{"user_id":15,"name":"FanFish","steam_id":76561199389558024,"connected_time":1477000000000,"state":"active","ping":66},{"user_id":23,"name":"Adolf gayming","steam_id":76561198830058797,"connected_time":1240000000000,"state":"active","ping":76},{"user_id":29,"name":"L1NTHALO","steam_id":76561198171001938,"connected_time":1005000000000,"state":"active","ping":57},{"user_id":22,"name":"Prostate Tickler","steam_id":76561198375230907,"connected_time":1274000000000,"state":"active","ping":70},{"user_id":48,"name":"schorschili.bauer","steam_id":76561198060422037,"connected_time":359000000000,"state":"active","ping":57},{"user_id":50,"name":"glass of drink","steam_id":76561198881074696,"connected_time":166000000000,"state":"active","ping":70},{"user_id":31,"name":"WasserGurke","steam_id":76561198372482746,"connected_time":895000000000,"state":"active","ping":70},{"user_id":27,"name":"sunshine (he/him)","steam_id":76561198084597975,"connected_time":1136000000000,"state":"active","ping":60},{"user_id":33,"name":"Stroz","steam_id":76561198146444213,"connected_time":883000000000,"state":"active","ping":83},{"user_id":32,"name":"Kotlet schabowy","steam_id":76561198048983509,"connected_time":891000000000,"state":"active","ping":78},{"user_id":35,"name":"___U_w_U___","steam_id":76561198246939740,"connected_time":793000000000,"state":"active","ping":84},{"user_id":36,"name":"Munshy","steam_id":76561198042537812,"connected_time":789000000000,"state":"active","ping":71},{"user_id":37,"name":"I own the penis scooter","steam_id":76561198173218318,"connected_time":763000000000,"state":"active","ping":53},{"user_id":51,"name":"engineer drip","steam_id":76561198991032570,"connected_time":8000000000,"state":"spawning","ping":106},{"user_id":39,"name":"Well, off to hang myself","steam_id":76561198053374944,"connected_time":686000000000,"state":"active","ping":71},{"user_id":40,"name":"vedatbora35 blw.tf","steam_id":76561199242623968,"connected_time":680000000000,"state":"active","ping":98},{"user_id":45,"name":"Random","steam_id":76561199116602799,"connected_time":602000000000,"state":"active","ping":57},{"user_id":42,"name":"SlowKeKS","steam_id":76561199030279091,"connected_time":637000000000,"state":"active","ping":94},{"user_id":43,"name":"LEL≈êNI MINDENKIT A WESTENDBEN","steam_id":76561198315642032,"connected_time":620000000000,"state":"active","ping":79},{"user_id":46,"name":"axel, comp bot","steam_id":76561197992311317,"connected_time":537000000000,"state":"active","ping":80}]},{"server_id":311,"name":"Uncletopia | Frankfurt | 6 | All Maps","name_short":"frk-6","host":"frk-1.de.uncletopia.com","port":27065,"enabled":true,"region":"eu","cc":"de","latitude":50.110924,"longitude":8.682127,"reserved":0,"last_update":"0001-01-01T00:00:00Z","name_a2s":"Uncletopia | Frankfurt | 6 | All Maps","protocol":17,"map":"cp_snakewater_final1","folder":"tf","game":"Team Fortress","app_id":440,"player_count":0,"max_players":24,"Bots":0,"server_type":"Dedicated","server_os":"Linux","password":true,"vac":true,"version":"7882260","steam_id":85568392924504278,"keywords":["cp","nocrits","nodmgspread","uncletopia"],"game_id":440,"stv_port":27066,"stv_name":"Uncletopia | Frankfurt | 6 | All Maps | STV","players":null},{"server_id":23,"name":"Uncletopia | Frankfurt | 7 | Stopwatch Beta","name_short":"frk-7","host":"frk-1.de.uncletopia.com","port":27075,"enabled":true,"region":"eu","cc":"de","latitude":50.110924,"longitude":8.682127,"reserved":0,"last_update":"0001-01-01T00:00:00Z","name_a2s":"Uncletopia | Frankfurt | 7 | Stopwatch Beta","protocol":17,"map":"cp_dustbowl","folder":"tf","game":"Team Fortress","app_id":440,"player_count":0,"max_players":24,"Bots":0,"server_type":"Dedicated","server_os":"Linux","password":true,"vac":true,"version":"7882260","steam_id":85568392924742827,"keywords":["cp","nocrits","nodmgspread","uncletopia"],"game_id":440,"stv_port":27076,"stv_name":"Uncletopia | Frankfurt | 7 | Stopwatch Beta | STV","players":null},{"server_id":24,"name":"Uncletopia | Frankfurt | 8 | Community","name_short":"frk-8","host":"frk-1.de.uncletopia.com","port":27085,"enabled":true,"region":"eu","cc":"de","latitude":50.110924,"longitude":8.682127,"reserved":0,"last_update":"0001-01-01T00:00:00Z","name_a2s":"Uncletopia | Frankfurt | 8 | Community","protocol":17,"map":"koth_cascade","folder":"tf","game":"Team Fortress","app_id":440,"player_count":0,"max_players":24,"Bots":0,"server_type":"Dedicated","server_os":"Linux","password":true,"vac":true,"version":"7882260","steam_id":85568392924742828,"keywords":["cp","nocrits","nodmgspread","uncletopia"],"game_id":440,"stv_port":27086,"stv_name":"Uncletopia | Frankfurt | 8 | Community | STV","players":null},{"server_id":202,"name":"Uncletopia | Hong Kong | 1 | All Maps","name_short":"hgk-1","host":"hgk-1.hk.uncletopia.com","port":27015,"enabled":true,"region":"asia","cc":"hk","latitude":22.302711,"longitude":114.177216,"reserved":0,"last_update":"0001-01-01T00:00:00Z","name_a2s":"Uncletopia | Hong Kong | 1 | All Maps","protocol":17,"map":"pl_badwater","folder":"tf","game":"Team Fortress","app_id":440,"player_count":23,"max_players":24,"Bots":0,"server_type":"Dedicated","server_os":"Linux","password":true,"vac":true,"version":"7882260","steam_id":85568392924494504,"keywords":["nocrits","nodmgspread","payload","uncletopia"],"game_id":440,"stv_port":27016,"stv_name":"Uncletopia | Hong Kong | 1 | All Maps | STV","players":[{"user_id":210,"name":"corpse_cadaver","steam_id":76561199225360457,"connected_time":182000000000,"state":"active","ping":71},{"user_id":166,"name":"UltraFat","steam_id":76561198253918132,"connected_time":5201000000000,"state":"active","ping":90},{"user_id":208,"name":"Puddin","steam_id":76561198140052918,"connected_time":402000000000,"state":"active","ping":88},{"user_id":179,"name":"U SUX","steam_id":76561199171910074,"connected_time":3587000000000,"state":"active","ping":77},{"user_id":175,"name":"TomProPlayer","steam_id":76561199223292521,"connected_time":4300000000000,"state":"active","ping":73},{"user_id":206,"name":"ObscuroLucem","steam_id":76561198875037943,"connected_time":821000000000,"state":"active","ping":81},{"user_id":193,"name":"TheChainsaw","steam_id":76561198312001455,"connected_time":2399000000000,"state":"active","ping":298},{"user_id":211,"name":"Xnerz","steam_id":76561199443552014,"connected_time":141000000000,"state":"active","ping":90},{"user_id":212,"name":"sierra","steam_id":76561197969873415,"connected_time":140000000000,"state":"active","ping":95},{"user_id":187,"name":"lalo","steam_id":76561198074020067,"connected_time":2690000000000,"state":"active","ping":90},{"user_id":205,"name":"Maria ghostcap.com","steam_id":76561198237613398,"connected_time":828000000000,"state":"active","ping":165},{"user_id":214,"name":"Mug","steam_id":76561198055667131,"connected_time":118000000000,"state":"active","ping":183},{"user_id":185,"name":"PocoLoco","steam_id":76561198834044246,"connected_time":3275000000000,"state":"active","ping":101},{"user_id":143,"name":"NootNoot","steam_id":76561199122109977,"connected_time":8567000000000,"state":"active","ping":117},{"user_id":82,"name":"Â∏ï","steam_id":76561198439343999,"connected_time":15787000000000,"state":"active","ping":100},{"user_id":203,"name":"MeetTeMedic99","steam_id":76561199208706868,"connected_time":1460000000000,"state":"active","ping":78},{"user_id":158,"name":"Milf (The fan O'Milk)","steam_id":76561198213031155,"connected_time":6216000000000,"state":"active","ping":94},{"user_id":207,"name":"Buttman","steam_id":76561198044693388,"connected_time":473000000000,"state":"active","ping":53},{"user_id":198,"name":"Ghuzik","steam_id":76561199107596818,"connected_time":2109000000000,"state":"active","ping":120},{"user_id":215,"name":"The Black Ninja from Ninjago","steam_id":76561199019247258,"connected_time":82000000000,"state":"active","ping":122},{"user_id":216,"name":"The Green Ninja from NInjago","steam_id":76561199090854395,"connected_time":67000000000,"state":"active","ping":79},{"user_id":192,"name":"Ïø†ÌÇ§","steam_id":76561197997220367,"connected_time":2453000000000,"state":"active","ping":56},{"user_id":196,"name":"E","steam_id":76561199173781370,"connected_time":2209000000000,"state":"active","ping":128}]},{"server_id":1,"name":"Uncletopia | Los Angeles | 1 | All Maps","name_short":"lax-1","host":"lax-1.us.uncletopia.com","port":27015,"enabled":true,"region":"us-west","cc":"us","latitude":33.94279,"longitude":-118.41004,"reserved":0,"last_update":"0001-01-01T00:00:00Z","name_a2s":"Uncletopia | Los Angeles | 1 | All Maps","protocol":17,"map":"cp_sunshine","folder":"tf","game":"Team Fortress","app_id":440,"player_count":0,"max_players":24,"Bots":0,"server_type":"Dedicated","server_os":"Linux","password":true,"vac":true,"version":"7882260","steam_id":85568392924469991,"keywords":["cp","nocrits","nodmgspread","uncletopia"],"game_id":440,"stv_port":27016,"stv_name":"Uncletopia | Los Angeles | 1 | All Maps | STV","players":null},{"server_id":112,"name":"Uncletopia | Los Angeles | 2 | All Maps","name_short":"lax-2","host":"lax-1.us.uncletopia.com","port":27025,"enabled":true,"region":"us-west","cc":"us","latitude":33.94279,"longitude":-118.41004,"reserved":0,"last_update":"0001-01-01T00:00:00Z","name_a2s":"Uncletopia | Los Angeles | 2 | All Maps","protocol":17,"map":"plr_hightower","folder":"tf","game":"Team Fortress","app_id":440,"player_count":0,"max_players":24,"Bots":0,"server_type":"Dedicated","server_os":"Linux","password":true,"vac":true,"version":"7882260","steam_id":85568392924469992,"keywords":["nocrits","nodmgspread","payload","uncletopia"],"game_id":440,"stv_port":27026,"stv_name":"Uncletopia | Los Angeles | 2 | All Maps | STV","players":null},{"server_id":324,"name":"Uncletopia | Los Angeles | 3 | All Maps","name_short":"lax-3","host":"lax-1.us.uncletopia.com","port":27035,"enabled":true,"region":"us-west","cc":"us","latitude":33.94279,"longitude":-118.41004,"reserved":0,"last_update":"0001-01-01T00:00:00Z","name_a2s":"Uncletopia | Los Angeles | 3 | All Maps","protocol":17,"map":"cp_process_final","folder":"tf","game":"Team Fortress","app_id":440,"player_count":0,"max_players":24,"Bots":0,"server_type":"Dedicated","server_os":"Linux","password":true,"vac":true,"version":"7882260","steam_id":85568392924510198,"keywords":["cp","nocrits","nodmgspread","uncletopia"],"game_id":440,"stv_port":27036,"stv_name":"Uncletopia | Los Angeles | 3 | All Maps | STV","players":null},{"server_id":25,"name":"Uncletopia | Los Angeles | 4 | Stopwatch Beta","name_short":"lax-4","host":"lax-1.us.uncletopia.com","port":27045,"enabled":true,"region":"us-west","cc":"us","latitude":33.94279,"longitude":-118.41004,"reserved":0,"last_update":"0001-01-01T00:00:00Z","name_a2s":"Uncletopia | Los Angeles | 4 | Stopwatch Beta","protocol":17,"map":"koth_lakeside_final","folder":"tf","game":"Team Fortress","app_id":440,"player_count":0,"max_players":24,"Bots":0,"server_type":"Dedicated","server_os":"Linux","password":true,"vac":true,"version":"7882260","steam_id":85568392924510199,"keywords":["cp","nocrits","nodmgspread","uncletopia"],"game_id":440,"stv_port":27046,"stv_name":"Uncletopia | Los Angeles | 4 | Stopwatch Beta | STV","players":null},{"server_id":11,"name":"Uncletopia | London | 1 | All Maps","name_short":"lon-1","host":"lon-1.uk.uncletopia.com","port":27015,"enabled":true,"region":"eu","cc":"gb","latitude":51.509865,"longitude":-0.118092,"reserved":0,"last_update":"0001-01-01T00:00:00Z","name_a2s":"Uncletopia | London | 1 | All Maps","protocol":17,"map":"pl_upward","folder":"tf","game":"Team Fortress","app_id":440,"player_count":8,"max_players":24,"Bots":0,"server_type":"Dedicated","server_os":"Linux","password":true,"vac":true,"version":"7882260","steam_id":85568392924367362,"keywords":["nocrits","nodmgspread","payload","uncletopia"],"game_id":440,"stv_port":27016,"stv_name":"Uncletopia | London | 1 | All Maps | STV","players":[{"user_id":14,"name":"R0mulone","steam_id":76561198352513792,"connected_time":896000000000,"state":"active","ping":61},{"user_id":16,"name":"Trapezoid","steam_id":76561198059369295,"connected_time":572000000000,"state":"active","ping":62},{"user_id":17,"name":"Punchy","steam_id":76561197961020896,"connected_time":515000000000,"state":"active","ping":45},{"user_id":19,"name":"NSaaby","steam_id":76561198109270277,"connected_time":252000000000,"state":"active","ping":85},{"user_id":20,"name":"Sherlockno","steam_id":76561198361872092,"connected_time":187000000000,"state":"active","ping":87},{"user_id":21,"name":"BumiiBum","steam_id":76561198210682456,"connected_time":98000000000,"state":"active","ping":50},{"user_id":22,"name":"Kapitan Polska","steam_id":76561197968069413,"connected_time":68000000000,"state":"active","ping":76},{"user_id":23,"name":"no.","steam_id":76561198988350454,"connected_time":58000000000,"state":"spawning","ping":58}]},{"server_id":114,"name":"Uncletopia | London | 2 | All Maps","name_short":"lon-2","host":"lon-1.uk.uncletopia.com","port":27025,"enabled":true,"region":"eu","cc":"gb","latitude":51.509865,"longitude":-0.118092,"reserved":0,"last_update":"0001-01-01T00:00:00Z","name_a2s":"Uncletopia | London | 2 | All Maps","protocol":17,"map":"cp_mountainlab","folder":"tf","game":"Team Fortress","app_id":440,"player_count":0,"max_players":24,"Bots":0,"server_type":"Dedicated","server_os":"Linux","password":true,"vac":true,"version":"7882260","steam_id":85568392924470941,"keywords":["cp","nocrits","nodmgspread","uncletopia"],"game_id":440,"stv_port":27026,"stv_name":"Uncletopia | London | 2 | All Maps | STV","players":null},{"server_id":320,"name":"Uncletopia | London | 3 | All Maps","name_short":"lon-3","host":"lon-1.uk.uncletopia.com","port":27035,"enabled":true,"region":"eu","cc":"gb","latitude":51.509865,"longitude":-0.118092,"reserved":0,"last_update":"0001-01-01T00:00:00Z","name_a2s":"Uncletopia | London | 3 | All Maps","protocol":17,"map":"pl_swiftwater_final1","folder":"tf","game":"Team Fortress","app_id":440,"player_count":23,"max_players":24,"Bots":0,"server_type":"Dedicated","server_os":"Linux","password":true,"vac":true,"version":"7882260","steam_id":85568392924510192,"keywords":["nocrits","nodmgspread","payload","uncletopia"],"game_id":440,"stv_port":27036,"stv_name":"Uncletopia | London | 3 | All Maps | STV","players":[{"user_id":297,"name":"WaDIP","steam_id":76561198010270494,"connected_time":1261000000000,"state":"active","ping":83},{"user_id":209,"name":"Paul B√§umer","steam_id":76561198308302932,"connected_time":6513000000000,"state":"active","ping":99},{"user_id":313,"name":"Luxotrics","steam_id":76561198053455161,"connected_time":156000000000,"state":"active","ping":91},{"user_id":220,"name":"Jyghc","steam_id":76561198405980575,"connected_time":5814000000000,"state":"active","ping":83},{"user_id":289,"name":"Carrot","steam_id":76561198119340863,"connected_time":1323000000000,"state":"active","ping":40},{"user_id":274,"name":"Fluffy","steam_id":76561198084447725,"connected_time":2380000000000,"state":"active","ping":44},{"user_id":307,"name":"unconditional love","steam_id":76561199026097466,"connected_time":557000000000,"state":"active","ping":70},{"user_id":304,"name":"Kitten","steam_id":76561198019027657,"connected_time":885000000000,"state":"active","ping":83},{"user_id":317,"name":"Fragirl #freehaze","steam_id":76561198323411853,"connected_time":14000000000,"state":"spawning","ping":74},{"user_id":264,"name":"Carrot (woman)","steam_id":76561198139404261,"connected_time":2889000000000,"state":"active","ping":45},{"user_id":303,"name":"AWildTamim","steam_id":76561198048060652,"connected_time":1040000000000,"state":"active","ping":39},{"user_id":305,"name":"gub","steam_id":76561198171178427,"connected_time":832000000000,"state":"active","ping":85},{"user_id":318,"name":"fortnite balls","steam_id":76561199181848818,"connected_time":10000000000,"state":"spawning","ping":117},{"user_id":237,"name":"szmen","steam_id":76561198072569764,"connected_time":4401000000000,"state":"active","ping":75},{"user_id":312,"name":"BilalRB","steam_id":76561198352262967,"connected_time":225000000000,"state":"active","ping":154},{"user_id":294,"name":"Yuval","steam_id":76561198241802390,"connected_time":1301000000000,"state":"active","ping":115},{"user_id":217,"name":"Tevinell81","steam_id":76561198340658904,"connected_time":6234000000000,"state":"active","ping":102},{"user_id":284,"name":"Bobbegaard","steam_id":76561199425101629,"connected_time":1953000000000,"state":"active","ping":77},{"user_id":286,"name":"Sir Cauterize","steam_id":76561198047079422,"connected_time":1798000000000,"state":"active","ping":49},{"user_id":306,"name":"0lloe","steam_id":76561198070861443,"connected_time":770000000000,"state":"active","ping":52},{"user_id":309,"name":"Gregorio","steam_id":76561198179463343,"connected_time":467000000000,"state":"active","ping":45},{"user_id":315,"name":"znunney","steam_id":76561199438501613,"connected_time":141000000000,"state":"active","ping":55},{"user_id":291,"name":"ackermann","steam_id":76561199129801006,"connected_time":1313000000000,"state":"active","ping":60}]},{"server_id":321,"name":"Uncletopia | London | 4 | All Maps","name_short":"lon-4","host":"lon-1.uk.uncletopia.com","port":27045,"enabled":true,"region":"eu","cc":"gb","latitude":51.509865,"longitude":-0.118092,"reserved":0,"last_update":"0001-01-01T00:00:00Z","name_a2s":"Uncletopia | London | 4 | All Maps","protocol":17,"map":"pl_upward","folder":"tf","game":"Team Fortress","app_id":440,"player_count":0,"max_players":24,"Bots":0,"server_type":"Dedicated","server_os":"Linux","password":true,"vac":true,"version":"7882260","steam_id":85568392924510193,"keywords":["nocrits","nodmgspread","payload","uncletopia"],"game_id":440,"stv_port":27046,"stv_name":"Uncletopia | London | 4 | All Maps | STV","players":null},{"server_id":21,"name":"Uncletopia | London | 5 | All Maps","name_short":"lon-5","host":"lon-1.uk.uncletopia.com","port":27055,"enabled":true,"region":"eu","cc":"gb","latitude":51.509865,"longitude":-0.118092,"reserved":0,"last_update":"0001-01-01T00:00:00Z","name_a2s":"Uncletopia | London | 5 | All Maps","protocol":17,"map":"pl_frontier_final","folder":"tf","game":"Team Fortress","app_id":440,"player_count":0,"max_players":24,"Bots":0,"server_type":"Dedicated","server_os":"Linux","password":true,"vac":true,"version":"7882260","steam_id":85568392924742829,"keywords":["nocrits","nodmgspread","payload","uncletopia"],"game_id":440,"stv_port":27056,"stv_name":"Uncletopia | London | 5 | All Maps | STV","players":null},{"server_id":22,"name":"Uncletopia | London | 6 | All Maps","name_short":"lon-6","host":"lon-1.uk.uncletopia.com","port":27065,"enabled":true,"region":"eu","cc":"gb","latitude":51.509865,"longitude":-0.118092,"reserved":0,"last_update":"0001-01-01T00:00:00Z","name_a2s":"Uncletopia | London | 6 | All Maps","protocol":17,"map":"cp_altitude","folder":"tf","game":"Team Fortress","app_id":440,"player_count":0,"max_players":24,"Bots":0,"server_type":"Dedicated","server_os":"Linux","password":true,"vac":true,"version":"7882260","steam_id":85568392924742830,"keywords":["cp","nocrits","nodmgspread","uncletopia"],"game_id":440,"stv_port":27066,"stv_name":"Uncletopia | London | 6 | All Maps | STV","players":null},{"server_id":40,"name":"Uncletopia | London | 7 | No Payload","name_short":"lon-7","host":"lon-1.uk.uncletopia.com","port":27075,"enabled":true,"region":"eu","cc":"gb","latitude":51.509865,"longitude":-0.118092,"reserved":0,"last_update":"0001-01-01T00:00:00Z","name_a2s":"Uncletopia | London | 7 | No Payload","protocol":17,"map":"pl_pier","folder":"tf","game":"Team Fortress","app_id":440,"player_count":0,"max_players":24,"Bots":0,"server_type":"Dedicated","server_os":"Linux","password":true,"vac":true,"version":"7882260","steam_id":85568392924964314,"keywords":["nocrits","nodmgspread","payload","uncletopia"],"game_id":440,"stv_port":27076,"stv_name":"Uncletopia | London | 7 | No Payload | STV","players":null},{"server_id":41,"name":"Uncletopia | London | 8 | Community","name_short":"lon-8","host":"lon-1.uk.uncletopia.com","port":27085,"enabled":true,"region":"eu","cc":"gb","latitude":51.509865,"longitude":-0.118092,"reserved":0,"last_update":"0001-01-01T00:00:00Z","name_a2s":"Uncletopia | London | 8 | Community","protocol":17,"map":"pl_swiftwater_final1","folder":"tf","game":"Team Fortress","app_id":440,"player_count":7,"max_players":24,"Bots":0,"server_type":"Dedicated","server_os":"Linux","password":true,"vac":true,"version":"7882260","steam_id":85568392924964315,"keywords":["nocrits","nodmgspread","payload","uncletopia"],"game_id":440,"stv_port":27086,"stv_name":"Uncletopia | London | 8 | Community | STV","players":[{"user_id":6,"name":"z4k","steam_id":76561198849236583,"connected_time":2266000000000,"state":"active","ping":54},{"user_id":7,"name":"Rare bulldog owner","steam_id":76561199407941086,"connected_time":1955000000000,"state":"active","ping":70},{"user_id":14,"name":"Purpurea","steam_id":76561198075376419,"connected_time":954000000000,"state":"active","ping":62},{"user_id":17,"name":"LT.Steeamer","steam_id":76561198271938142,"connected_time":798000000000,"state":"active","ping":63},{"user_id":15,"name":"ultra lox","steam_id":76561199427318825,"connected_time":921000000000,"state":"active","ping":161},{"user_id":11,"name":"Mirandaws","steam_id":76561198930890710,"connected_time":1300000000000,"state":"active","ping":72},{"user_id":20,"name":"BeLL","steam_id":76561198151932192,"connected_time":353000000000,"state":"active","ping":72}]},{"server_id":300,"name":"Uncletopia | Montr√©al | 1 | All Maps","name_short":"mtl-1","host":"mtl-1.ca.uncletopia.com","port":27015,"enabled":true,"region":"us-east","cc":"ca","latitude":45.50889,"longitude":-73.56167,"reserved":0,"last_update":"0001-01-01T00:00:00Z","name_a2s":"Uncletopia | Montr√©al | 1 | All Maps","protocol":17,"map":"pl_snowycoast","folder":"tf","game":"Team Fortress","app_id":440,"player_count":0,"max_players":24,"Bots":0,"server_type":"Dedicated","server_os":"Linux","password":true,"vac":true,"version":"7882260","steam_id":85568392924500087,"keywords":["nocrits","nodmgspread","payload","uncletopia"],"game_id":440,"stv_port":27016,"stv_name":"Uncletopia | Montr√©al | 1 | All Maps | STV","players":null},{"server_id":301,"name":"Uncletopia | Montr√©al | 2 | All Maps","name_short":"mtl-2","host":"mtl-1.ca.uncletopia.com","port":27025,"enabled":true,"region":"us-east","cc":"ca","latitude":45.50889,"longitude":-73.56167,"reserved":0,"last_update":"0001-01-01T00:00:00Z","name_a2s":"Uncletopia | Montr√©al | 2 | All Maps","protocol":17,"map":"cp_sunshine","folder":"tf","game":"Team Fortress","app_id":440,"player_count":0,"max_players":24,"Bots":0,"server_type":"Dedicated","server_os":"Linux","password":true,"vac":true,"version":"7882260","steam_id":85568392924500088,"keywords":["cp","nocrits","nodmgspread","uncletopia"],"game_id":440,"stv_port":27026,"stv_name":"Uncletopia | Montr√©al | 2 | All Maps | STV","players":null},{"server_id":302,"name":"Uncletopia | Montr√©al | 3 | All Maps","name_short":"mtl-3","host":"mtl-1.ca.uncletopia.com","port":27035,"enabled":true,"region":"us-east","cc":"ca","latitude":45.50889,"longitude":-73.56167,"reserved":0,"last_update":"0001-01-01T00:00:00Z","name_a2s":"Uncletopia | Montr√©al | 3 | All Maps","protocol":17,"map":"pl_borneo","folder":"tf","game":"Team Fortress","app_id":440,"player_count":0,"max_players":24,"Bots":0,"server_type":"Dedicated","server_os":"Linux","password":true,"vac":true,"version":"7882260","steam_id":85568392924500089,"keywords":["nocrits","nodmgspread","payload","uncletopia"],"game_id":440,"stv_port":27036,"stv_name":"Uncletopia | Montr√©al | 3 | All Maps | STV","players":null},{"server_id":303,"name":"Uncletopia | Montr√©al | 4 | No Payload","name_short":"mtl-4","host":"mtl-1.ca.uncletopia.com","port":27045,"enabled":true,"region":"us-east","cc":"ca","latitude":45.50889,"longitude":-73.56167,"reserved":0,"last_update":"0001-01-01T00:00:00Z","name_a2s":"Uncletopia | Montr√©al | 4 | No Payload","protocol":17,"map":"cp_altitude","folder":"tf","game":"Team Fortress","app_id":440,"player_count":0,"max_players":24,"Bots":0,"server_type":"Dedicated","server_os":"Linux","password":true,"vac":true,"version":"7882260","steam_id":85568392924500090,"keywords":["cp","nocrits","nodmgspread","uncletopia"],"game_id":440,"stv_port":27046,"stv_name":"Uncletopia | Montr√©al | 4 | No Payload | STV","players":null},{"server_id":13,"name":"Uncletopia | New York City | 1 | All Maps","name_short":"nyc-1","host":"nyc-1.us.uncletopia.com","port":27015,"enabled":true,"region":"us-east","cc":"us","latitude":40.73061,"longitude":-73.93524,"reserved":0,"last_update":"0001-01-01T00:00:00Z","name_a2s":"Uncletopia | New York City | 1 | All Maps","protocol":17,"map":"pl_borneo","folder":"tf","game":"Team Fortress","app_id":440,"player_count":0,"max_players":24,"Bots":0,"server_type":"Dedicated","server_os":"Linux","password":true,"vac":true,"version":"7882260","steam_id":85568392924469993,"keywords":["nocrits","nodmgspread","payload","uncletopia"],"game_id":440,"stv_port":27016,"stv_name":"Uncletopia | New York City | 1 | All Maps | STV","players":null},{"server_id":14,"name":"Uncletopia | New York City | 2 | All Maps","name_short":"nyc-2","host":"nyc-1.us.uncletopia.com","port":27025,"enabled":true,"region":"us-east","cc":"us","latitude":40.73061,"longitude":-73.93524,"reserved":0,"last_update":"0001-01-01T00:00:00Z","name_a2s":"Uncletopia | New York City | 2 | All Maps","protocol":17,"map":"cp_dustbowl","folder":"tf","game":"Team Fortress","app_id":440,"player_count":11,"max_players":24,"Bots":0,"server_type":"Dedicated","server_os":"Linux","password":true,"vac":true,"version":"7882260","steam_id":85568392924469994,"keywords":["cp","nocrits","nodmgspread","uncletopia"],"game_id":440,"stv_port":27026,"stv_name":"Uncletopia | New York City | 2 | All Maps | STV","players":[{"user_id":24,"name":"DIErector of death","steam_id":76561199217741639,"connected_time":272000000000,"state":"active","ping":181},{"user_id":25,"name":"Brown_Dream","steam_id":76561198975766145,"connected_time":229000000000,"state":"active","ping":74},{"user_id":9,"name":"T-90 A WITH BOOBS #SaveTF2","steam_id":76561199070327406,"connected_time":858000000000,"state":"active","ping":171},{"user_id":8,"name":"bread","steam_id":76561199207479862,"connected_time":1397000000000,"state":"active","ping":94},{"user_id":23,"name":"Uckfrog","steam_id":76561198987232417,"connected_time":341000000000,"state":"active","ping":169},{"user_id":12,"name":"Khaiden","steam_id":76561198104454754,"connected_time":683000000000,"state":"active","ping":150},{"user_id":13,"name":"Teddi","steam_id":76561198000764012,"connected_time":658000000000,"state":"active","ping":75},{"user_id":14,"name":"GoldtoothFour","steam_id":76561198055529332,"connected_time":650000000000,"state":"active","ping":68},{"user_id":16,"name":"THEY LET YOU PUT ANYTHING HERE","steam_id":76561198056214875,"connected_time":624000000000,"state":"active","ping":72},{"user_id":17,"name":"Argo","steam_id":76561198353725622,"connected_time":607000000000,"state":"active","ping":72},{"user_id":21,"name":"mebekainoa","steam_id":76561199028122569,"connected_time":471000000000,"state":"active","ping":68}]},{"server_id":15,"name":"Uncletopia | New York City | 3 | Stopwatch Beta","name_short":"nyc-3","host":"nyc-1.us.uncletopia.com","port":27035,"enabled":true,"region":"us-east","cc":"us","latitude":40.73061,"longitude":-73.93524,"reserved":0,"last_update":"0001-01-01T00:00:00Z","name_a2s":"Uncletopia | New York City | 3 | Stopwatch Beta","protocol":17,"map":"koth_lakeside_final","folder":"tf","game":"Team Fortress","app_id":440,"player_count":0,"max_players":24,"Bots":0,"server_type":"Dedicated","server_os":"Linux","password":true,"vac":true,"version":"7882260","steam_id":85568392924742820,"keywords":["cp","nocrits","nodmgspread","uncletopia"],"game_id":440,"stv_port":27036,"stv_name":"Uncletopia | New York City | 3 | Stopwatch Beta | STV","players":null},{"server_id":16,"name":"Uncletopia | New York City | 4 | Community","name_short":"nyc-4","host":"nyc-1.us.uncletopia.com","port":27045,"enabled":true,"region":"us-east","cc":"us","latitude":40.73061,"longitude":-73.93524,"reserved":0,"last_update":"0001-01-01T00:00:00Z","name_a2s":"Uncletopia | New York City | 4 | Community","protocol":17,"map":"pl_badwater","folder":"tf","game":"Team Fortress","app_id":440,"player_count":0,"max_players":24,"Bots":0,"server_type":"Dedicated","server_os":"Linux","password":true,"vac":true,"version":"7882260","steam_id":85568392924742821,"keywords":["nocrits","nodmgspread","payload","uncletopia"],"game_id":440,"stv_port":27046,"stv_name":"Uncletopia | New York City | 4 | Community | STV","players":null},{"server_id":142,"name":"Uncletopia | S√£o Paulo | 1 | All Maps","name_short":"sao-1","host":"sao-1.br.uncletopia.com","port":27015,"enabled":true,"region":"sa","cc":"br","latitude":-23.533773,"longitude":-46.62529,"reserved":0,"last_update":"0001-01-01T00:00:00Z","name_a2s":"Uncletopia | S√£o Paulo | 1 | All Maps","protocol":17,"map":"cp_process_final","folder":"tf","game":"Team Fortress","app_id":440,"player_count":0,"max_players":24,"Bots":0,"server_type":"Dedicated","server_os":"Linux","password":true,"vac":true,"version":"7882260","steam_id":85568392924469996,"keywords":["cp","nocrits","nodmgspread","uncletopia"],"game_id":440,"stv_port":27016,"stv_name":"Uncletopia | S√£o Paulo | 1 | All Maps | STV","players":null},{"server_id":143,"name":"Uncletopia | S√£o Paulo | 2 | All Maps","name_short":"sao-2","host":"sao-2.br.uncletopia.com","port":27015,"enabled":true,"region":"sa","cc":"br","latitude":-23.533773,"longitude":-46.62529,"reserved":0,"last_update":"0001-01-01T00:00:00Z","name_a2s":"Uncletopia | S√£o Paulo | 2 | All Maps","protocol":17,"map":"pl_snowycoast","folder":"tf","game":"Team Fortress","app_id":440,"player_count":0,"max_players":24,"Bots":0,"server_type":"Dedicated","server_os":"Linux","password":true,"vac":true,"version":"7882260","steam_id":85568392924485349,"keywords":["nocrits","nodmgspread","payload","uncletopia"],"game_id":440,"stv_port":27016,"stv_name":"Uncletopia | S√£o Paulo | 2 | All Maps | STV","players":null},{"server_id":7,"name":"Uncletopia | Seattle | 1 | All Maps","name_short":"sea-1","host":"sea-1.us.uncletopia.com","port":27015,"enabled":true,"region":"us-west","cc":"us","latitude":47.608013,"longitude":-122.33517,"reserved":0,"last_update":"0001-01-01T00:00:00Z","name_a2s":"Uncletopia | Seattle | 1 | All Maps","protocol":17,"map":"pl_badwater","folder":"tf","game":"Team Fortress","app_id":440,"player_count":0,"max_players":24,"Bots":0,"server_type":"Dedicated","server_os":"Linux","password":true,"vac":true,"version":"7882260","steam_id":85568392924469997,"keywords":["nocrits","nodmgspread","payload","uncletopia"],"game_id":440,"stv_port":27016,"stv_name":"Uncletopia | Seattle | 1 | All Maps | STV","players":null},{"server_id":119,"name":"Uncletopia | Seattle | 2 | All Maps","name_short":"sea-2","host":"sea-1.us.uncletopia.com","port":27025,"enabled":true,"region":"us-west","cc":"us","latitude":47.608013,"longitude":-122.33517,"reserved":0,"last_update":"0001-01-01T00:00:00Z","name_a2s":"Uncletopia | Seattle | 2 | All Maps","protocol":17,"map":"pl_frontier_final","folder":"tf","game":"Team Fortress","app_id":440,"player_count":24,"max_players":24,"Bots":0,"server_type":"Dedicated","server_os":"Linux","password":true,"vac":true,"version":"7882260","steam_id":85568392924469998,"keywords":["nocrits","nodmgspread","payload","uncletopia"],"game_id":440,"stv_port":27026,"stv_name":"Uncletopia | Seattle | 2 | All Maps | STV","players":[{"user_id":601,"name":"‚ô° ironterrortrain ‚ô°","steam_id":76561198046460418,"connected_time":13007000000000,"state":"active","ping":73},{"user_id":771,"name":"dubious little creature","steam_id":76561198113251746,"connected_time":1685000000000,"state":"active","ping":60},{"user_id":762,"name":"Where The F**K I Am?","steam_id":76561197986530028,"connected_time":2068000000000,"state":"active","ping":102},{"user_id":770,"name":"HellaCopter","steam_id":76561198062313698,"connected_time":1704000000000,"state":"active","ping":52},{"user_id":783,"name":"Sou1Eater7","steam_id":76561198011330131,"connected_time":957000000000,"state":"active","ping":118},{"user_id":739,"name":"iggybones (girl with balls)","steam_id":76561198101610291,"connected_time":3280000000000,"state":"active","ping":76},{"user_id":751,"name":"Rabblerouser","steam_id":76561198127930963,"connected_time":2670000000000,"state":"active","ping":58},{"user_id":756,"name":"Mr Sir Logan","steam_id":76561198088803891,"connected_time":2365000000000,"state":"active","ping":91},{"user_id":784,"name":"Tyler\u0026Fingers","steam_id":76561198085154485,"connected_time":756000000000,"state":"active","ping":135},{"user_id":745,"name":"Jacobzeba01","steam_id":76561198131808718,"connected_time":3004000000000,"state":"active","ping":77},{"user_id":789,"name":"TrustworthyStranger","steam_id":76561198154105678,"connected_time":326000000000,"state":"active","ping":73},{"user_id":693,"name":"SQbuilder","steam_id":76561198076473375,"connected_time":6535000000000,"state":"active","ping":61},{"user_id":773,"name":"oske","steam_id":76561198131526809,"connected_time":1619000000000,"state":"active","ping":74},{"user_id":757,"name":"KonJac","steam_id":76561198027812652,"connected_time":2349000000000,"state":"active","ping":75},{"user_id":766,"name":"RamHam","steam_id":76561198128466236,"connected_time":1872000000000,"state":"active","ping":63},{"user_id":786,"name":"PocketTieAMPLFY","steam_id":76561199080485881,"connected_time":544000000000,"state":"active","ping":166},{"user_id":767,"name":"Ad3ptus","steam_id":76561198272045750,"connected_time":1868000000000,"state":"active","ping":38},{"user_id":778,"name":"Xain35","steam_id":76561198121834307,"connected_time":1110000000000,"state":"active","ping":57},{"user_id":615,"name":"SadFapping","steam_id":76561198076651049,"connected_time":12053000000000,"state":"active","ping":59},{"user_id":777,"name":"Sil","steam_id":76561199029535430,"connected_time":1184000000000,"state":"active","ping":51},{"user_id":765,"name":"chicago's second greatest enemy","steam_id":76561199091872158,"connected_time":1977000000000,"state":"active","ping":57},{"user_id":790,"name":"Headmouth","steam_id":76561198019789855,"connected_time":197000000000,"state":"active","ping":166},{"user_id":686,"name":"Capitalism","steam_id":76561198068677316,"connected_time":7174000000000,"state":"active","ping":56},{"user_id":701,"name":"toilet thief","steam_id":76561198057486874,"connected_time":6248000000000,"state":"active","ping":74}]},{"server_id":406,"name":"Uncletopia | Seattle | 3 | Stopwatch Beta","name_short":"sea-3","host":"sea-1.us.uncletopia.com","port":27035,"enabled":true,"region":"us-west","cc":"us","latitude":47.608013,"longitude":-122.33517,"reserved":0,"last_update":"0001-01-01T00:00:00Z","name_a2s":"Uncletopia | Seattle | 3 | Stopwatch Beta","protocol":17,"map":"workshop/koth_ramjam_rc1.ugc459778887","folder":"tf","game":"Team Fortress","app_id":440,"player_count":0,"max_players":24,"Bots":0,"server_type":"Dedicated","server_os":"Linux","password":true,"vac":true,"version":"7882260","steam_id":85568392924515217,"keywords":["cp","nocrits","nodmgspread","uncletopia"],"game_id":440,"stv_port":27036,"stv_name":"Uncletopia | Seattle | 3 | Stopwatch Beta | STV","players":null},{"server_id":17,"name":"Uncletopia | San Francisco | 1 | All Maps","name_short":"sfo-1","host":"sfo-1.us.uncletopia.com","port":27015,"enabled":true,"region":"us-west","cc":"us","latitude":37.77397,"longitude":-122.4313,"reserved":0,"last_update":"0001-01-01T00:00:00Z","name_a2s":"Uncletopia | San Francisco | 1 | All Maps","protocol":17,"map":"koth_lakeside_final","folder":"tf","game":"Team Fortress","app_id":440,"player_count":0,"max_players":24,"Bots":0,"server_type":"Dedicated","server_os":"Linux","password":true,"vac":true,"version":"7882260","steam_id":85568392924469999,"keywords":["cp","nocrits","nodmgspread","uncletopia"],"game_id":440,"stv_port":27016,"stv_name":"Uncletopia | San Francisco | 1 | All Maps | STV","players":null},{"server_id":18,"name":"Uncletopia | San Francisco | 2 | All Maps","name_short":"sfo-2","host":"sfo-1.us.uncletopia.com","port":27025,"enabled":true,"region":"us-west","cc":"us","latitude":37.77397,"longitude":-122.4313,"reserved":0,"last_update":"0001-01-01T00:00:00Z","name_a2s":"Uncletopia | San Francisco | 2 | All Maps","protocol":17,"map":"cp_dustbowl","folder":"tf","game":"Team Fortress","app_id":440,"player_count":3,"max_players":24,"Bots":0,"server_type":"Dedicated","server_os":"Linux","password":true,"vac":true,"version":"7882260","steam_id":85568392924470000,"keywords":["cp","nocrits","nodmgspread","uncletopia"],"game_id":440,"stv_port":27026,"stv_name":"Uncletopia | San Francisco | 2 | All Maps | STV","players":[{"user_id":266,"name":"Engineer(matejkolcz)","steam_id":76561198280461212,"connected_time":2126000000000,"state":"active","ping":205},{"user_id":268,"name":"2Fort Radio Station Bot (2)","steam_id":76561199471043909,"connected_time":1152000000000,"state":"active","ping":240},{"user_id":270,"name":"Mak","steam_id":76561198089197922,"connected_time":683000000000,"state":"active","ping":61}]},{"server_id":19,"name":"Uncletopia | San Francisco | 3 | Stopwatch Beta","name_short":"sfo-3","host":"sfo-1.us.uncletopia.com","port":27035,"enabled":true,"region":"us-west","cc":"us","latitude":37.77397,"longitude":-122.4313,"reserved":0,"last_update":"0001-01-01T00:00:00Z","name_a2s":"Uncletopia | San Francisco | 3 | Stopwatch Beta","protocol":17,"map":"workshop/koth_bagel_rc6.ugc2514036946","folder":"tf","game":"Team Fortress","app_id":440,"player_count":0,"max_players":24,"Bots":0,"server_type":"Dedicated","server_os":"Linux","password":true,"vac":true,"version":"7882260","steam_id":85568392924742824,"keywords":["cp","nocrits","nodmgspread","uncletopia"],"game_id":440,"stv_port":27036,"stv_name":"Uncletopia | San Francisco | 3 | Stopwatch Beta | STV","players":null},{"server_id":20,"name":"Uncletopia | San Francisco | 4 | Community","name_short":"sfo-4","host":"sfo-1.us.uncletopia.com","port":27045,"enabled":true,"region":"us-west","cc":"us","latitude":37.77397,"longitude":-122.4313,"reserved":0,"last_update":"0001-01-01T00:00:00Z","name_a2s":"Uncletopia | San Francisco | 4 | Community","protocol":17,"map":"workshop/cp_indulge.ugc528106646","folder":"tf","game":"Team Fortress","app_id":440,"player_count":0,"max_players":24,"Bots":0,"server_type":"Dedicated","server_os":"Linux","password":true,"vac":true,"version":"7882260","steam_id":85568392924742826,"keywords":["cp","nocrits","nodmgspread","uncletopia"],"game_id":440,"stv_port":27046,"stv_name":"Uncletopia | San Francisco | 4 | Community | STV","players":null},{"server_id":141,"name":"Uncletopia | Sydney | 1 | All Maps","name_short":"syd-1","host":"syd-1.au.uncletopia.com","port":27015,"enabled":true,"region":"au","cc":"au","latitude":-33.865143,"longitude":151.2099,"reserved":0,"last_update":"0001-01-01T00:00:00Z","name_a2s":"Uncletopia | Sydney | 1 | All Maps","protocol":17,"map":"koth_nucleus","folder":"tf","game":"Team Fortress","app_id":440,"player_count":15,"max_players":24,"Bots":0,"server_type":"Dedicated","server_os":"Linux","password":true,"vac":true,"version":"7882260","steam_id":85568392924470001,"keywords":["cp","nocrits","nodmgspread","uncletopia"],"game_id":440,"stv_port":27016,"stv_name":"Uncletopia | Sydney | 1 | All Maps | STV","players":[{"user_id":980,"name":"bread","steam_id":76561199405764106,"connected_time":2293000000000,"state":"active","ping":36},{"user_id":1009,"name":"SCHEFF","steam_id":76561198078226216,"connected_time":191000000000,"state":"active","ping":53},{"user_id":976,"name":"_MAFKEES","steam_id":76561198233733104,"connected_time":2417000000000,"state":"active","ping":71},{"user_id":1000,"name":"MikkyD","steam_id":76561198043452962,"connected_time":994000000000,"state":"active","ping":62},{"user_id":1010,"name":"Genuline","steam_id":76561198126426787,"connected_time":181000000000,"state":"active","ping":75},{"user_id":996,"name":"L.ion","steam_id":76561198261172910,"connected_time":1150000000000,"state":"active","ping":57},{"user_id":997,"name":"Cafe","steam_id":76561198061587693,"connected_time":1133000000000,"state":"active","ping":106},{"user_id":1001,"name":"SniperGranny","steam_id":76561198293758694,"connected_time":984000000000,"state":"active","ping":82},{"user_id":1007,"name":"Zepi","steam_id":76561198018887052,"connected_time":412000000000,"state":"active","ping":56},{"user_id":1004,"name":"Pile of Sneed","steam_id":76561198143537391,"connected_time":706000000000,"state":"active","ping":56},{"user_id":987,"name":"SuPerTeD","steam_id":76561197996233289,"connected_time":2024000000000,"state":"active","ping":80},{"user_id":988,"name":"Jiffy360","steam_id":76561198149550772,"connected_time":2018000000000,"state":"active","ping":100},{"user_id":1013,"name":"Original Glazed (Krispy/Kreme)","steam_id":76561197997362731,"connected_time":105000000000,"state":"active","ping":52},{"user_id":1012,"name":"little raw meat boy","steam_id":76561199248254676,"connected_time":160000000000,"state":"active","ping":58},{"user_id":1014,"name":"Rashid Of The Dank Memes","steam_id":76561198281398078,"connected_time":100000000000,"state":"spawning","ping":70}]},{"server_id":123,"name":"Uncletopia | Sydney | 2 | All Maps","name_short":"syd-2","host":"syd-1.au.uncletopia.com","port":27025,"enabled":true,"region":"au","cc":"au","latitude":-33.865143,"longitude":151.2099,"reserved":0,"last_update":"0001-01-01T00:00:00Z","name_a2s":"Uncletopia | Sydney | 2 | All Maps","protocol":17,"map":"pl_badwater","folder":"tf","game":"Team Fortress","app_id":440,"player_count":18,"max_players":24,"Bots":0,"server_type":"Dedicated","server_os":"Linux","password":true,"vac":true,"version":"7882260","steam_id":85568392924470002,"keywords":["nocrits","nodmgspread","payload","uncletopia"],"game_id":440,"stv_port":27026,"stv_name":"Uncletopia | Sydney | 2 | All Maps | STV","players":[{"user_id":347,"name":"Mooty","steam_id":76561198301293435,"connected_time":357000000000,"state":"active","ping":50},{"user_id":298,"name":"Lumalee ‚ù§","steam_id":76561198157613299,"connected_time":4029000000000,"state":"active","ping":63},{"user_id":344,"name":"Sunny","steam_id":76561199253363005,"connected_time":564000000000,"state":"active","ping":100},{"user_id":353,"name":"Just Another Sandwich","steam_id":76561198137632334,"connected_time":102000000000,"state":"active","ping":42},{"user_id":297,"name":"miyamoto is daddy","steam_id":76561199483818230,"connected_time":4159000000000,"state":"active","ping":89},{"user_id":354,"name":"Quadruple Ctap","steam_id":76561198420572723,"connected_time":19000000000,"state":"active","ping":89},{"user_id":355,"name":"ScaryTree","steam_id":76561199384362833,"connected_time":17000000000,"state":"spawning","ping":287},{"user_id":345,"name":"Mogin","steam_id":76561199020454029,"connected_time":521000000000,"state":"active","ping":112},{"user_id":321,"name":"zorbingus blurgorgus","steam_id":76561198063481761,"connected_time":2579000000000,"state":"active","ping":44},{"user_id":317,"name":"Chromo Patrol","steam_id":76561197987001534,"connected_time":2820000000000,"state":"active","ping":136},{"user_id":325,"name":"lugig","steam_id":76561198264839805,"connected_time":2077000000000,"state":"active","ping":58},{"user_id":349,"name":"terrablade_master","steam_id":76561198997249192,"connected_time":287000000000,"state":"active","ping":77},{"user_id":350,"name":"scuba cat... my beloved","steam_id":76561198203917953,"connected_time":259000000000,"state":"active","ping":63},{"user_id":278,"name":"Mario","steam_id":76561198828095685,"connected_time":5549000000000,"state":"active","ping":71},{"user_id":270,"name":"Wario","steam_id":76561198188708730,"connected_time":5961000000000,"state":"active","ping":55},{"user_id":338,"name":"Psalm 118:10-17","steam_id":76561198305904806,"connected_time":889000000000,"state":"active","ping":47},{"user_id":341,"name":"Goddo","steam_id":76561198051156176,"connected_time":827000000000,"state":"active","ping":45},{"user_id":323,"name":"whiteshaq","steam_id":76561198131988811,"connected_time":2433000000000,"state":"active","ping":43}]},{"server_id":395,"name":"Uncletopia | Sydney | 3 | All Maps","name_short":"syd-3","host":"syd-1.au.uncletopia.com","port":27035,"enabled":true,"region":"au","cc":"au","latitude":-33.865143,"longitude":151.2099,"reserved":0,"last_update":"0001-01-01T00:00:00Z","name_a2s":"Uncletopia | Sydney | 3 | All Maps","protocol":17,"map":"cp_sunshine","folder":"tf","game":"Team Fortress","app_id":440,"player_count":0,"max_players":24,"Bots":0,"server_type":"Dedicated","server_os":"Linux","password":true,"vac":true,"version":"7882260","steam_id":85568392925194467,"keywords":["cp","nocrits","nodmgspread","uncletopia"],"game_id":440,"stv_port":27036,"stv_name":"Uncletopia | Sydney | 3 | All Maps | STV","players":null},{"server_id":396,"name":"Uncletopia | Sydney | 4 | All Maps","name_short":"syd-4","host":"syd-1.au.uncletopia.com","port":27045,"enabled":true,"region":"au","cc":"au","latitude":-33.865143,"longitude":151.2099,"reserved":0,"last_update":"0001-01-01T00:00:00Z","name_a2s":"Uncletopia | Sydney | 4 | All Maps","protocol":17,"map":"pl_barnblitz","folder":"tf","game":"Team Fortress","app_id":440,"player_count":0,"max_players":24,"Bots":0,"server_type":"Dedicated","server_os":"Linux","password":true,"vac":true,"version":"7882260","steam_id":85568392925397958,"keywords":["nocrits","nodmgspread","payload","uncletopia"],"game_id":440,"stv_port":27046,"stv_name":"Uncletopia | Sydney | 4 | All Maps | STV","players":null},{"server_id":58,"name":"Uncletopia | Sydney | 5 | Stopwatch Beta","name_short":"syd-5","host":"syd-1.au.uncletopia.com","port":27055,"enabled":true,"region":"au","cc":"au","latitude":-33.865143,"longitude":151.2099,"reserved":0,"last_update":"0001-01-01T00:00:00Z","name_a2s":"Uncletopia | Sydney | 5 | Stopwatch Beta","protocol":17,"map":"workshop/pl_vigil_rc9.ugc1266210012","folder":"tf","game":"Team Fortress","app_id":440,"player_count":0,"max_players":24,"Bots":0,"server_type":"Dedicated","server_os":"Linux","password":true,"vac":true,"version":"7882260","steam_id":85568392925397959,"keywords":["nocrits","nodmgspread","payload","uncletopia"],"game_id":440,"stv_port":27056,"stv_name":"Uncletopia | Sydney | 5 | Stopwatch Beta | STV","players":null},{"server_id":59,"name":"Uncletopia | Sydney | 6 | Community","name_short":"syd-6","host":"syd-1.au.uncletopia.com","port":27065,"enabled":true,"region":"au","cc":"au","latitude":-33.865143,"longitude":151.2099,"reserved":0,"last_update":"0001-01-01T00:00:00Z","name_a2s":"Uncletopia | Sydney | 6 | Community","protocol":17,"map":"workshop/rd_asteroid_redux_b1.ugc2154902912","folder":"tf","game":"Team Fortress","app_id":440,"player_count":0,"max_players":24,"Bots":0,"server_type":"Dedicated","server_os":"Linux","password":true,"vac":true,"version":"7882260","steam_id":85568392925397960,"keywords":["beta","nocrits","nodmgspread","rd","uncletopia"],"game_id":440,"stv_port":27066,"stv_name":"Uncletopia | Sydney | 6 | Community | STV","players":null},{"server_id":49,"name":"Uncletopia | Warsaw | 1 | All Maps","name_short":"waw-1","host":"waw-1.pl.uncletopia.com","port":27015,"enabled":true,"region":"eu","cc":"pl","latitude":52.2297,"longitude":21.017532,"reserved":0,"last_update":"0001-01-01T00:00:00Z","name_a2s":"","protocol":0,"map":"","folder":"","game":"","app_id":0,"player_count":0,"max_players":0,"Bots":0,"server_type":"","server_os":"","password":false,"vac":false,"version":"","steam_id":0,"keywords":null,"game_id":0,"stv_port":0,"stv_name":"","players":null},{"server_id":50,"name":"Uncletopia | Warsaw | 2 | All Maps","name_short":"waw-2","host":"waw-1.pl.uncletopia.com","port":27025,"enabled":true,"region":"eu","cc":"pl","latitude":52.2297,"longitude":21.017532,"reserved":0,"last_update":"0001-01-01T00:00:00Z","name_a2s":"Uncletopia | Warsaw | 2 | All Maps","protocol":17,"map":"cp_altitude","folder":"tf","game":"Team Fortress","app_id":440,"player_count":0,"max_players":24,"Bots":0,"server_type":"Dedicated","server_os":"Linux","password":true,"vac":true,"version":"7882260","steam_id":85568392925397851,"keywords":["cp","nocrits","nodmgspread","uncletopia"],"game_id":440,"stv_port":27026,"stv_name":"Uncletopia | Warsaw | 2 | All Maps | STV","players":null},{"server_id":51,"name":"Uncletopia | Warsaw | 3 | All Maps","name_short":"waw-3","host":"waw-1.pl.uncletopia.com","port":27035,"enabled":true,"region":"eu","cc":"pl","latitude":52.2297,"longitude":21.017532,"reserved":0,"last_update":"0001-01-01T00:00:00Z","name_a2s":"Uncletopia | Warsaw | 3 | All Maps","protocol":17,"map":"koth_viaduct","folder":"tf","game":"Team Fortress","app_id":440,"player_count":0,"max_players":24,"Bots":0,"server_type":"Dedicated","server_os":"Linux","password":true,"vac":true,"version":"7882260","steam_id":85568392925397852,"keywords":["cp","nocrits","nodmgspread","uncletopia"],"game_id":440,"stv_port":27036,"stv_name":"Uncletopia | Warsaw | 3 | All Maps | STV","players":null},{"server_id":52,"name":"Uncletopia | Warsaw | 4 | All Maps","name_short":"waw-4","host":"waw-1.pl.uncletopia.com","port":27045,"enabled":true,"region":"eu","cc":"pl","latitude":52.2297,"longitude":21.017532,"reserved":0,"last_update":"0001-01-01T00:00:00Z","name_a2s":"Uncletopia | Warsaw | 4 | All Maps","protocol":17,"map":"koth_highpass","folder":"tf","game":"Team Fortress","app_id":440,"player_count":0,"max_players":24,"Bots":0,"server_type":"Dedicated","server_os":"Linux","password":true,"vac":true,"version":"7882260","steam_id":85568392925397853,"keywords":["cp","nocrits","nodmgspread","uncletopia"],"game_id":440,"stv_port":27046,"stv_name":"Uncletopia | Warsaw | 4 | All Maps | STV","players":null},{"server_id":53,"name":"Uncletopia | Warsaw | 5 | Stopwatch Beta","name_short":"waw-5","host":"waw-1.pl.uncletopia.com","port":27055,"enabled":true,"region":"eu","cc":"pl","latitude":52.2297,"longitude":21.017532,"reserved":0,"last_update":"0001-01-01T00:00:00Z","name_a2s":"Uncletopia | Warsaw | 5 | Stopwatch Beta","protocol":17,"map":"cp_mountainlab","folder":"tf","game":"Team Fortress","app_id":440,"player_count":0,"max_players":24,"Bots":0,"server_type":"Dedicated","server_os":"Linux","password":true,"vac":true,"version":"7882260","steam_id":85568392925397854,"keywords":["cp","nocrits","nodmgspread","uncletopia"],"game_id":440,"stv_port":27056,"stv_name":"Uncletopia | Warsaw | 5 | Stopwatch Beta | STV","players":null},{"server_id":54,"name":"Uncletopia | Warsaw | 6 | Community","name_short":"waw-6","host":"waw-1.pl.uncletopia.com","port":27065,"enabled":true,"region":"eu","cc":"pl","latitude":52.2297,"longitude":21.017532,"reserved":0,"last_update":"0001-01-01T00:00:00Z","name_a2s":"Uncletopia | Warsaw | 6 | Community","protocol":17,"map":"koth_viaduct","folder":"tf","game":"Team Fortress","app_id":440,"player_count":0,"max_players":24,"Bots":0,"server_type":"Dedicated","server_os":"Linux","password":true,"vac":true,"version":"7882260","steam_id":85568392925397856,"keywords":["cp","nocrits","nodmgspread","uncletopia"],"game_id":440,"stv_port":27066,"stv_name":"Uncletopia | Warsaw | 6 | Community | STV","players":null}]}