{"status":true,"message":"","result":[{"server_id":9,"name":"Uncletopia | Atlanta | 1 | All Maps","name_short":"atl-1","host":"atl-1.us.uncletopia.com","port":27015,"enabled":true,"region":"us-east","cc":"us","latitude":33.753746,"longitude":-84.38633,"reserved":0,"last_update":"0001-01-01T00:00:00Z","name_a2s":"Uncletopia | Atlanta | 1 | All Maps","protocol":17,"map":"pl_snowycoast","folder":"tf","game":"Team Fortress","app_id":440,"player_count":24,"max_players":24,"Bots":0,"server_type":"Dedicated","server_os":"Linux","password":true,"vac":true,"version":"7723704","steam_id":85568392924469982,"keywords":["nocrits","nodmgspread","payload","uncletopia"],"game_id":440,"stv_port":27016,"stv_name":"Uncletopia | Atlanta | 1 | All Maps | STV","players":[{"user_id":598,"name":"Avo","steam_id":76561197993340494,"connected_time":2507000000000,"state":"active","ping":60},{"user_id":622,"name":"fool","steam_id":76561198172049831,"connected_time":51000000000,"state":"active","ping":84},{"user_id":621,"name":"Strength!!","steam_id":76561198001241984,"connected_time":275000000000,"state":"active","ping":125},{"user_id":512,"name":"ATL1 | eish","steam_id":76561198089463603,"connected_time":11220000000000,"state":"active","ping":125},{"user_id":595,"name":"ATL0 Dedi Le4n!!!","steam_id":76561198045522596,"connected_time":2541000000000,"state":"active","ping":69},{"user_id":592,"name":"MOTORTREND TRUCK OF THE YEAR","steam_id":76561198077654131,"connected_time":2974000000000,"state":"active","ping":72},{"user_id":514,"name":"sansa musa","steam_id":76561198163723555,"connected_time":10451000000000,"state":"active","ping":75},{"user_id":597,"name":"Festive Fire Starting Rock","steam_id":76561198066547582,"connected_time":2521000000000,"state":"active","ping":109},{"user_id":605,"name":"festivestuntman","steam_id":76561198056911537,"connected_time":2324000000000,"state":"active","ping":58},{"user_id":553,"name":"Boop","steam_id":76561198376703875,"connected_time":7855000000000,"state":"active","ping":67},{"user_id":578,"name":"Regi","steam_id":76561198271508598,"connected_time":4596000000000,"state":"active","ping":81},{"user_id":558,"name":"Mage","steam_id":76561198285026879,"connected_time":6712000000000,"state":"active","ping":77},{"user_id":619,"name":"ChaoticBiscuits","steam_id":76561198968497228,"connected_time":937000000000,"state":"active","ping":79},{"user_id":604,"name":"crit","steam_id":76561198813574552,"connected_time":2337000000000,"state":"active","ping":54},{"user_id":613,"name":"dry AFK","steam_id":76561198008899411,"connected_time":993000000000,"state":"active","ping":75},{"user_id":609,"name":"saywhat_","steam_id":76561198088191503,"connected_time":1841000000000,"state":"active","ping":67},{"user_id":526,"name":"Intro Bonito","steam_id":76561198119478838,"connected_time":9525000000000,"state":"active","ping":60},{"user_id":620,"name":"Cherry Coke","steam_id":76561198178233006,"connected_time":631000000000,"state":"active","ping":82},{"user_id":508,"name":"‚ô°Alyx‚ô°","steam_id":76561198024303978,"connected_time":11233000000000,"state":"active","ping":61},{"user_id":612,"name":"Strange Festive Femboy","steam_id":76561198050385093,"connected_time":1374000000000,"state":"active","ping":81},{"user_id":519,"name":"ATL1 | Rat","steam_id":76561198137925582,"connected_time":10418000000000,"state":"active","ping":80},{"user_id":615,"name":"ENGINEERS NEED HELP","steam_id":76561198035698704,"connected_time":987000000000,"state":"active","ping":114},{"user_id":616,"name":"jandajanda","steam_id":76561198235722476,"connected_time":986000000000,"state":"active","ping":60},{"user_id":596,"name":"yomokha","steam_id":76561198063175935,"connected_time":2541000000000,"state":"active","ping":60}]},{"server_id":400,"name":"Uncletopia | Atlanta | 3 | Stopwatch Beta","name_short":"atl-3","host":"atl-1.us.uncletopia.com","port":27035,"enabled":true,"region":"us-east","cc":"us","latitude":33.753746,"longitude":-84.38633,"reserved":0,"last_update":"0001-01-01T00:00:00Z","name_a2s":"Uncletopia | Atlanta | 3 | Stopwatch Beta","protocol":17,"map":"cp_snakewater_final1","folder":"tf","game":"Team Fortress","app_id":440,"player_count":0,"max_players":24,"Bots":0,"server_type":"Dedicated","server_os":"Linux","password":true,"vac":true,"version":"7723704","steam_id":85568392924515187,"keywords":["cp","nocrits","nodmgspread","uncletopia"],"game_id":440,"stv_port":27036,"stv_name":"Uncletopia | Atlanta | 3 | Stopwatch Beta | STV","players":null},{"server_id":401,"name":"Uncletopia | Atlanta | 4 | No Payload","name_short":"atl-4","host":"atl-1.us.uncletopia.com","port":27045,"enabled":true,"region":"us-east","cc":"us","latitude":33.753746,"longitude":-84.38633,"reserved":0,"last_update":"0001-01-01T00:00:00Z","name_a2s":"Uncletopia | Atlanta | 4 | No Payload","protocol":17,"map":"cp_dustbowl","folder":"tf","game":"Team Fortress","app_id":440,"player_count":0,"max_players":24,"Bots":0,"server_type":"Dedicated","server_os":"Linux","password":true,"vac":true,"version":"7723704","steam_id":85568392924515188,"keywords":["cp","nocrits","nodmgspread","uncletopia"],"game_id":440,"stv_port":27046,"stv_name":"Uncletopia | Atlanta | 4 | No Payload | STV","players":null},{"server_id":2,"name":"Uncletopia | Chicago | 1 | All Maps","name_short":"chi-1","host":"chi-1.us.uncletopia.com","port":27015,"enabled":true,"region":"us-central","cc":"us","latitude":41.881832,"longitude":-87.62318,"reserved":0,"last_update":"0001-01-01T00:00:00Z","name_a2s":"Uncletopia | Chicago | 1 | All Maps","protocol":17,"map":"pl_borneo","folder":"tf","game":"Team Fortress","app_id":440,"player_count":24,"max_players":24,"Bots":0,"server_type":"Dedicated","server_os":"Linux","password":true,"vac":true,"version":"7723704","steam_id":85568392924469984,"keywords":["nocrits","nodmgspread","payload","uncletopia"],"game_id":440,"stv_port":27016,"stv_name":"Uncletopia | Chicago | 1 | All Maps | STV","players":[{"user_id":718,"name":"hej","steam_id":76561197996366940,"connected_time":7884000000000,"state":"active","ping":61},{"user_id":813,"name":"Weary","steam_id":76561198145767546,"connected_time":132000000000,"state":"active","ping":60},{"user_id":808,"name":"hellohello","steam_id":76561198094058177,"connected_time":338000000000,"state":"active","ping":67},{"user_id":795,"name":"Zuese","steam_id":76561198038659429,"connected_time":1780000000000,"state":"active","ping":61},{"user_id":603,"name":"Gamut","steam_id":76561199185822800,"connected_time":15416000000000,"state":"active","ping":69},{"user_id":678,"name":"Space‚≠êTaffy","steam_id":76561198002271720,"connected_time":9868000000000,"state":"active","ping":60},{"user_id":753,"name":"carrion goat","steam_id":76561198262064871,"connected_time":4543000000000,"state":"active","ping":60},{"user_id":805,"name":"Scut","steam_id":76561198973734291,"connected_time":683000000000,"state":"active","ping":98},{"user_id":774,"name":"Money Collector","steam_id":76561198046249467,"connected_time":2406000000000,"state":"active","ping":47},{"user_id":784,"name":"peachy","steam_id":76561198026664629,"connected_time":2136000000000,"state":"active","ping":56},{"user_id":809,"name":"three three","steam_id":76561198177354155,"connected_time":297000000000,"state":"active","ping":45},{"user_id":810,"name":"30day","steam_id":76561198219163831,"connected_time":276000000000,"state":"active","ping":49},{"user_id":749,"name":"Gabinator32","steam_id":76561198872467183,"connected_time":5101000000000,"state":"active","ping":44},{"user_id":793,"name":"Fever Dreams","steam_id":76561198116614620,"connected_time":1856000000000,"state":"active","ping":67},{"user_id":811,"name":"Big ol' Willy Gaming","steam_id":76561198048545731,"connected_time":272000000000,"state":"active","ping":81},{"user_id":794,"name":"ScoobyBlue","steam_id":76561198054656885,"connected_time":1850000000000,"state":"active","ping":82},{"user_id":767,"name":"stop","steam_id":76561198268686419,"connected_time":3197000000000,"state":"active","ping":54},{"user_id":792,"name":"Thatoneguybunchanumbers","steam_id":76561198028039160,"connected_time":1892000000000,"state":"active","ping":82},{"user_id":720,"name":"kermitcreeper(ZAZA)","steam_id":76561199222829972,"connected_time":7874000000000,"state":"active","ping":56},{"user_id":803,"name":"GreenApples","steam_id":76561198120559543,"connected_time":835000000000,"state":"active","ping":101},{"user_id":797,"name":"Droop","steam_id":76561198856700517,"connected_time":1194000000000,"state":"active","ping":57},{"user_id":771,"name":"Ras","steam_id":76561198123546775,"connected_time":2423000000000,"state":"active","ping":60},{"user_id":812,"name":"Terribad","steam_id":76561198120844785,"connected_time":270000000000,"state":"active","ping":104},{"user_id":780,"name":"Now I'm a Little Motivated","steam_id":76561198069580305,"connected_time":2346000000000,"state":"active","ping":45}]},{"server_id":106,"name":"Uncletopia | Chicago | 2 | All Maps","name_short":"chi-2","host":"chi-1.us.uncletopia.com","port":27025,"enabled":true,"region":"us-central","cc":"us","latitude":41.881832,"longitude":-87.62318,"reserved":0,"last_update":"0001-01-01T00:00:00Z","name_a2s":"Uncletopia | Chicago | 2 | All Maps","protocol":17,"map":"pl_thundermountain","folder":"tf","game":"Team Fortress","app_id":440,"player_count":24,"max_players":24,"Bots":0,"server_type":"Dedicated","server_os":"Linux","password":true,"vac":true,"version":"7723704","steam_id":85568392924469985,"keywords":["nocrits","nodmgspread","payload","uncletopia"],"game_id":440,"stv_port":27026,"stv_name":"Uncletopia | Chicago | 2 | All Maps | STV","players":[{"user_id":666,"name":"NOLSEY","steam_id":76561198108959504,"connected_time":876000000000,"state":"active","ping":52},{"user_id":610,"name":"SLOPPYMCFLOPPY","steam_id":76561198100788239,"connected_time":6110000000000,"state":"active","ping":71},{"user_id":676,"name":"lag","steam_id":76561198117898839,"connected_time":300000000000,"state":"active","ping":112},{"user_id":668,"name":"MagicKing27ttv","steam_id":76561198276953046,"connected_time":872000000000,"state":"active","ping":59},{"user_id":647,"name":"8core","steam_id":76561198131163454,"connected_time":2303000000000,"state":"active","ping":81},{"user_id":617,"name":"sly1","steam_id":76561198049014977,"connected_time":5519000000000,"state":"active","ping":64},{"user_id":669,"name":"Tophu","steam_id":76561198380229671,"connected_time":857000000000,"state":"active","ping":59},{"user_id":613,"name":"Whorse","steam_id":76561198114141445,"connected_time":5625000000000,"state":"active","ping":69},{"user_id":673,"name":"fhish","steam_id":76561198064911344,"connected_time":606000000000,"state":"active","ping":73},{"user_id":568,"name":"Piyono","steam_id":76561197962188504,"connected_time":8962000000000,"state":"active","ping":60},{"user_id":674,"name":"Foot Pounder","steam_id":76561198353400073,"connected_time":587000000000,"state":"active","ping":37},{"user_id":677,"name":"Myiic","steam_id":76561198375612567,"connected_time":203000000000,"state":"active","ping":65},{"user_id":654,"name":"A-Train","steam_id":76561199031775779,"connected_time":1950000000000,"state":"active","ping":77},{"user_id":662,"name":"Mengle","steam_id":76561198001953684,"connected_time":1420000000000,"state":"active","ping":61},{"user_id":672,"name":"POWER IN MISERY","steam_id":76561198032008701,"connected_time":673000000000,"state":"active","ping":60},{"user_id":670,"name":"Sicko Mode (Chris Pratt Cover)","steam_id":76561198315786174,"connected_time":806000000000,"state":"active","ping":75},{"user_id":631,"name":"Queueue","steam_id":76561198070804012,"connected_time":3499000000000,"state":"active","ping":68},{"user_id":596,"name":"Merchants of Misery","steam_id":76561199188142396,"connected_time":7161000000000,"state":"active","ping":93},{"user_id":657,"name":"Sonata","steam_id":76561198088165440,"connected_time":1831000000000,"state":"active","ping":90},{"user_id":671,"name":"Lifial","steam_id":76561198271885819,"connected_time":783000000000,"state":"active","ping":74},{"user_id":675,"name":"Cute femboy furry","steam_id":76561198156063658,"connected_time":493000000000,"state":"active","ping":51},{"user_id":629,"name":"Unlit Slim Alberta Spruce","steam_id":76561198124081839,"connected_time":4035000000000,"state":"active","ping":61},{"user_id":634,"name":"Madrox Who?","steam_id":76561197988859134,"connected_time":3424000000000,"state":"active","ping":75},{"user_id":418,"name":"RaddahRaddah","steam_id":76561198194462829,"connected_time":18239000000000,"state":"active","ping":54}]},{"server_id":402,"name":"Uncletopia | Chicago | 3 | All Maps","name_short":"chi-3","host":"chi-1.us.uncletopia.com","port":27035,"enabled":true,"region":"us-central","cc":"us","latitude":41.881832,"longitude":-87.62318,"reserved":0,"last_update":"0001-01-01T00:00:00Z","name_a2s":"Uncletopia | Chicago | 3 | All Maps","protocol":17,"map":"cp_dustbowl","folder":"tf","game":"Team Fortress","app_id":440,"player_count":0,"max_players":24,"Bots":0,"server_type":"Dedicated","server_os":"Linux","password":true,"vac":true,"version":"7723704","steam_id":85568392924515191,"keywords":["cp","nocrits","nodmgspread","uncletopia"],"game_id":440,"stv_port":27036,"stv_name":"Uncletopia | Chicago | 3 | All Maps | STV","players":null},{"server_id":403,"name":"Uncletopia | Chicago | 4 | All Maps","name_short":"chi-4","host":"chi-1.us.uncletopia.com","port":27045,"enabled":true,"region":"us-central","cc":"us","latitude":41.881832,"longitude":-87.62318,"reserved":0,"last_update":"0001-01-01T00:00:00Z","name_a2s":"Uncletopia | Chicago | 4 | All Maps","protocol":17,"map":"pl_pier","folder":"tf","game":"Team Fortress","app_id":440,"player_count":24,"max_players":24,"Bots":0,"server_type":"Dedicated","server_os":"Linux","password":true,"vac":true,"version":"7723704","steam_id":85568392924515193,"keywords":["nocrits","nodmgspread","payload","uncletopia"],"game_id":440,"stv_port":27046,"stv_name":"Uncletopia | Chicago | 4 | All Maps | STV","players":[{"user_id":452,"name":"Christoph Waltz eating a burger","steam_id":76561199215811448,"connected_time":1765000000000,"state":"active","ping":71},{"user_id":474,"name":"fitotutus","steam_id":76561197974993253,"connected_time":112000000000,"state":"active","ping":134},{"user_id":440,"name":"Trox","steam_id":76561198263581464,"connected_time":2785000000000,"state":"active","ping":80},{"user_id":423,"name":"Ford Truck Gaming","steam_id":76561199042674833,"connected_time":4192000000000,"state":"active","ping":79},{"user_id":454,"name":"SpycyNoodles","steam_id":76561198309439750,"connected_time":1728000000000,"state":"active","ping":64},{"user_id":468,"name":"MisterDanny8","steam_id":76561198048847182,"connected_time":634000000000,"state":"active","ping":72},{"user_id":439,"name":"Cosmic Echoes","steam_id":76561198019227201,"connected_time":2824000000000,"state":"active","ping":78},{"user_id":469,"name":"Captmerica15","steam_id":76561198074696817,"connected_time":606000000000,"state":"active","ping":76},{"user_id":473,"name":"goopgrabber","steam_id":76561199029951083,"connected_time":445000000000,"state":"active","ping":79},{"user_id":393,"name":"Harrison","steam_id":76561198931423191,"connected_time":6321000000000,"state":"active","ping":76},{"user_id":418,"name":"Stone Toad Steve Austin","steam_id":76561198030622861,"connected_time":4671000000000,"state":"active","ping":87},{"user_id":460,"name":"beatrix-mas","steam_id":76561199057103062,"connected_time":1603000000000,"state":"active","ping":100},{"user_id":426,"name":"Gerald Jay Sussman","steam_id":76561198114515026,"connected_time":4016000000000,"state":"active","ping":56},{"user_id":450,"name":"DeadlyAnomalies","steam_id":76561198125818085,"connected_time":2023000000000,"state":"active","ping":86},{"user_id":447,"name":"Morefun8","steam_id":76561198274524278,"connected_time":2330000000000,"state":"active","ping":60},{"user_id":470,"name":"femboy beats","steam_id":76561199245717718,"connected_time":580000000000,"state":"active","ping":52},{"user_id":400,"name":"beec","steam_id":76561198837644144,"connected_time":6191000000000,"state":"active","ping":82},{"user_id":403,"name":"Apetometrist","steam_id":76561198045391635,"connected_time":5974000000000,"state":"active","ping":60},{"user_id":446,"name":"I'm a Jenius!","steam_id":76561197999129732,"connected_time":2530000000000,"state":"active","ping":76},{"user_id":464,"name":"Your Fwend","steam_id":76561198154773643,"connected_time":1397000000000,"state":"active","ping":80},{"user_id":463,"name":"jennydude","steam_id":76561198119132813,"connected_time":1512000000000,"state":"active","ping":67},{"user_id":471,"name":"SN0W","steam_id":76561198153665468,"connected_time":555000000000,"state":"active","ping":53},{"user_id":462,"name":"ghostyAlchemist","steam_id":76561198448078291,"connected_time":1563000000000,"state":"active","ping":66},{"user_id":466,"name":"the real big santa","steam_id":76561197999945358,"connected_time":1055000000000,"state":"active","ping":72}]},{"server_id":36,"name":"Uncletopia | Chicago | 5 | All Maps","name_short":"chi-5","host":"chi-2.us.uncletopia.com","port":27015,"enabled":true,"region":"us-central","cc":"us","latitude":41.881832,"longitude":-87.62318,"reserved":0,"last_update":"0001-01-01T00:00:00Z","name_a2s":"Uncletopia | Chicago | 5 | All Maps","protocol":17,"map":"cp_process_final","folder":"tf","game":"Team Fortress","app_id":440,"player_count":23,"max_players":24,"Bots":0,"server_type":"Dedicated","server_os":"Linux","password":true,"vac":true,"version":"7723704","steam_id":85568392924866362,"keywords":["cp","nocrits","nodmgspread","uncletopia"],"game_id":440,"stv_port":27016,"stv_name":"Uncletopia | Chicago | 5 | All Maps | STV","players":[{"user_id":580,"name":"CherryYeti","steam_id":76561199221441151,"connected_time":387000000000,"state":"active","ping":102},{"user_id":563,"name":"Arbiter Soul (Urine Enthusiast)","steam_id":76561198067798973,"connected_time":1594000000000,"state":"active","ping":117},{"user_id":586,"name":"mrshruggie","steam_id":76561198274278694,"connected_time":180000000000,"state":"active","ping":45},{"user_id":571,"name":"Shoe‚Ñ¢","steam_id":76561199114397881,"connected_time":1402000000000,"state":"active","ping":65},{"user_id":585,"name":"Kipernicus","steam_id":76561197998180212,"connected_time":245000000000,"state":"active","ping":48},{"user_id":483,"name":"HurricanePootis","steam_id":76561198152518803,"connected_time":7109000000000,"state":"active","ping":60},{"user_id":587,"name":"LikeASir","steam_id":76561198042209721,"connected_time":86000000000,"state":"active","ping":45},{"user_id":566,"name":"Lonka","steam_id":76561199008415182,"connected_time":1459000000000,"state":"active","ping":109},{"user_id":588,"name":"baby boy genius","steam_id":76561198355143414,"connected_time":79000000000,"state":"active","ping":44},{"user_id":484,"name":"2003 chevy malibu","steam_id":76561199075669125,"connected_time":7105000000000,"state":"active","ping":67},{"user_id":593,"name":"coms","steam_id":76561198359456881,"connected_time":11000000000,"state":"spawning","ping":45},{"user_id":573,"name":"glitchy","steam_id":76561199009135766,"connected_time":1284000000000,"state":"active","ping":45},{"user_id":589,"name":"KingTinkerer","steam_id":76561198226856548,"connected_time":70000000000,"state":"active","ping":67},{"user_id":565,"name":"Big Pete","steam_id":76561198100754827,"connected_time":1586000000000,"state":"active","ping":114},{"user_id":590,"name":"matkaster","steam_id":76561197998546486,"connected_time":66000000000,"state":"active","ping":51},{"user_id":577,"name":"victordead121","steam_id":76561199180843121,"connected_time":611000000000,"state":"active","ping":119},{"user_id":553,"name":"flip","steam_id":76561198262478540,"connected_time":2435000000000,"state":"active","ping":53},{"user_id":552,"name":"lokm","steam_id":76561198030374238,"connected_time":2455000000000,"state":"active","ping":105},{"user_id":591,"name":"Borealis","steam_id":76561198121070278,"connected_time":62000000000,"state":"active","ping":73},{"user_id":568,"name":"Piss Sniper","steam_id":76561198317602350,"connected_time":1447000000000,"state":"active","ping":77},{"user_id":487,"name":"ROCKSTAR MADE","steam_id":76561197961371271,"connected_time":7059000000000,"state":"active","ping":84},{"user_id":592,"name":"Sly Ramen","steam_id":76561198043075361,"connected_time":56000000000,"state":"active","ping":79},{"user_id":572,"name":"Eon","steam_id":76561198085175016,"connected_time":1381000000000,"state":"active","ping":76}]},{"server_id":37,"name":"Uncletopia | Chicago | 6 | All Maps","name_short":"chi-6","host":"chi-2.us.uncletopia.com","port":27025,"enabled":true,"region":"us-central","cc":"us","latitude":41.881832,"longitude":-87.62318,"reserved":0,"last_update":"0001-01-01T00:00:00Z","name_a2s":"Uncletopia | Chicago | 6 | All Maps","protocol":17,"map":"cp_sunshine","folder":"tf","game":"Team Fortress","app_id":440,"player_count":0,"max_players":24,"Bots":0,"server_type":"Dedicated","server_os":"Linux","password":true,"vac":true,"version":"7723704","steam_id":85568392924866363,"keywords":["cp","nocrits","nodmgspread","uncletopia"],"game_id":440,"stv_port":27026,"stv_name":"Uncletopia | Chicago | 6 | All Maps | STV","players":null},{"server_id":38,"name":"Uncletopia | Chicago | 7 | Stopwatch Beta","name_short":"chi-7","host":"chi-2.us.uncletopia.com","port":27035,"enabled":true,"region":"us-central","cc":"us","latitude":41.881832,"longitude":-87.62318,"reserved":0,"last_update":"0001-01-01T00:00:00Z","name_a2s":"Uncletopia | Chicago | 7 | Stopwatch Beta","protocol":17,"map":"workshop/koth_ashville_final.ugc2130459942","folder":"tf","game":"Team Fortress","app_id":440,"player_count":6,"max_players":24,"Bots":0,"server_type":"Dedicated","server_os":"Linux","password":true,"vac":true,"version":"7723704","steam_id":85568392924866364,"keywords":["cp","nocrits","nodmgspread","uncletopia"],"game_id":440,"stv_port":27036,"stv_name":"Uncletopia | Chicago | 7 | Stopwatch Beta | STV","players":[{"user_id":564,"name":"Dethscream","steam_id":76561197997322964,"connected_time":206000000000,"state":"active","ping":104},{"user_id":556,"name":"void monad","steam_id":76561198117012334,"connected_time":2189000000000,"state":"active","ping":162},{"user_id":540,"name":"Sonar","steam_id":76561198149299507,"connected_time":5548000000000,"state":"active","ping":69},{"user_id":548,"name":"PootisPowHAHA","steam_id":76561199023536209,"connected_time":4066000000000,"state":"active","ping":77},{"user_id":561,"name":"Bee_Pirate","steam_id":76561199000599111,"connected_time":1460000000000,"state":"active","ping":71},{"user_id":557,"name":"Willow Wolf","steam_id":76561198112826512,"connected_time":2159000000000,"state":"active","ping":35}]},{"server_id":39,"name":"Uncletopia | Chicago | 8 | Community","name_short":"chi-8","host":"chi-2.us.uncletopia.com","port":27045,"enabled":true,"region":"us-central","cc":"us","latitude":41.881832,"longitude":-87.62318,"reserved":0,"last_update":"0001-01-01T00:00:00Z","name_a2s":"Uncletopia | Chicago | 8 | Community","protocol":17,"map":"workshop/koth_slaughter_rc1.ugc1712845210","folder":"tf","game":"Team Fortress","app_id":440,"player_count":15,"max_players":24,"Bots":0,"server_type":"Dedicated","server_os":"Linux","password":true,"vac":true,"version":"7723704","steam_id":85568392924866365,"keywords":["cp","nocrits","nodmgspread","uncletopia"],"game_id":440,"stv_port":27046,"stv_name":"Uncletopia | Chicago | 8 | Community | STV","players":[{"user_id":160,"name":"Black_chestnut","steam_id":76561198155524915,"connected_time":3195000000000,"state":"active","ping":77},{"user_id":189,"name":"womthedom","steam_id":76561198088768287,"connected_time":1149000000000,"state":"active","ping":53},{"user_id":184,"name":"Chagalicious","steam_id":76561198044128240,"connected_time":1306000000000,"state":"active","ping":77},{"user_id":127,"name":"Goofball","steam_id":76561198061211537,"connected_time":4674000000000,"state":"active","ping":60},{"user_id":110,"name":"Reversed","steam_id":76561198136433466,"connected_time":6203000000000,"state":"active","ping":49},{"user_id":200,"name":"Architect","steam_id":76561198015242016,"connected_time":264000000000,"state":"active","ping":34},{"user_id":186,"name":"CPUnit","steam_id":76561198162881878,"connected_time":1262000000000,"state":"active","ping":87},{"user_id":196,"name":"Koloco","steam_id":76561199022194660,"connected_time":706000000000,"state":"active","ping":80},{"user_id":147,"name":"vince","steam_id":76561198054144974,"connected_time":3534000000000,"state":"active","ping":59},{"user_id":198,"name":"Owl_Eye","steam_id":76561198386200439,"connected_time":649000000000,"state":"active","ping":58},{"user_id":199,"name":"Spicy Within Reason","steam_id":76561198066700370,"connected_time":357000000000,"state":"active","ping":77},{"user_id":140,"name":"Your Local Jester","steam_id":76561199120223717,"connected_time":3994000000000,"state":"active","ping":62},{"user_id":148,"name":"Ricola102","steam_id":76561198119692259,"connected_time":3525000000000,"state":"active","ping":62},{"user_id":162,"name":"bee","steam_id":76561198025553902,"connected_time":3068000000000,"state":"active","ping":44},{"user_id":153,"name":"Fermenting Kiwi","steam_id":76561198253303497,"connected_time":3430000000000,"state":"active","ping":74}]},{"server_id":8,"name":"Uncletopia | Dallas | 1 | All Maps","name_short":"dal-1","host":"dal-1.us.uncletopia.com","port":27015,"enabled":true,"region":"us-central","cc":"us","latitude":32.779167,"longitude":-96.80889,"reserved":0,"last_update":"0001-01-01T00:00:00Z","name_a2s":"Uncletopia | Dallas | 1 | All Maps","protocol":17,"map":"pl_snowycoast","folder":"tf","game":"Team Fortress","app_id":440,"player_count":23,"max_players":24,"Bots":0,"server_type":"Dedicated","server_os":"Linux","password":true,"vac":true,"version":"7723704","steam_id":85568392924469986,"keywords":["nocrits","nodmgspread","payload","uncletopia"],"game_id":440,"stv_port":27016,"stv_name":"Uncletopia | Dallas | 1 | All Maps | STV","players":[{"user_id":607,"name":"Ultra\u003c3","steam_id":76561198352021493,"connected_time":1280000000000,"state":"active","ping":86},{"user_id":571,"name":"Imrgrim","steam_id":76561198135866481,"connected_time":3556000000000,"state":"active","ping":64},{"user_id":618,"name":"grafield lober","steam_id":76561198150507510,"connected_time":278000000000,"state":"active","ping":65},{"user_id":572,"name":"The Krinkler","steam_id":76561198020308956,"connected_time":3551000000000,"state":"active","ping":64},{"user_id":555,"name":"Stauxie","steam_id":76561198255030077,"connected_time":5601000000000,"state":"active","ping":87},{"user_id":596,"name":"leopardo123atl","steam_id":76561198872648238,"connected_time":2423000000000,"state":"active","ping":81},{"user_id":619,"name":"NotSoProfessionalGuy","steam_id":76561199045501608,"connected_time":196000000000,"state":"active","ping":73},{"user_id":605,"name":"iluvtoust","steam_id":76561198869269207,"connected_time":1291000000000,"state":"active","ping":47},{"user_id":590,"name":"amagicowl","steam_id":76561199060487814,"connected_time":2771000000000,"state":"active","ping":79},{"user_id":599,"name":"Med","steam_id":76561199276331525,"connected_time":2200000000000,"state":"active","ping":62},{"user_id":577,"name":"Moonflower ‚ú¶","steam_id":76561198191782483,"connected_time":3373000000000,"state":"active","ping":57},{"user_id":587,"name":"Dinger","steam_id":76561198030119710,"connected_time":2832000000000,"state":"active","ping":79},{"user_id":613,"name":"Ulrich Stern","steam_id":76561198101739682,"connected_time":409000000000,"state":"active","ping":74},{"user_id":588,"name":"Damiano","steam_id":76561198065585796,"connected_time":2815000000000,"state":"active","ping":77},{"user_id":614,"name":"CampinCarl","steam_id":76561197997373624,"connected_time":390000000000,"state":"active","ping":89},{"user_id":598,"name":"Phosu","steam_id":76561198180162801,"connected_time":2221000000000,"state":"active","ping":68},{"user_id":606,"name":"Emma","steam_id":76561198318093783,"connected_time":1291000000000,"state":"active","ping":60},{"user_id":609,"name":"Punished J‡∂ûff #NeverSimpAgain","steam_id":76561198304252584,"connected_time":1263000000000,"state":"active","ping":88},{"user_id":604,"name":"sollarious101","steam_id":76561199086649385,"connected_time":1306000000000,"state":"active","ping":44},{"user_id":589,"name":"task","steam_id":76561198284992433,"connected_time":2812000000000,"state":"active","ping":107},{"user_id":564,"name":"furrein","steam_id":76561198318777982,"connected_time":4453000000000,"state":"active","ping":58},{"user_id":615,"name":"üõßüõßüõßON AIRPLANEüõßüõß","steam_id":76561198834942997,"connected_time":363000000000,"state":"active","ping":76},{"user_id":617,"name":"Peak","steam_id":76561198118772175,"connected_time":322000000000,"state":"active","ping":76}]},{"server_id":108,"name":"Uncletopia | Dallas | 2 | All Maps","name_short":"dal-2","host":"dal-1.us.uncletopia.com","port":27025,"enabled":true,"region":"us-central","cc":"us","latitude":32.779167,"longitude":-96.80889,"reserved":0,"last_update":"0001-01-01T00:00:00Z","name_a2s":"Uncletopia | Dallas | 2 | All Maps","protocol":17,"map":"pl_borneo","folder":"tf","game":"Team Fortress","app_id":440,"player_count":0,"max_players":24,"Bots":0,"server_type":"Dedicated","server_os":"Linux","password":true,"vac":true,"version":"7723704","steam_id":85568392924469988,"keywords":["nocrits","nodmgspread","payload","uncletopia"],"game_id":440,"stv_port":27026,"stv_name":"Uncletopia | Dallas | 2 | All Maps | STV","players":null},{"server_id":5,"name":"Uncletopia | Frankfurt | 1 | All Maps","name_short":"frk-1","host":"frk-1.de.uncletopia.com","port":27015,"enabled":true,"region":"eu","cc":"de","latitude":50.110924,"longitude":8.682127,"reserved":0,"last_update":"0001-01-01T00:00:00Z","name_a2s":"Uncletopia | Frankfurt | 1 | All Maps","protocol":17,"map":"cp_dustbowl","folder":"tf","game":"Team Fortress","app_id":440,"player_count":0,"max_players":24,"Bots":0,"server_type":"Dedicated","server_os":"Linux","password":true,"vac":true,"version":"7723704","steam_id":85568392924469989,"keywords":["cp","nocrits","nodmgspread","uncletopia"],"game_id":440,"stv_port":27016,"stv_name":"Uncletopia | Frankfurt | 1 | All Maps | STV","players":null},{"server_id":110,"name":"Uncletopia | Frankfurt | 2 | All Maps","name_short":"frk-2","host":"frk-1.de.uncletopia.com","port":27025,"enabled":true,"region":"eu","cc":"de","latitude":50.110924,"longitude":8.682127,"reserved":0,"last_update":"0001-01-01T00:00:00Z","name_a2s":"Uncletopia | Frankfurt | 2 | All Maps","protocol":17,"map":"koth_highpass","folder":"tf","game":"Team Fortress","app_id":440,"player_count":0,"max_players":24,"Bots":0,"server_type":"Dedicated","server_os":"Linux","password":true,"vac":true,"version":"7723704","steam_id":85568392924469990,"keywords":["cp","nocrits","nodmgspread","uncletopia"],"game_id":440,"stv_port":27026,"stv_name":"Uncletopia | Frankfurt | 2 | All Maps | STV","players":null},{"server_id":308,"name":"Uncletopia | Frankfurt | 3 | All Maps","name_short":"frk-3","host":"frk-1.de.uncletopia.com","port":27035,"enabled":true,"region":"eu","cc":"de","latitude":50.110924,"longitude":8.682127,"reserved":0,"last_update":"0001-01-01T00:00:00Z","name_a2s":"Uncletopia | Frankfurt | 3 | All Maps","protocol":17,"map":"koth_cascade","folder":"tf","game":"Team Fortress","app_id":440,"player_count":0,"max_players":24,"Bots":0,"server_type":"Dedicated","server_os":"Linux","password":true,"vac":true,"version":"7723704","steam_id":85568392924504274,"keywords":["cp","nocrits","nodmgspread","uncletopia"],"game_id":440,"stv_port":27036,"stv_name":"Uncletopia | Frankfurt | 3 | All Maps | STV","players":null},{"server_id":309,"name":"Uncletopia | Frankfurt | 4 | All Maps","name_short":"frk-4","host":"frk-1.de.uncletopia.com","port":27045,"enabled":true,"region":"eu","cc":"de","latitude":50.110924,"longitude":8.682127,"reserved":0,"last_update":"0001-01-01T00:00:00Z","name_a2s":"Uncletopia | Frankfurt | 4 | All Maps","protocol":17,"map":"pl_borneo","folder":"tf","game":"Team Fortress","app_id":440,"player_count":0,"max_players":24,"Bots":0,"server_type":"Dedicated","server_os":"Linux","password":true,"vac":true,"version":"7723704","steam_id":85568392924504275,"keywords":["nocrits","nodmgspread","payload","uncletopia"],"game_id":440,"stv_port":27046,"stv_name":"Uncletopia | Frankfurt | 4 | All Maps | STV","players":null},{"server_id":310,"name":"Uncletopia | Frankfurt | 5 | All Maps","name_short":"frk-5","host":"frk-1.de.uncletopia.com","port":27055,"enabled":true,"region":"eu","cc":"de","latitude":50.110924,"longitude":8.682127,"reserved":0,"last_update":"0001-01-01T00:00:00Z","name_a2s":"Uncletopia | Frankfurt | 5 | All Maps","protocol":17,"map":"koth_highpass","folder":"tf","game":"Team Fortress","app_id":440,"player_count":0,"max_players":24,"Bots":0,"server_type":"Dedicated","server_os":"Linux","password":true,"vac":true,"version":"7723704","steam_id":85568392924504277,"keywords":["cp","nocrits","nodmgspread","uncletopia"],"game_id":440,"stv_port":27056,"stv_name":"Uncletopia | Frankfurt | 5 | All Maps | STV","players":null},{"server_id":311,"name":"Uncletopia | Frankfurt | 6 | All Maps","name_short":"frk-6","host":"frk-1.de.uncletopia.com","port":27065,"enabled":true,"region":"eu","cc":"de","latitude":50.110924,"longitude":8.682127,"reserved":0,"last_update":"0001-01-01T00:00:00Z","name_a2s":"Uncletopia | Frankfurt | 6 | All Maps","protocol":17,"map":"koth_highpass","folder":"tf","game":"Team Fortress","app_id":440,"player_count":0,"max_players":24,"Bots":0,"server_type":"Dedicated","server_os":"Linux","password":true,"vac":true,"version":"7723704","steam_id":85568392924504278,"keywords":["cp","nocrits","nodmgspread","uncletopia"],"game_id":440,"stv_port":27066,"stv_name":"Uncletopia | Frankfurt | 6 | All Maps | STV","players":null},{"server_id":23,"name":"Uncletopia | Frankfurt | 7 | Stopwatch Beta","name_short":"frk-7","host":"frk-1.de.uncletopia.com","port":27075,"enabled":true,"region":"eu","cc":"de","latitude":50.110924,"longitude":8.682127,"reserved":0,"last_update":"0001-01-01T00:00:00Z","name_a2s":"Uncletopia | Frankfurt | 7 | Stopwatch Beta","protocol":17,"map":"workshop/pl_barnblitz_pro7.ugc582280235","folder":"tf","game":"Team Fortress","app_id":440,"player_count":0,"max_players":24,"Bots":0,"server_type":"Dedicated","server_os":"Linux","password":true,"vac":true,"version":"7723704","steam_id":85568392924742827,"keywords":["nocrits","nodmgspread","payload","uncletopia"],"game_id":440,"stv_port":27076,"stv_name":"Uncletopia | Frankfurt | 7 | Stopwatch Beta | STV","players":null},{"server_id":24,"name":"Uncletopia | Frankfurt | 8 | Community","name_short":"frk-8","host":"frk-1.de.uncletopia.com","port":27085,"enabled":true,"region":"eu","cc":"de","latitude":50.110924,"longitude":8.682127,"reserved":0,"last_update":"0001-01-01T00:00:00Z","name_a2s":"Uncletopia | Frankfurt | 8 | Community","protocol":17,"map":"workshop/cp_sulfur_rc2.ugc619869471","folder":"tf","game":"Team Fortress","app_id":440,"player_count":0,"max_players":24,"Bots":0,"server_type":"Dedicated","server_os":"Linux","password":true,"vac":true,"version":"7723704","steam_id":85568392924742828,"keywords":["cp","nocrits","nodmgspread","uncletopia"],"game_id":440,"stv_port":27086,"stv_name":"Uncletopia | Frankfurt | 8 | Community | STV","players":null},{"server_id":202,"name":"Uncletopia | Hong Kong | 1 | All Maps","name_short":"hgk-1","host":"hgk-1.hk.uncletopia.com","port":27015,"enabled":true,"region":"asia","cc":"hk","latitude":22.302711,"longitude":114.177216,"reserved":0,"last_update":"0001-01-01T00:00:00Z","name_a2s":"Uncletopia | Hong Kong | 1 | All Maps","protocol":17,"map":"pl_pier","folder":"tf","game":"Team Fortress","app_id":440,"player_count":24,"max_players":24,"Bots":0,"server_type":"Dedicated","server_os":"Linux","password":true,"vac":true,"version":"7723704","steam_id":85568392924494504,"keywords":["nocrits","nodmgspread","payload","uncletopia"],"game_id":440,"stv_port":27016,"stv_name":"Uncletopia | Hong Kong | 1 | All Maps | STV","players":[{"user_id":125,"name":"Sinyeon","steam_id":76561198125363469,"connected_time":3240000000000,"state":"active","ping":85},{"user_id":163,"name":"AAww","steam_id":76561199220320583,"connected_time":249000000000,"state":"active","ping":62},{"user_id":166,"name":"Me is gaming","steam_id":76561199025438331,"connected_time":39000000000,"state":"spawning","ping":58},{"user_id":126,"name":"SissyFemboy‚ô°","steam_id":76561198841376347,"connected_time":3012000000000,"state":"active","ping":56},{"user_id":161,"name":"Shovel","steam_id":76561198441328016,"connected_time":544000000000,"state":"active","ping":64},{"user_id":154,"name":"Xenophanes","steam_id":76561199388368914,"connected_time":1047000000000,"state":"active","ping":128},{"user_id":122,"name":"ogey","steam_id":76561198074339034,"connected_time":3894000000000,"state":"active","ping":76},{"user_id":140,"name":"Tin-Tin \u003c3","steam_id":76561199247983065,"connected_time":2306000000000,"state":"active","ping":68},{"user_id":162,"name":"IRA car dealership","steam_id":76561199224577498,"connected_time":526000000000,"state":"active","ping":68},{"user_id":165,"name":"deadass sleepless","steam_id":76561198255521007,"connected_time":153000000000,"state":"active","ping":44},{"user_id":124,"name":"Kiyomi","steam_id":76561198240627872,"connected_time":3576000000000,"state":"active","ping":55},{"user_id":123,"name":"screaming sniper","steam_id":76561199085568674,"connected_time":3652000000000,"state":"active","ping":64},{"user_id":143,"name":"brizzard","steam_id":76561198048438653,"connected_time":1844000000000,"state":"active","ping":49},{"user_id":141,"name":"MR.SAM","steam_id":76561198014846677,"connected_time":2277000000000,"state":"active","ping":49},{"user_id":144,"name":"JayJ","steam_id":76561198324008555,"connected_time":1698000000000,"state":"active","ping":56},{"user_id":108,"name":"ËñÑËç∑Áå´ËΩ∞ËΩ∞","steam_id":76561198094558846,"connected_time":5081000000000,"state":"active","ping":59},{"user_id":158,"name":"master glu eater","steam_id":76561198069402937,"connected_time":925000000000,"state":"active","ping":74},{"user_id":136,"name":"T.","steam_id":76561198337887896,"connected_time":2520000000000,"state":"active","ping":84},{"user_id":116,"name":"vintage","steam_id":76561198230213828,"connected_time":4642000000000,"state":"active","ping":69},{"user_id":147,"name":"Giouri","steam_id":76561199152247162,"connected_time":1665000000000,"state":"active","ping":81},{"user_id":137,"name":"Puddin","steam_id":76561198140052918,"connected_time":2508000000000,"state":"active","ping":88},{"user_id":160,"name":"Exclamator","steam_id":76561199065048552,"connected_time":772000000000,"state":"active","ping":63},{"user_id":148,"name":"Checkyoursix","steam_id":76561199080781578,"connected_time":1584000000000,"state":"active","ping":62},{"user_id":153,"name":"3wfFbdrjEze5d2G","steam_id":76561198435900451,"connected_time":1339000000000,"state":"active","ping":64}]},{"server_id":1,"name":"Uncletopia | Los Angeles | 1 | All Maps","name_short":"lax-1","host":"lax-1.us.uncletopia.com","port":27015,"enabled":true,"region":"us-west","cc":"us","latitude":33.94279,"longitude":-118.41004,"reserved":0,"last_update":"0001-01-01T00:00:00Z","name_a2s":"Uncletopia | Los Angeles | 1 | All Maps","protocol":17,"map":"pl_frontier_final","folder":"tf","game":"Team Fortress","app_id":440,"player_count":24,"max_players":24,"Bots":0,"server_type":"Dedicated","server_os":"Linux","password":true,"vac":true,"version":"7723704","steam_id":85568392924469991,"keywords":["nocrits","nodmgspread","payload","uncletopia"],"game_id":440,"stv_port":27016,"stv_name":"Uncletopia | Los Angeles | 1 | All Maps | STV","players":[{"user_id":342,"name":"Fred","steam_id":76561197983870604,"connected_time":6969000000000,"state":"active","ping":52},{"user_id":417,"name":"U of SC Office of Financial Aid","steam_id":76561198182294378,"connected_time":506000000000,"state":"active","ping":36},{"user_id":397,"name":"jessica","steam_id":76561198178958761,"connected_time":2175000000000,"state":"active","ping":92},{"user_id":391,"name":"Battery_Included","steam_id":76561198067164431,"connected_time":2846000000000,"state":"active","ping":45},{"user_id":418,"name":"MR. MODE","steam_id":76561198046775352,"connected_time":499000000000,"state":"active","ping":54},{"user_id":368,"name":"S p a f f y","steam_id":76561198047892151,"connected_time":5175000000000,"state":"active","ping":47},{"user_id":415,"name":"walrooos ‚úø","steam_id":76561198024521839,"connected_time":557000000000,"state":"active","ping":43},{"user_id":398,"name":"Jayme","steam_id":76561198383110081,"connected_time":2142000000000,"state":"active","ping":112},{"user_id":399,"name":"zonk","steam_id":76561198207253121,"connected_time":2123000000000,"state":"active","ping":51},{"user_id":416,"name":"Belmore","steam_id":76561198009355231,"connected_time":522000000000,"state":"active","ping":45},{"user_id":413,"name":"Mom","steam_id":76561198207936000,"connected_time":1057000000000,"state":"active","ping":47},{"user_id":409,"name":"/)+$ Alice ‚ô•","steam_id":76561198869945051,"connected_time":1362000000000,"state":"active","ping":92},{"user_id":419,"name":"An00bissmas","steam_id":76561198044084508,"connected_time":466000000000,"state":"active","ping":60},{"user_id":414,"name":"WalkinMan","steam_id":76561198047941142,"connected_time":891000000000,"state":"active","ping":48},{"user_id":420,"name":"Fiji„ÉÉ","steam_id":76561198181234706,"connected_time":443000000000,"state":"active","ping":62},{"user_id":426,"name":"Virus858","steam_id":76561199156084410,"connected_time":80000000000,"state":"active","ping":110},{"user_id":326,"name":"ena - d","steam_id":76561198072329335,"connected_time":8337000000000,"state":"active","ping":127},{"user_id":423,"name":"Squatter1","steam_id":76561198078987734,"connected_time":244000000000,"state":"active","ping":85},{"user_id":412,"name":"K-2","steam_id":76561198322606535,"connected_time":1199000000000,"state":"active","ping":59},{"user_id":359,"name":"Painkiller","steam_id":76561198049787400,"connected_time":5625000000000,"state":"active","ping":52},{"user_id":404,"name":"Tannenbaum Trotsky","steam_id":76561199101638460,"connected_time":1785000000000,"state":"active","ping":77},{"user_id":406,"name":"rumes","steam_id":76561198349219467,"connected_time":1696000000000,"state":"active","ping":102},{"user_id":357,"name":"NooBHatteR","steam_id":76561198077662703,"connected_time":5854000000000,"state":"active","ping":91},{"user_id":425,"name":"_liam_sutton","steam_id":76561198249836518,"connected_time":184000000000,"state":"active","ping":424}]},{"server_id":112,"name":"Uncletopia | Los Angeles | 2 | All Maps","name_short":"lax-2","host":"lax-1.us.uncletopia.com","port":27025,"enabled":true,"region":"us-west","cc":"us","latitude":33.94279,"longitude":-118.41004,"reserved":0,"last_update":"0001-01-01T00:00:00Z","name_a2s":"Uncletopia | Los Angeles | 2 | All Maps","protocol":17,"map":"pl_wutville_event","folder":"tf","game":"Team Fortress","app_id":440,"player_count":24,"max_players":24,"Bots":0,"server_type":"Dedicated","server_os":"Linux","password":true,"vac":true,"version":"7723704","steam_id":85568392924469992,"keywords":["nocrits","nodmgspread","payload","uncletopia"],"game_id":440,"stv_port":27026,"stv_name":"Uncletopia | Los Angeles | 2 | All Maps | STV","players":[{"user_id":102,"name":"lost df player","steam_id":76561198042003968,"connected_time":1926000000000,"state":"active","ping":78},{"user_id":86,"name":"greg.alden","steam_id":76561199022839084,"connected_time":2583000000000,"state":"active","ping":57},{"user_id":127,"name":"Hot Milfs In Your Area","steam_id":76561198215203803,"connected_time":783000000000,"state":"active","ping":82},{"user_id":105,"name":"Cuno Doesn't Care!","steam_id":76561198007372782,"connected_time":1755000000000,"state":"active","ping":65},{"user_id":107,"name":"TurtleEcho","steam_id":76561198383808690,"connected_time":1491000000000,"state":"active","ping":103},{"user_id":120,"name":"moe","steam_id":76561198929586245,"connected_time":1171000000000,"state":"active","ping":50},{"user_id":128,"name":"Karma's Kringle Caper","steam_id":76561198059385185,"connected_time":651000000000,"state":"active","ping":122},{"user_id":136,"name":"basil","steam_id":76561198075758026,"connected_time":22000000000,"state":"active","ping":125},{"user_id":131,"name":"soggymonki236","steam_id":76561198046953937,"connected_time":546000000000,"state":"active","ping":95},{"user_id":109,"name":"mdharsy","steam_id":76561198065831053,"connected_time":1467000000000,"state":"active","ping":131},{"user_id":135,"name":"Noelle Holiday","steam_id":76561198359994674,"connected_time":216000000000,"state":"active","ping":94},{"user_id":112,"name":"Fish","steam_id":76561199016308078,"connected_time":1423000000000,"state":"active","ping":59},{"user_id":113,"name":"speasy greasy","steam_id":76561198311968187,"connected_time":1402000000000,"state":"active","ping":108},{"user_id":66,"name":"TheGhostThatWas","steam_id":76561198055836483,"connected_time":4257000000000,"state":"active","ping":106},{"user_id":116,"name":"how do i control my guy?","steam_id":76561198158855211,"connected_time":1307000000000,"state":"active","ping":75},{"user_id":74,"name":"manbearswineflu","steam_id":76561198083945137,"connected_time":3970000000000,"state":"active","ping":104},{"user_id":117,"name":"CosmiCat","steam_id":76561198858792096,"connected_time":1299000000000,"state":"active","ping":152},{"user_id":79,"name":"BrightOrangeMango","steam_id":76561198023144607,"connected_time":3752000000000,"state":"active","ping":60},{"user_id":134,"name":"gonurlight","steam_id":76561198935839416,"connected_time":525000000000,"state":"active","ping":89},{"user_id":126,"name":"eyeball","steam_id":76561198307697528,"connected_time":831000000000,"state":"active","ping":52},{"user_id":69,"name":"Honeybunch","steam_id":76561198014850580,"connected_time":4157000000000,"state":"active","ping":71},{"user_id":123,"name":"Delta","steam_id":76561198021957971,"connected_time":1142000000000,"state":"active","ping":53},{"user_id":75,"name":"G. Howard Dee","steam_id":76561198058382812,"connected_time":3960000000000,"state":"active","ping":53},{"user_id":99,"name":"ingjess09","steam_id":76561199339732059,"connected_time":2291000000000,"state":"active","ping":66}]},{"server_id":324,"name":"Uncletopia | Los Angeles | 3 | All Maps","name_short":"lax-3","host":"lax-1.us.uncletopia.com","port":27035,"enabled":true,"region":"us-west","cc":"us","latitude":33.94279,"longitude":-118.41004,"reserved":0,"last_update":"0001-01-01T00:00:00Z","name_a2s":"Uncletopia | Los Angeles | 3 | All Maps","protocol":17,"map":"koth_viaduct","folder":"tf","game":"Team Fortress","app_id":440,"player_count":0,"max_players":24,"Bots":0,"server_type":"Dedicated","server_os":"Linux","password":true,"vac":true,"version":"7723704","steam_id":85568392924510198,"keywords":["cp","nocrits","nodmgspread","uncletopia"],"game_id":440,"stv_port":27036,"stv_name":"Uncletopia | Los Angeles | 3 | All Maps | STV","players":null},{"server_id":25,"name":"Uncletopia | Los Angeles | 4 | Stopwatch Beta","name_short":"lax-4","host":"lax-1.us.uncletopia.com","port":27045,"enabled":true,"region":"us-west","cc":"us","latitude":33.94279,"longitude":-118.41004,"reserved":0,"last_update":"0001-01-01T00:00:00Z","name_a2s":"Uncletopia | Los Angeles | 4 | Stopwatch Beta","protocol":17,"map":"cp_sunshine","folder":"tf","game":"Team Fortress","app_id":440,"player_count":0,"max_players":24,"Bots":0,"server_type":"Dedicated","server_os":"Linux","password":true,"vac":true,"version":"7723704","steam_id":85568392924510199,"keywords":["cp","nocrits","nodmgspread","uncletopia"],"game_id":440,"stv_port":27046,"stv_name":"Uncletopia | Los Angeles | 4 | Stopwatch Beta | STV","players":null},{"server_id":11,"name":"Uncletopia | London | 1 | All Maps","name_short":"lon-1","host":"lon-1.uk.uncletopia.com","port":27015,"enabled":true,"region":"eu","cc":"gb","latitude":51.509865,"longitude":-0.118092,"reserved":0,"last_update":"0001-01-01T00:00:00Z","name_a2s":"Uncletopia | London | 1 | All Maps","protocol":17,"map":"pl_borneo","folder":"tf","game":"Team Fortress","app_id":440,"player_count":23,"max_players":24,"Bots":0,"server_type":"Dedicated","server_os":"Linux","password":true,"vac":true,"version":"7723704","steam_id":85568392924367362,"keywords":["nocrits","nodmgspread","payload","uncletopia"],"game_id":440,"stv_port":27016,"stv_name":"Uncletopia | London | 1 | All Maps | STV","players":[{"user_id":1002,"name":"SuperBob103","steam_id":76561199175360012,"connected_time":8352000000000,"state":"active","ping":46},{"user_id":1204,"name":"TaiDni","steam_id":76561198087750392,"connected_time":123000000000,"state":"active","ping":50},{"user_id":1206,"name":"potateking","steam_id":76561198066579830,"connected_time":44000000000,"state":"active","ping":90},{"user_id":1203,"name":"Slug Warrior","steam_id":76561197996052704,"connected_time":146000000000,"state":"active","ping":135},{"user_id":954,"name":"SuntanPikachu","steam_id":76561198121242476,"connected_time":10717000000000,"state":"active","ping":47},{"user_id":1202,"name":"Doc","steam_id":76561198066329412,"connected_time":155000000000,"state":"active","ping":51},{"user_id":1162,"name":"ALOHADAWN","steam_id":76561198308282217,"connected_time":1770000000000,"state":"active","ping":121},{"user_id":1135,"name":"the","steam_id":76561198968160899,"connected_time":3541000000000,"state":"active","ping":63},{"user_id":988,"name":"Hati","steam_id":76561198135520039,"connected_time":8985000000000,"state":"active","ping":60},{"user_id":1205,"name":"stoppen","steam_id":76561197960281482,"connected_time":109000000000,"state":"active","ping":72},{"user_id":1138,"name":"Mir","steam_id":76561198271925474,"connected_time":3158000000000,"state":"active","ping":59},{"user_id":1196,"name":"dave grohl","steam_id":76561198138458704,"connected_time":538000000000,"state":"active","ping":48},{"user_id":1183,"name":"stun","steam_id":76561198276681691,"connected_time":1047000000000,"state":"active","ping":81},{"user_id":1131,"name":"Groose","steam_id":76561198261094295,"connected_time":3955000000000,"state":"active","ping":68},{"user_id":1132,"name":"Grand Wizard","steam_id":76561199414716848,"connected_time":3944000000000,"state":"active","ping":75},{"user_id":1141,"name":"jonbob","steam_id":76561197963506620,"connected_time":2541000000000,"state":"active","ping":47},{"user_id":1140,"name":"Rcki","steam_id":76561198164291462,"connected_time":3006000000000,"state":"active","ping":76},{"user_id":1044,"name":"Iru","steam_id":76561198077602040,"connected_time":6509000000000,"state":"active","ping":59},{"user_id":1124,"name":"Not Sussy Tanuki","steam_id":76561198137289375,"connected_time":4893000000000,"state":"active","ping":114},{"user_id":1197,"name":"crafteen","steam_id":76561198362185755,"connected_time":531000000000,"state":"active","ping":46},{"user_id":1128,"name":"r0la","steam_id":76561198128315340,"connected_time":4686000000000,"state":"active","ping":76},{"user_id":1137,"name":"Rat head","steam_id":76561198184360615,"connected_time":3456000000000,"state":"active","ping":90},{"user_id":1174,"name":"Tatrix","steam_id":76561198295525116,"connected_time":1297000000000,"state":"active","ping":60}]},{"server_id":114,"name":"Uncletopia | London | 2 | All Maps","name_short":"lon-2","host":"lon-1.uk.uncletopia.com","port":27025,"enabled":true,"region":"eu","cc":"gb","latitude":51.509865,"longitude":-0.118092,"reserved":0,"last_update":"0001-01-01T00:00:00Z","name_a2s":"Uncletopia | London | 2 | All Maps","protocol":17,"map":"koth_highpass","folder":"tf","game":"Team Fortress","app_id":440,"player_count":0,"max_players":24,"Bots":0,"server_type":"Dedicated","server_os":"Linux","password":true,"vac":true,"version":"7723704","steam_id":85568392924470941,"keywords":["cp","nocrits","nodmgspread","uncletopia"],"game_id":440,"stv_port":27026,"stv_name":"Uncletopia | London | 2 | All Maps | STV","players":null},{"server_id":320,"name":"Uncletopia | London | 3 | All Maps","name_short":"lon-3","host":"lon-1.uk.uncletopia.com","port":27035,"enabled":true,"region":"eu","cc":"gb","latitude":51.509865,"longitude":-0.118092,"reserved":0,"last_update":"0001-01-01T00:00:00Z","name_a2s":"Uncletopia | London | 3 | All Maps","protocol":17,"map":"pl_borneo","folder":"tf","game":"Team Fortress","app_id":440,"player_count":0,"max_players":24,"Bots":0,"server_type":"Dedicated","server_os":"Linux","password":true,"vac":true,"version":"7723704","steam_id":85568392924510192,"keywords":["nocrits","nodmgspread","payload","uncletopia"],"game_id":440,"stv_port":27036,"stv_name":"Uncletopia | London | 3 | All Maps | STV","players":null},{"server_id":321,"name":"Uncletopia | London | 4 | All Maps","name_short":"lon-4","host":"lon-1.uk.uncletopia.com","port":27045,"enabled":true,"region":"eu","cc":"gb","latitude":51.509865,"longitude":-0.118092,"reserved":0,"last_update":"0001-01-01T00:00:00Z","name_a2s":"Uncletopia | London | 4 | All Maps","protocol":17,"map":"koth_viaduct","folder":"tf","game":"Team Fortress","app_id":440,"player_count":0,"max_players":24,"Bots":0,"server_type":"Dedicated","server_os":"Linux","password":true,"vac":true,"version":"7723704","steam_id":85568392924510193,"keywords":["cp","nocrits","nodmgspread","uncletopia"],"game_id":440,"stv_port":27046,"stv_name":"Uncletopia | London | 4 | All Maps | STV","players":null},{"server_id":21,"name":"Uncletopia | London | 5 | All Maps","name_short":"lon-5","host":"lon-1.uk.uncletopia.com","port":27055,"enabled":true,"region":"eu","cc":"gb","latitude":51.509865,"longitude":-0.118092,"reserved":0,"last_update":"0001-01-01T00:00:00Z","name_a2s":"Uncletopia | London | 5 | All Maps","protocol":17,"map":"koth_lakeside_final","folder":"tf","game":"Team Fortress","app_id":440,"player_count":0,"max_players":24,"Bots":0,"server_type":"Dedicated","server_os":"Linux","password":true,"vac":true,"version":"7723704","steam_id":85568392924742829,"keywords":["cp","nocrits","nodmgspread","uncletopia"],"game_id":440,"stv_port":27056,"stv_name":"Uncletopia | London | 5 | All Maps | STV","players":null},{"server_id":22,"name":"Uncletopia | London | 6 | All Maps","name_short":"lon-6","host":"lon-1.uk.uncletopia.com","port":27065,"enabled":true,"region":"eu","cc":"gb","latitude":51.509865,"longitude":-0.118092,"reserved":0,"last_update":"0001-01-01T00:00:00Z","name_a2s":"Uncletopia | London | 6 | All Maps","protocol":17,"map":"koth_sawmill","folder":"tf","game":"Team Fortress","app_id":440,"player_count":0,"max_players":24,"Bots":0,"server_type":"Dedicated","server_os":"Linux","password":true,"vac":true,"version":"7723704","steam_id":85568392924742830,"keywords":["cp","nocrits","nodmgspread","uncletopia"],"game_id":440,"stv_port":27066,"stv_name":"Uncletopia | London | 6 | All Maps | STV","players":null},{"server_id":40,"name":"Uncletopia | London | 7 | No Payload","name_short":"lon-7","host":"lon-1.uk.uncletopia.com","port":27075,"enabled":true,"region":"eu","cc":"gb","latitude":51.509865,"longitude":-0.118092,"reserved":0,"last_update":"0001-01-01T00:00:00Z","name_a2s":"Uncletopia | London | 7 | No Payload","protocol":17,"map":"cp_process_final","folder":"tf","game":"Team Fortress","app_id":440,"player_count":0,"max_players":24,"Bots":0,"server_type":"Dedicated","server_os":"Linux","password":true,"vac":true,"version":"7723704","steam_id":85568392924964314,"keywords":["cp","nocrits","nodmgspread","uncletopia"],"game_id":440,"stv_port":27076,"stv_name":"Uncletopia | London | 7 | No Payload | STV","players":null},{"server_id":41,"name":"Uncletopia | London | 8 | Community","name_short":"lon-8","host":"lon-1.uk.uncletopia.com","port":27085,"enabled":true,"region":"eu","cc":"gb","latitude":51.509865,"longitude":-0.118092,"reserved":0,"last_update":"0001-01-01T00:00:00Z","name_a2s":"Uncletopia | London | 8 | Community","protocol":17,"map":"workshop/koth_ramjam_v2_b2.ugc2865676487","folder":"tf","game":"Team Fortress","app_id":440,"player_count":0,"max_players":24,"Bots":0,"server_type":"Dedicated","server_os":"Linux","password":true,"vac":true,"version":"7723704","steam_id":85568392924964315,"keywords":["cp","nocrits","nodmgspread","uncletopia"],"game_id":440,"stv_port":27086,"stv_name":"Uncletopia | London | 8 | Community | STV","players":null},{"server_id":300,"name":"Uncletopia | Montr√©al | 1 | All Maps","name_short":"mtl-1","host":"mtl-1.ca.uncletopia.com","port":27015,"enabled":true,"region":"us-east","cc":"ca","latitude":45.50889,"longitude":-73.56167,"reserved":0,"last_update":"0001-01-01T00:00:00Z","name_a2s":"Uncletopia | Montr√©al | 1 | All Maps","protocol":17,"map":"koth_highpass","folder":"tf","game":"Team Fortress","app_id":440,"player_count":0,"max_players":24,"Bots":0,"server_type":"Dedicated","server_os":"Linux","password":true,"vac":true,"version":"7723704","steam_id":85568392924500087,"keywords":["cp","nocrits","nodmgspread","uncletopia"],"game_id":440,"stv_port":27016,"stv_name":"Uncletopia | Montr√©al | 1 | All Maps | STV","players":null},{"server_id":301,"name":"Uncletopia | Montr√©al | 2 | All Maps","name_short":"mtl-2","host":"mtl-1.ca.uncletopia.com","port":27025,"enabled":true,"region":"us-east","cc":"ca","latitude":45.50889,"longitude":-73.56167,"reserved":0,"last_update":"0001-01-01T00:00:00Z","name_a2s":"Uncletopia | Montr√©al | 2 | All Maps","protocol":17,"map":"koth_king","folder":"tf","game":"Team Fortress","app_id":440,"player_count":0,"max_players":24,"Bots":0,"server_type":"Dedicated","server_os":"Linux","password":true,"vac":true,"version":"7723704","steam_id":85568392924500088,"keywords":["cp","nocrits","nodmgspread","uncletopia"],"game_id":440,"stv_port":27026,"stv_name":"Uncletopia | Montr√©al | 2 | All Maps | STV","players":null},{"server_id":302,"name":"Uncletopia | Montr√©al | 3 | All Maps","name_short":"mtl-3","host":"mtl-1.ca.uncletopia.com","port":27035,"enabled":true,"region":"us-east","cc":"ca","latitude":45.50889,"longitude":-73.56167,"reserved":0,"last_update":"0001-01-01T00:00:00Z","name_a2s":"Uncletopia | Montr√©al | 3 | All Maps","protocol":17,"map":"cp_snakewater_final1","folder":"tf","game":"Team Fortress","app_id":440,"player_count":0,"max_players":24,"Bots":0,"server_type":"Dedicated","server_os":"Linux","password":true,"vac":true,"version":"7723704","steam_id":85568392924500089,"keywords":["cp","nocrits","nodmgspread","uncletopia"],"game_id":440,"stv_port":27036,"stv_name":"Uncletopia | Montr√©al | 3 | All Maps | STV","players":null},{"server_id":303,"name":"Uncletopia | Montr√©al | 4 | No Payload","name_short":"mtl-4","host":"mtl-1.ca.uncletopia.com","port":27045,"enabled":true,"region":"us-east","cc":"ca","latitude":45.50889,"longitude":-73.56167,"reserved":0,"last_update":"0001-01-01T00:00:00Z","name_a2s":"Uncletopia | Montr√©al | 4 | No Payload","protocol":17,"map":"koth_harvest_final","folder":"tf","game":"Team Fortress","app_id":440,"player_count":3,"max_players":24,"Bots":0,"server_type":"Dedicated","server_os":"Linux","password":true,"vac":true,"version":"7723704","steam_id":85568392924500090,"keywords":["cp","nocrits","nodmgspread","uncletopia"],"game_id":440,"stv_port":27046,"stv_name":"Uncletopia | Montr√©al | 4 | No Payload | STV","players":[{"user_id":23,"name":"IM SHITTING YOUR PANTS","steam_id":76561198119344547,"connected_time":15000000000,"state":"spawning","ping":60},{"user_id":20,"name":"Rikka._.Pikka","steam_id":76561199002826853,"connected_time":1581000000000,"state":"active","ping":121},{"user_id":21,"name":"GREAT VALUE MILK","steam_id":76561198214702431,"connected_time":1570000000000,"state":"active","ping":65}]},{"server_id":13,"name":"Uncletopia | New York City | 1 | All Maps","name_short":"nyc-1","host":"nyc-1.us.uncletopia.com","port":27015,"enabled":true,"region":"us-east","cc":"us","latitude":40.73061,"longitude":-73.93524,"reserved":0,"last_update":"0001-01-01T00:00:00Z","name_a2s":"Uncletopia | New York City | 1 | All Maps","protocol":17,"map":"pl_badwater","folder":"tf","game":"Team Fortress","app_id":440,"player_count":24,"max_players":24,"Bots":0,"server_type":"Dedicated","server_os":"Linux","password":true,"vac":true,"version":"7723704","steam_id":85568392924469993,"keywords":["nocrits","nodmgspread","payload","uncletopia"],"game_id":440,"stv_port":27016,"stv_name":"Uncletopia | New York City | 1 | All Maps | STV","players":[{"user_id":139,"name":"Yoshimelon","steam_id":76561198253054325,"connected_time":753000000000,"state":"active","ping":78},{"user_id":88,"name":"Lion","steam_id":76561198848879603,"connected_time":4014000000000,"state":"active","ping":50},{"user_id":89,"name":"Uhonlapjanteszika","steam_id":76561199431280503,"connected_time":3964000000000,"state":"active","ping":55},{"user_id":137,"name":"miso","steam_id":76561198038735096,"connected_time":1029000000000,"state":"active","ping":50},{"user_id":145,"name":"chilis baby back ribs","steam_id":76561198813516435,"connected_time":673000000000,"state":"active","ping":105},{"user_id":152,"name":"plutonium isotope","steam_id":76561198319442494,"connected_time":280000000000,"state":"active","ping":113},{"user_id":142,"name":"Zero","steam_id":76561199383267408,"connected_time":743000000000,"state":"active","ping":78},{"user_id":143,"name":"totally not a pile of beans","steam_id":76561198119851931,"connected_time":738000000000,"state":"active","ping":64},{"user_id":108,"name":"M249 | Spectre","steam_id":76561198118334485,"connected_time":2651000000000,"state":"active","ping":69},{"user_id":144,"name":"That Guy","steam_id":76561197997444126,"connected_time":692000000000,"state":"active","ping":105},{"user_id":138,"name":"Poverty's Finest","steam_id":76561198127704044,"connected_time":929000000000,"state":"active","ping":47},{"user_id":146,"name":"That Dude","steam_id":76561198980486227,"connected_time":635000000000,"state":"active","ping":126},{"user_id":105,"name":"Chris Dorner","steam_id":76561198123828188,"connected_time":3146000000000,"state":"active","ping":46},{"user_id":126,"name":"Yuzu","steam_id":76561198417913035,"connected_time":1496000000000,"state":"active","ping":56},{"user_id":147,"name":"Unwrapped Chicken","steam_id":76561198887420147,"connected_time":626000000000,"state":"active","ping":78},{"user_id":86,"name":"PinkLemonade","steam_id":76561198799286228,"connected_time":4153000000000,"state":"active","ping":54},{"user_id":51,"name":"SRV","steam_id":76561198026589960,"connected_time":7925000000000,"state":"active","ping":71},{"user_id":52,"name":"atserc","steam_id":76561197997570349,"connected_time":7919000000000,"state":"active","ping":92},{"user_id":148,"name":"AADDAAMM","steam_id":76561198068584852,"connected_time":490000000000,"state":"active","ping":61},{"user_id":149,"name":"Rat Prophet","steam_id":76561198040884019,"connected_time":484000000000,"state":"active","ping":64},{"user_id":150,"name":"Colonel Crazy","steam_id":76561198262296550,"connected_time":445000000000,"state":"active","ping":88},{"user_id":130,"name":"tame","steam_id":76561198925005855,"connected_time":1162000000000,"state":"active","ping":183},{"user_id":151,"name":"Cooldog","steam_id":76561198080548713,"connected_time":398000000000,"state":"active","ping":52},{"user_id":58,"name":"Crabbymic","steam_id":76561197979418745,"connected_time":7902000000000,"state":"active","ping":45}]},{"server_id":14,"name":"Uncletopia | New York City | 2 | All Maps","name_short":"nyc-2","host":"nyc-1.us.uncletopia.com","port":27025,"enabled":true,"region":"us-east","cc":"us","latitude":40.73061,"longitude":-73.93524,"reserved":0,"last_update":"0001-01-01T00:00:00Z","name_a2s":"Uncletopia | New York City | 2 | All Maps","protocol":17,"map":"pl_snowycoast","folder":"tf","game":"Team Fortress","app_id":440,"player_count":24,"max_players":24,"Bots":0,"server_type":"Dedicated","server_os":"Linux","password":true,"vac":true,"version":"7723704","steam_id":85568392924469994,"keywords":["nocrits","nodmgspread","payload","uncletopia"],"game_id":440,"stv_port":27026,"stv_name":"Uncletopia | New York City | 2 | All Maps | STV","players":[{"user_id":327,"name":"Draconic Ballad","steam_id":76561198027191515,"connected_time":2629000000000,"state":"active","ping":61},{"user_id":340,"name":"potato pat lft","steam_id":76561198025489194,"connected_time":943000000000,"state":"active","ping":85},{"user_id":336,"name":"·óúÀ¨·óú","steam_id":76561198049076233,"connected_time":1033000000000,"state":"active","ping":49},{"user_id":351,"name":"oxbudy","steam_id":76561198022120207,"connected_time":481000000000,"state":"active","ping":75},{"user_id":314,"name":"Jolly evil little man","steam_id":76561198311053471,"connected_time":4658000000000,"state":"active","ping":75},{"user_id":338,"name":"Super Gay Homo Thug","steam_id":76561198355094896,"connected_time":991000000000,"state":"active","ping":60},{"user_id":339,"name":"SWISS!","steam_id":76561198271971252,"connected_time":957000000000,"state":"active","ping":90},{"user_id":328,"name":"McNamJam","steam_id":76561198028128686,"connected_time":2624000000000,"state":"active","ping":112},{"user_id":341,"name":"booch","steam_id":76561198017030029,"connected_time":914000000000,"state":"active","ping":119},{"user_id":342,"name":"Angry Loona","steam_id":76561198282296334,"connected_time":910000000000,"state":"active","ping":47},{"user_id":343,"name":"LiliMaid","steam_id":76561198271981179,"connected_time":868000000000,"state":"active","ping":82},{"user_id":344,"name":"ndvr","steam_id":76561199379200102,"connected_time":818000000000,"state":"active","ping":43},{"user_id":319,"name":"Luis wid a mic","steam_id":76561198349570006,"connected_time":4110000000000,"state":"active","ping":38},{"user_id":353,"name":"no. 1 will toledo kisser","steam_id":76561198421610135,"connected_time":309000000000,"state":"active","ping":45},{"user_id":354,"name":"Moonadoo","steam_id":76561198133377546,"connected_time":308000000000,"state":"active","ping":87},{"user_id":348,"name":"300 Ping Gaming [WLP]","steam_id":76561199042160997,"connected_time":785000000000,"state":"active","ping":170},{"user_id":241,"name":"Dusty Bucket","steam_id":76561198037064732,"connected_time":9630000000000,"state":"active","ping":48},{"user_id":243,"name":"monoculus man","steam_id":76561198065108835,"connected_time":9611000000000,"state":"active","ping":59},{"user_id":355,"name":"melvyn","steam_id":76561198113226381,"connected_time":70000000000,"state":"active","ping":41},{"user_id":263,"name":"layabout","steam_id":76561198130892117,"connected_time":7736000000000,"state":"active","ping":62},{"user_id":350,"name":"lomeiin","steam_id":76561198858765483,"connected_time":676000000000,"state":"active","ping":72},{"user_id":247,"name":"Sideshow Penguin","steam_id":76561198128024135,"connected_time":9429000000000,"state":"active","ping":48},{"user_id":297,"name":"bikerkid207","steam_id":76561198390782783,"connected_time":6350000000000,"state":"active","ping":48},{"user_id":326,"name":"HAT-WEARING‚Ñ¢ Maggot Gamer Cat","steam_id":76561197973992705,"connected_time":2802000000000,"state":"active","ping":116}]},{"server_id":15,"name":"Uncletopia | New York City | 3 | Stopwatch Beta","name_short":"nyc-3","host":"nyc-1.us.uncletopia.com","port":27035,"enabled":true,"region":"us-east","cc":"us","latitude":40.73061,"longitude":-73.93524,"reserved":0,"last_update":"0001-01-01T00:00:00Z","name_a2s":"Uncletopia | New York City | 3 | Stopwatch Beta","protocol":17,"map":"cp_process_final","folder":"tf","game":"Team Fortress","app_id":440,"player_count":0,"max_players":24,"Bots":0,"server_type":"Dedicated","server_os":"Linux","password":true,"vac":true,"version":"7723704","steam_id":85568392924742820,"keywords":["cp","nocrits","nodmgspread","uncletopia"],"game_id":440,"stv_port":27036,"stv_name":"Uncletopia | New York City | 3 | Stopwatch Beta | STV","players":null},{"server_id":16,"name":"Uncletopia | New York City | 4 | Community","name_short":"nyc-4","host":"nyc-1.us.uncletopia.com","port":27045,"enabled":true,"region":"us-east","cc":"us","latitude":40.73061,"longitude":-73.93524,"reserved":0,"last_update":"0001-01-01T00:00:00Z","name_a2s":"Uncletopia | New York City | 4 | Community","protocol":17,"map":"workshop/koth_ramjam_v2_b2.ugc2865676487","folder":"tf","game":"Team Fortress","app_id":440,"player_count":10,"max_players":24,"Bots":0,"server_type":"Dedicated","server_os":"Linux","password":true,"vac":true,"version":"7723704","steam_id":85568392924742821,"keywords":["cp","nocrits","nodmgspread","uncletopia"],"game_id":440,"stv_port":27046,"stv_name":"Uncletopia | New York City | 4 | Community | STV","players":[{"user_id":82,"name":"desktop","steam_id":76561198161385366,"connected_time":500000000000,"state":"active","ping":50},{"user_id":85,"name":"Grape Juice","steam_id":76561198380337568,"connected_time":1000000000,"state":"spawning","ping":68},{"user_id":78,"name":"buzz","steam_id":76561198107899101,"connected_time":725000000000,"state":"active","ping":47},{"user_id":70,"name":"Chap","steam_id":76561198294226443,"connected_time":1972000000000,"state":"active","ping":134},{"user_id":72,"name":"Pyrite","steam_id":76561198148248671,"connected_time":1143000000000,"state":"active","ping":53},{"user_id":74,"name":"Pont","steam_id":76561198845695747,"connected_time":1041000000000,"state":"active","ping":55},{"user_id":77,"name":"Mysterious","steam_id":76561198186202854,"connected_time":832000000000,"state":"active","ping":50},{"user_id":79,"name":"Chimpe","steam_id":76561198066228209,"connected_time":720000000000,"state":"active","ping":60},{"user_id":80,"name":"ICE CUBE","steam_id":76561198851912896,"connected_time":670000000000,"state":"active","ping":76},{"user_id":83,"name":"D9","steam_id":76561198149666258,"connected_time":458000000000,"state":"active","ping":172}]},{"server_id":142,"name":"Uncletopia | S√£o Paulo | 1 | All Maps","name_short":"sao-1","host":"sao-1.br.uncletopia.com","port":27015,"enabled":true,"region":"sa","cc":"br","latitude":-23.533773,"longitude":-46.62529,"reserved":0,"last_update":"0001-01-01T00:00:00Z","name_a2s":"Uncletopia | S√£o Paulo | 1 | All Maps","protocol":17,"map":"pl_barnblitz","folder":"tf","game":"Team Fortress","app_id":440,"player_count":0,"max_players":24,"Bots":0,"server_type":"Dedicated","server_os":"Linux","password":true,"vac":true,"version":"7723704","steam_id":85568392924469996,"keywords":["nocrits","nodmgspread","payload","uncletopia"],"game_id":440,"stv_port":27016,"stv_name":"Uncletopia | S√£o Paulo | 1 | All Maps | STV","players":null},{"server_id":143,"name":"Uncletopia | S√£o Paulo | 2 | All Maps","name_short":"sao-2","host":"sao-2.br.uncletopia.com","port":27015,"enabled":true,"region":"sa","cc":"br","latitude":-23.533773,"longitude":-46.62529,"reserved":0,"last_update":"0001-01-01T00:00:00Z","name_a2s":"Uncletopia | S√£o Paulo | 2 | All Maps","protocol":17,"map":"pl_barnblitz","folder":"tf","game":"Team Fortress","app_id":440,"player_count":0,"max_players":24,"Bots":0,"server_type":"Dedicated","server_os":"Linux","password":true,"vac":true,"version":"7723704","steam_id":85568392924485349,"keywords":["nocrits","nodmgspread","payload","uncletopia"],"game_id":440,"stv_port":27016,"stv_name":"Uncletopia | S√£o Paulo | 2 | All Maps | STV","players":null},{"server_id":7,"name":"Uncletopia | Seattle | 1 | All Maps","name_short":"sea-1","host":"sea-1.us.uncletopia.com","port":27015,"enabled":true,"region":"us-west","cc":"us","latitude":47.608013,"longitude":-122.33517,"reserved":0,"last_update":"0001-01-01T00:00:00Z","name_a2s":"Uncletopia | Seattle | 1 | All Maps","protocol":17,"map":"koth_harvest_final","folder":"tf","game":"Team Fortress","app_id":440,"player_count":24,"max_players":24,"Bots":0,"server_type":"Dedicated","server_os":"Linux","password":true,"vac":true,"version":"7723704","steam_id":85568392924469997,"keywords":["cp","nocrits","nodmgspread","uncletopia"],"game_id":440,"stv_port":27016,"stv_name":"Uncletopia | Seattle | 1 | All Maps | STV","players":[{"user_id":438,"name":"William P. Ennis","steam_id":76561198073464877,"connected_time":95000000000,"state":"active","ping":90},{"user_id":420,"name":"Cheeseoid","steam_id":76561198073836524,"connected_time":1874000000000,"state":"active","ping":109},{"user_id":427,"name":"mhmyeah_yeahmhm","steam_id":76561198341190679,"connected_time":900000000000,"state":"active","ping":53},{"user_id":306,"name":"Luca","steam_id":76561198125087140,"connected_time":11944000000000,"state":"active","ping":46},{"user_id":432,"name":"Common","steam_id":76561198041083863,"connected_time":627000000000,"state":"active","ping":57},{"user_id":408,"name":"PorgyPork","steam_id":76561198824399078,"connected_time":2814000000000,"state":"active","ping":59},{"user_id":433,"name":"RecklessRoadRage","steam_id":76561199089562026,"connected_time":627000000000,"state":"active","ping":46},{"user_id":419,"name":"Blitzvandel","steam_id":76561198129249706,"connected_time":1956000000000,"state":"active","ping":53},{"user_id":435,"name":"Hotdoggiest","steam_id":76561198049420141,"connected_time":601000000000,"state":"active","ping":77},{"user_id":388,"name":"squash","steam_id":76561198150281353,"connected_time":4072000000000,"state":"active","ping":58},{"user_id":436,"name":"T√ºCold","steam_id":76561198111278197,"connected_time":589000000000,"state":"active","ping":57},{"user_id":379,"name":"rat gets the cheese","steam_id":76561198031234032,"connected_time":5658000000000,"state":"active","ping":94},{"user_id":425,"name":"resting neutral face","steam_id":76561197999259502,"connected_time":933000000000,"state":"active","ping":60},{"user_id":437,"name":"Sniff","steam_id":76561198010270922,"connected_time":164000000000,"state":"active","ping":45},{"user_id":429,"name":"Daft Tigers","steam_id":76561198081871942,"connected_time":744000000000,"state":"active","ping":81},{"user_id":421,"name":"Piper Knightley","steam_id":76561198040865392,"connected_time":1806000000000,"state":"active","ping":81},{"user_id":403,"name":"[TrC] Nosy","steam_id":76561197978859310,"connected_time":3398000000000,"state":"active","ping":61},{"user_id":422,"name":"trackpad gaming | f2p","steam_id":76561198840414371,"connected_time":1617000000000,"state":"active","ping":81},{"user_id":417,"name":"sockman","steam_id":76561198108408235,"connected_time":2225000000000,"state":"active","ping":94},{"user_id":423,"name":"Kromeousible","steam_id":76561198087317232,"connected_time":1616000000000,"state":"active","ping":94},{"user_id":416,"name":"Level 99 Mudcrab","steam_id":76561198077452771,"connected_time":2343000000000,"state":"active","ping":60},{"user_id":406,"name":"[TrC] Dackstrus","steam_id":76561197973518509,"connected_time":3195000000000,"state":"active","ping":59},{"user_id":430,"name":"[K.Y.L.L.]Drone #0432 (it)","steam_id":76561198027321950,"connected_time":744000000000,"state":"active","ping":51},{"user_id":376,"name":"Be Gay, Do Crimes, Smoke Weed!","steam_id":76561198092419868,"connected_time":5673000000000,"state":"active","ping":50}]},{"server_id":119,"name":"Uncletopia | Seattle | 2 | All Maps","name_short":"sea-2","host":"sea-1.us.uncletopia.com","port":27025,"enabled":true,"region":"us-west","cc":"us","latitude":47.608013,"longitude":-122.33517,"reserved":0,"last_update":"0001-01-01T00:00:00Z","name_a2s":"Uncletopia | Seattle | 2 | All Maps","protocol":17,"map":"pl_borneo","folder":"tf","game":"Team Fortress","app_id":440,"player_count":20,"max_players":24,"Bots":0,"server_type":"Dedicated","server_os":"Linux","password":true,"vac":true,"version":"7723704","steam_id":85568392924469998,"keywords":["nocrits","nodmgspread","payload","uncletopia"],"game_id":440,"stv_port":27026,"stv_name":"Uncletopia | Seattle | 2 | All Maps | STV","players":[{"user_id":403,"name":"Ms. BirD","steam_id":76561198309058062,"connected_time":2560000000000,"state":"active","ping":193},{"user_id":409,"name":"Best Bleach","steam_id":76561198090216348,"connected_time":1463000000000,"state":"active","ping":74},{"user_id":430,"name":"BackToSchoolAds","steam_id":76561198870281128,"connected_time":613000000000,"state":"active","ping":84},{"user_id":408,"name":"TheBold","steam_id":76561199194787298,"connected_time":1745000000000,"state":"active","ping":52},{"user_id":418,"name":"3ArmsNoSouls","steam_id":76561198861260640,"connected_time":1075000000000,"state":"active","ping":67},{"user_id":434,"name":"Soap Man","steam_id":76561198000490235,"connected_time":370000000000,"state":"active","ping":67},{"user_id":416,"name":"Cheezbeargur","steam_id":76561198164702899,"connected_time":1094000000000,"state":"active","ping":60},{"user_id":435,"name":"Sol","steam_id":76561198803824764,"connected_time":351000000000,"state":"active","ping":73},{"user_id":425,"name":"Rx Auntie","steam_id":76561198051618393,"connected_time":797000000000,"state":"active","ping":60},{"user_id":436,"name":"Barack Obama Gaming","steam_id":76561198129242016,"connected_time":315000000000,"state":"active","ping":56},{"user_id":441,"name":"IF I WIN, YOU ARE STINKY!","steam_id":76561198093368703,"connected_time":66000000000,"state":"active","ping":76},{"user_id":422,"name":"IM NOT A FUCKING BOT","steam_id":76561198210848965,"connected_time":930000000000,"state":"active","ping":225},{"user_id":426,"name":"cofferhead","steam_id":76561199191108449,"connected_time":772000000000,"state":"active","ping":78},{"user_id":438,"name":"dubious little creature","steam_id":76561198113251746,"connected_time":264000000000,"state":"active","ping":73},{"user_id":429,"name":"timmy","steam_id":76561198063322988,"connected_time":661000000000,"state":"active","ping":45},{"user_id":439,"name":"Crake","steam_id":76561198001959071,"connected_time":243000000000,"state":"active","ping":50},{"user_id":442,"name":"Vitic","steam_id":76561198065971852,"connected_time":34000000000,"state":"active","ping":74},{"user_id":443,"name":"Prison mike","steam_id":76561198408774196,"connected_time":33000000000,"state":"active","ping":63},{"user_id":444,"name":"oil","steam_id":76561198099980149,"connected_time":25000000000,"state":"active","ping":124},{"user_id":445,"name":"oo","steam_id":76561198119626492,"connected_time":6000000000,"state":"spawning","ping":102}]},{"server_id":406,"name":"Uncletopia | Seattle | 3 | Stopwatch Beta","name_short":"sea-3","host":"sea-1.us.uncletopia.com","port":27035,"enabled":true,"region":"us-west","cc":"us","latitude":47.608013,"longitude":-122.33517,"reserved":0,"last_update":"0001-01-01T00:00:00Z","name_a2s":"Uncletopia | Seattle | 3 | Stopwatch Beta","protocol":17,"map":"cp_altitude","folder":"tf","game":"Team Fortress","app_id":440,"player_count":0,"max_players":24,"Bots":0,"server_type":"Dedicated","server_os":"Linux","password":true,"vac":false,"version":"7723704","steam_id":0,"keywords":["cp","nocrits","nodmgspread","uncletopia"],"game_id":440,"stv_port":27036,"stv_name":"Uncletopia | Seattle | 3 | Stopwatch Beta | STV","players":null},{"server_id":17,"name":"Uncletopia | San Francisco | 1 | All Maps","name_short":"sfo-1","host":"sfo-1.us.uncletopia.com","port":27015,"enabled":true,"region":"us-west","cc":"us","latitude":37.77397,"longitude":-122.4313,"reserved":0,"last_update":"0001-01-01T00:00:00Z","name_a2s":"Uncletopia | San Francisco | 1 | All Maps","protocol":17,"map":"pl_pier","folder":"tf","game":"Team Fortress","app_id":440,"player_count":24,"max_players":24,"Bots":0,"server_type":"Dedicated","server_os":"Linux","password":true,"vac":true,"version":"7723704","steam_id":85568392924469999,"keywords":["nocrits","nodmgspread","payload","uncletopia"],"game_id":440,"stv_port":27016,"stv_name":"Uncletopia | San Francisco | 1 | All Maps | STV","players":[{"user_id":316,"name":"Steve Obi Wan Ben Larry Kenobi","steam_id":76561199154188122,"connected_time":4335000000000,"state":"active","ping":99},{"user_id":352,"name":"tacofever","steam_id":76561198010966507,"connected_time":1049000000000,"state":"active","ping":59},{"user_id":325,"name":"Jax O'Gaytor","steam_id":76561198288922168,"connected_time":3086000000000,"state":"active","ping":65},{"user_id":356,"name":"Dr. Doctor","steam_id":76561198240900958,"connected_time":124000000000,"state":"active","ping":59},{"user_id":351,"name":"John16Mark","steam_id":76561198119445407,"connected_time":1312000000000,"state":"active","ping":100},{"user_id":337,"name":"Metal Meatball","steam_id":76561198182999801,"connected_time":2398000000000,"state":"active","ping":74},{"user_id":323,"name":"45 Cent","steam_id":76561198048690188,"connected_time":3486000000000,"state":"active","ping":119},{"user_id":326,"name":"SirArza","steam_id":76561198196214655,"connected_time":3069000000000,"state":"active","ping":104},{"user_id":344,"name":"TROY","steam_id":76561197983852176,"connected_time":1818000000000,"state":"active","ping":49},{"user_id":358,"name":"Sharkbait","steam_id":76561198170192335,"connected_time":98000000000,"state":"active","ping":48},{"user_id":361,"name":"Noble Crusader","steam_id":76561198243828894,"connected_time":63000000000,"state":"active","ping":105},{"user_id":354,"name":"bullet man","steam_id":76561198080058079,"connected_time":798000000000,"state":"active","ping":73},{"user_id":360,"name":"Moleculemind","steam_id":76561198077788483,"connected_time":73000000000,"state":"active","ping":82},{"user_id":357,"name":"Tom Skirrett","steam_id":76561198014600788,"connected_time":118000000000,"state":"active","ping":95},{"user_id":341,"name":"yo quiero bacon","steam_id":76561198875054696,"connected_time":2300000000000,"state":"active","ping":45},{"user_id":362,"name":"inspract","steam_id":76561199437724223,"connected_time":48000000000,"state":"active","ping":60},{"user_id":348,"name":"Dabois","steam_id":76561199147193419,"connected_time":1784000000000,"state":"active","ping":67},{"user_id":363,"name":"Khallaria","steam_id":76561198000706490,"connected_time":47000000000,"state":"active","ping":119},{"user_id":333,"name":"SHADOW (he/him)","steam_id":76561198207768148,"connected_time":2657000000000,"state":"active","ping":63},{"user_id":349,"name":"Vanguard","steam_id":76561198044844135,"connected_time":1738000000000,"state":"active","ping":103},{"user_id":343,"name":"General Fisticuffs","steam_id":76561198255721392,"connected_time":1839000000000,"state":"active","ping":91},{"user_id":346,"name":"Dali","steam_id":76561198077593486,"connected_time":1814000000000,"state":"active","ping":72},{"user_id":364,"name":"Rich Money McNickelson","steam_id":76561198352427247,"connected_time":40000000000,"state":"active","ping":60},{"user_id":353,"name":"Noble Sax","steam_id":76561198183283495,"connected_time":829000000000,"state":"active","ping":60}]},{"server_id":18,"name":"Uncletopia | San Francisco | 2 | All Maps","name_short":"sfo-2","host":"sfo-1.us.uncletopia.com","port":27025,"enabled":true,"region":"us-west","cc":"us","latitude":37.77397,"longitude":-122.4313,"reserved":0,"last_update":"0001-01-01T00:00:00Z","name_a2s":"Uncletopia | San Francisco | 2 | All Maps","protocol":17,"map":"pl_borneo","folder":"tf","game":"Team Fortress","app_id":440,"player_count":0,"max_players":24,"Bots":0,"server_type":"Dedicated","server_os":"Linux","password":true,"vac":true,"version":"7723704","steam_id":85568392924470000,"keywords":["nocrits","nodmgspread","payload","uncletopia"],"game_id":440,"stv_port":27026,"stv_name":"Uncletopia | San Francisco | 2 | All Maps | STV","players":null},{"server_id":19,"name":"Uncletopia | San Francisco | 3 | Stopwatch Beta","name_short":"sfo-3","host":"sfo-1.us.uncletopia.com","port":27035,"enabled":true,"region":"us-west","cc":"us","latitude":37.77397,"longitude":-122.4313,"reserved":0,"last_update":"0001-01-01T00:00:00Z","name_a2s":"Uncletopia | San Francisco | 3 | Stopwatch Beta","protocol":17,"map":"pl_pier","folder":"tf","game":"Team Fortress","app_id":440,"player_count":0,"max_players":24,"Bots":0,"server_type":"Dedicated","server_os":"Linux","password":true,"vac":true,"version":"7723704","steam_id":85568392924742824,"keywords":["nocrits","nodmgspread","payload","uncletopia"],"game_id":440,"stv_port":27036,"stv_name":"Uncletopia | San Francisco | 3 | Stopwatch Beta | STV","players":null},{"server_id":20,"name":"Uncletopia | San Francisco | 4 | Community","name_short":"sfo-4","host":"sfo-1.us.uncletopia.com","port":27045,"enabled":true,"region":"us-west","cc":"us","latitude":37.77397,"longitude":-122.4313,"reserved":0,"last_update":"0001-01-01T00:00:00Z","name_a2s":"Uncletopia | San Francisco | 4 | Community","protocol":17,"map":"koth_cascade","folder":"tf","game":"Team Fortress","app_id":440,"player_count":0,"max_players":24,"Bots":0,"server_type":"Dedicated","server_os":"Linux","password":true,"vac":true,"version":"7723704","steam_id":85568392924742826,"keywords":["cp","nocrits","nodmgspread","uncletopia"],"game_id":440,"stv_port":27046,"stv_name":"Uncletopia | San Francisco | 4 | Community | STV","players":null},{"server_id":141,"name":"Uncletopia | Sydney | 1 | All Maps","name_short":"syd-1","host":"syd-1.au.uncletopia.com","port":27015,"enabled":true,"region":"au","cc":"au","latitude":-33.865143,"longitude":151.2099,"reserved":0,"last_update":"0001-01-01T00:00:00Z","name_a2s":"Uncletopia | Sydney | 1 | All Maps","protocol":17,"map":"pl_snowycoast","folder":"tf","game":"Team Fortress","app_id":440,"player_count":0,"max_players":24,"Bots":0,"server_type":"Dedicated","server_os":"Linux","password":true,"vac":true,"version":"7723704","steam_id":85568392924470001,"keywords":["nocrits","nodmgspread","payload","uncletopia"],"game_id":440,"stv_port":27016,"stv_name":"Uncletopia | Sydney | 1 | All Maps | STV","players":null},{"server_id":123,"name":"Uncletopia | Sydney | 2 | All Maps","name_short":"syd-2","host":"syd-1.au.uncletopia.com","port":27025,"enabled":true,"region":"au","cc":"au","latitude":-33.865143,"longitude":151.2099,"reserved":0,"last_update":"0001-01-01T00:00:00Z","name_a2s":"Uncletopia | Sydney | 2 | All Maps","protocol":17,"map":"cp_snakewater_final1","folder":"tf","game":"Team Fortress","app_id":440,"player_count":0,"max_players":24,"Bots":0,"server_type":"Dedicated","server_os":"Linux","password":true,"vac":true,"version":"7723704","steam_id":85568392924470002,"keywords":["cp","nocrits","nodmgspread","uncletopia"],"game_id":440,"stv_port":27026,"stv_name":"Uncletopia | Sydney | 2 | All Maps | STV","players":null},{"server_id":395,"name":"Uncletopia | Sydney | 3 | All Maps","name_short":"syd-3","host":"syd-1.au.uncletopia.com","port":27035,"enabled":true,"region":"au","cc":"au","latitude":-33.865143,"longitude":151.2099,"reserved":0,"last_update":"0001-01-01T00:00:00Z","name_a2s":"Uncletopia | Sydney | 3 | All Maps","protocol":17,"map":"pl_snowycoast","folder":"tf","game":"Team Fortress","app_id":440,"player_count":18,"max_players":24,"Bots":0,"server_type":"Dedicated","server_os":"Linux","password":true,"vac":true,"version":"7723704","steam_id":85568392925194467,"keywords":["nocrits","nodmgspread","payload","uncletopia"],"game_id":440,"stv_port":27036,"stv_name":"Uncletopia | Sydney | 3 | All Maps | STV","players":[{"user_id":96,"name":"speed bomb","steam_id":76561198277363788,"connected_time":8000000000000,"state":"active","ping":76},{"user_id":187,"name":"SkoKiE","steam_id":76561198283542986,"connected_time":1788000000000,"state":"active","ping":47},{"user_id":202,"name":"The Inked Rabbit","steam_id":76561199158680285,"connected_time":1160000000000,"state":"active","ping":47},{"user_id":213,"name":"jannah\u003c3","steam_id":76561199216915172,"connected_time":36000000000,"state":"spawning","ping":84},{"user_id":211,"name":"Dangerous DPad","steam_id":76561198452829128,"connected_time":109000000000,"state":"active","ping":67},{"user_id":214,"name":"SaltierThanYou","steam_id":76561198444395188,"connected_time":29000000000,"state":"spawning","ping":80},{"user_id":205,"name":"Selling Anti-Matter for $543","steam_id":76561198070708382,"connected_time":1042000000000,"state":"active","ping":51},{"user_id":206,"name":"ToadFungus","steam_id":76561199219667039,"connected_time":1033000000000,"state":"active","ping":92},{"user_id":210,"name":"Mungbean","steam_id":76561198192300679,"connected_time":595000000000,"state":"active","ping":59},{"user_id":209,"name":"FizzCan","steam_id":76561198209782572,"connected_time":910000000000,"state":"active","ping":69},{"user_id":191,"name":"Angel Sherling","steam_id":76561198374293303,"connected_time":1600000000000,"state":"active","ping":38},{"user_id":200,"name":"Zacy","steam_id":76561198114841670,"connected_time":1237000000000,"state":"active","ping":121},{"user_id":197,"name":"pooping on the sun","steam_id":76561198163369325,"connected_time":1462000000000,"state":"active","ping":43},{"user_id":157,"name":"terrablade_master","steam_id":76561198997249192,"connected_time":4155000000000,"state":"active","ping":60},{"user_id":169,"name":"a can of beans","steam_id":76561199005815714,"connected_time":3144000000000,"state":"active","ping":50},{"user_id":199,"name":"Jacob","steam_id":76561198059341907,"connected_time":1258000000000,"state":"active","ping":36},{"user_id":174,"name":"fluffyselby","steam_id":76561199142645274,"connected_time":2983000000000,"state":"active","ping":46},{"user_id":159,"name":"Novix","steam_id":76561198255494226,"connected_time":4028000000000,"state":"active","ping":43}]},{"server_id":396,"name":"Uncletopia | Sydney | 4 | All Maps","name_short":"syd-4","host":"syd-1.au.uncletopia.com","port":27045,"enabled":true,"region":"au","cc":"au","latitude":-33.865143,"longitude":151.2099,"reserved":0,"last_update":"0001-01-01T00:00:00Z","name_a2s":"Uncletopia | Sydney | 4 | All Maps","protocol":17,"map":"koth_lakeside_final","folder":"tf","game":"Team Fortress","app_id":440,"player_count":0,"max_players":24,"Bots":0,"server_type":"Dedicated","server_os":"Linux","password":true,"vac":true,"version":"7723704","steam_id":85568392925397958,"keywords":["cp","nocrits","nodmgspread","uncletopia"],"game_id":440,"stv_port":27046,"stv_name":"Uncletopia | Sydney | 4 | All Maps | STV","players":null},{"server_id":58,"name":"Uncletopia | Sydney | 5 | Stopwatch Beta","name_short":"syd-5","host":"syd-1.au.uncletopia.com","port":27055,"enabled":true,"region":"au","cc":"au","latitude":-33.865143,"longitude":151.2099,"reserved":0,"last_update":"0001-01-01T00:00:00Z","name_a2s":"Uncletopia | Sydney | 5 | Stopwatch Beta","protocol":17,"map":"cp_altitude","folder":"tf","game":"Team Fortress","app_id":440,"player_count":0,"max_players":24,"Bots":0,"server_type":"Dedicated","server_os":"Linux","password":true,"vac":true,"version":"7723704","steam_id":85568392925397959,"keywords":["cp","nocrits","nodmgspread","uncletopia"],"game_id":440,"stv_port":27056,"stv_name":"Uncletopia | Sydney | 5 | Stopwatch Beta | STV","players":null},{"server_id":59,"name":"Uncletopia | Sydney | 6 | Community","name_short":"syd-6","host":"syd-1.au.uncletopia.com","port":27065,"enabled":true,"region":"au","cc":"au","latitude":-33.865143,"longitude":151.2099,"reserved":0,"last_update":"0001-01-01T00:00:00Z","name_a2s":"Uncletopia | Sydney | 6 | Community","protocol":17,"map":"workshop/koth_ramjam_v2_b2.ugc2865676487","folder":"tf","game":"Team Fortress","app_id":440,"player_count":2,"max_players":24,"Bots":0,"server_type":"Dedicated","server_os":"Linux","password":true,"vac":true,"version":"7723704","steam_id":85568392925397960,"keywords":["cp","nocrits","nodmgspread","uncletopia"],"game_id":440,"stv_port":27066,"stv_name":"Uncletopia | Sydney | 6 | Community | STV","players":[{"user_id":8,"name":"Spoke","steam_id":76561198417696707,"connected_time":279000000000,"state":"active","ping":49},{"user_id":10,"name":"Rextron","steam_id":76561198086545752,"connected_time":104000000000,"state":"active","ping":94}]},{"server_id":49,"name":"Uncletopia | Warsaw | 1 | All Maps","name_short":"waw-1","host":"waw-1.pl.uncletopia.com","port":27015,"enabled":true,"region":"eu","cc":"pl","latitude":52.2297,"longitude":21.017532,"reserved":0,"last_update":"0001-01-01T00:00:00Z","name_a2s":"Uncletopia | Warsaw | 1 | All Maps","protocol":17,"map":"pl_badwater","folder":"tf","game":"Team Fortress","app_id":440,"player_count":0,"max_players":24,"Bots":0,"server_type":"Dedicated","server_os":"Linux","password":true,"vac":true,"version":"7723704","steam_id":85568392925397850,"keywords":["nocrits","nodmgspread","payload","uncletopia"],"game_id":440,"stv_port":27016,"stv_name":"Uncletopia | Warsaw | 1 | All Maps | STV","players":null},{"server_id":50,"name":"Uncletopia | Warsaw | 2 | All Maps","name_short":"waw-2","host":"waw-1.pl.uncletopia.com","port":27025,"enabled":true,"region":"eu","cc":"pl","latitude":52.2297,"longitude":21.017532,"reserved":0,"last_update":"0001-01-01T00:00:00Z","name_a2s":"Uncletopia | Warsaw | 2 | All Maps","protocol":17,"map":"koth_lakeside_final","folder":"tf","game":"Team Fortress","app_id":440,"player_count":0,"max_players":24,"Bots":0,"server_type":"Dedicated","server_os":"Linux","password":true,"vac":true,"version":"7723704","steam_id":85568392925397851,"keywords":["cp","nocrits","nodmgspread","uncletopia"],"game_id":440,"stv_port":27026,"stv_name":"Uncletopia | Warsaw | 2 | All Maps | STV","players":null},{"server_id":51,"name":"Uncletopia | Warsaw | 3 | All Maps","name_short":"waw-3","host":"waw-1.pl.uncletopia.com","port":27035,"enabled":true,"region":"eu","cc":"pl","latitude":52.2297,"longitude":21.017532,"reserved":0,"last_update":"0001-01-01T00:00:00Z","name_a2s":"Uncletopia | Warsaw | 3 | All Maps","protocol":17,"map":"koth_viaduct","folder":"tf","game":"Team Fortress","app_id":440,"player_count":0,"max_players":24,"Bots":0,"server_type":"Dedicated","server_os":"Linux","password":true,"vac":true,"version":"7723704","steam_id":85568392925397852,"keywords":["cp","nocrits","nodmgspread","uncletopia"],"game_id":440,"stv_port":27036,"stv_name":"Uncletopia | Warsaw | 3 | All Maps | STV","players":null},{"server_id":52,"name":"Uncletopia | Warsaw | 4 | All Maps","name_short":"waw-4","host":"waw-1.pl.uncletopia.com","port":27045,"enabled":true,"region":"eu","cc":"pl","latitude":52.2297,"longitude":21.017532,"reserved":0,"last_update":"0001-01-01T00:00:00Z","name_a2s":"Uncletopia | Warsaw | 4 | All Maps","protocol":17,"map":"cp_altitude","folder":"tf","game":"Team Fortress","app_id":440,"player_count":0,"max_players":24,"Bots":0,"server_type":"Dedicated","server_os":"Linux","password":true,"vac":true,"version":"7723704","steam_id":85568392925397853,"keywords":["cp","nocrits","nodmgspread","uncletopia"],"game_id":440,"stv_port":27046,"stv_name":"Uncletopia | Warsaw | 4 | All Maps | STV","players":null},{"server_id":53,"name":"Uncletopia | Warsaw | 5 | Stopwatch Beta","name_short":"waw-5","host":"waw-1.pl.uncletopia.com","port":27055,"enabled":true,"region":"eu","cc":"pl","latitude":52.2297,"longitude":21.017532,"reserved":0,"last_update":"0001-01-01T00:00:00Z","name_a2s":"Uncletopia | Warsaw | 5 | Stopwatch Beta","protocol":17,"map":"cp_sunshine","folder":"tf","game":"Team Fortress","app_id":440,"player_count":0,"max_players":24,"Bots":0,"server_type":"Dedicated","server_os":"Linux","password":true,"vac":true,"version":"7723704","steam_id":85568392925397854,"keywords":["cp","nocrits","nodmgspread","uncletopia"],"game_id":440,"stv_port":27056,"stv_name":"Uncletopia | Warsaw | 5 | Stopwatch Beta | STV","players":null},{"server_id":54,"name":"Uncletopia | Warsaw | 6 | Community","name_short":"waw-6","host":"waw-1.pl.uncletopia.com","port":27065,"enabled":true,"region":"eu","cc":"pl","latitude":52.2297,"longitude":21.017532,"reserved":0,"last_update":"0001-01-01T00:00:00Z","name_a2s":"Uncletopia | Warsaw | 6 | Community","protocol":17,"map":"workshop/koth_synthetic_rc6a.ugc1549817316","folder":"tf","game":"Team Fortress","app_id":440,"player_count":0,"max_players":24,"Bots":0,"server_type":"Dedicated","server_os":"Linux","password":true,"vac":true,"version":"7723704","steam_id":85568392925397856,"keywords":["cp","nocrits","nodmgspread","uncletopia"],"game_id":440,"stv_port":27066,"stv_name":"Uncletopia | Warsaw | 6 | Community | STV","players":null}]}