{"status":true,"message":"","result":[{"server_id":9,"name":"Uncletopia | Atlanta | 1 | All Maps","name_short":"atl-1","host":"atl-1.us.uncletopia.com","port":27015,"enabled":true,"region":"us-east","cc":"us","latitude":33.753746,"longitude":-84.38633,"reserved":0,"last_update":"0001-01-01T00:00:00Z","name_a2s":"Uncletopia | Atlanta | 1 | All Maps","protocol":17,"map":"pl_badwater","folder":"tf","game":"Team Fortress","app_id":440,"player_count":24,"max_players":24,"Bots":0,"server_type":"Dedicated","server_os":"Linux","password":true,"vac":true,"version":"7757534","steam_id":85568392924469982,"keywords":["nocrits","nodmgspread","payload","uncletopia"],"game_id":440,"stv_port":27016,"stv_name":"Uncletopia | Atlanta | 1 | All Maps | STV","players":[{"user_id":189,"name":"Yoru","steam_id":76561198119698950,"connected_time":3300000000000,"state":"active","ping":117},{"user_id":217,"name":"BLU1| Inky (Coolest)","steam_id":76561198968337022,"connected_time":1252000000000,"state":"active","ping":70},{"user_id":226,"name":"09robcraft2","steam_id":76561199073189184,"connected_time":463000000000,"state":"active","ping":84},{"user_id":173,"name":"TDG | iTrez","steam_id":76561198045788316,"connected_time":4714000000000,"state":"active","ping":94},{"user_id":223,"name":"JOTARDO","steam_id":76561198188498429,"connected_time":754000000000,"state":"active","ping":68},{"user_id":213,"name":"Havok","steam_id":76561198063455003,"connected_time":1577000000000,"state":"active","ping":72},{"user_id":227,"name":"tank","steam_id":76561199146161006,"connected_time":138000000000,"state":"active","ping":68},{"user_id":201,"name":"mechiimi ★","steam_id":76561198321627268,"connected_time":2065000000000,"state":"active","ping":131},{"user_id":184,"name":"bendera","steam_id":76561197965486503,"connected_time":3711000000000,"state":"active","ping":78},{"user_id":225,"name":"hubert","steam_id":76561198999159056,"connected_time":694000000000,"state":"active","ping":73},{"user_id":228,"name":"e","steam_id":76561198131245396,"connected_time":131000000000,"state":"active","ping":60},{"user_id":216,"name":"Couriadore","steam_id":76561198055814008,"connected_time":1371000000000,"state":"active","ping":77},{"user_id":229,"name":"Medic","steam_id":76561198023443251,"connected_time":116000000000,"state":"active","ping":93},{"user_id":206,"name":"Oddball","steam_id":76561198040440984,"connected_time":1996000000000,"state":"active","ping":87},{"user_id":230,"name":"Ghostgamer","steam_id":76561198326014242,"connected_time":114000000000,"state":"active","ping":83},{"user_id":207,"name":"HollyBlocky","steam_id":76561198030156100,"connected_time":1947000000000,"state":"active","ping":83},{"user_id":231,"name":"SarcasticSkeleton","steam_id":76561198354628649,"connected_time":112000000000,"state":"active","ping":77},{"user_id":232,"name":"Heisenberg","steam_id":76561198084212164,"connected_time":105000000000,"state":"active","ping":88},{"user_id":197,"name":"Sir Asparagus P. Smehl III","steam_id":76561197995196535,"connected_time":2535000000000,"state":"active","ping":70},{"user_id":234,"name":"1000 Ping","steam_id":76561198098330939,"connected_time":2000000000,"state":"spawning","ping":93},{"user_id":214,"name":"Metal Man","steam_id":76561198024973008,"connected_time":1456000000000,"state":"active","ping":76},{"user_id":195,"name":"Brandonazz","steam_id":76561197994366351,"connected_time":2647000000000,"state":"active","ping":77},{"user_id":222,"name":"Rubby","steam_id":76561198967446392,"connected_time":917000000000,"state":"active","ping":125},{"user_id":161,"name":"DontaeRiceArt (DMR)","steam_id":76561198042659150,"connected_time":6121000000000,"state":"active","ping":80}]},{"server_id":400,"name":"Uncletopia | Atlanta | 3 | Community","name_short":"atl-3","host":"atl-1.us.uncletopia.com","port":27035,"enabled":true,"region":"us-east","cc":"us","latitude":33.753746,"longitude":-84.38633,"reserved":0,"last_update":"0001-01-01T00:00:00Z","name_a2s":"Uncletopia | Atlanta | 3 | Community","protocol":17,"map":"workshop/pl_vigil_rc9.ugc1266210012","folder":"tf","game":"Team Fortress","app_id":440,"player_count":0,"max_players":24,"Bots":0,"server_type":"Dedicated","server_os":"Linux","password":true,"vac":true,"version":"7757534","steam_id":85568392924515187,"keywords":["nocrits","nodmgspread","payload","uncletopia"],"game_id":440,"stv_port":27036,"stv_name":"Uncletopia | Atlanta | 3 | Community | STV","players":null},{"server_id":401,"name":"Uncletopia | Atlanta | 4 | No Payload","name_short":"atl-4","host":"atl-1.us.uncletopia.com","port":27045,"enabled":true,"region":"us-east","cc":"us","latitude":33.753746,"longitude":-84.38633,"reserved":0,"last_update":"0001-01-01T00:00:00Z","name_a2s":"","protocol":0,"map":"","folder":"","game":"","app_id":0,"player_count":0,"max_players":0,"Bots":0,"server_type":"","server_os":"","password":false,"vac":false,"version":"","steam_id":0,"keywords":null,"game_id":0,"stv_port":0,"stv_name":"","players":null},{"server_id":2,"name":"Uncletopia | Chicago | 1 | All Maps","name_short":"chi-1","host":"chi-1.us.uncletopia.com","port":27015,"enabled":true,"region":"us-central","cc":"us","latitude":41.881832,"longitude":-87.62318,"reserved":0,"last_update":"0001-01-01T00:00:00Z","name_a2s":"Uncletopia | Chicago | 1 | All Maps","protocol":17,"map":"pl_frontier_final","folder":"tf","game":"Team Fortress","app_id":440,"player_count":24,"max_players":24,"Bots":0,"server_type":"Dedicated","server_os":"Linux","password":true,"vac":true,"version":"7757534","steam_id":85568392924469984,"keywords":["nocrits","nodmgspread","payload","uncletopia"],"game_id":440,"stv_port":27016,"stv_name":"Uncletopia | Chicago | 1 | All Maps | STV","players":[{"user_id":518,"name":"din afore","steam_id":76561198079892116,"connected_time":1329000000000,"state":"active","ping":48},{"user_id":534,"name":"peggle fan","steam_id":76561198117181511,"connected_time":509000000000,"state":"active","ping":50},{"user_id":524,"name":"Ether","steam_id":76561198054806528,"connected_time":807000000000,"state":"active","ping":70},{"user_id":531,"name":"senya","steam_id":76561198077902438,"connected_time":642000000000,"state":"active","ping":75},{"user_id":521,"name":"pepsibobby","steam_id":76561198853864511,"connected_time":1223000000000,"state":"active","ping":77},{"user_id":515,"name":"No Telefrag Plz","steam_id":76561198113931312,"connected_time":1409000000000,"state":"active","ping":74},{"user_id":514,"name":"ProfessorCagan","steam_id":76561198141372356,"connected_time":1419000000000,"state":"active","ping":47},{"user_id":516,"name":"Manlymedic45","steam_id":76561199379376478,"connected_time":1400000000000,"state":"active","ping":138},{"user_id":527,"name":"Kipernicus","steam_id":76561197998180212,"connected_time":772000000000,"state":"active","ping":59},{"user_id":489,"name":"Eins","steam_id":76561199030343810,"connected_time":4443000000000,"state":"active","ping":54},{"user_id":496,"name":"beethan","steam_id":76561198148199120,"connected_time":4275000000000,"state":"active","ping":92},{"user_id":485,"name":"blob","steam_id":76561198122375328,"connected_time":4534000000000,"state":"active","ping":85},{"user_id":535,"name":"RaddahRaddah","steam_id":76561198194462829,"connected_time":447000000000,"state":"active","ping":63},{"user_id":517,"name":"the deadliest pyroshark","steam_id":76561198374227766,"connected_time":1378000000000,"state":"active","ping":71},{"user_id":537,"name":"Sick Lia :c","steam_id":76561198151569597,"connected_time":276000000000,"state":"active","ping":136},{"user_id":480,"name":"The Drunk Clown","steam_id":76561197986850426,"connected_time":5261000000000,"state":"active","ping":72},{"user_id":529,"name":"sircat","steam_id":76561198255825452,"connected_time":734000000000,"state":"active","ping":61},{"user_id":523,"name":"Critscare","steam_id":76561198087712508,"connected_time":811000000000,"state":"active","ping":43},{"user_id":512,"name":"magical_mage0","steam_id":76561198213271916,"connected_time":1682000000000,"state":"active","ping":60},{"user_id":510,"name":"primordialheath","steam_id":76561199386942638,"connected_time":2545000000000,"state":"active","ping":67},{"user_id":513,"name":"sax","steam_id":76561198094788852,"connected_time":1571000000000,"state":"active","ping":47},{"user_id":502,"name":"JimmyWings","steam_id":76561198999925713,"connected_time":3687000000000,"state":"active","ping":70},{"user_id":530,"name":"Frost","steam_id":76561198953970191,"connected_time":728000000000,"state":"active","ping":61},{"user_id":533,"name":"Supr","steam_id":76561198093790672,"connected_time":537000000000,"state":"active","ping":60}]},{"server_id":106,"name":"Uncletopia | Chicago | 2 | All Maps","name_short":"chi-2","host":"chi-1.us.uncletopia.com","port":27025,"enabled":true,"region":"us-central","cc":"us","latitude":41.881832,"longitude":-87.62318,"reserved":0,"last_update":"0001-01-01T00:00:00Z","name_a2s":"Uncletopia | Chicago | 2 | All Maps","protocol":17,"map":"cp_snakewater_final1","folder":"tf","game":"Team Fortress","app_id":440,"player_count":24,"max_players":24,"Bots":0,"server_type":"Dedicated","server_os":"Linux","password":true,"vac":true,"version":"7757534","steam_id":85568392924469985,"keywords":["cp","nocrits","nodmgspread","uncletopia"],"game_id":440,"stv_port":27026,"stv_name":"Uncletopia | Chicago | 2 | All Maps | STV","players":[{"user_id":186,"name":"Toasty Gyro","steam_id":76561198001026643,"connected_time":2572000000000,"state":"active","ping":51},{"user_id":218,"name":"Soundproof","steam_id":76561198133392504,"connected_time":994000000000,"state":"active","ping":58},{"user_id":222,"name":"Waffle Wannabe","steam_id":76561198064510650,"connected_time":405000000000,"state":"active","ping":81},{"user_id":226,"name":"Whiskeyfish","steam_id":76561198119712314,"connected_time":222000000000,"state":"active","ping":58},{"user_id":190,"name":"MrhobbitRequiem","steam_id":76561198976215013,"connected_time":2488000000000,"state":"active","ping":72},{"user_id":216,"name":"The Notorious P.U.E.R.","steam_id":76561198046715542,"connected_time":1074000000000,"state":"active","ping":60},{"user_id":207,"name":"Amazingamerhawk","steam_id":76561199064935924,"connected_time":1453000000000,"state":"active","ping":59},{"user_id":213,"name":"The Great-door-water69","steam_id":76561198115714484,"connected_time":1265000000000,"state":"active","ping":107},{"user_id":209,"name":"Ubuntu Phone","steam_id":76561198008110407,"connected_time":1429000000000,"state":"active","ping":68},{"user_id":220,"name":"Sexyrevolver","steam_id":76561199058132505,"connected_time":780000000000,"state":"active","ping":60},{"user_id":105,"name":"ContinuedBear4","steam_id":76561198265176919,"connected_time":4962000000000,"state":"active","ping":59},{"user_id":210,"name":"oinkpig234","steam_id":76561198883733811,"connected_time":1422000000000,"state":"active","ping":77},{"user_id":106,"name":"SaucySandwichKid","steam_id":76561199372590934,"connected_time":4961000000000,"state":"active","ping":76},{"user_id":217,"name":"Inevitable","steam_id":76561198210050169,"connected_time":1008000000000,"state":"active","ping":72},{"user_id":223,"name":"Sorrow.R","steam_id":76561198309957185,"connected_time":401000000000,"state":"active","ping":73},{"user_id":224,"name":"TheGrassMan (He/Him)","steam_id":76561198118984048,"connected_time":398000000000,"state":"active","ping":57},{"user_id":195,"name":"Superpleo","steam_id":76561198083133146,"connected_time":2375000000000,"state":"active","ping":82},{"user_id":110,"name":"playing on a raspberry pi","steam_id":76561198035969198,"connected_time":4950000000000,"state":"active","ping":90},{"user_id":204,"name":"Toottoot","steam_id":76561197992404836,"connected_time":1581000000000,"state":"active","ping":45},{"user_id":225,"name":"ly","steam_id":76561198062922146,"connected_time":292000000000,"state":"active","ping":74},{"user_id":221,"name":"pigswill","steam_id":76561197999081865,"connected_time":586000000000,"state":"active","ping":76},{"user_id":196,"name":"hrngh","steam_id":76561198310078569,"connected_time":2369000000000,"state":"active","ping":76},{"user_id":151,"name":"Gandalf Gaming","steam_id":76561198368151490,"connected_time":3880000000000,"state":"active","ping":71},{"user_id":181,"name":"the real babytron","steam_id":76561197989627918,"connected_time":3041000000000,"state":"active","ping":88}]},{"server_id":402,"name":"Uncletopia | Chicago | 3 | All Maps","name_short":"chi-3","host":"chi-1.us.uncletopia.com","port":27035,"enabled":true,"region":"us-central","cc":"us","latitude":41.881832,"longitude":-87.62318,"reserved":0,"last_update":"0001-01-01T00:00:00Z","name_a2s":"Uncletopia | Chicago | 3 | All Maps","protocol":17,"map":"pl_borneo","folder":"tf","game":"Team Fortress","app_id":440,"player_count":24,"max_players":24,"Bots":0,"server_type":"Dedicated","server_os":"Linux","password":true,"vac":true,"version":"7757534","steam_id":85568392924515191,"keywords":["nocrits","nodmgspread","payload","uncletopia"],"game_id":440,"stv_port":27036,"stv_name":"Uncletopia | Chicago | 3 | All Maps | STV","players":[{"user_id":176,"name":"GooniOoni","steam_id":76561198102154561,"connected_time":400000000000,"state":"active","ping":42},{"user_id":150,"name":"King_L","steam_id":76561199166718863,"connected_time":1779000000000,"state":"active","ping":61},{"user_id":179,"name":"Stock Medic","steam_id":76561198065479730,"connected_time":126000000000,"state":"active","ping":42},{"user_id":184,"name":"SPARTANS.","steam_id":76561198278018071,"connected_time":93000000000,"state":"active","ping":65},{"user_id":110,"name":"Dokkibai","steam_id":76561198355935693,"connected_time":3664000000000,"state":"active","ping":46},{"user_id":182,"name":"Shichinitzi","steam_id":76561198003833732,"connected_time":106000000000,"state":"active","ping":45},{"user_id":180,"name":"coatch gamign (*ᴗ͈ˬᴗ͈)\ufffd\ufffd","steam_id":76561198060886742,"connected_time":122000000000,"state":"active","ping":76},{"user_id":177,"name":"big gut","steam_id":76561198165299077,"connected_time":283000000000,"state":"active","ping":74},{"user_id":181,"name":"big oog corp","steam_id":76561198138221795,"connected_time":120000000000,"state":"active","ping":73},{"user_id":178,"name":"cooltool21","steam_id":76561197996817585,"connected_time":250000000000,"state":"active","ping":79},{"user_id":148,"name":"Sly Fox Lemmy","steam_id":76561198069225954,"connected_time":1861000000000,"state":"active","ping":75},{"user_id":141,"name":"Dispenser (Twan)","steam_id":76561197991064908,"connected_time":2239000000000,"state":"active","ping":70},{"user_id":183,"name":"TreesRUs","steam_id":76561198305740611,"connected_time":106000000000,"state":"active","ping":67},{"user_id":156,"name":"Wind Fucker","steam_id":76561198275362375,"connected_time":1370000000000,"state":"active","ping":97},{"user_id":169,"name":"dog","steam_id":76561198263873491,"connected_time":678000000000,"state":"active","ping":45},{"user_id":126,"name":"smugdoug","steam_id":76561198021381678,"connected_time":3144000000000,"state":"active","ping":66},{"user_id":185,"name":"{ᴛʀ_ᴄᴇʀᴘ} shullers","steam_id":76561198889997809,"connected_time":86000000000,"state":"active","ping":90},{"user_id":160,"name":"Snorty","steam_id":76561198114304454,"connected_time":1121000000000,"state":"active","ping":77},{"user_id":161,"name":"Big Cock Brock","steam_id":76561198093244204,"connected_time":1117000000000,"state":"active","ping":75},{"user_id":135,"name":"$3.99 Shrimps","steam_id":76561198077272494,"connected_time":2643000000000,"state":"active","ping":50},{"user_id":186,"name":"extinct111","steam_id":76561199013696367,"connected_time":74000000000,"state":"active","ping":66},{"user_id":187,"name":"GreenApples","steam_id":76561198120559543,"connected_time":50000000000,"state":"active","ping":94},{"user_id":164,"name":"1 Great Wooden Dad","steam_id":76561198377126974,"connected_time":1080000000000,"state":"active","ping":69},{"user_id":174,"name":"chalupa","steam_id":76561199072435724,"connected_time":543000000000,"state":"active","ping":87}]},{"server_id":403,"name":"Uncletopia | Chicago | 4 | All Maps","name_short":"chi-4","host":"chi-1.us.uncletopia.com","port":27045,"enabled":true,"region":"us-central","cc":"us","latitude":41.881832,"longitude":-87.62318,"reserved":0,"last_update":"0001-01-01T00:00:00Z","name_a2s":"Uncletopia | Chicago | 4 | All Maps","protocol":17,"map":"pl_upward","folder":"tf","game":"Team Fortress","app_id":440,"player_count":24,"max_players":24,"Bots":0,"server_type":"Dedicated","server_os":"Linux","password":true,"vac":true,"version":"7757534","steam_id":85568392924515193,"keywords":["nocrits","nodmgspread","payload","uncletopia"],"game_id":440,"stv_port":27046,"stv_name":"Uncletopia | Chicago | 4 | All Maps | STV","players":[{"user_id":403,"name":"LargerThanAverageDragon","steam_id":76561198152036300,"connected_time":4874000000000,"state":"active","ping":65},{"user_id":455,"name":"poiuytrewqwqwqwqwqwqwqwqwqwqwqw","steam_id":76561199105253001,"connected_time":439000000000,"state":"active","ping":101},{"user_id":434,"name":"skipper","steam_id":76561198395965181,"connected_time":2036000000000,"state":"active","ping":61},{"user_id":435,"name":"An old sandwich on the floor!","steam_id":76561198108791583,"connected_time":2008000000000,"state":"active","ping":61},{"user_id":457,"name":"Andie Mano","steam_id":76561199058048927,"connected_time":88000000000,"state":"active","ping":73},{"user_id":436,"name":"edin","steam_id":76561198117393097,"connected_time":2004000000000,"state":"active","ping":61},{"user_id":404,"name":"FancyBattlePants","steam_id":76561198197130311,"connected_time":4851000000000,"state":"active","ping":96},{"user_id":432,"name":"Gordon Ramsay.","steam_id":76561199167165627,"connected_time":2059000000000,"state":"active","ping":104},{"user_id":394,"name":"Arilotl (she/her)","steam_id":76561199057752358,"connected_time":5326000000000,"state":"active","ping":60},{"user_id":437,"name":"jorjor wells","steam_id":76561199073429082,"connected_time":2001000000000,"state":"active","ping":61},{"user_id":453,"name":"Tylody","steam_id":76561198229690552,"connected_time":585000000000,"state":"active","ping":103},{"user_id":450,"name":"supamajikunicorn","steam_id":76561198152596322,"connected_time":734000000000,"state":"active","ping":87},{"user_id":395,"name":"b4rry","steam_id":76561198365887154,"connected_time":5317000000000,"state":"active","ping":71},{"user_id":402,"name":"Dr. Dick","steam_id":76561198138011922,"connected_time":4917000000000,"state":"active","ping":82},{"user_id":426,"name":"flexer_2000","steam_id":76561198084422657,"connected_time":2765000000000,"state":"active","ping":91},{"user_id":440,"name":"Kritzburgh","steam_id":76561198149466938,"connected_time":1957000000000,"state":"active","ping":62},{"user_id":456,"name":"Universe Man","steam_id":76561197997710655,"connected_time":273000000000,"state":"active","ping":85},{"user_id":449,"name":"name","steam_id":76561198040019925,"connected_time":890000000000,"state":"active","ping":83},{"user_id":400,"name":"chiswola","steam_id":76561198046920142,"connected_time":4984000000000,"state":"active","ping":74},{"user_id":452,"name":"Goldbug","steam_id":76561198025221202,"connected_time":595000000000,"state":"active","ping":90},{"user_id":454,"name":"Protoshake","steam_id":76561198840276176,"connected_time":498000000000,"state":"active","ping":67},{"user_id":446,"name":"Killerkarate","steam_id":76561198067533929,"connected_time":1473000000000,"state":"active","ping":61},{"user_id":413,"name":"deech","steam_id":76561198066429444,"connected_time":3955000000000,"state":"active","ping":70},{"user_id":428,"name":"Outlaw","steam_id":76561198020273172,"connected_time":2427000000000,"state":"active","ping":70}]},{"server_id":36,"name":"Uncletopia | Chicago | 5 | All Maps","name_short":"chi-5","host":"chi-2.us.uncletopia.com","port":27015,"enabled":true,"region":"us-central","cc":"us","latitude":41.881832,"longitude":-87.62318,"reserved":0,"last_update":"0001-01-01T00:00:00Z","name_a2s":"Uncletopia | Chicago | 5 | All Maps","protocol":17,"map":"koth_cascade","folder":"tf","game":"Team Fortress","app_id":440,"player_count":0,"max_players":24,"Bots":0,"server_type":"Dedicated","server_os":"Linux","password":true,"vac":true,"version":"7757534","steam_id":85568392924866362,"keywords":["cp","nocrits","nodmgspread","uncletopia"],"game_id":440,"stv_port":27016,"stv_name":"Uncletopia | Chicago | 5 | All Maps | STV","players":null},{"server_id":37,"name":"Uncletopia | Chicago | 6 | All Maps","name_short":"chi-6","host":"chi-2.us.uncletopia.com","port":27025,"enabled":true,"region":"us-central","cc":"us","latitude":41.881832,"longitude":-87.62318,"reserved":0,"last_update":"0001-01-01T00:00:00Z","name_a2s":"Uncletopia | Chicago | 6 | All Maps","protocol":17,"map":"plr_nightfall_final","folder":"tf","game":"Team Fortress","app_id":440,"player_count":22,"max_players":24,"Bots":0,"server_type":"Dedicated","server_os":"Linux","password":true,"vac":true,"version":"7757534","steam_id":85568392924866363,"keywords":["nocrits","nodmgspread","payload","uncletopia"],"game_id":440,"stv_port":27026,"stv_name":"Uncletopia | Chicago | 6 | All Maps | STV","players":[{"user_id":396,"name":"Cynicalrage #TF2Center","steam_id":76561198085805532,"connected_time":1144000000000,"state":"active","ping":44},{"user_id":409,"name":"demoknight tf2","steam_id":76561198070393998,"connected_time":533000000000,"state":"active","ping":61},{"user_id":369,"name":"ProbiusSC","steam_id":76561198379167322,"connected_time":3894000000000,"state":"active","ping":89},{"user_id":413,"name":"Gruncle PUXXY's Nubile Niblings","steam_id":76561197995465137,"connected_time":409000000000,"state":"active","ping":69},{"user_id":403,"name":"an inebriated newt fancier","steam_id":76561197985428155,"connected_time":976000000000,"state":"active","ping":57},{"user_id":400,"name":"Gheeotine","steam_id":76561198010181698,"connected_time":1045000000000,"state":"active","ping":87},{"user_id":397,"name":"BillButtLicker69","steam_id":76561198070119268,"connected_time":1140000000000,"state":"active","ping":108},{"user_id":364,"name":"howtobepker","steam_id":76561198115053865,"connected_time":3983000000000,"state":"active","ping":85},{"user_id":391,"name":"Mr. Tickle","steam_id":76561198126684647,"connected_time":1742000000000,"state":"active","ping":60},{"user_id":415,"name":"Chimpanzee","steam_id":76561198850387282,"connected_time":86000000000,"state":"active","ping":87},{"user_id":410,"name":"Fudgely","steam_id":76561198039425862,"connected_time":526000000000,"state":"active","ping":70},{"user_id":392,"name":"player 2 role","steam_id":76561198173860681,"connected_time":1737000000000,"state":"active","ping":58},{"user_id":376,"name":"Mikey","steam_id":76561199027332418,"connected_time":3570000000000,"state":"active","ping":89},{"user_id":405,"name":"Hentai Lord","steam_id":76561199030449654,"connected_time":822000000000,"state":"active","ping":83},{"user_id":401,"name":"wenk","steam_id":76561198103361095,"connected_time":1035000000000,"state":"active","ping":94},{"user_id":390,"name":"kametro4","steam_id":76561198835430429,"connected_time":1788000000000,"state":"active","ping":75},{"user_id":382,"name":"twix","steam_id":76561198040912048,"connected_time":2921000000000,"state":"active","ping":52},{"user_id":366,"name":"theRainyMute","steam_id":76561198127625760,"connected_time":3970000000000,"state":"active","ping":70},{"user_id":329,"name":"innisfree","steam_id":76561198109065124,"connected_time":6349000000000,"state":"active","ping":74},{"user_id":383,"name":"Large Man","steam_id":76561198880396651,"connected_time":2905000000000,"state":"active","ping":88},{"user_id":411,"name":"Bagel","steam_id":76561198167747447,"connected_time":524000000000,"state":"active","ping":80},{"user_id":393,"name":"big macky","steam_id":76561197985191654,"connected_time":1735000000000,"state":"active","ping":58}]},{"server_id":38,"name":"Uncletopia | Chicago | 7 | Stopwatch Beta","name_short":"chi-7","host":"chi-2.us.uncletopia.com","port":27035,"enabled":true,"region":"us-central","cc":"us","latitude":41.881832,"longitude":-87.62318,"reserved":0,"last_update":"0001-01-01T00:00:00Z","name_a2s":"Uncletopia | Chicago | 7 | Stopwatch Beta","protocol":17,"map":"pl_upward","folder":"tf","game":"Team Fortress","app_id":440,"player_count":0,"max_players":24,"Bots":0,"server_type":"Dedicated","server_os":"Linux","password":true,"vac":true,"version":"7757534","steam_id":85568392924866364,"keywords":["nocrits","nodmgspread","payload","uncletopia"],"game_id":440,"stv_port":27036,"stv_name":"Uncletopia | Chicago | 7 | Stopwatch Beta | STV","players":null},{"server_id":39,"name":"Uncletopia | Chicago | 8 | Community","name_short":"chi-8","host":"chi-2.us.uncletopia.com","port":27045,"enabled":true,"region":"us-central","cc":"us","latitude":41.881832,"longitude":-87.62318,"reserved":0,"last_update":"0001-01-01T00:00:00Z","name_a2s":"Uncletopia | Chicago | 8 | Community","protocol":17,"map":"workshop/pl_barnblitz_pro7.ugc582280235","folder":"tf","game":"Team Fortress","app_id":440,"player_count":0,"max_players":24,"Bots":0,"server_type":"Dedicated","server_os":"Linux","password":true,"vac":true,"version":"7757534","steam_id":85568392924866365,"keywords":["nocrits","nodmgspread","payload","uncletopia"],"game_id":440,"stv_port":27046,"stv_name":"Uncletopia | Chicago | 8 | Community | STV","players":null},{"server_id":8,"name":"Uncletopia | Dallas | 1 | All Maps","name_short":"dal-1","host":"dal-1.us.uncletopia.com","port":27015,"enabled":true,"region":"us-central","cc":"us","latitude":32.779167,"longitude":-96.80889,"reserved":0,"last_update":"0001-01-01T00:00:00Z","name_a2s":"Uncletopia | Dallas | 1 | All Maps","protocol":17,"map":"pl_badwater","folder":"tf","game":"Team Fortress","app_id":440,"player_count":24,"max_players":24,"Bots":0,"server_type":"Dedicated","server_os":"Linux","password":true,"vac":true,"version":"7757534","steam_id":85568392924469986,"keywords":["nocrits","nodmgspread","payload","uncletopia"],"game_id":440,"stv_port":27016,"stv_name":"Uncletopia | Dallas | 1 | All Maps | STV","players":[{"user_id":244,"name":"fuckterry","steam_id":76561198271957738,"connected_time":2260000000000,"state":"active","ping":65},{"user_id":271,"name":"Wolverine Fingerblaster","steam_id":76561198095394582,"connected_time":619000000000,"state":"active","ping":62},{"user_id":268,"name":"Minedark","steam_id":76561198250995706,"connected_time":745000000000,"state":"active","ping":105},{"user_id":253,"name":"Mixer","steam_id":76561199020200249,"connected_time":1553000000000,"state":"active","ping":42},{"user_id":249,"name":"The Squid Gamer™","steam_id":76561198340621517,"connected_time":1971000000000,"state":"active","ping":96},{"user_id":258,"name":"DSM-IVCE","steam_id":76561199438515797,"connected_time":1144000000000,"state":"active","ping":134},{"user_id":266,"name":"BOR XOR","steam_id":76561198063294776,"connected_time":844000000000,"state":"active","ping":75},{"user_id":272,"name":"RedLux","steam_id":76561199467334502,"connected_time":617000000000,"state":"active","ping":82},{"user_id":251,"name":"Super","steam_id":76561199179611350,"connected_time":1681000000000,"state":"active","ping":101},{"user_id":269,"name":"3dDavinci","steam_id":76561198052398729,"connected_time":708000000000,"state":"active","ping":62},{"user_id":252,"name":"Keg","steam_id":76561198242688458,"connected_time":1636000000000,"state":"active","ping":60},{"user_id":265,"name":"crs22","steam_id":76561198120149196,"connected_time":879000000000,"state":"active","ping":60},{"user_id":270,"name":"Garden Doe","steam_id":76561198271491107,"connected_time":687000000000,"state":"active","ping":58},{"user_id":273,"name":"no vc no c","steam_id":76561197989503095,"connected_time":616000000000,"state":"active","ping":176},{"user_id":257,"name":"sasiawastaken","steam_id":76561198127316391,"connected_time":1187000000000,"state":"active","ping":61},{"user_id":222,"name":"Jesus Loves You57","steam_id":76561199058833769,"connected_time":2880000000000,"state":"active","ping":83},{"user_id":224,"name":"IVY","steam_id":76561198062892174,"connected_time":2834000000000,"state":"active","ping":90},{"user_id":262,"name":"doo doo","steam_id":76561198049784197,"connected_time":955000000000,"state":"active","ping":88},{"user_id":229,"name":"faze pantalla","steam_id":76561198250215734,"connected_time":2637000000000,"state":"active","ping":94},{"user_id":274,"name":"sexypringle","steam_id":76561198401282091,"connected_time":616000000000,"state":"active","ping":73},{"user_id":231,"name":"faze waadden","steam_id":76561198325569425,"connected_time":2629000000000,"state":"active","ping":83},{"user_id":267,"name":"victordead121","steam_id":76561199180843121,"connected_time":829000000000,"state":"active","ping":101},{"user_id":198,"name":"JesusLovesYouYAY","steam_id":76561199146362676,"connected_time":4373000000000,"state":"active","ping":99},{"user_id":234,"name":"MechanicalMenace14","steam_id":76561199063956054,"connected_time":2602000000000,"state":"active","ping":110}]},{"server_id":108,"name":"Uncletopia | Dallas | 2 | All Maps","name_short":"dal-2","host":"dal-1.us.uncletopia.com","port":27025,"enabled":true,"region":"us-central","cc":"us","latitude":32.779167,"longitude":-96.80889,"reserved":0,"last_update":"0001-01-01T00:00:00Z","name_a2s":"Uncletopia | Dallas | 2 | All Maps","protocol":17,"map":"pl_barnblitz","folder":"tf","game":"Team Fortress","app_id":440,"player_count":24,"max_players":24,"Bots":0,"server_type":"Dedicated","server_os":"Linux","password":true,"vac":true,"version":"7757534","steam_id":85568392924469988,"keywords":["nocrits","nodmgspread","payload","uncletopia"],"game_id":440,"stv_port":27026,"stv_name":"Uncletopia | Dallas | 2 | All Maps | STV","players":[{"user_id":96,"name":"LevelZ3R0","steam_id":76561199239710681,"connected_time":2076000000000,"state":"active","ping":88},{"user_id":120,"name":"Shipmunk","steam_id":76561198063062670,"connected_time":355000000000,"state":"active","ping":79},{"user_id":119,"name":"iluvtoust","steam_id":76561198869269207,"connected_time":654000000000,"state":"active","ping":49},{"user_id":92,"name":"Is Mauii","steam_id":76561198153786501,"connected_time":2202000000000,"state":"active","ping":86},{"user_id":116,"name":"Toa of Time","steam_id":76561198086867556,"connected_time":948000000000,"state":"active","ping":95},{"user_id":101,"name":"Skins McKenzie","steam_id":76561198043160642,"connected_time":1815000000000,"state":"active","ping":80},{"user_id":91,"name":"Cinnifox","steam_id":76561198068773971,"connected_time":2280000000000,"state":"active","ping":74},{"user_id":93,"name":"Joe Swanson","steam_id":76561199089907740,"connected_time":2149000000000,"state":"active","ping":62},{"user_id":95,"name":"SL164","steam_id":76561197970800276,"connected_time":2087000000000,"state":"active","ping":72},{"user_id":22,"name":"LeFunnyMan","steam_id":76561199081645289,"connected_time":6640000000000,"state":"active","ping":56},{"user_id":80,"name":"ArmaViviente","steam_id":76561198084098079,"connected_time":3331000000000,"state":"active","ping":88},{"user_id":122,"name":"feertuwdwdsdss","steam_id":76561198195717911,"connected_time":152000000000,"state":"active","ping":144},{"user_id":98,"name":"Birdhorse Of Course","steam_id":76561198038997485,"connected_time":1909000000000,"state":"active","ping":88},{"user_id":99,"name":"Spy on cart","steam_id":76561198025466913,"connected_time":1848000000000,"state":"active","ping":66},{"user_id":121,"name":"DanklyMoist","steam_id":76561198062187821,"connected_time":339000000000,"state":"active","ping":63},{"user_id":103,"name":"nhbiker","steam_id":76561198081277675,"connected_time":1779000000000,"state":"active","ping":87},{"user_id":104,"name":"Полковник Mоль","steam_id":76561198120551680,"connected_time":1777000000000,"state":"active","ping":69},{"user_id":105,"name":"brk","steam_id":76561198079634017,"connected_time":1771000000000,"state":"active","ping":67},{"user_id":106,"name":"Snusfräsare(SWE)","steam_id":76561198060130033,"connected_time":1739000000000,"state":"active","ping":174},{"user_id":123,"name":"dan","steam_id":76561198061589465,"connected_time":59000000000,"state":"active","ping":85},{"user_id":108,"name":"Doinnoid","steam_id":76561198262276139,"connected_time":1665000000000,"state":"active","ping":57},{"user_id":113,"name":"RockinBug","steam_id":76561198216174869,"connected_time":1483000000000,"state":"active","ping":92},{"user_id":110,"name":"Hermit_","steam_id":76561198013807290,"connected_time":1610000000000,"state":"active","ping":65},{"user_id":115,"name":"Quakedad","steam_id":76561198055811307,"connected_time":1307000000000,"state":"active","ping":141}]},{"server_id":5,"name":"Uncletopia | Frankfurt | 1 | All Maps","name_short":"frk-1","host":"frk-1.de.uncletopia.com","port":27015,"enabled":true,"region":"eu","cc":"de","latitude":50.110924,"longitude":8.682127,"reserved":0,"last_update":"0001-01-01T00:00:00Z","name_a2s":"Uncletopia | Frankfurt | 1 | All Maps","protocol":17,"map":"koth_highpass","folder":"tf","game":"Team Fortress","app_id":440,"player_count":5,"max_players":24,"Bots":0,"server_type":"Dedicated","server_os":"Linux","password":true,"vac":true,"version":"7757534","steam_id":85568392924469989,"keywords":["cp","nocrits","nodmgspread","uncletopia"],"game_id":440,"stv_port":27016,"stv_name":"Uncletopia | Frankfurt | 1 | All Maps | STV","players":[{"user_id":470,"name":"Jeeworth","steam_id":76561198797972504,"connected_time":793000000000,"state":"active","ping":69},{"user_id":464,"name":"Moss","steam_id":76561199084162765,"connected_time":3492000000000,"state":"active","ping":68},{"user_id":465,"name":"Ederbiener","steam_id":76561198201899018,"connected_time":3295000000000,"state":"active","ping":53},{"user_id":471,"name":"toe eater","steam_id":76561199272782484,"connected_time":630000000000,"state":"active","ping":647},{"user_id":472,"name":"God's Goofiest Goober","steam_id":76561198103175187,"connected_time":411000000000,"state":"active","ping":48}]},{"server_id":110,"name":"Uncletopia | Frankfurt | 2 | All Maps","name_short":"frk-2","host":"frk-1.de.uncletopia.com","port":27025,"enabled":true,"region":"eu","cc":"de","latitude":50.110924,"longitude":8.682127,"reserved":0,"last_update":"0001-01-01T00:00:00Z","name_a2s":"Uncletopia | Frankfurt | 2 | All Maps","protocol":17,"map":"pl_badwater","folder":"tf","game":"Team Fortress","app_id":440,"player_count":23,"max_players":24,"Bots":0,"server_type":"Dedicated","server_os":"Linux","password":true,"vac":true,"version":"7757534","steam_id":85568392924469990,"keywords":["nocrits","nodmgspread","payload","uncletopia"],"game_id":440,"stv_port":27026,"stv_name":"Uncletopia | Frankfurt | 2 | All Maps | STV","players":[{"user_id":277,"name":"jolleter","steam_id":76561198172260583,"connected_time":578000000000,"state":"active","ping":53},{"user_id":225,"name":"Melon","steam_id":76561198150893860,"connected_time":3628000000000,"state":"active","ping":59},{"user_id":238,"name":"Fofenho","steam_id":76561198436817109,"connected_time":2765000000000,"state":"active","ping":73},{"user_id":251,"name":"cherryrendezvous","steam_id":76561198060185544,"connected_time":2022000000000,"state":"active","ping":57},{"user_id":276,"name":"Femboypawnguy","steam_id":76561198274894771,"connected_time":636000000000,"state":"active","ping":49},{"user_id":290,"name":"[P-roc] Lovely","steam_id":76561198074361075,"connected_time":353000000000,"state":"active","ping":61},{"user_id":293,"name":"Volcyy","steam_id":76561198063979124,"connected_time":12000000000,"state":"active","ping":44},{"user_id":291,"name":"mtyxrst","steam_id":76561198057256978,"connected_time":242000000000,"state":"active","ping":44},{"user_id":275,"name":"AYE","steam_id":76561198181368101,"connected_time":712000000000,"state":"active","ping":54},{"user_id":261,"name":"☩ Knightz ☩","steam_id":76561198040936414,"connected_time":1366000000000,"state":"active","ping":120},{"user_id":250,"name":"soda","steam_id":76561198202990635,"connected_time":2105000000000,"state":"active","ping":59},{"user_id":288,"name":"[P-roc] Cmm Bert","steam_id":76561198016658674,"connected_time":376000000000,"state":"active","ping":70},{"user_id":239,"name":"Call Me Meme","steam_id":76561198342092670,"connected_time":2643000000000,"state":"active","ping":84},{"user_id":280,"name":"kbbq","steam_id":76561198346638308,"connected_time":530000000000,"state":"active","ping":55},{"user_id":282,"name":"drippin jimmy","steam_id":76561198219243969,"connected_time":526000000000,"state":"active","ping":63},{"user_id":283,"name":"(1)jolleter","steam_id":76561198891983664,"connected_time":519000000000,"state":"active","ping":65},{"user_id":224,"name":"King Harkinian","steam_id":76561197987699948,"connected_time":3661000000000,"state":"active","ping":80},{"user_id":286,"name":"Mr_Pulse_","steam_id":76561198095001602,"connected_time":482000000000,"state":"active","ping":87},{"user_id":284,"name":"Levin","steam_id":76561198106530561,"connected_time":509000000000,"state":"active","ping":63},{"user_id":191,"name":"vani","steam_id":76561197991778291,"connected_time":6486000000000,"state":"active","ping":73},{"user_id":257,"name":"ZeeZer0","steam_id":76561198043828441,"connected_time":1684000000000,"state":"active","ping":42},{"user_id":285,"name":"LEGEND FUMO.","steam_id":76561198061033903,"connected_time":504000000000,"state":"active","ping":50},{"user_id":292,"name":"Ptahotep","steam_id":76561198008708645,"connected_time":108000000000,"state":"active","ping":68}]},{"server_id":308,"name":"Uncletopia | Frankfurt | 3 | All Maps","name_short":"frk-3","host":"frk-1.de.uncletopia.com","port":27035,"enabled":true,"region":"eu","cc":"de","latitude":50.110924,"longitude":8.682127,"reserved":0,"last_update":"0001-01-01T00:00:00Z","name_a2s":"Uncletopia | Frankfurt | 3 | All Maps","protocol":17,"map":"pl_upward","folder":"tf","game":"Team Fortress","app_id":440,"player_count":0,"max_players":24,"Bots":0,"server_type":"Dedicated","server_os":"Linux","password":true,"vac":true,"version":"7757534","steam_id":85568392924504274,"keywords":["nocrits","nodmgspread","payload","uncletopia"],"game_id":440,"stv_port":27036,"stv_name":"Uncletopia | Frankfurt | 3 | All Maps | STV","players":null},{"server_id":309,"name":"Uncletopia | Frankfurt | 4 | All Maps","name_short":"frk-4","host":"frk-1.de.uncletopia.com","port":27045,"enabled":true,"region":"eu","cc":"de","latitude":50.110924,"longitude":8.682127,"reserved":0,"last_update":"0001-01-01T00:00:00Z","name_a2s":"Uncletopia | Frankfurt | 4 | All Maps","protocol":17,"map":"cp_granary","folder":"tf","game":"Team Fortress","app_id":440,"player_count":24,"max_players":24,"Bots":0,"server_type":"Dedicated","server_os":"Linux","password":true,"vac":true,"version":"7757534","steam_id":85568392924504275,"keywords":["cp","nocrits","nodmgspread","uncletopia"],"game_id":440,"stv_port":27046,"stv_name":"Uncletopia | Frankfurt | 4 | All Maps | STV","players":[{"user_id":349,"name":"Homicidal Tendencies","steam_id":76561198828681043,"connected_time":2137000000000,"state":"active","ping":60},{"user_id":271,"name":"Vershal Smershal","steam_id":76561198116223995,"connected_time":7722000000000,"state":"active","ping":59},{"user_id":331,"name":"Udinese Dion","steam_id":76561198067931573,"connected_time":3786000000000,"state":"active","ping":45},{"user_id":383,"name":"Pilaarius","steam_id":76561198120273212,"connected_time":470000000000,"state":"active","ping":135},{"user_id":294,"name":"Yangus","steam_id":76561198147796010,"connected_time":6295000000000,"state":"active","ping":59},{"user_id":351,"name":"8 Ball","steam_id":76561197960988736,"connected_time":2114000000000,"state":"active","ping":62},{"user_id":386,"name":"Zero (Orbital Gear Mastermind)","steam_id":76561198017416816,"connected_time":248000000000,"state":"active","ping":60},{"user_id":385,"name":"LEGENDO(FTH)EPENIS","steam_id":76561198066287815,"connected_time":318000000000,"state":"active","ping":118},{"user_id":261,"name":"Carrotcracker","steam_id":76561198034862396,"connected_time":7894000000000,"state":"active","ping":60},{"user_id":254,"name":"nedilya","steam_id":76561198039692077,"connected_time":8829000000000,"state":"active","ping":55},{"user_id":334,"name":"on1on (pickled)","steam_id":76561197995304137,"connected_time":3645000000000,"state":"active","ping":60},{"user_id":335,"name":"tekt","steam_id":76561198044554387,"connected_time":3638000000000,"state":"active","ping":97},{"user_id":384,"name":"nibs","steam_id":76561198040099538,"connected_time":388000000000,"state":"active","ping":84},{"user_id":320,"name":"sofa","steam_id":76561198058012525,"connected_time":5454000000000,"state":"active","ping":69},{"user_id":336,"name":"no weed","steam_id":76561199024279010,"connected_time":3636000000000,"state":"active","ping":81},{"user_id":361,"name":"Torttu","steam_id":76561198013980029,"connected_time":1346000000000,"state":"active","ping":65},{"user_id":357,"name":"Steen","steam_id":76561198122992510,"connected_time":1955000000000,"state":"active","ping":45},{"user_id":356,"name":"Qwerty","steam_id":76561198023525894,"connected_time":2071000000000,"state":"active","ping":95},{"user_id":364,"name":"mumbler","steam_id":76561197970641239,"connected_time":1019000000000,"state":"active","ping":45},{"user_id":360,"name":"Dean Craig Pelton From Communit","steam_id":76561198155010055,"connected_time":1385000000000,"state":"active","ping":120},{"user_id":321,"name":"(;﹏;)","steam_id":76561198076494034,"connected_time":5416000000000,"state":"active","ping":59},{"user_id":359,"name":"men snus","steam_id":76561198311864757,"connected_time":1842000000000,"state":"active","ping":64},{"user_id":309,"name":"Mi Manchi","steam_id":76561198171573129,"connected_time":5724000000000,"state":"active","ping":47},{"user_id":368,"name":"e36 1.8","steam_id":76561198134203031,"connected_time":784000000000,"state":"active","ping":63}]},{"server_id":310,"name":"Uncletopia | Frankfurt | 5 | All Maps","name_short":"frk-5","host":"frk-1.de.uncletopia.com","port":27055,"enabled":true,"region":"eu","cc":"de","latitude":50.110924,"longitude":8.682127,"reserved":0,"last_update":"0001-01-01T00:00:00Z","name_a2s":"Uncletopia | Frankfurt | 5 | All Maps","protocol":17,"map":"pl_barnblitz","folder":"tf","game":"Team Fortress","app_id":440,"player_count":10,"max_players":24,"Bots":0,"server_type":"Dedicated","server_os":"Linux","password":true,"vac":true,"version":"7757534","steam_id":85568392924504277,"keywords":["nocrits","nodmgspread","payload","uncletopia"],"game_id":440,"stv_port":27056,"stv_name":"Uncletopia | Frankfurt | 5 | All Maps | STV","players":[{"user_id":516,"name":"Alpaca","steam_id":76561198071132354,"connected_time":1214000000000,"state":"active","ping":114},{"user_id":529,"name":"git bash -er","steam_id":76561198072586494,"connected_time":131000000000,"state":"active","ping":56},{"user_id":512,"name":"Subnet001","steam_id":76561198029163028,"connected_time":1736000000000,"state":"active","ping":69},{"user_id":457,"name":"Hexabit","steam_id":76561198028625661,"connected_time":5847000000000,"state":"active","ping":62},{"user_id":528,"name":"KNARRER","steam_id":76561199130777953,"connected_time":228000000000,"state":"active","ping":46},{"user_id":527,"name":"SteelForce","steam_id":76561199158386096,"connected_time":345000000000,"state":"active","ping":65},{"user_id":519,"name":"milikazard","steam_id":76561198030516801,"connected_time":999000000000,"state":"active","ping":145},{"user_id":475,"name":"Stoned Jesus","steam_id":76561198021493865,"connected_time":4450000000000,"state":"active","ping":106},{"user_id":462,"name":"Fish","steam_id":76561198182278770,"connected_time":5167000000000,"state":"active","ping":71},{"user_id":492,"name":"Big Mac Gaming","steam_id":76561198158209651,"connected_time":3239000000000,"state":"active","ping":70}]},{"server_id":311,"name":"Uncletopia | Frankfurt | 6 | All Maps","name_short":"frk-6","host":"frk-1.de.uncletopia.com","port":27065,"enabled":true,"region":"eu","cc":"de","latitude":50.110924,"longitude":8.682127,"reserved":0,"last_update":"0001-01-01T00:00:00Z","name_a2s":"Uncletopia | Frankfurt | 6 | All Maps","protocol":17,"map":"pl_badwater","folder":"tf","game":"Team Fortress","app_id":440,"player_count":23,"max_players":24,"Bots":0,"server_type":"Dedicated","server_os":"Linux","password":true,"vac":true,"version":"7757534","steam_id":85568392924504278,"keywords":["nocrits","nodmgspread","payload","uncletopia"],"game_id":440,"stv_port":27066,"stv_name":"Uncletopia | Frankfurt | 6 | All Maps | STV","players":[{"user_id":454,"name":"there is no Fred","steam_id":76561198045505082,"connected_time":372000000000,"state":"active","ping":67},{"user_id":429,"name":"waddle dork","steam_id":76561198297349985,"connected_time":2087000000000,"state":"active","ping":62},{"user_id":442,"name":"(wm) Das Fleisch","steam_id":76561198001250715,"connected_time":1047000000000,"state":"active","ping":55},{"user_id":394,"name":"Fizzing Fool","steam_id":76561198425415033,"connected_time":3854000000000,"state":"active","ping":84},{"user_id":346,"name":"i always miss","steam_id":76561199379233899,"connected_time":6514000000000,"state":"active","ping":90},{"user_id":420,"name":"MgrunL","steam_id":76561198389947352,"connected_time":2642000000000,"state":"active","ping":104},{"user_id":406,"name":"Ziy???","steam_id":76561197995765491,"connected_time":3075000000000,"state":"active","ping":67},{"user_id":455,"name":"Tlad2","steam_id":76561198854897667,"connected_time":347000000000,"state":"active","ping":75},{"user_id":433,"name":"whatever","steam_id":76561198095943461,"connected_time":1551000000000,"state":"active","ping":60},{"user_id":399,"name":"Misctek","steam_id":76561199037541925,"connected_time":3253000000000,"state":"active","ping":74},{"user_id":435,"name":"XavierSweet","steam_id":76561198091781913,"connected_time":1515000000000,"state":"active","ping":78},{"user_id":345,"name":"minespweper ☆","steam_id":76561199096919345,"connected_time":6552000000000,"state":"active","ping":74},{"user_id":456,"name":"lvl. 50 honkler","steam_id":76561198061688660,"connected_time":286000000000,"state":"active","ping":89},{"user_id":457,"name":"Baki ツ","steam_id":76561198193615529,"connected_time":214000000000,"state":"active","ping":48},{"user_id":444,"name":"G6 sherlock","steam_id":76561198802967796,"connected_time":753000000000,"state":"active","ping":118},{"user_id":407,"name":"awsomemcawsome","steam_id":76561198223232604,"connected_time":3027000000000,"state":"active","ping":94},{"user_id":436,"name":"Renolox","steam_id":76561198036590182,"connected_time":1475000000000,"state":"active","ping":64},{"user_id":424,"name":"scantron","steam_id":76561199103959197,"connected_time":2506000000000,"state":"active","ping":98},{"user_id":431,"name":"Ffamran","steam_id":76561198143529110,"connected_time":1991000000000,"state":"active","ping":75},{"user_id":453,"name":"beamer","steam_id":76561198206037191,"connected_time":480000000000,"state":"active","ping":77},{"user_id":437,"name":"Piteras","steam_id":76561198858532207,"connected_time":1471000000000,"state":"active","ping":79},{"user_id":426,"name":"Mati [EST]","steam_id":76561197994743813,"connected_time":2456000000000,"state":"active","ping":114},{"user_id":443,"name":"giclure :;","steam_id":76561197986362828,"connected_time":891000000000,"state":"active","ping":63}]},{"server_id":23,"name":"Uncletopia | Frankfurt | 7 | Stopwatch Beta","name_short":"frk-7","host":"frk-1.de.uncletopia.com","port":27075,"enabled":true,"region":"eu","cc":"de","latitude":50.110924,"longitude":8.682127,"reserved":0,"last_update":"0001-01-01T00:00:00Z","name_a2s":"Uncletopia | Frankfurt | 7 | Stopwatch Beta","protocol":17,"map":"koth_highpass","folder":"tf","game":"Team Fortress","app_id":440,"player_count":0,"max_players":24,"Bots":0,"server_type":"Dedicated","server_os":"Linux","password":true,"vac":true,"version":"7757534","steam_id":85568392924742827,"keywords":["cp","nocrits","nodmgspread","uncletopia"],"game_id":440,"stv_port":27076,"stv_name":"Uncletopia | Frankfurt | 7 | Stopwatch Beta | STV","players":null},{"server_id":24,"name":"Uncletopia | Frankfurt | 8 | Community","name_short":"frk-8","host":"frk-1.de.uncletopia.com","port":27085,"enabled":true,"region":"eu","cc":"de","latitude":50.110924,"longitude":8.682127,"reserved":0,"last_update":"0001-01-01T00:00:00Z","name_a2s":"Uncletopia | Frankfurt | 8 | Community","protocol":17,"map":"workshop/pl_cactuscanyon_redux_rc4b.ugc2579644293","folder":"tf","game":"Team Fortress","app_id":440,"player_count":0,"max_players":24,"Bots":0,"server_type":"Dedicated","server_os":"Linux","password":true,"vac":true,"version":"7757534","steam_id":85568392924742828,"keywords":["nocrits","nodmgspread","payload","uncletopia"],"game_id":440,"stv_port":27086,"stv_name":"Uncletopia | Frankfurt | 8 | Community | STV","players":null},{"server_id":202,"name":"Uncletopia | Hong Kong | 1 | All Maps","name_short":"hgk-1","host":"hgk-1.hk.uncletopia.com","port":27015,"enabled":true,"region":"asia","cc":"hk","latitude":22.302711,"longitude":114.177216,"reserved":0,"last_update":"0001-01-01T00:00:00Z","name_a2s":"Uncletopia | Hong Kong | 1 | All Maps","protocol":17,"map":"cp_dustbowl","folder":"tf","game":"Team Fortress","app_id":440,"player_count":0,"max_players":24,"Bots":0,"server_type":"Dedicated","server_os":"Linux","password":true,"vac":true,"version":"7757534","steam_id":85568392924494504,"keywords":["cp","nocrits","nodmgspread","uncletopia"],"game_id":440,"stv_port":27016,"stv_name":"Uncletopia | Hong Kong | 1 | All Maps | STV","players":null},{"server_id":1,"name":"Uncletopia | Los Angeles | 1 | All Maps","name_short":"lax-1","host":"lax-1.us.uncletopia.com","port":27015,"enabled":true,"region":"us-west","cc":"us","latitude":33.94279,"longitude":-118.41004,"reserved":0,"last_update":"0001-01-01T00:00:00Z","name_a2s":"Uncletopia | Los Angeles | 1 | All Maps","protocol":17,"map":"koth_lakeside_final","folder":"tf","game":"Team Fortress","app_id":440,"player_count":0,"max_players":24,"Bots":0,"server_type":"Dedicated","server_os":"Linux","password":true,"vac":true,"version":"7757534","steam_id":85568392924469991,"keywords":["cp","nocrits","nodmgspread","uncletopia"],"game_id":440,"stv_port":27016,"stv_name":"Uncletopia | Los Angeles | 1 | All Maps | STV","players":null},{"server_id":112,"name":"Uncletopia | Los Angeles | 2 | All Maps","name_short":"lax-2","host":"lax-1.us.uncletopia.com","port":27025,"enabled":true,"region":"us-west","cc":"us","latitude":33.94279,"longitude":-118.41004,"reserved":0,"last_update":"0001-01-01T00:00:00Z","name_a2s":"Uncletopia | Los Angeles | 2 | All Maps","protocol":17,"map":"cp_process_final","folder":"tf","game":"Team Fortress","app_id":440,"player_count":0,"max_players":24,"Bots":0,"server_type":"Dedicated","server_os":"Linux","password":true,"vac":true,"version":"7757534","steam_id":85568392924469992,"keywords":["cp","nocrits","nodmgspread","uncletopia"],"game_id":440,"stv_port":27026,"stv_name":"Uncletopia | Los Angeles | 2 | All Maps | STV","players":null},{"server_id":324,"name":"Uncletopia | Los Angeles | 3 | All Maps","name_short":"lax-3","host":"lax-1.us.uncletopia.com","port":27035,"enabled":true,"region":"us-west","cc":"us","latitude":33.94279,"longitude":-118.41004,"reserved":0,"last_update":"0001-01-01T00:00:00Z","name_a2s":"Uncletopia | Los Angeles | 3 | All Maps","protocol":17,"map":"cp_process_final","folder":"tf","game":"Team Fortress","app_id":440,"player_count":0,"max_players":24,"Bots":0,"server_type":"Dedicated","server_os":"Linux","password":true,"vac":true,"version":"7757534","steam_id":85568392924510198,"keywords":["cp","nocrits","nodmgspread","uncletopia"],"game_id":440,"stv_port":27036,"stv_name":"Uncletopia | Los Angeles | 3 | All Maps | STV","players":null},{"server_id":25,"name":"Uncletopia | Los Angeles | 4 | Stopwatch Beta","name_short":"lax-4","host":"lax-1.us.uncletopia.com","port":27045,"enabled":true,"region":"us-west","cc":"us","latitude":33.94279,"longitude":-118.41004,"reserved":0,"last_update":"0001-01-01T00:00:00Z","name_a2s":"Uncletopia | Los Angeles | 4 | Stopwatch Beta","protocol":17,"map":"pl_frontier_final","folder":"tf","game":"Team Fortress","app_id":440,"player_count":0,"max_players":24,"Bots":0,"server_type":"Dedicated","server_os":"Linux","password":true,"vac":true,"version":"7757534","steam_id":85568392924510199,"keywords":["nocrits","nodmgspread","payload","uncletopia"],"game_id":440,"stv_port":27046,"stv_name":"Uncletopia | Los Angeles | 4 | Stopwatch Beta | STV","players":null},{"server_id":11,"name":"Uncletopia | London | 1 | All Maps","name_short":"lon-1","host":"lon-1.uk.uncletopia.com","port":27015,"enabled":true,"region":"eu","cc":"gb","latitude":51.509865,"longitude":-0.118092,"reserved":0,"last_update":"0001-01-01T00:00:00Z","name_a2s":"Uncletopia | London | 1 | All Maps","protocol":17,"map":"cp_process_final","folder":"tf","game":"Team Fortress","app_id":440,"player_count":24,"max_players":24,"Bots":0,"server_type":"Dedicated","server_os":"Linux","password":true,"vac":true,"version":"7757534","steam_id":85568392924367362,"keywords":["cp","nocrits","nodmgspread","uncletopia"],"game_id":440,"stv_port":27016,"stv_name":"Uncletopia | London | 1 | All Maps | STV","players":[{"user_id":603,"name":"SuperBob103","steam_id":76561199175360012,"connected_time":1882000000000,"state":"active","ping":51},{"user_id":616,"name":"B1urred","steam_id":76561198263657694,"connected_time":781000000000,"state":"active","ping":54},{"user_id":608,"name":"Wedgeridoo","steam_id":76561198082813907,"connected_time":1192000000000,"state":"active","ping":136},{"user_id":617,"name":"jjjjx25","steam_id":76561198799650556,"connected_time":705000000000,"state":"active","ping":84},{"user_id":609,"name":"bananen pizza","steam_id":76561199212990079,"connected_time":1179000000000,"state":"active","ping":83},{"user_id":508,"name":"dec","steam_id":76561198009660168,"connected_time":9587000000000,"state":"active","ping":58},{"user_id":537,"name":"SOAPIIEE","steam_id":76561198443798981,"connected_time":7858000000000,"state":"active","ping":49},{"user_id":615,"name":"smell_my_cheese","steam_id":76561198008517427,"connected_time":908000000000,"state":"active","ping":59},{"user_id":591,"name":"MaypulSoyrup","steam_id":76561199213966821,"connected_time":3868000000000,"state":"active","ping":76},{"user_id":543,"name":"Bad and Wuji","steam_id":76561199385280253,"connected_time":7230000000000,"state":"active","ping":133},{"user_id":599,"name":"BreadBubbles","steam_id":76561198174332826,"connected_time":2058000000000,"state":"active","ping":53},{"user_id":611,"name":"I Did Not Kill My Wife","steam_id":76561198531978435,"connected_time":1147000000000,"state":"active","ping":74},{"user_id":606,"name":"Explosive Poptart","steam_id":76561198023918830,"connected_time":1342000000000,"state":"active","ping":44},{"user_id":596,"name":"Garfield Gaming","steam_id":76561198254539791,"connected_time":2328000000000,"state":"active","ping":47},{"user_id":623,"name":"Kahvi","steam_id":76561198723244199,"connected_time":19000000000,"state":"active","ping":75},{"user_id":619,"name":"jo","steam_id":76561198109074418,"connected_time":678000000000,"state":"active","ping":61},{"user_id":584,"name":"Celtins","steam_id":76561198839837475,"connected_time":4738000000000,"state":"active","ping":61},{"user_id":558,"name":"Chloemew","steam_id":76561198042071762,"connected_time":6282000000000,"state":"active","ping":48},{"user_id":620,"name":"sora","steam_id":76561198096547662,"connected_time":627000000000,"state":"active","ping":55},{"user_id":566,"name":"Dominus.","steam_id":76561199065917088,"connected_time":6061000000000,"state":"active","ping":65},{"user_id":604,"name":"deli69","steam_id":76561198124859583,"connected_time":1882000000000,"state":"active","ping":58},{"user_id":622,"name":"És muita maricas","steam_id":76561198043515389,"connected_time":487000000000,"state":"active","ping":75},{"user_id":593,"name":"Major","steam_id":76561198086483282,"connected_time":3125000000000,"state":"active","ping":60},{"user_id":598,"name":"The Ginger","steam_id":76561198306862332,"connected_time":2327000000000,"state":"active","ping":63}]},{"server_id":114,"name":"Uncletopia | London | 2 | All Maps","name_short":"lon-2","host":"lon-1.uk.uncletopia.com","port":27025,"enabled":true,"region":"eu","cc":"gb","latitude":51.509865,"longitude":-0.118092,"reserved":0,"last_update":"0001-01-01T00:00:00Z","name_a2s":"Uncletopia | London | 2 | All Maps","protocol":17,"map":"pl_upward","folder":"tf","game":"Team Fortress","app_id":440,"player_count":23,"max_players":24,"Bots":0,"server_type":"Dedicated","server_os":"Linux","password":true,"vac":true,"version":"7757534","steam_id":85568392924470941,"keywords":["nocrits","nodmgspread","payload","uncletopia"],"game_id":440,"stv_port":27026,"stv_name":"Uncletopia | London | 2 | All Maps | STV","players":[{"user_id":656,"name":"BlueBlueFox","steam_id":76561198053817230,"connected_time":572000000000,"state":"active","ping":88},{"user_id":617,"name":"Rad","steam_id":76561198001101843,"connected_time":2086000000000,"state":"active","ping":75},{"user_id":638,"name":"Dwevy","steam_id":76561198090379437,"connected_time":1284000000000,"state":"active","ping":50},{"user_id":644,"name":"Priceybay","steam_id":76561198055389492,"connected_time":873000000000,"state":"active","ping":38},{"user_id":657,"name":"The Chosen One","steam_id":76561199046984627,"connected_time":512000000000,"state":"active","ping":160},{"user_id":645,"name":"NFT(non functioning testicle)","steam_id":76561198092435966,"connected_time":857000000000,"state":"active","ping":129},{"user_id":636,"name":"The Orgazoid","steam_id":76561198188642265,"connected_time":1383000000000,"state":"active","ping":57},{"user_id":655,"name":"AwterSix","steam_id":76561198042561678,"connected_time":590000000000,"state":"active","ping":70},{"user_id":652,"name":"average f2p","steam_id":76561199136308055,"connected_time":699000000000,"state":"active","ping":53},{"user_id":658,"name":"bingle","steam_id":76561198359413453,"connected_time":456000000000,"state":"active","ping":132},{"user_id":630,"name":"WiiSportKing","steam_id":76561198114139081,"connected_time":1723000000000,"state":"active","ping":51},{"user_id":659,"name":"MeBandae","steam_id":76561198910770432,"connected_time":419000000000,"state":"active","ping":94},{"user_id":646,"name":"Bat in a thousand","steam_id":76561198320506848,"connected_time":844000000000,"state":"active","ping":42},{"user_id":651,"name":"gibb (official)","steam_id":76561198074097655,"connected_time":743000000000,"state":"active","ping":41},{"user_id":639,"name":"Headers","steam_id":76561198094216514,"connected_time":1282000000000,"state":"active","ping":74},{"user_id":648,"name":"biGshxxter","steam_id":76561198216780824,"connected_time":827000000000,"state":"active","ping":61},{"user_id":649,"name":"Postarization","steam_id":76561199229658714,"connected_time":779000000000,"state":"active","ping":145},{"user_id":653,"name":"Gedeon","steam_id":76561199034143402,"connected_time":682000000000,"state":"active","ping":85},{"user_id":577,"name":"JustAnIrishLad","steam_id":76561198130773016,"connected_time":5017000000000,"state":"active","ping":75},{"user_id":666,"name":"Vuks","steam_id":76561198026592556,"connected_time":183000000000,"state":"active","ping":88},{"user_id":667,"name":"Engineer Gaming","steam_id":76561198840761529,"connected_time":111000000000,"state":"active","ping":153},{"user_id":662,"name":"maegull","steam_id":76561198815692479,"connected_time":356000000000,"state":"active","ping":194},{"user_id":663,"name":"shniper","steam_id":76561199023476841,"connected_time":352000000000,"state":"active","ping":146}]},{"server_id":320,"name":"Uncletopia | London | 3 | All Maps","name_short":"lon-3","host":"lon-1.uk.uncletopia.com","port":27035,"enabled":true,"region":"eu","cc":"gb","latitude":51.509865,"longitude":-0.118092,"reserved":0,"last_update":"0001-01-01T00:00:00Z","name_a2s":"Uncletopia | London | 3 | All Maps","protocol":17,"map":"cp_snakewater_final1","folder":"tf","game":"Team Fortress","app_id":440,"player_count":0,"max_players":24,"Bots":0,"server_type":"Dedicated","server_os":"Linux","password":true,"vac":true,"version":"7757534","steam_id":85568392924510192,"keywords":["cp","nocrits","nodmgspread","uncletopia"],"game_id":440,"stv_port":27036,"stv_name":"Uncletopia | London | 3 | All Maps | STV","players":null},{"server_id":321,"name":"Uncletopia | London | 4 | All Maps","name_short":"lon-4","host":"lon-1.uk.uncletopia.com","port":27045,"enabled":true,"region":"eu","cc":"gb","latitude":51.509865,"longitude":-0.118092,"reserved":0,"last_update":"0001-01-01T00:00:00Z","name_a2s":"Uncletopia | London | 4 | All Maps","protocol":17,"map":"pl_borneo","folder":"tf","game":"Team Fortress","app_id":440,"player_count":24,"max_players":24,"Bots":0,"server_type":"Dedicated","server_os":"Linux","password":true,"vac":true,"version":"7757534","steam_id":85568392924510193,"keywords":["nocrits","nodmgspread","payload","uncletopia"],"game_id":440,"stv_port":27046,"stv_name":"Uncletopia | London | 4 | All Maps | STV","players":[{"user_id":147,"name":"Sabour","steam_id":76561197963965445,"connected_time":99000000000,"state":"active","ping":76},{"user_id":91,"name":"defamoz","steam_id":76561198928258592,"connected_time":5037000000000,"state":"active","ping":82},{"user_id":114,"name":"Medic on a fucking motorcycle","steam_id":76561199128282369,"connected_time":3483000000000,"state":"active","ping":65},{"user_id":107,"name":"Glitchas","steam_id":76561198883610618,"connected_time":3970000000000,"state":"active","ping":101},{"user_id":131,"name":"Superiumentarius","steam_id":76561198081642249,"connected_time":1153000000000,"state":"active","ping":74},{"user_id":133,"name":"Sunshine Moon","steam_id":76561198022604491,"connected_time":1113000000000,"state":"active","ping":52},{"user_id":148,"name":"Edla","steam_id":76561198062815315,"connected_time":30000000000,"state":"active","ping":113},{"user_id":142,"name":"Gamewiz","steam_id":76561197991536178,"connected_time":525000000000,"state":"active","ping":40},{"user_id":136,"name":"Chaz","steam_id":76561198077292814,"connected_time":892000000000,"state":"active","ping":58},{"user_id":117,"name":"Posture Check","steam_id":76561198053897197,"connected_time":3180000000000,"state":"active","ping":44},{"user_id":109,"name":"OTP DynamoDM","steam_id":76561198150755391,"connected_time":3872000000000,"state":"active","ping":35},{"user_id":68,"name":"Owl","steam_id":76561198248266580,"connected_time":6196000000000,"state":"active","ping":74},{"user_id":138,"name":"Penis Contortionist","steam_id":76561198073663784,"connected_time":774000000000,"state":"active","ping":38},{"user_id":143,"name":"[\u003e\u003c] OTP Uncle Sam","steam_id":76561198186666399,"connected_time":504000000000,"state":"active","ping":61},{"user_id":126,"name":"kpn.","steam_id":76561198072916231,"connected_time":1927000000000,"state":"active","ping":90},{"user_id":100,"name":"Peakey The Bard","steam_id":76561198196607831,"connected_time":4669000000000,"state":"active","ping":54},{"user_id":97,"name":"Artur ☻","steam_id":76561198264297604,"connected_time":4787000000000,"state":"active","ping":78},{"user_id":139,"name":"Bad To The Balls","steam_id":76561198067854682,"connected_time":738000000000,"state":"active","ping":66},{"user_id":149,"name":"CopperCrusader","steam_id":76561198077490149,"connected_time":13000000000,"state":"spawning","ping":149},{"user_id":135,"name":"EpicGamer","steam_id":76561198272760790,"connected_time":1033000000000,"state":"active","ping":58},{"user_id":145,"name":"marceloose","steam_id":76561198360009237,"connected_time":402000000000,"state":"active","ping":47},{"user_id":123,"name":"OTP °Roticher","steam_id":76561198194559879,"connected_time":2349000000000,"state":"active","ping":60},{"user_id":130,"name":"Hoopty","steam_id":76561198057012442,"connected_time":1361000000000,"state":"active","ping":115},{"user_id":108,"name":"glyph","steam_id":76561197980736364,"connected_time":3927000000000,"state":"active","ping":93}]},{"server_id":21,"name":"Uncletopia | London | 5 | All Maps","name_short":"lon-5","host":"lon-1.uk.uncletopia.com","port":27055,"enabled":true,"region":"eu","cc":"gb","latitude":51.509865,"longitude":-0.118092,"reserved":0,"last_update":"0001-01-01T00:00:00Z","name_a2s":"Uncletopia | London | 5 | All Maps","protocol":17,"map":"pl_snowycoast","folder":"tf","game":"Team Fortress","app_id":440,"player_count":24,"max_players":24,"Bots":0,"server_type":"Dedicated","server_os":"Linux","password":true,"vac":true,"version":"7757534","steam_id":85568392924742829,"keywords":["nocrits","nodmgspread","payload","uncletopia"],"game_id":440,"stv_port":27056,"stv_name":"Uncletopia | London | 5 | All Maps | STV","players":[{"user_id":869,"name":"Jobs and Growth","steam_id":76561198039361208,"connected_time":3193000000000,"state":"active","ping":86},{"user_id":908,"name":"Anri Okita's Massive Milkers","steam_id":76561199186352720,"connected_time":393000000000,"state":"active","ping":59},{"user_id":906,"name":"makarov","steam_id":76561198363892870,"connected_time":574000000000,"state":"active","ping":82},{"user_id":904,"name":"BrownBreadMan","steam_id":76561199092834214,"connected_time":734000000000,"state":"active","ping":41},{"user_id":890,"name":"subway vergil","steam_id":76561199110064166,"connected_time":1519000000000,"state":"active","ping":67},{"user_id":875,"name":"BuzzBees ❤","steam_id":76561198101502273,"connected_time":2865000000000,"state":"active","ping":46},{"user_id":873,"name":"KittyKate ❤","steam_id":76561198116340817,"connected_time":2895000000000,"state":"active","ping":63},{"user_id":896,"name":"I'm the 最大的鸟","steam_id":76561198121260981,"connected_time":1349000000000,"state":"active","ping":43},{"user_id":898,"name":"Grillem Dafoe","steam_id":76561198306874574,"connected_time":1090000000000,"state":"active","ping":59},{"user_id":772,"name":"darktheif54","steam_id":76561198043650119,"connected_time":8340000000000,"state":"active","ping":54},{"user_id":905,"name":"Ass Clappicus","steam_id":76561198851157897,"connected_time":608000000000,"state":"active","ping":60},{"user_id":899,"name":"Haha?","steam_id":76561198056882245,"connected_time":1044000000000,"state":"active","ping":36},{"user_id":893,"name":"Saken","steam_id":76561198049075295,"connected_time":1473000000000,"state":"active","ping":65},{"user_id":894,"name":"molly","steam_id":76561198029399151,"connected_time":1467000000000,"state":"active","ping":72},{"user_id":900,"name":"Juiceydough","steam_id":76561197997323419,"connected_time":1022000000000,"state":"active","ping":92},{"user_id":910,"name":"Schmack","steam_id":76561198026535437,"connected_time":237000000000,"state":"active","ping":75},{"user_id":848,"name":"Mach |=|20BB|)","steam_id":76561198952487564,"connected_time":4329000000000,"state":"active","ping":92},{"user_id":868,"name":"frosty","steam_id":76561198094560834,"connected_time":3228000000000,"state":"active","ping":50},{"user_id":902,"name":"Estrogen Overdoser","steam_id":76561198288776967,"connected_time":1006000000000,"state":"active","ping":82},{"user_id":880,"name":"PlacebO.-","steam_id":76561197973577950,"connected_time":2824000000000,"state":"active","ping":73},{"user_id":881,"name":"Lennox","steam_id":76561198069063554,"connected_time":2743000000000,"state":"active","ping":61},{"user_id":845,"name":"MAX PALMER","steam_id":76561198019959517,"connected_time":4472000000000,"state":"active","ping":83},{"user_id":797,"name":"RandoART","steam_id":76561198818165503,"connected_time":6678000000000,"state":"active","ping":102},{"user_id":815,"name":"ejskelerx","steam_id":76561199203662885,"connected_time":5823000000000,"state":"active","ping":77}]},{"server_id":22,"name":"Uncletopia | London | 6 | All Maps","name_short":"lon-6","host":"lon-1.uk.uncletopia.com","port":27065,"enabled":true,"region":"eu","cc":"gb","latitude":51.509865,"longitude":-0.118092,"reserved":0,"last_update":"0001-01-01T00:00:00Z","name_a2s":"Uncletopia | London | 6 | All Maps","protocol":17,"map":"pl_swiftwater_final1","folder":"tf","game":"Team Fortress","app_id":440,"player_count":15,"max_players":24,"Bots":0,"server_type":"Dedicated","server_os":"Linux","password":true,"vac":true,"version":"7757534","steam_id":85568392924742830,"keywords":["nocrits","nodmgspread","payload","uncletopia"],"game_id":440,"stv_port":27066,"stv_name":"Uncletopia | London | 6 | All Maps | STV","players":[{"user_id":220,"name":"Hotgamerdad","steam_id":76561198085940613,"connected_time":2815000000000,"state":"active","ping":57},{"user_id":244,"name":"Videogamer","steam_id":76561198106012909,"connected_time":306000000000,"state":"active","ping":83},{"user_id":206,"name":"Fran","steam_id":76561199070516960,"connected_time":3604000000000,"state":"active","ping":79},{"user_id":242,"name":"Dr.Doof","steam_id":76561198357725388,"connected_time":1079000000000,"state":"active","ping":60},{"user_id":243,"name":"RallyHawk","steam_id":76561199451987300,"connected_time":1008000000000,"state":"active","ping":67},{"user_id":245,"name":"Oki (Bon)","steam_id":76561199047748534,"connected_time":249000000000,"state":"active","ping":53},{"user_id":246,"name":"snki","steam_id":76561198324048855,"connected_time":237000000000,"state":"active","ping":49},{"user_id":229,"name":"Phanom","steam_id":76561198995241508,"connected_time":1889000000000,"state":"active","ping":66},{"user_id":188,"name":"Daga","steam_id":76561198055450219,"connected_time":4965000000000,"state":"active","ping":44},{"user_id":247,"name":"Kerauno","steam_id":76561198872235014,"connected_time":133000000000,"state":"active","ping":83},{"user_id":248,"name":"peteteboy","steam_id":76561199160156935,"connected_time":87000000000,"state":"active","ping":67},{"user_id":249,"name":"aGreedGryphon","steam_id":76561198245175308,"connected_time":6000000000,"state":"spawning","ping":110},{"user_id":224,"name":"Ches is into Cro-Cro","steam_id":76561198067204908,"connected_time":2303000000000,"state":"active","ping":59},{"user_id":238,"name":"Silverdarlin","steam_id":76561198118540970,"connected_time":1623000000000,"state":"active","ping":53},{"user_id":228,"name":"Grogon","steam_id":76561198203300218,"connected_time":1942000000000,"state":"active","ping":72}]},{"server_id":40,"name":"Uncletopia | London | 7 | No Payload","name_short":"lon-7","host":"lon-1.uk.uncletopia.com","port":27075,"enabled":true,"region":"eu","cc":"gb","latitude":51.509865,"longitude":-0.118092,"reserved":0,"last_update":"0001-01-01T00:00:00Z","name_a2s":"Uncletopia | London | 7 | No Payload","protocol":17,"map":"cp_metalworks","folder":"tf","game":"Team Fortress","app_id":440,"player_count":0,"max_players":24,"Bots":0,"server_type":"Dedicated","server_os":"Linux","password":true,"vac":true,"version":"7757534","steam_id":85568392924964314,"keywords":["cp","nocrits","nodmgspread","uncletopia"],"game_id":440,"stv_port":27076,"stv_name":"Uncletopia | London | 7 | No Payload | STV","players":null},{"server_id":41,"name":"Uncletopia | London | 8 | Community","name_short":"lon-8","host":"lon-1.uk.uncletopia.com","port":27085,"enabled":true,"region":"eu","cc":"gb","latitude":51.509865,"longitude":-0.118092,"reserved":0,"last_update":"0001-01-01T00:00:00Z","name_a2s":"Uncletopia | London | 8 | Community","protocol":17,"map":"workshop/rd_asteroid_redux_b1.ugc2154902912","folder":"tf","game":"Team Fortress","app_id":440,"player_count":0,"max_players":24,"Bots":0,"server_type":"Dedicated","server_os":"Linux","password":true,"vac":true,"version":"7757534","steam_id":85568392924964315,"keywords":["beta","nocrits","nodmgspread","rd","uncletopia"],"game_id":440,"stv_port":27086,"stv_name":"Uncletopia | London | 8 | Community | STV","players":null},{"server_id":300,"name":"Uncletopia | Montréal | 1 | All Maps","name_short":"mtl-1","host":"mtl-1.ca.uncletopia.com","port":27015,"enabled":true,"region":"us-east","cc":"ca","latitude":45.50889,"longitude":-73.56167,"reserved":0,"last_update":"0001-01-01T00:00:00Z","name_a2s":"Uncletopia | Montréal | 1 | All Maps","protocol":17,"map":"pl_borneo","folder":"tf","game":"Team Fortress","app_id":440,"player_count":0,"max_players":24,"Bots":0,"server_type":"Dedicated","server_os":"Linux","password":true,"vac":true,"version":"7757534","steam_id":85568392924500087,"keywords":["nocrits","nodmgspread","payload","uncletopia"],"game_id":440,"stv_port":27016,"stv_name":"Uncletopia | Montréal | 1 | All Maps | STV","players":null},{"server_id":301,"name":"Uncletopia | Montréal | 2 | All Maps","name_short":"mtl-2","host":"mtl-1.ca.uncletopia.com","port":27025,"enabled":true,"region":"us-east","cc":"ca","latitude":45.50889,"longitude":-73.56167,"reserved":0,"last_update":"0001-01-01T00:00:00Z","name_a2s":"Uncletopia | Montréal | 2 | All Maps","protocol":17,"map":"cp_process_final","folder":"tf","game":"Team Fortress","app_id":440,"player_count":0,"max_players":24,"Bots":0,"server_type":"Dedicated","server_os":"Linux","password":true,"vac":true,"version":"7757534","steam_id":85568392924500088,"keywords":["cp","nocrits","nodmgspread","uncletopia"],"game_id":440,"stv_port":27026,"stv_name":"Uncletopia | Montréal | 2 | All Maps | STV","players":null},{"server_id":302,"name":"Uncletopia | Montréal | 3 | All Maps","name_short":"mtl-3","host":"mtl-1.ca.uncletopia.com","port":27035,"enabled":true,"region":"us-east","cc":"ca","latitude":45.50889,"longitude":-73.56167,"reserved":0,"last_update":"0001-01-01T00:00:00Z","name_a2s":"Uncletopia | Montréal | 3 | All Maps","protocol":17,"map":"cp_snakewater_final1","folder":"tf","game":"Team Fortress","app_id":440,"player_count":0,"max_players":24,"Bots":0,"server_type":"Dedicated","server_os":"Linux","password":true,"vac":true,"version":"7757534","steam_id":85568392924500089,"keywords":["cp","nocrits","nodmgspread","uncletopia"],"game_id":440,"stv_port":27036,"stv_name":"Uncletopia | Montréal | 3 | All Maps | STV","players":null},{"server_id":303,"name":"Uncletopia | Montréal | 4 | No Payload","name_short":"mtl-4","host":"mtl-1.ca.uncletopia.com","port":27045,"enabled":true,"region":"us-east","cc":"ca","latitude":45.50889,"longitude":-73.56167,"reserved":0,"last_update":"0001-01-01T00:00:00Z","name_a2s":"Uncletopia | Montréal | 4 | No Payload","protocol":17,"map":"pl_borneo","folder":"tf","game":"Team Fortress","app_id":440,"player_count":0,"max_players":24,"Bots":0,"server_type":"Dedicated","server_os":"Linux","password":true,"vac":true,"version":"7757534","steam_id":85568392924500090,"keywords":["nocrits","nodmgspread","payload","uncletopia"],"game_id":440,"stv_port":27046,"stv_name":"Uncletopia | Montréal | 4 | No Payload | STV","players":null},{"server_id":13,"name":"Uncletopia | New York City | 1 | All Maps","name_short":"nyc-1","host":"nyc-1.us.uncletopia.com","port":27015,"enabled":true,"region":"us-east","cc":"us","latitude":40.73061,"longitude":-73.93524,"reserved":0,"last_update":"0001-01-01T00:00:00Z","name_a2s":"Uncletopia | New York City | 1 | All Maps","protocol":17,"map":"pl_snowycoast","folder":"tf","game":"Team Fortress","app_id":440,"player_count":24,"max_players":24,"Bots":0,"server_type":"Dedicated","server_os":"Linux","password":true,"vac":true,"version":"7757534","steam_id":85568392924469993,"keywords":["nocrits","nodmgspread","payload","uncletopia"],"game_id":440,"stv_port":27016,"stv_name":"Uncletopia | New York City | 1 | All Maps | STV","players":[{"user_id":59,"name":"Cam(era)","steam_id":76561198285054047,"connected_time":1356000000000,"state":"active","ping":92},{"user_id":64,"name":"Kevin the Minion","steam_id":76561198052380794,"connected_time":1056000000000,"state":"active","ping":71},{"user_id":74,"name":"Nosferatu","steam_id":76561198048205270,"connected_time":748000000000,"state":"active","ping":67},{"user_id":75,"name":"ck_rene","steam_id":76561199079260488,"connected_time":739000000000,"state":"active","ping":52},{"user_id":80,"name":"I C U P","steam_id":76561198349252490,"connected_time":674000000000,"state":"active","ping":57},{"user_id":71,"name":"xMystic_Fire","steam_id":76561198189961543,"connected_time":881000000000,"state":"active","ping":97},{"user_id":76,"name":"🅜🅔🅔🅚🅢🅣🅔\ufffd\ufffd\ufffd","steam_id":76561197999748343,"connected_time":723000000000,"state":"active","ping":80},{"user_id":55,"name":"SpinetinglingToast","steam_id":76561198099470670,"connected_time":1888000000000,"state":"active","ping":55},{"user_id":77,"name":"Smiling","steam_id":76561198293407075,"connected_time":720000000000,"state":"active","ping":107},{"user_id":69,"name":"fefquest","steam_id":76561198060133892,"connected_time":960000000000,"state":"active","ping":105},{"user_id":29,"name":"High Quality Ice","steam_id":76561198969178047,"connected_time":4658000000000,"state":"active","ping":60},{"user_id":66,"name":"jaydenastacio2020","steam_id":76561199470685197,"connected_time":1000000000000,"state":"active","ping":55},{"user_id":78,"name":"reagen ridley","steam_id":76561198367521016,"connected_time":717000000000,"state":"active","ping":57},{"user_id":53,"name":"Joy #savetf2","steam_id":76561198073690173,"connected_time":1981000000000,"state":"active","ping":55},{"user_id":85,"name":"DefenderOfChodes","steam_id":76561198018803214,"connected_time":220000000000,"state":"active","ping":73},{"user_id":81,"name":"pelicAn","steam_id":76561197963422599,"connected_time":670000000000,"state":"active","ping":51},{"user_id":57,"name":"Some Dumb","steam_id":76561199021382426,"connected_time":1392000000000,"state":"active","ping":69},{"user_id":83,"name":"CD-Player","steam_id":76561199107223362,"connected_time":416000000000,"state":"active","ping":61},{"user_id":72,"name":"FalloutIsTheBest","steam_id":76561199025546030,"connected_time":845000000000,"state":"active","ping":100},{"user_id":73,"name":"Hi, I'm Jesus","steam_id":76561198015327152,"connected_time":810000000000,"state":"active","ping":54},{"user_id":49,"name":"Karma","steam_id":76561198030565234,"connected_time":2475000000000,"state":"active","ping":57},{"user_id":88,"name":"Uncle Majic the Hip Hop Magicia","steam_id":76561198107924303,"connected_time":194000000000,"state":"active","ping":34},{"user_id":54,"name":"Marisuh","steam_id":76561198843890616,"connected_time":1962000000000,"state":"active","ping":79},{"user_id":89,"name":"FUSION","steam_id":76561197972659738,"connected_time":103000000000,"state":"active","ping":37}]},{"server_id":14,"name":"Uncletopia | New York City | 2 | All Maps","name_short":"nyc-2","host":"nyc-1.us.uncletopia.com","port":27025,"enabled":true,"region":"us-east","cc":"us","latitude":40.73061,"longitude":-73.93524,"reserved":0,"last_update":"0001-01-01T00:00:00Z","name_a2s":"Uncletopia | New York City | 2 | All Maps","protocol":17,"map":"pl_borneo","folder":"tf","game":"Team Fortress","app_id":440,"player_count":24,"max_players":24,"Bots":0,"server_type":"Dedicated","server_os":"Linux","password":true,"vac":true,"version":"7757534","steam_id":85568392924469994,"keywords":["nocrits","nodmgspread","payload","uncletopia"],"game_id":440,"stv_port":27026,"stv_name":"Uncletopia | New York City | 2 | All Maps | STV","players":[{"user_id":154,"name":"cosmik","steam_id":76561198071193180,"connected_time":2214000000000,"state":"active","ping":58},{"user_id":134,"name":"Sone","steam_id":76561198069601032,"connected_time":3670000000000,"state":"active","ping":59},{"user_id":168,"name":"Owen","steam_id":76561198025446908,"connected_time":1393000000000,"state":"active","ping":42},{"user_id":179,"name":"Lancer47","steam_id":76561198020481475,"connected_time":343000000000,"state":"active","ping":56},{"user_id":174,"name":"Bee","steam_id":76561198074681324,"connected_time":770000000000,"state":"active","ping":45},{"user_id":150,"name":"Nuts","steam_id":76561198066494938,"connected_time":2683000000000,"state":"active","ping":52},{"user_id":176,"name":"BugsAreMyWorstEnemy","steam_id":76561199440395505,"connected_time":711000000000,"state":"active","ping":183},{"user_id":139,"name":"Weerk","steam_id":76561199209543551,"connected_time":3281000000000,"state":"active","ping":70},{"user_id":167,"name":"Glide","steam_id":76561198046011621,"connected_time":1456000000000,"state":"active","ping":45},{"user_id":156,"name":"cringe","steam_id":76561198880891025,"connected_time":1951000000000,"state":"active","ping":60},{"user_id":180,"name":"Mediocre","steam_id":76561198180501391,"connected_time":327000000000,"state":"active","ping":58},{"user_id":177,"name":"walter white","steam_id":76561198212498408,"connected_time":614000000000,"state":"active","ping":60},{"user_id":40,"name":"Obelix","steam_id":76561198274715109,"connected_time":11627000000000,"state":"active","ping":43},{"user_id":183,"name":"joeeeeeeeeeee","steam_id":76561198311704368,"connected_time":302000000000,"state":"active","ping":94},{"user_id":100,"name":"ThePacBruno","steam_id":76561198046084545,"connected_time":5798000000000,"state":"active","ping":177},{"user_id":166,"name":"Wintery Solstices","steam_id":76561198251108612,"connected_time":1481000000000,"state":"active","ping":65},{"user_id":184,"name":"The Land Admiral","steam_id":76561198159356609,"connected_time":125000000000,"state":"active","ping":56},{"user_id":178,"name":"fatcat","steam_id":76561197993786013,"connected_time":362000000000,"state":"active","ping":49},{"user_id":165,"name":"Duvet","steam_id":76561199151206130,"connected_time":1527000000000,"state":"active","ping":45},{"user_id":144,"name":"Nic0","steam_id":76561198305690218,"connected_time":3182000000000,"state":"active","ping":56},{"user_id":181,"name":"Mediocre Gaming","steam_id":76561199230467980,"connected_time":326000000000,"state":"active","ping":95},{"user_id":129,"name":"moodi catgirl","steam_id":76561198124028045,"connected_time":4138000000000,"state":"active","ping":50},{"user_id":172,"name":"germba","steam_id":76561198421591995,"connected_time":1228000000000,"state":"active","ping":97},{"user_id":185,"name":"a table","steam_id":76561198158461279,"connected_time":111000000000,"state":"active","ping":63}]},{"server_id":15,"name":"Uncletopia | New York City | 3 | Stopwatch Beta","name_short":"nyc-3","host":"nyc-1.us.uncletopia.com","port":27035,"enabled":true,"region":"us-east","cc":"us","latitude":40.73061,"longitude":-73.93524,"reserved":0,"last_update":"0001-01-01T00:00:00Z","name_a2s":"Uncletopia | New York City | 3 | Stopwatch Beta","protocol":17,"map":"workshop/pl_vigil_rc9.ugc1266210012","folder":"tf","game":"Team Fortress","app_id":440,"player_count":0,"max_players":24,"Bots":0,"server_type":"Dedicated","server_os":"Linux","password":true,"vac":true,"version":"7757534","steam_id":85568392924742820,"keywords":["nocrits","nodmgspread","payload","uncletopia"],"game_id":440,"stv_port":27036,"stv_name":"Uncletopia | New York City | 3 | Stopwatch Beta | STV","players":null},{"server_id":16,"name":"Uncletopia | New York City | 4 | Community","name_short":"nyc-4","host":"nyc-1.us.uncletopia.com","port":27045,"enabled":true,"region":"us-east","cc":"us","latitude":40.73061,"longitude":-73.93524,"reserved":0,"last_update":"0001-01-01T00:00:00Z","name_a2s":"Uncletopia | New York City | 4 | Community","protocol":17,"map":"workshop/koth_ashville_final.ugc2130459942","folder":"tf","game":"Team Fortress","app_id":440,"player_count":0,"max_players":24,"Bots":0,"server_type":"Dedicated","server_os":"Linux","password":true,"vac":true,"version":"7757534","steam_id":85568392924742821,"keywords":["cp","nocrits","nodmgspread","uncletopia"],"game_id":440,"stv_port":27046,"stv_name":"Uncletopia | New York City | 4 | Community | STV","players":null},{"server_id":142,"name":"Uncletopia | São Paulo | 1 | All Maps","name_short":"sao-1","host":"sao-1.br.uncletopia.com","port":27015,"enabled":true,"region":"sa","cc":"br","latitude":-23.533773,"longitude":-46.62529,"reserved":0,"last_update":"0001-01-01T00:00:00Z","name_a2s":"Uncletopia | São Paulo | 1 | All Maps","protocol":17,"map":"koth_cascade","folder":"tf","game":"Team Fortress","app_id":440,"player_count":0,"max_players":24,"Bots":0,"server_type":"Dedicated","server_os":"Linux","password":true,"vac":true,"version":"7757534","steam_id":85568392924469996,"keywords":["cp","nocrits","nodmgspread","uncletopia"],"game_id":440,"stv_port":27016,"stv_name":"Uncletopia | São Paulo | 1 | All Maps | STV","players":null},{"server_id":143,"name":"Uncletopia | São Paulo | 2 | All Maps","name_short":"sao-2","host":"sao-2.br.uncletopia.com","port":27015,"enabled":true,"region":"sa","cc":"br","latitude":-23.533773,"longitude":-46.62529,"reserved":0,"last_update":"0001-01-01T00:00:00Z","name_a2s":"Uncletopia | São Paulo | 2 | All Maps","protocol":17,"map":"cp_sunshine","folder":"tf","game":"Team Fortress","app_id":440,"player_count":1,"max_players":24,"Bots":0,"server_type":"Dedicated","server_os":"Linux","password":true,"vac":true,"version":"7757534","steam_id":85568392924485349,"keywords":["cp","nocrits","nodmgspread","uncletopia"],"game_id":440,"stv_port":27016,"stv_name":"Uncletopia | São Paulo | 2 | All Maps | STV","players":[{"user_id":10,"name":"tiagonet2030","steam_id":76561199393671348,"connected_time":119000000000,"state":"active","ping":154}]},{"server_id":7,"name":"Uncletopia | Seattle | 1 | All Maps","name_short":"sea-1","host":"sea-1.us.uncletopia.com","port":27015,"enabled":true,"region":"us-west","cc":"us","latitude":47.608013,"longitude":-122.33517,"reserved":0,"last_update":"0001-01-01T00:00:00Z","name_a2s":"Uncletopia | Seattle | 1 | All Maps","protocol":17,"map":"pl_borneo","folder":"tf","game":"Team Fortress","app_id":440,"player_count":24,"max_players":24,"Bots":0,"server_type":"Dedicated","server_os":"Linux","password":true,"vac":true,"version":"7757534","steam_id":85568392924469997,"keywords":["nocrits","nodmgspread","payload","uncletopia"],"game_id":440,"stv_port":27016,"stv_name":"Uncletopia | Seattle | 1 | All Maps | STV","players":[{"user_id":10,"name":"m1","steam_id":76561198004133638,"connected_time":14803000000000,"state":"active","ping":84},{"user_id":194,"name":"pablo","steam_id":76561199190247198,"connected_time":742000000000,"state":"active","ping":168},{"user_id":177,"name":"Willy Wonker","steam_id":76561198082944789,"connected_time":2621000000000,"state":"active","ping":79},{"user_id":185,"name":"Sniff","steam_id":76561198010270922,"connected_time":2224000000000,"state":"active","ping":43},{"user_id":130,"name":"J U K I E","steam_id":76561197962841151,"connected_time":5952000000000,"state":"active","ping":45},{"user_id":168,"name":"〣dust〣 -she/her-","steam_id":76561198045218909,"connected_time":3736000000000,"state":"active","ping":38},{"user_id":187,"name":"Thexx ❤","steam_id":76561198113823050,"connected_time":1505000000000,"state":"active","ping":45},{"user_id":200,"name":"average dreamlander","steam_id":76561198325306660,"connected_time":455000000000,"state":"active","ping":53},{"user_id":173,"name":"Path To Victory","steam_id":76561198026958898,"connected_time":3394000000000,"state":"active","ping":63},{"user_id":195,"name":"Dosario","steam_id":76561198298095535,"connected_time":717000000000,"state":"active","ping":58},{"user_id":193,"name":"tinkerbell","steam_id":76561197978351201,"connected_time":924000000000,"state":"active","ping":94},{"user_id":198,"name":"heisenberg","steam_id":76561198170879526,"connected_time":492000000000,"state":"active","ping":78},{"user_id":125,"name":"NANO","steam_id":76561199009634635,"connected_time":7028000000000,"state":"active","ping":74},{"user_id":192,"name":"the scrotum stealer","steam_id":76561198993139342,"connected_time":983000000000,"state":"active","ping":87},{"user_id":189,"name":"The Population of Sweden","steam_id":76561198202201644,"connected_time":1473000000000,"state":"active","ping":42},{"user_id":199,"name":"Floating Peasant","steam_id":76561198000183671,"connected_time":488000000000,"state":"active","ping":66},{"user_id":201,"name":"Alabit","steam_id":76561198065578560,"connected_time":452000000000,"state":"active","ping":75},{"user_id":176,"name":"Dunkle","steam_id":76561198041903573,"connected_time":2836000000000,"state":"active","ping":47},{"user_id":188,"name":"HaphazardHazel","steam_id":76561198316812693,"connected_time":1500000000000,"state":"active","ping":134},{"user_id":196,"name":"Dauntless Duelist","steam_id":76561198025056018,"connected_time":710000000000,"state":"active","ping":54},{"user_id":190,"name":"MonteJT","steam_id":76561198055409360,"connected_time":1421000000000,"state":"active","ping":34},{"user_id":104,"name":"TROY","steam_id":76561197983852176,"connected_time":8392000000000,"state":"active","ping":75},{"user_id":197,"name":"Dusk (little)","steam_id":76561198088681558,"connected_time":665000000000,"state":"active","ping":48},{"user_id":157,"name":"shane","steam_id":76561198060491451,"connected_time":4057000000000,"state":"active","ping":88}]},{"server_id":119,"name":"Uncletopia | Seattle | 2 | All Maps","name_short":"sea-2","host":"sea-1.us.uncletopia.com","port":27025,"enabled":true,"region":"us-west","cc":"us","latitude":47.608013,"longitude":-122.33517,"reserved":0,"last_update":"0001-01-01T00:00:00Z","name_a2s":"Uncletopia | Seattle | 2 | All Maps","protocol":17,"map":"cp_dustbowl","folder":"tf","game":"Team Fortress","app_id":440,"player_count":24,"max_players":24,"Bots":0,"server_type":"Dedicated","server_os":"Linux","password":true,"vac":true,"version":"7757534","steam_id":85568392924469998,"keywords":["cp","nocrits","nodmgspread","uncletopia"],"game_id":440,"stv_port":27026,"stv_name":"Uncletopia | Seattle | 2 | All Maps | STV","players":[{"user_id":147,"name":"Scoob","steam_id":76561198133592995,"connected_time":1605000000000,"state":"active","ping":142},{"user_id":95,"name":"403Blunkly","steam_id":76561199005023878,"connected_time":5056000000000,"state":"active","ping":83},{"user_id":173,"name":"Dimple","steam_id":76561198980324190,"connected_time":251000000000,"state":"active","ping":51},{"user_id":148,"name":"Biznickel","steam_id":76561199422511230,"connected_time":1601000000000,"state":"active","ping":50},{"user_id":172,"name":"cronksports","steam_id":76561198350530229,"connected_time":270000000000,"state":"active","ping":69},{"user_id":152,"name":"Nolan (Femboy)","steam_id":76561198082534795,"connected_time":1485000000000,"state":"active","ping":120},{"user_id":153,"name":"Mom","steam_id":76561198207936000,"connected_time":1473000000000,"state":"active","ping":60},{"user_id":178,"name":"rtgod","steam_id":76561198125363469,"connected_time":23000000000,"state":"active","ping":155},{"user_id":170,"name":"Electric Hawk","steam_id":76561198129732108,"connected_time":281000000000,"state":"active","ping":81},{"user_id":175,"name":"Robert E.T.","steam_id":76561197986439371,"connected_time":235000000000,"state":"active","ping":54},{"user_id":167,"name":"lamb","steam_id":76561198013707948,"connected_time":914000000000,"state":"active","ping":110},{"user_id":131,"name":"EEBIGAA","steam_id":76561198056535988,"connected_time":3138000000000,"state":"active","ping":74},{"user_id":157,"name":"Euphoria","steam_id":76561198187168787,"connected_time":1347000000000,"state":"active","ping":74},{"user_id":158,"name":"TheLuckyJinks","steam_id":76561198154340722,"connected_time":1306000000000,"state":"active","ping":129},{"user_id":159,"name":"Cloud","steam_id":76561198272454184,"connected_time":1301000000000,"state":"active","ping":176},{"user_id":174,"name":"flishko","steam_id":76561198326489802,"connected_time":237000000000,"state":"active","ping":57},{"user_id":118,"name":"Mac is Bac","steam_id":76561198307352761,"connected_time":3703000000000,"state":"active","ping":166},{"user_id":163,"name":"5poon/","steam_id":76561198140699845,"connected_time":1067000000000,"state":"active","ping":154},{"user_id":160,"name":"I hate gamers","steam_id":76561198288743767,"connected_time":1257000000000,"state":"active","ping":74},{"user_id":171,"name":"ScoutMoment420","steam_id":76561199316368867,"connected_time":279000000000,"state":"active","ping":135},{"user_id":169,"name":"No nos importa perdedor","steam_id":76561199005351379,"connected_time":525000000000,"state":"active","ping":136},{"user_id":128,"name":"\u003c3Elise\u003c3","steam_id":76561198146435005,"connected_time":3435000000000,"state":"active","ping":83},{"user_id":141,"name":"chimplicity","steam_id":76561198012097062,"connected_time":2628000000000,"state":"active","ping":100},{"user_id":177,"name":"Melonfrog","steam_id":76561198389885427,"connected_time":231000000000,"state":"active","ping":86}]},{"server_id":406,"name":"Uncletopia | Seattle | 3 | Stopwatch Beta","name_short":"sea-3","host":"sea-1.us.uncletopia.com","port":27035,"enabled":true,"region":"us-west","cc":"us","latitude":47.608013,"longitude":-122.33517,"reserved":0,"last_update":"0001-01-01T00:00:00Z","name_a2s":"Uncletopia | Seattle | 3 | Stopwatch Beta","protocol":17,"map":"workshop/koth_ramjam_rc1.ugc459778887","folder":"tf","game":"Team Fortress","app_id":440,"player_count":0,"max_players":24,"Bots":0,"server_type":"Dedicated","server_os":"Linux","password":true,"vac":true,"version":"7757534","steam_id":85568392924515217,"keywords":["cp","nocrits","nodmgspread","uncletopia"],"game_id":440,"stv_port":27036,"stv_name":"Uncletopia | Seattle | 3 | Stopwatch Beta | STV","players":null},{"server_id":17,"name":"Uncletopia | San Francisco | 1 | All Maps","name_short":"sfo-1","host":"sfo-1.us.uncletopia.com","port":27015,"enabled":true,"region":"us-west","cc":"us","latitude":37.77397,"longitude":-122.4313,"reserved":0,"last_update":"0001-01-01T00:00:00Z","name_a2s":"Uncletopia | San Francisco | 1 | All Maps","protocol":17,"map":"cp_snakewater_final1","folder":"tf","game":"Team Fortress","app_id":440,"player_count":24,"max_players":24,"Bots":0,"server_type":"Dedicated","server_os":"Linux","password":true,"vac":true,"version":"7757534","steam_id":85568392924469999,"keywords":["cp","nocrits","nodmgspread","uncletopia"],"game_id":440,"stv_port":27016,"stv_name":"Uncletopia | San Francisco | 1 | All Maps | STV","players":[{"user_id":418,"name":"Grapefruit","steam_id":76561198269253587,"connected_time":2931000000000,"state":"active","ping":40},{"user_id":456,"name":"PinguEnjoyer6","steam_id":76561199186723516,"connected_time":1274000000000,"state":"active","ping":43},{"user_id":400,"name":"gasparmx","steam_id":76561197998611994,"connected_time":3985000000000,"state":"active","ping":72},{"user_id":478,"name":"corbenis","steam_id":76561199012442511,"connected_time":7000000000,"state":"spawning","ping":59},{"user_id":373,"name":"roger roger","steam_id":76561198130032444,"connected_time":5640000000000,"state":"active","ping":73},{"user_id":477,"name":"WalkinMan","steam_id":76561198047941142,"connected_time":204000000000,"state":"active","ping":39},{"user_id":439,"name":"ayaya?","steam_id":76561199000188109,"connected_time":2313000000000,"state":"active","ping":51},{"user_id":452,"name":"demomanfan2008","steam_id":76561198077030486,"connected_time":1587000000000,"state":"active","ping":51},{"user_id":464,"name":"Vojdo","steam_id":76561198064781517,"connected_time":853000000000,"state":"active","ping":66},{"user_id":421,"name":"Spoofle","steam_id":76561199003655066,"connected_time":2878000000000,"state":"active","ping":53},{"user_id":455,"name":"DaBeatGoOff?","steam_id":76561198106507400,"connected_time":1310000000000,"state":"active","ping":59},{"user_id":471,"name":"cum snorter","steam_id":76561198057891261,"connected_time":599000000000,"state":"active","ping":76},{"user_id":465,"name":"Ruinedragdoll","steam_id":76561199023649778,"connected_time":828000000000,"state":"active","ping":120},{"user_id":459,"name":"Donkey Kong Mug","steam_id":76561199472118589,"connected_time":1142000000000,"state":"active","ping":135},{"user_id":472,"name":"Sith of Darkness","steam_id":76561198106636597,"connected_time":556000000000,"state":"active","ping":70},{"user_id":460,"name":"Superman123389","steam_id":76561198267472539,"connected_time":1140000000000,"state":"active","ping":86},{"user_id":466,"name":"Cave Dweller","steam_id":76561198374825685,"connected_time":823000000000,"state":"active","ping":56},{"user_id":431,"name":"BBL Sponsor","steam_id":76561199093733603,"connected_time":2658000000000,"state":"active","ping":60},{"user_id":447,"name":"non menthol newport","steam_id":76561198041907345,"connected_time":1875000000000,"state":"active","ping":61},{"user_id":449,"name":"rose","steam_id":76561197995200743,"connected_time":1784000000000,"state":"active","ping":45},{"user_id":475,"name":"Polar","steam_id":76561198108010247,"connected_time":370000000000,"state":"active","ping":112},{"user_id":476,"name":"reverie","steam_id":76561198168158637,"connected_time":333000000000,"state":"active","ping":64},{"user_id":474,"name":"EatSomeBEES","steam_id":76561198047334307,"connected_time":432000000000,"state":"active","ping":68},{"user_id":446,"name":"Jailbreak","steam_id":76561198802085218,"connected_time":2068000000000,"state":"active","ping":99}]},{"server_id":18,"name":"Uncletopia | San Francisco | 2 | All Maps","name_short":"sfo-2","host":"sfo-1.us.uncletopia.com","port":27025,"enabled":true,"region":"us-west","cc":"us","latitude":37.77397,"longitude":-122.4313,"reserved":0,"last_update":"0001-01-01T00:00:00Z","name_a2s":"Uncletopia | San Francisco | 2 | All Maps","protocol":17,"map":"koth_viaduct","folder":"tf","game":"Team Fortress","app_id":440,"player_count":0,"max_players":24,"Bots":0,"server_type":"Dedicated","server_os":"Linux","password":true,"vac":true,"version":"7757534","steam_id":85568392924470000,"keywords":["cp","nocrits","nodmgspread","uncletopia"],"game_id":440,"stv_port":27026,"stv_name":"Uncletopia | San Francisco | 2 | All Maps | STV","players":null},{"server_id":19,"name":"Uncletopia | San Francisco | 3 | Stopwatch Beta","name_short":"sfo-3","host":"sfo-1.us.uncletopia.com","port":27035,"enabled":true,"region":"us-west","cc":"us","latitude":37.77397,"longitude":-122.4313,"reserved":0,"last_update":"0001-01-01T00:00:00Z","name_a2s":"Uncletopia | San Francisco | 3 | Stopwatch Beta","protocol":17,"map":"pl_borneo","folder":"tf","game":"Team Fortress","app_id":440,"player_count":0,"max_players":24,"Bots":0,"server_type":"Dedicated","server_os":"Linux","password":true,"vac":true,"version":"7757534","steam_id":85568392924742824,"keywords":["nocrits","nodmgspread","payload","uncletopia"],"game_id":440,"stv_port":27036,"stv_name":"Uncletopia | San Francisco | 3 | Stopwatch Beta | STV","players":null},{"server_id":20,"name":"Uncletopia | San Francisco | 4 | Community","name_short":"sfo-4","host":"sfo-1.us.uncletopia.com","port":27045,"enabled":true,"region":"us-west","cc":"us","latitude":37.77397,"longitude":-122.4313,"reserved":0,"last_update":"0001-01-01T00:00:00Z","name_a2s":"Uncletopia | San Francisco | 4 | Community","protocol":17,"map":"koth_highpass","folder":"tf","game":"Team Fortress","app_id":440,"player_count":0,"max_players":24,"Bots":0,"server_type":"Dedicated","server_os":"Linux","password":true,"vac":true,"version":"7757534","steam_id":85568392924742826,"keywords":["cp","nocrits","nodmgspread","uncletopia"],"game_id":440,"stv_port":27046,"stv_name":"Uncletopia | San Francisco | 4 | Community | STV","players":null},{"server_id":141,"name":"Uncletopia | Sydney | 1 | All Maps","name_short":"syd-1","host":"syd-1.au.uncletopia.com","port":27015,"enabled":true,"region":"au","cc":"au","latitude":-33.865143,"longitude":151.2099,"reserved":0,"last_update":"0001-01-01T00:00:00Z","name_a2s":"Uncletopia | Sydney | 1 | All Maps","protocol":17,"map":"cp_sunshine","folder":"tf","game":"Team Fortress","app_id":440,"player_count":0,"max_players":24,"Bots":0,"server_type":"Dedicated","server_os":"Linux","password":true,"vac":true,"version":"7757534","steam_id":85568392924470001,"keywords":["cp","nocrits","nodmgspread","uncletopia"],"game_id":440,"stv_port":27016,"stv_name":"Uncletopia | Sydney | 1 | All Maps | STV","players":null},{"server_id":123,"name":"Uncletopia | Sydney | 2 | All Maps","name_short":"syd-2","host":"syd-1.au.uncletopia.com","port":27025,"enabled":true,"region":"au","cc":"au","latitude":-33.865143,"longitude":151.2099,"reserved":0,"last_update":"0001-01-01T00:00:00Z","name_a2s":"Uncletopia | Sydney | 2 | All Maps","protocol":17,"map":"koth_viaduct","folder":"tf","game":"Team Fortress","app_id":440,"player_count":0,"max_players":24,"Bots":0,"server_type":"Dedicated","server_os":"Linux","password":true,"vac":true,"version":"7757534","steam_id":85568392924470002,"keywords":["cp","nocrits","nodmgspread","uncletopia"],"game_id":440,"stv_port":27026,"stv_name":"Uncletopia | Sydney | 2 | All Maps | STV","players":null},{"server_id":395,"name":"Uncletopia | Sydney | 3 | All Maps","name_short":"syd-3","host":"syd-1.au.uncletopia.com","port":27035,"enabled":true,"region":"au","cc":"au","latitude":-33.865143,"longitude":151.2099,"reserved":0,"last_update":"0001-01-01T00:00:00Z","name_a2s":"Uncletopia | Sydney | 3 | All Maps","protocol":17,"map":"pl_upward","folder":"tf","game":"Team Fortress","app_id":440,"player_count":0,"max_players":24,"Bots":0,"server_type":"Dedicated","server_os":"Linux","password":true,"vac":true,"version":"7757534","steam_id":85568392925194467,"keywords":["nocrits","nodmgspread","payload","uncletopia"],"game_id":440,"stv_port":27036,"stv_name":"Uncletopia | Sydney | 3 | All Maps | STV","players":null},{"server_id":396,"name":"Uncletopia | Sydney | 4 | All Maps","name_short":"syd-4","host":"syd-1.au.uncletopia.com","port":27045,"enabled":true,"region":"au","cc":"au","latitude":-33.865143,"longitude":151.2099,"reserved":0,"last_update":"0001-01-01T00:00:00Z","name_a2s":"Uncletopia | Sydney | 4 | All Maps","protocol":17,"map":"koth_lakeside_final","folder":"tf","game":"Team Fortress","app_id":440,"player_count":0,"max_players":24,"Bots":0,"server_type":"Dedicated","server_os":"Linux","password":true,"vac":true,"version":"7757534","steam_id":85568392925397958,"keywords":["cp","nocrits","nodmgspread","uncletopia"],"game_id":440,"stv_port":27046,"stv_name":"Uncletopia | Sydney | 4 | All Maps | STV","players":null},{"server_id":58,"name":"Uncletopia | Sydney | 5 | Stopwatch Beta","name_short":"syd-5","host":"syd-1.au.uncletopia.com","port":27055,"enabled":true,"region":"au","cc":"au","latitude":-33.865143,"longitude":151.2099,"reserved":0,"last_update":"0001-01-01T00:00:00Z","name_a2s":"Uncletopia | Sydney | 5 | Stopwatch Beta","protocol":17,"map":"workshop/koth_bagel_rc5.ugc2514036946","folder":"tf","game":"Team Fortress","app_id":440,"player_count":4,"max_players":24,"Bots":0,"server_type":"Dedicated","server_os":"Linux","password":true,"vac":true,"version":"7757534","steam_id":85568392925397959,"keywords":["cp","nocrits","nodmgspread","uncletopia"],"game_id":440,"stv_port":27056,"stv_name":"Uncletopia | Sydney | 5 | Stopwatch Beta | STV","players":[{"user_id":9,"name":"Peteydog","steam_id":76561198376474981,"connected_time":517000000000,"state":"active","ping":32},{"user_id":4,"name":"Bilbo Swaggins","steam_id":76561198984446872,"connected_time":1675000000000,"state":"active","ping":51},{"user_id":5,"name":"¯\\_(ツ)_/¯","steam_id":76561199206182584,"connected_time":1659000000000,"state":"active","ping":53},{"user_id":11,"name":"Combine hl2 real","steam_id":76561199060614128,"connected_time":163000000000,"state":"active","ping":54}]},{"server_id":59,"name":"Uncletopia | Sydney | 6 | Community","name_short":"syd-6","host":"syd-1.au.uncletopia.com","port":27065,"enabled":true,"region":"au","cc":"au","latitude":-33.865143,"longitude":151.2099,"reserved":0,"last_update":"0001-01-01T00:00:00Z","name_a2s":"Uncletopia | Sydney | 6 | Community","protocol":17,"map":"cp_sunshine","folder":"tf","game":"Team Fortress","app_id":440,"player_count":0,"max_players":24,"Bots":0,"server_type":"Dedicated","server_os":"Linux","password":true,"vac":true,"version":"7757534","steam_id":85568392925397960,"keywords":["cp","nocrits","nodmgspread","uncletopia"],"game_id":440,"stv_port":27066,"stv_name":"Uncletopia | Sydney | 6 | Community | STV","players":null},{"server_id":49,"name":"Uncletopia | Warsaw | 1 | All Maps","name_short":"waw-1","host":"waw-1.pl.uncletopia.com","port":27015,"enabled":true,"region":"eu","cc":"pl","latitude":52.2297,"longitude":21.017532,"reserved":0,"last_update":"0001-01-01T00:00:00Z","name_a2s":"","protocol":0,"map":"","folder":"","game":"","app_id":0,"player_count":0,"max_players":0,"Bots":0,"server_type":"","server_os":"","password":false,"vac":false,"version":"","steam_id":0,"keywords":null,"game_id":0,"stv_port":0,"stv_name":"","players":null},{"server_id":50,"name":"Uncletopia | Warsaw | 2 | All Maps","name_short":"waw-2","host":"waw-1.pl.uncletopia.com","port":27025,"enabled":true,"region":"eu","cc":"pl","latitude":52.2297,"longitude":21.017532,"reserved":0,"last_update":"0001-01-01T00:00:00Z","name_a2s":"Uncletopia | Warsaw | 2 | All Maps","protocol":17,"map":"koth_viaduct","folder":"tf","game":"Team Fortress","app_id":440,"player_count":0,"max_players":24,"Bots":0,"server_type":"Dedicated","server_os":"Linux","password":true,"vac":true,"version":"7757534","steam_id":85568392925397851,"keywords":["cp","nocrits","nodmgspread","uncletopia"],"game_id":440,"stv_port":27026,"stv_name":"Uncletopia | Warsaw | 2 | All Maps | STV","players":null},{"server_id":51,"name":"Uncletopia | Warsaw | 3 | All Maps","name_short":"waw-3","host":"waw-1.pl.uncletopia.com","port":27035,"enabled":true,"region":"eu","cc":"pl","latitude":52.2297,"longitude":21.017532,"reserved":0,"last_update":"0001-01-01T00:00:00Z","name_a2s":"Uncletopia | Warsaw | 3 | All Maps","protocol":17,"map":"koth_cascade","folder":"tf","game":"Team Fortress","app_id":440,"player_count":0,"max_players":24,"Bots":0,"server_type":"Dedicated","server_os":"Linux","password":true,"vac":true,"version":"7757534","steam_id":85568392925397852,"keywords":["cp","nocrits","nodmgspread","uncletopia"],"game_id":440,"stv_port":27036,"stv_name":"Uncletopia | Warsaw | 3 | All Maps | STV","players":null},{"server_id":52,"name":"Uncletopia | Warsaw | 4 | All Maps","name_short":"waw-4","host":"waw-1.pl.uncletopia.com","port":27045,"enabled":true,"region":"eu","cc":"pl","latitude":52.2297,"longitude":21.017532,"reserved":0,"last_update":"0001-01-01T00:00:00Z","name_a2s":"Uncletopia | Warsaw | 4 | All Maps","protocol":17,"map":"koth_viaduct","folder":"tf","game":"Team Fortress","app_id":440,"player_count":0,"max_players":24,"Bots":0,"server_type":"Dedicated","server_os":"Linux","password":true,"vac":true,"version":"7757534","steam_id":85568392925397853,"keywords":["cp","nocrits","nodmgspread","uncletopia"],"game_id":440,"stv_port":27046,"stv_name":"Uncletopia | Warsaw | 4 | All Maps | STV","players":null},{"server_id":53,"name":"Uncletopia | Warsaw | 5 | Stopwatch Beta","name_short":"waw-5","host":"waw-1.pl.uncletopia.com","port":27055,"enabled":true,"region":"eu","cc":"pl","latitude":52.2297,"longitude":21.017532,"reserved":0,"last_update":"0001-01-01T00:00:00Z","name_a2s":"Uncletopia | Warsaw | 5 | Stopwatch Beta","protocol":17,"map":"pl_barnblitz","folder":"tf","game":"Team Fortress","app_id":440,"player_count":0,"max_players":24,"Bots":0,"server_type":"Dedicated","server_os":"Linux","password":true,"vac":true,"version":"7757534","steam_id":85568392925397854,"keywords":["nocrits","nodmgspread","payload","uncletopia"],"game_id":440,"stv_port":27056,"stv_name":"Uncletopia | Warsaw | 5 | Stopwatch Beta | STV","players":null},{"server_id":54,"name":"Uncletopia | Warsaw | 6 | Community","name_short":"waw-6","host":"waw-1.pl.uncletopia.com","port":27065,"enabled":true,"region":"eu","cc":"pl","latitude":52.2297,"longitude":21.017532,"reserved":0,"last_update":"0001-01-01T00:00:00Z","name_a2s":"Uncletopia | Warsaw | 6 | Community","protocol":17,"map":"workshop/koth_trenchfoot_b1a.ugc731436616","folder":"tf","game":"Team Fortress","app_id":440,"player_count":0,"max_players":24,"Bots":0,"server_type":"Dedicated","server_os":"Linux","password":true,"vac":true,"version":"7757534","steam_id":85568392925397856,"keywords":["cp","nocrits","nodmgspread","uncletopia"],"game_id":440,"stv_port":27066,"stv_name":"Uncletopia | Warsaw | 6 | Community | STV","players":null}]}