{"status":true,"message":"","result":[{"server_id":9,"name":"Uncletopia | Atlanta | 1 | All Maps","name_short":"atl-1","host":"atl-1.us.uncletopia.com","port":27015,"enabled":true,"region":"us-east","cc":"us","latitude":33.753746,"longitude":-84.38633,"reserved":0,"last_update":"0001-01-01T00:00:00Z","name_a2s":"Uncletopia | Atlanta | 1 | All Maps","protocol":17,"map":"pl_frontier_final","folder":"tf","game":"Team Fortress","app_id":440,"player_count":24,"max_players":24,"Bots":0,"server_type":"Dedicated","server_os":"Linux","password":true,"vac":true,"version":"7961495","steam_id":85568392924469982,"keywords":["nocrits","nodmgspread","payload","uncletopia"],"game_id":440,"stv_port":27016,"stv_name":"Uncletopia | Atlanta | 1 | All Maps | STV","players":null},{"server_id":104,"name":"Uncletopia | Atlanta | 2 | All Maps","name_short":"atl-2","host":"atl-1.us.uncletopia.com","port":27025,"enabled":true,"region":"us-east","cc":"us","latitude":33.753746,"longitude":-84.38633,"reserved":0,"last_update":"0001-01-01T00:00:00Z","name_a2s":"Uncletopia | Atlanta | 2 | All Maps","protocol":17,"map":"koth_sawmill","folder":"tf","game":"Team Fortress","app_id":440,"player_count":24,"max_players":24,"Bots":0,"server_type":"Dedicated","server_os":"Linux","password":true,"vac":true,"version":"7961495","steam_id":85568392924469983,"keywords":["cp","nocrits","nodmgspread","uncletopia"],"game_id":440,"stv_port":27026,"stv_name":"Uncletopia | Atlanta | 2 | All Maps | STV","players":null},{"server_id":400,"name":"Uncletopia | Atlanta | 3 | Stopwatch","name_short":"atl-3","host":"atl-1.us.uncletopia.com","port":27035,"enabled":true,"region":"us-east","cc":"us","latitude":33.753746,"longitude":-84.38633,"reserved":0,"last_update":"0001-01-01T00:00:00Z","name_a2s":"Uncletopia | Atlanta | 3 | Stopwatch","protocol":17,"map":"pl_vigil_rc10","folder":"tf","game":"Team Fortress","app_id":440,"player_count":0,"max_players":24,"Bots":0,"server_type":"Dedicated","server_os":"Linux","password":true,"vac":true,"version":"7961495","steam_id":85568392924515187,"keywords":["nocrits","nodmgspread","payload","uncletopia"],"game_id":440,"stv_port":27036,"stv_name":"Uncletopia | Atlanta | 3 | Stopwatch | STV","players":null},{"server_id":401,"name":"Uncletopia | Atlanta | 4 | Community","name_short":"atl-4","host":"atl-1.us.uncletopia.com","port":27045,"enabled":true,"region":"us-east","cc":"us","latitude":33.753746,"longitude":-84.38633,"reserved":0,"last_update":"0001-01-01T00:00:00Z","name_a2s":"Uncletopia | Atlanta | 4 | Community","protocol":17,"map":"pl_fifthcurve_rc1","folder":"tf","game":"Team Fortress","app_id":440,"player_count":19,"max_players":24,"Bots":0,"server_type":"Dedicated","server_os":"Linux","password":true,"vac":true,"version":"7961495","steam_id":85568392924515188,"keywords":["nocrits","nodmgspread","payload","uncletopia"],"game_id":440,"stv_port":27046,"stv_name":"Uncletopia | Atlanta | 4 | Community | STV","players":null},{"server_id":2,"name":"Uncletopia | Chicago | 1 | All Maps","name_short":"chi-1","host":"chi-1.us.uncletopia.com","port":27015,"enabled":true,"region":"us-central","cc":"us","latitude":41.881832,"longitude":-87.62318,"reserved":0,"last_update":"0001-01-01T00:00:00Z","name_a2s":"Uncletopia | Chicago | 1 | All Maps","protocol":17,"map":"cp_snakewater_final1","folder":"tf","game":"Team Fortress","app_id":440,"player_count":24,"max_players":24,"Bots":0,"server_type":"Dedicated","server_os":"Linux","password":true,"vac":true,"version":"7961495","steam_id":85568392924469984,"keywords":["cp","nocrits","nodmgspread","uncletopia"],"game_id":440,"stv_port":27016,"stv_name":"Uncletopia | Chicago | 1 | All Maps | STV","players":[{"user_id":641,"name":"Len","steam_id":76561199141913673,"connected_time":2071000000000,"state":"active","ping":79},{"user_id":666,"name":"TechnoBear2099","steam_id":76561198238863596,"connected_time":103000000000,"state":"active","ping":72},{"user_id":589,"name":"fried rice","steam_id":76561198928939100,"connected_time":5907000000000,"state":"active","ping":76},{"user_id":643,"name":"joyeuxnoelle","steam_id":76561198062423120,"connected_time":1878000000000,"state":"active","ping":70},{"user_id":623,"name":"♥Bunny♥Slut♥","steam_id":76561198206376851,"connected_time":2841000000000,"state":"active","ping":102},{"user_id":648,"name":"Shady Businessman","steam_id":76561198143855968,"connected_time":1708000000000,"state":"active","ping":96},{"user_id":649,"name":"botle","steam_id":76561198141872410,"connected_time":1686000000000,"state":"active","ping":86},{"user_id":626,"name":"TheOneZoot","steam_id":76561198121944243,"connected_time":2816000000000,"state":"active","ping":85},{"user_id":667,"name":"Snom","steam_id":76561198333827920,"connected_time":72000000000,"state":"active","ping":112},{"user_id":661,"name":"SandHanitizer","steam_id":76561198234676500,"connected_time":651000000000,"state":"active","ping":70},{"user_id":665,"name":"Gum","steam_id":76561198354523202,"connected_time":106000000000,"state":"active","ping":64},{"user_id":628,"name":"Comfy!","steam_id":76561198008818346,"connected_time":2801000000000,"state":"active","ping":70},{"user_id":637,"name":".JIFF","steam_id":76561198045181760,"connected_time":2559000000000,"state":"active","ping":59},{"user_id":668,"name":"Ikeybones","steam_id":76561198352755825,"connected_time":12000000000,"state":"spawning","ping":68},{"user_id":662,"name":"Oh, it's Zach","steam_id":76561198103309672,"connected_time":649000000000,"state":"active","ping":44},{"user_id":659,"name":"BadLuck","steam_id":76561198096452401,"connected_time":828000000000,"state":"active","ping":72},{"user_id":620,"name":"pinky","steam_id":76561199109784776,"connected_time":3336000000000,"state":"active","ping":56},{"user_id":660,"name":"48","steam_id":76561198156422760,"connected_time":724000000000,"state":"active","ping":57},{"user_id":655,"name":"SPIRE_FAN","steam_id":76561198001486573,"connected_time":1024000000000,"state":"active","ping":68},{"user_id":621,"name":"beta central","steam_id":76561198301876831,"connected_time":3180000000000,"state":"active","ping":62},{"user_id":653,"name":"vyx","steam_id":76561198037205391,"connected_time":1252000000000,"state":"active","ping":60},{"user_id":663,"name":"Hel","steam_id":76561198348588134,"connected_time":552000000000,"state":"active","ping":76},{"user_id":622,"name":"bog","steam_id":76561198070975491,"connected_time":2854000000000,"state":"active","ping":70},{"user_id":634,"name":"can you help me with my homewor","steam_id":76561198408159536,"connected_time":2714000000000,"state":"active","ping":46}]},{"server_id":106,"name":"Uncletopia | Chicago | 2 | All Maps","name_short":"chi-2","host":"chi-1.us.uncletopia.com","port":27025,"enabled":true,"region":"us-central","cc":"us","latitude":41.881832,"longitude":-87.62318,"reserved":0,"last_update":"0001-01-01T00:00:00Z","name_a2s":"Uncletopia | Chicago | 2 | All Maps","protocol":17,"map":"koth_nucleus","folder":"tf","game":"Team Fortress","app_id":440,"player_count":23,"max_players":24,"Bots":0,"server_type":"Dedicated","server_os":"Linux","password":true,"vac":true,"version":"7961495","steam_id":85568392924469985,"keywords":["cp","nocrits","nodmgspread","uncletopia"],"game_id":440,"stv_port":27026,"stv_name":"Uncletopia | Chicago | 2 | All Maps | STV","players":[{"user_id":605,"name":"hood baby","steam_id":76561198136642793,"connected_time":1337000000000,"state":"active","ping":82},{"user_id":617,"name":"♥ alixei! ♥","steam_id":76561198014557455,"connected_time":154000000000,"state":"active","ping":55},{"user_id":595,"name":"sootyquill","steam_id":76561198186883927,"connected_time":2586000000000,"state":"active","ping":99},{"user_id":615,"name":"YummerBummer","steam_id":76561198094773987,"connected_time":960000000000,"state":"active","ping":59},{"user_id":604,"name":"NE CSX railfan","steam_id":76561198045599872,"connected_time":1346000000000,"state":"active","ping":79},{"user_id":571,"name":"Warpy","steam_id":76561198055852599,"connected_time":4625000000000,"state":"active","ping":77},{"user_id":603,"name":"the gerogerigegege","steam_id":76561198057116531,"connected_time":1353000000000,"state":"active","ping":50},{"user_id":614,"name":"Yummy Kabobz","steam_id":76561198067661705,"connected_time":988000000000,"state":"active","ping":72},{"user_id":594,"name":"garbuglio","steam_id":76561198012371111,"connected_time":2732000000000,"state":"active","ping":57},{"user_id":589,"name":"genius of love","steam_id":76561198282764599,"connected_time":2956000000000,"state":"active","ping":45},{"user_id":583,"name":"sen","steam_id":76561198041237747,"connected_time":3280000000000,"state":"active","ping":56},{"user_id":440,"name":"I'm a Fungi","steam_id":76561198061507741,"connected_time":14013000000000,"state":"active","ping":69},{"user_id":597,"name":"Missing Minus","steam_id":76561198120822928,"connected_time":2340000000000,"state":"active","ping":60},{"user_id":599,"name":"EvilMrPotoo ｡◕‿◕｡","steam_id":76561198012566870,"connected_time":1666000000000,"state":"active","ping":58},{"user_id":581,"name":"its all water under the fridge","steam_id":76561198043873119,"connected_time":3834000000000,"state":"active","ping":50},{"user_id":559,"name":"freyja","steam_id":76561198249206656,"connected_time":5498000000000,"state":"active","ping":60},{"user_id":598,"name":"Science Pants","steam_id":76561198050013796,"connected_time":2052000000000,"state":"active","ping":79},{"user_id":570,"name":"stormfoam","steam_id":76561198936871387,"connected_time":4872000000000,"state":"active","ping":68},{"user_id":586,"name":"desca","steam_id":76561198064628542,"connected_time":3183000000000,"state":"active","ping":74},{"user_id":612,"name":"Owl Pacino","steam_id":76561197979970666,"connected_time":1148000000000,"state":"active","ping":55},{"user_id":578,"name":"wepry","steam_id":76561198114091417,"connected_time":4007000000000,"state":"active","ping":50},{"user_id":611,"name":"altra","steam_id":76561198117148323,"connected_time":1280000000000,"state":"active","ping":66},{"user_id":587,"name":"lexapro nightmares","steam_id":76561197987193828,"connected_time":3182000000000,"state":"active","ping":59}]},{"server_id":402,"name":"Uncletopia | Chicago | 3 | All Maps","name_short":"chi-3","host":"chi-1.us.uncletopia.com","port":27035,"enabled":true,"region":"us-central","cc":"us","latitude":41.881832,"longitude":-87.62318,"reserved":0,"last_update":"0001-01-01T00:00:00Z","name_a2s":"Uncletopia | Chicago | 3 | All Maps","protocol":17,"map":"cp_process_final","folder":"tf","game":"Team Fortress","app_id":440,"player_count":23,"max_players":24,"Bots":0,"server_type":"Dedicated","server_os":"Linux","password":true,"vac":true,"version":"7961495","steam_id":85568392924515191,"keywords":["cp","nocrits","nodmgspread","uncletopia"],"game_id":440,"stv_port":27036,"stv_name":"Uncletopia | Chicago | 3 | All Maps | STV","players":[{"user_id":447,"name":"Cobalt","steam_id":76561198353896624,"connected_time":1508000000000,"state":"active","ping":83},{"user_id":411,"name":"Pepilepsi","steam_id":76561198000809372,"connected_time":4727000000000,"state":"active","ping":52},{"user_id":407,"name":"No.21 - Feral Scent","steam_id":76561198045844070,"connected_time":4754000000000,"state":"active","ping":83},{"user_id":464,"name":"Shorty","steam_id":76561198044873248,"connected_time":87000000000,"state":"active","ping":75},{"user_id":462,"name":"Cowbo #enablecrits","steam_id":76561198081220016,"connected_time":252000000000,"state":"active","ping":45},{"user_id":419,"name":"«Dᵃʳᵏ.,,.Tᵉᵐᵖ»","steam_id":76561198018185884,"connected_time":4393000000000,"state":"active","ping":97},{"user_id":421,"name":"Fishios","steam_id":76561199436428380,"connected_time":4191000000000,"state":"active","ping":65},{"user_id":461,"name":"ok","steam_id":76561199074875663,"connected_time":403000000000,"state":"active","ping":75},{"user_id":401,"name":"sih3","steam_id":76561198081462396,"connected_time":4949000000000,"state":"active","ping":72},{"user_id":450,"name":"Rudy","steam_id":76561198013456828,"connected_time":1286000000000,"state":"active","ping":67},{"user_id":437,"name":"Someone1251","steam_id":76561198798977695,"connected_time":1895000000000,"state":"active","ping":77},{"user_id":408,"name":"BreakfastTacos","steam_id":76561198847620442,"connected_time":4749000000000,"state":"active","ping":102},{"user_id":465,"name":"YOU JUST LOST THE GAME","steam_id":76561198012126625,"connected_time":6000000000,"state":"spawning","ping":62},{"user_id":402,"name":"Six Piece Chicken McNobody","steam_id":76561198129848222,"connected_time":4795000000000,"state":"active","ping":65},{"user_id":457,"name":"ultralisk52","steam_id":76561198051666604,"connected_time":716000000000,"state":"active","ping":59},{"user_id":454,"name":"C4K3","steam_id":76561197996963285,"connected_time":921000000000,"state":"active","ping":85},{"user_id":448,"name":"CAPTAIN CUTS REMIX","steam_id":76561198072179483,"connected_time":1507000000000,"state":"active","ping":90},{"user_id":463,"name":"LVL","steam_id":76561198334403617,"connected_time":140000000000,"state":"active","ping":57},{"user_id":441,"name":"smetc","steam_id":76561198240696986,"connected_time":1832000000000,"state":"active","ping":59},{"user_id":442,"name":"TinyTator","steam_id":76561198799282234,"connected_time":1793000000000,"state":"active","ping":97},{"user_id":460,"name":"attentiondeficit","steam_id":76561198129682583,"connected_time":491000000000,"state":"active","ping":74},{"user_id":455,"name":"BB Lorexav","steam_id":76561198207565988,"connected_time":904000000000,"state":"active","ping":85},{"user_id":417,"name":"Papahemmy","steam_id":76561198155470810,"connected_time":4654000000000,"state":"active","ping":64}]},{"server_id":403,"name":"Uncletopia | Chicago | 4 | All Maps","name_short":"chi-4","host":"chi-1.us.uncletopia.com","port":27045,"enabled":true,"region":"us-central","cc":"us","latitude":41.881832,"longitude":-87.62318,"reserved":0,"last_update":"0001-01-01T00:00:00Z","name_a2s":"Uncletopia | Chicago | 4 | All Maps","protocol":17,"map":"pl_upward","folder":"tf","game":"Team Fortress","app_id":440,"player_count":24,"max_players":24,"Bots":0,"server_type":"Dedicated","server_os":"Linux","password":true,"vac":true,"version":"7961495","steam_id":85568392924515193,"keywords":["nocrits","nodmgspread","payload","uncletopia"],"game_id":440,"stv_port":27046,"stv_name":"Uncletopia | Chicago | 4 | All Maps | STV","players":[{"user_id":344,"name":"Jeromius","steam_id":76561198051865275,"connected_time":468000000000,"state":"active","ping":75},{"user_id":305,"name":"ameritech","steam_id":76561198064769089,"connected_time":3879000000000,"state":"active","ping":52},{"user_id":342,"name":"Hashslinging Slasher","steam_id":76561198099015430,"connected_time":485000000000,"state":"active","ping":122},{"user_id":328,"name":"BRUH NATOR","steam_id":76561199094694437,"connected_time":2244000000000,"state":"active","ping":87},{"user_id":314,"name":"Mars","steam_id":76561198052436353,"connected_time":2895000000000,"state":"active","ping":120},{"user_id":291,"name":"roast pig with apple in mouth","steam_id":76561198051353647,"connected_time":4539000000000,"state":"active","ping":64},{"user_id":323,"name":"RusticCarp42989","steam_id":76561198361151865,"connected_time":2739000000000,"state":"active","ping":122},{"user_id":337,"name":"Berb","steam_id":76561198193911899,"connected_time":719000000000,"state":"active","ping":102},{"user_id":331,"name":"VerrucktMedic","steam_id":76561198093144226,"connected_time":2126000000000,"state":"active","ping":124},{"user_id":327,"name":"RandomInternetUser","steam_id":76561199230027049,"connected_time":2362000000000,"state":"active","ping":66},{"user_id":336,"name":"Carson","steam_id":76561198076771071,"connected_time":743000000000,"state":"active","ping":46},{"user_id":213,"name":"BookBurner23","steam_id":76561198034771185,"connected_time":10027000000000,"state":"active","ping":68},{"user_id":330,"name":"RandomRainbow","steam_id":76561199107573588,"connected_time":2188000000000,"state":"active","ping":48},{"user_id":270,"name":"Jojoker","steam_id":76561198049833406,"connected_time":5439000000000,"state":"active","ping":73},{"user_id":335,"name":"SiltyStar85","steam_id":76561198309175923,"connected_time":1221000000000,"state":"active","ping":75},{"user_id":334,"name":"Akko #1 Fan","steam_id":76561198430778361,"connected_time":1234000000000,"state":"active","ping":139},{"user_id":345,"name":"Mister Salty","steam_id":76561198057819247,"connected_time":455000000000,"state":"active","ping":70},{"user_id":325,"name":"Outta Kenya","steam_id":76561198153604875,"connected_time":2683000000000,"state":"active","ping":85},{"user_id":346,"name":"Not_Douglas","steam_id":76561199024184136,"connected_time":384000000000,"state":"active","ping":63},{"user_id":311,"name":"Carthing","steam_id":76561198330833171,"connected_time":3108000000000,"state":"active","ping":76},{"user_id":347,"name":"Reznika","steam_id":76561198116144377,"connected_time":184000000000,"state":"active","ping":75},{"user_id":320,"name":"The Jar","steam_id":76561198146013385,"connected_time":2849000000000,"state":"active","ping":76},{"user_id":333,"name":"Sommar","steam_id":76561198092176972,"connected_time":1433000000000,"state":"active","ping":74},{"user_id":302,"name":"Pilotcashew","steam_id":76561198831032108,"connected_time":3916000000000,"state":"active","ping":79}]},{"server_id":36,"name":"Uncletopia | Chicago | 5 | All Maps","name_short":"chi-5","host":"chi-2.us.uncletopia.com","port":27015,"enabled":true,"region":"us-central","cc":"us","latitude":41.881832,"longitude":-87.62318,"reserved":0,"last_update":"0001-01-01T00:00:00Z","name_a2s":"Uncletopia | Chicago | 5 | All Maps","protocol":17,"map":"pl_upward","folder":"tf","game":"Team Fortress","app_id":440,"player_count":24,"max_players":24,"Bots":0,"server_type":"Dedicated","server_os":"Linux","password":true,"vac":true,"version":"7961495","steam_id":85568392924866362,"keywords":["nocrits","nodmgspread","payload","uncletopia"],"game_id":440,"stv_port":27016,"stv_name":"Uncletopia | Chicago | 5 | All Maps | STV","players":[{"user_id":510,"name":"Sunvaar","steam_id":76561198852679851,"connected_time":3772000000000,"state":"active","ping":122},{"user_id":536,"name":"lukethepumpkin","steam_id":76561198204158335,"connected_time":1874000000000,"state":"active","ping":73},{"user_id":542,"name":"My Winky Got Walloped","steam_id":76561199049488718,"connected_time":734000000000,"state":"active","ping":89},{"user_id":392,"name":"zpalmtree","steam_id":76561198134307620,"connected_time":11428000000000,"state":"active","ping":75},{"user_id":543,"name":"\u003etfw no buggo gf","steam_id":76561198980062131,"connected_time":729000000000,"state":"active","ping":114},{"user_id":514,"name":"[MRY] Sk-iLite","steam_id":76561198041797350,"connected_time":3751000000000,"state":"active","ping":74},{"user_id":544,"name":"Haveltherock27","steam_id":76561199219844391,"connected_time":713000000000,"state":"active","ping":90},{"user_id":556,"name":"Yuoni","steam_id":76561198088645803,"connected_time":156000000000,"state":"active","ping":162},{"user_id":545,"name":"uhooter","steam_id":76561198007829078,"connected_time":668000000000,"state":"active","ping":54},{"user_id":448,"name":"Kreld","steam_id":76561198047794615,"connected_time":9025000000000,"state":"active","ping":161},{"user_id":539,"name":"VisibleForce","steam_id":76561198104178938,"connected_time":1769000000000,"state":"active","ping":77},{"user_id":553,"name":"Retro Phoenix","steam_id":76561198077176271,"connected_time":450000000000,"state":"active","ping":64},{"user_id":546,"name":"Mr lazy pants 72","steam_id":76561198396412589,"connected_time":663000000000,"state":"active","ping":95},{"user_id":547,"name":"SingaTheNinja","steam_id":76561199036606058,"connected_time":639000000000,"state":"active","ping":125},{"user_id":533,"name":"Shorts","steam_id":76561198025009692,"connected_time":1967000000000,"state":"active","ping":87},{"user_id":548,"name":"Gigastorm359","steam_id":76561199170201136,"connected_time":626000000000,"state":"active","ping":92},{"user_id":549,"name":"lalalemons","steam_id":76561198243965308,"connected_time":626000000000,"state":"active","ping":80},{"user_id":550,"name":"sooty","steam_id":76561198830243167,"connected_time":595000000000,"state":"active","ping":114},{"user_id":513,"name":"Toxic Ron","steam_id":76561198089302972,"connected_time":3763000000000,"state":"active","ping":71},{"user_id":537,"name":"MintHaggis","steam_id":76561198006674825,"connected_time":1863000000000,"state":"active","ping":117},{"user_id":487,"name":"MrKokonut","steam_id":76561198879575825,"connected_time":6060000000000,"state":"active","ping":63},{"user_id":554,"name":"Kerbal01","steam_id":76561198080296298,"connected_time":406000000000,"state":"active","ping":66},{"user_id":555,"name":"Ringo x Seiran","steam_id":76561198357437908,"connected_time":388000000000,"state":"active","ping":74},{"user_id":552,"name":"SomeScuffedKid","steam_id":76561198086113234,"connected_time":550000000000,"state":"active","ping":70}]},{"server_id":37,"name":"Uncletopia | Chicago | 6 | All Maps","name_short":"chi-6","host":"chi-2.us.uncletopia.com","port":27025,"enabled":true,"region":"us-central","cc":"us","latitude":41.881832,"longitude":-87.62318,"reserved":0,"last_update":"0001-01-01T00:00:00Z","name_a2s":"Uncletopia | Chicago | 6 | All Maps","protocol":17,"map":"pl_badwater","folder":"tf","game":"Team Fortress","app_id":440,"player_count":24,"max_players":24,"Bots":0,"server_type":"Dedicated","server_os":"Linux","password":true,"vac":true,"version":"7961495","steam_id":85568392924866363,"keywords":["nocrits","nodmgspread","payload","uncletopia"],"game_id":440,"stv_port":27026,"stv_name":"Uncletopia | Chicago | 6 | All Maps | STV","players":[{"user_id":545,"name":"Bearegard","steam_id":76561198061926542,"connected_time":286000000000,"state":"active","ping":64},{"user_id":457,"name":"Smiley_R5 ringme","steam_id":76561198113083770,"connected_time":5952000000000,"state":"active","ping":71},{"user_id":515,"name":"That Guy","steam_id":76561198074138740,"connected_time":2118000000000,"state":"active","ping":86},{"user_id":454,"name":"stink","steam_id":76561198099318923,"connected_time":6030000000000,"state":"active","ping":59},{"user_id":532,"name":"[GUT] RiDiK®","steam_id":76561197969756446,"connected_time":1386000000000,"state":"active","ping":54},{"user_id":505,"name":"Lord Boaretheus","steam_id":76561198963410515,"connected_time":2723000000000,"state":"active","ping":89},{"user_id":531,"name":"SgtHotLead","steam_id":76561197995477998,"connected_time":1404000000000,"state":"active","ping":83},{"user_id":509,"name":"DonoC","steam_id":76561198274473338,"connected_time":2294000000000,"state":"active","ping":83},{"user_id":536,"name":"jaytheking05","steam_id":76561198856419769,"connected_time":1241000000000,"state":"active","ping":70},{"user_id":510,"name":"Princess Stinkypants","steam_id":76561198096221632,"connected_time":2195000000000,"state":"active","ping":60},{"user_id":482,"name":"♡Alyx♡","steam_id":76561198024303978,"connected_time":3766000000000,"state":"active","ping":64},{"user_id":543,"name":"minecraft","steam_id":76561198104345201,"connected_time":320000000000,"state":"active","ping":66},{"user_id":516,"name":"batheman63","steam_id":76561198881818552,"connected_time":2117000000000,"state":"active","ping":84},{"user_id":542,"name":"BERBBLES","steam_id":76561198815107994,"connected_time":341000000000,"state":"active","ping":62},{"user_id":492,"name":"tiefling lesbian","steam_id":76561198162998471,"connected_time":3278000000000,"state":"active","ping":76},{"user_id":540,"name":"Visual Depression","steam_id":76561198825918366,"connected_time":677000000000,"state":"active","ping":124},{"user_id":544,"name":"RedBatman","steam_id":76561198064252016,"connected_time":318000000000,"state":"active","ping":86},{"user_id":533,"name":"roecomplex","steam_id":76561198050169341,"connected_time":1378000000000,"state":"active","ping":160},{"user_id":493,"name":"mount meverest","steam_id":76561198025681784,"connected_time":3261000000000,"state":"active","ping":74},{"user_id":494,"name":"Hexadecatrack","steam_id":76561198044480181,"connected_time":3260000000000,"state":"active","ping":53},{"user_id":534,"name":"[GUT] 13","steam_id":76561197985209820,"connected_time":1264000000000,"state":"active","ping":61},{"user_id":495,"name":"Doc Brown","steam_id":76561198015030118,"connected_time":3248000000000,"state":"active","ping":74},{"user_id":535,"name":"[GUT] tipups","steam_id":76561197972342705,"connected_time":1254000000000,"state":"active","ping":63},{"user_id":528,"name":"fey","steam_id":76561198119191002,"connected_time":1740000000000,"state":"active","ping":98}]},{"server_id":38,"name":"Uncletopia | Chicago | 7 | Stopwatch","name_short":"chi-7","host":"chi-2.us.uncletopia.com","port":27035,"enabled":true,"region":"us-central","cc":"us","latitude":41.881832,"longitude":-87.62318,"reserved":0,"last_update":"0001-01-01T00:00:00Z","name_a2s":"Uncletopia | Chicago | 7 | Stopwatch","protocol":17,"map":"workshop/koth_product_final.ugc454272353","folder":"tf","game":"Team Fortress","app_id":440,"player_count":0,"max_players":24,"Bots":0,"server_type":"Dedicated","server_os":"Linux","password":true,"vac":true,"version":"7961495","steam_id":85568392924866364,"keywords":["cp","nocrits","nodmgspread","uncletopia"],"game_id":440,"stv_port":27036,"stv_name":"Uncletopia | Chicago | 7 | Stopwatch | STV","players":null},{"server_id":39,"name":"Uncletopia | Chicago | 8 | Community","name_short":"chi-8","host":"chi-2.us.uncletopia.com","port":27045,"enabled":true,"region":"us-central","cc":"us","latitude":41.881832,"longitude":-87.62318,"reserved":0,"last_update":"0001-01-01T00:00:00Z","name_a2s":"Uncletopia | Chicago | 8 | Community","protocol":17,"map":"workshop/pl_vigil_rc10.ugc1266210012","folder":"tf","game":"Team Fortress","app_id":440,"player_count":24,"max_players":24,"Bots":0,"server_type":"Dedicated","server_os":"Linux","password":true,"vac":true,"version":"7961495","steam_id":85568392924866365,"keywords":["nocrits","nodmgspread","payload","uncletopia"],"game_id":440,"stv_port":27046,"stv_name":"Uncletopia | Chicago | 8 | Community | STV","players":[{"user_id":62,"name":"gargulon","steam_id":76561197996568317,"connected_time":1458000000000,"state":"active","ping":77},{"user_id":60,"name":"Busta! Straight Busta!","steam_id":76561198121554252,"connected_time":1572000000000,"state":"active","ping":95},{"user_id":61,"name":"pool shark","steam_id":76561198130191179,"connected_time":1519000000000,"state":"active","ping":71},{"user_id":65,"name":"Antikythera","steam_id":76561198045923020,"connected_time":1248000000000,"state":"active","ping":57},{"user_id":71,"name":"shinji","steam_id":76561198091411989,"connected_time":435000000000,"state":"active","ping":63},{"user_id":26,"name":"Grand Piano Tuna","steam_id":76561198135137213,"connected_time":3455000000000,"state":"active","ping":54},{"user_id":75,"name":"Based Nass","steam_id":76561198035200651,"connected_time":265000000000,"state":"active","ping":120},{"user_id":67,"name":"Crystall","steam_id":76561198346607700,"connected_time":1119000000000,"state":"active","ping":105},{"user_id":31,"name":"berserker_tf2 yt","steam_id":76561198303464488,"connected_time":3124000000000,"state":"active","ping":51},{"user_id":55,"name":"Beer69","steam_id":76561199131528964,"connected_time":2234000000000,"state":"active","ping":104},{"user_id":63,"name":"Captain Emerald The Changeling","steam_id":76561198320651177,"connected_time":1438000000000,"state":"active","ping":66},{"user_id":74,"name":"Juiced","steam_id":76561198975824400,"connected_time":372000000000,"state":"active","ping":43},{"user_id":77,"name":"SuperSkrull","steam_id":76561198035695823,"connected_time":89000000000,"state":"active","ping":151},{"user_id":68,"name":"Stupid Rat (Extra Stupid)","steam_id":76561199091290729,"connected_time":1073000000000,"state":"active","ping":77},{"user_id":59,"name":"The Inn of Ill Omen","steam_id":76561198042402172,"connected_time":1937000000000,"state":"active","ping":120},{"user_id":70,"name":"the_woof","steam_id":76561197975329130,"connected_time":612000000000,"state":"active","ping":51},{"user_id":41,"name":"frank","steam_id":76561198137777483,"connected_time":2895000000000,"state":"active","ping":69},{"user_id":47,"name":"THE ULTIMATE JOHN","steam_id":76561199082758073,"connected_time":2740000000000,"state":"active","ping":57},{"user_id":43,"name":"Dr_Cecil","steam_id":76561198873862113,"connected_time":2876000000000,"state":"active","ping":109},{"user_id":52,"name":"Zweitonegoismus","steam_id":76561198071728831,"connected_time":2538000000000,"state":"active","ping":74},{"user_id":53,"name":"fingersmeller123","steam_id":76561199469712812,"connected_time":2497000000000,"state":"active","ping":122},{"user_id":48,"name":"Mimt1111","steam_id":76561198392370897,"connected_time":2733000000000,"state":"active","ping":100},{"user_id":72,"name":"Marineland","steam_id":76561198081285187,"connected_time":427000000000,"state":"active","ping":79},{"user_id":73,"name":"RiflingShotgun","steam_id":76561198288209651,"connected_time":418000000000,"state":"active","ping":59}]},{"server_id":8,"name":"Uncletopia | Dallas | 1 | All Maps","name_short":"dal-1","host":"dal-1.us.uncletopia.com","port":27015,"enabled":true,"region":"us-central","cc":"us","latitude":32.779167,"longitude":-96.80889,"reserved":0,"last_update":"0001-01-01T00:00:00Z","name_a2s":"Uncletopia | Dallas | 1 | All Maps","protocol":17,"map":"koth_sawmill","folder":"tf","game":"Team Fortress","app_id":440,"player_count":24,"max_players":24,"Bots":0,"server_type":"Dedicated","server_os":"Linux","password":true,"vac":true,"version":"7961495","steam_id":85568392924469986,"keywords":["cp","nocrits","nodmgspread","uncletopia"],"game_id":440,"stv_port":27016,"stv_name":"Uncletopia | Dallas | 1 | All Maps | STV","players":[{"user_id":558,"name":"Dick Grimes","steam_id":76561198157414556,"connected_time":1308000000000,"state":"active","ping":106},{"user_id":570,"name":"Greasy Guavas","steam_id":76561198089650428,"connected_time":231000000000,"state":"active","ping":63},{"user_id":538,"name":"LaChancla","steam_id":76561198971528917,"connected_time":3969000000000,"state":"active","ping":60},{"user_id":551,"name":"barth","steam_id":76561198292896412,"connected_time":1908000000000,"state":"active","ping":72},{"user_id":556,"name":"Myrkur","steam_id":76561198062448431,"connected_time":1376000000000,"state":"active","ping":96},{"user_id":562,"name":"barker bill","steam_id":76561198018451994,"connected_time":857000000000,"state":"active","ping":69},{"user_id":547,"name":"spunch bub","steam_id":76561198326658210,"connected_time":2068000000000,"state":"active","ping":71},{"user_id":569,"name":"Burny Sanders","steam_id":76561197961879048,"connected_time":390000000000,"state":"active","ping":42},{"user_id":548,"name":"ZILICON","steam_id":76561199044705592,"connected_time":2055000000000,"state":"active","ping":102},{"user_id":555,"name":"Insizhen","steam_id":76561198051352605,"connected_time":1473000000000,"state":"active","ping":51},{"user_id":559,"name":"Maryam","steam_id":76561198128969186,"connected_time":1203000000000,"state":"active","ping":80},{"user_id":563,"name":"HUESO","steam_id":76561198276383681,"connected_time":851000000000,"state":"active","ping":88},{"user_id":527,"name":"Withered Bonnie (Real)","steam_id":76561198423310113,"connected_time":5128000000000,"state":"active","ping":53},{"user_id":525,"name":"RATATATATATA","steam_id":76561198288458595,"connected_time":5506000000000,"state":"active","ping":79},{"user_id":568,"name":"schmuck","steam_id":76561198143789773,"connected_time":549000000000,"state":"active","ping":52},{"user_id":560,"name":"sebjzy ♥","steam_id":76561198009959034,"connected_time":905000000000,"state":"active","ping":66},{"user_id":564,"name":"Tuffy","steam_id":76561198044179049,"connected_time":849000000000,"state":"active","ping":88},{"user_id":565,"name":"BurritoCat","steam_id":76561198059822805,"connected_time":838000000000,"state":"active","ping":87},{"user_id":549,"name":"Panda ツ","steam_id":76561198004491689,"connected_time":2034000000000,"state":"active","ping":60},{"user_id":543,"name":"LampMan","steam_id":76561198079857527,"connected_time":3117000000000,"state":"active","ping":61},{"user_id":526,"name":"Ballista","steam_id":76561197983182562,"connected_time":5502000000000,"state":"active","ping":49},{"user_id":571,"name":"Mr. Hankey","steam_id":76561198872852200,"connected_time":171000000000,"state":"active","ping":141},{"user_id":535,"name":"Hanselpup","steam_id":76561198165480226,"connected_time":4314000000000,"state":"active","ping":54},{"user_id":554,"name":"Wayside","steam_id":76561198999627870,"connected_time":1714000000000,"state":"active","ping":84}]},{"server_id":108,"name":"Uncletopia | Dallas | 2 | All Maps","name_short":"dal-2","host":"dal-1.us.uncletopia.com","port":27025,"enabled":true,"region":"us-central","cc":"us","latitude":32.779167,"longitude":-96.80889,"reserved":0,"last_update":"0001-01-01T00:00:00Z","name_a2s":"Uncletopia | Dallas | 2 | All Maps","protocol":17,"map":"pl_barnblitz","folder":"tf","game":"Team Fortress","app_id":440,"player_count":24,"max_players":24,"Bots":0,"server_type":"Dedicated","server_os":"Linux","password":true,"vac":true,"version":"7961495","steam_id":85568392924469988,"keywords":["nocrits","nodmgspread","payload","uncletopia"],"game_id":440,"stv_port":27026,"stv_name":"Uncletopia | Dallas | 2 | All Maps | STV","players":[{"user_id":532,"name":"Locke","steam_id":76561197988245513,"connected_time":668000000000,"state":"active","ping":54},{"user_id":523,"name":"Moth Beam","steam_id":76561198005069202,"connected_time":1659000000000,"state":"active","ping":51},{"user_id":538,"name":"Gamerfan64","steam_id":76561198801410962,"connected_time":82000000000,"state":"spawning","ping":246},{"user_id":528,"name":"drink enjoyer","steam_id":76561199078359629,"connected_time":1112000000000,"state":"active","ping":84},{"user_id":508,"name":"Bombsgamer","steam_id":76561198350009050,"connected_time":3763000000000,"state":"active","ping":86},{"user_id":456,"name":"Major Woody","steam_id":76561198835541533,"connected_time":6535000000000,"state":"active","ping":85},{"user_id":529,"name":"StaigerDuck","steam_id":76561199190706582,"connected_time":1110000000000,"state":"active","ping":99},{"user_id":518,"name":"JDizzle","steam_id":76561199122696841,"connected_time":2240000000000,"state":"active","ping":85},{"user_id":535,"name":"Necronoxide","steam_id":76561197997856321,"connected_time":236000000000,"state":"active","ping":86},{"user_id":510,"name":"Dreamzapp","steam_id":76561199084936632,"connected_time":3747000000000,"state":"active","ping":97},{"user_id":516,"name":"small meth pouch","steam_id":76561198130412963,"connected_time":3409000000000,"state":"active","ping":71},{"user_id":478,"name":"Gary Busey","steam_id":76561197970096950,"connected_time":5047000000000,"state":"active","ping":38},{"user_id":536,"name":"Dip D. Stick","steam_id":76561198129943042,"connected_time":198000000000,"state":"active","ping":67},{"user_id":517,"name":"jensen_","steam_id":76561198150129955,"connected_time":2768000000000,"state":"active","ping":60},{"user_id":465,"name":"BlazingWaters","steam_id":76561198136322660,"connected_time":5991000000000,"state":"active","ping":92},{"user_id":522,"name":"GOLDIE","steam_id":76561199375258674,"connected_time":1704000000000,"state":"active","ping":87},{"user_id":537,"name":"UwU","steam_id":76561198971629959,"connected_time":143000000000,"state":"active","ping":133},{"user_id":531,"name":"winterClover","steam_id":76561198407390017,"connected_time":824000000000,"state":"active","ping":52},{"user_id":498,"name":"dont suck me i uber","steam_id":76561198281968441,"connected_time":4464000000000,"state":"active","ping":83},{"user_id":530,"name":"H2OBourne","steam_id":76561198396293109,"connected_time":1071000000000,"state":"active","ping":66},{"user_id":534,"name":"InvaderAlex","steam_id":76561198039232451,"connected_time":243000000000,"state":"active","ping":62},{"user_id":494,"name":"The Juice","steam_id":76561198065307144,"connected_time":4596000000000,"state":"active","ping":93},{"user_id":539,"name":"8bean","steam_id":76561198239138132,"connected_time":53000000000,"state":"active","ping":80},{"user_id":496,"name":"WAKEUP!","steam_id":76561198254479725,"connected_time":4573000000000,"state":"active","ping":66}]},{"server_id":404,"name":"Uncletopia | Dallas | 3 | All Maps","name_short":"dal-3","host":"dal-1.us.uncletopia.com","port":27035,"enabled":true,"region":"us-central","cc":"us","latitude":32.779167,"longitude":-96.80889,"reserved":0,"last_update":"0001-01-01T00:00:00Z","name_a2s":"Uncletopia | Dallas | 3 | All Maps","protocol":17,"map":"pl_barnblitz","folder":"tf","game":"Team Fortress","app_id":440,"player_count":23,"max_players":24,"Bots":0,"server_type":"Dedicated","server_os":"Linux","password":true,"vac":true,"version":"7961495","steam_id":85568392924515219,"keywords":["nocrits","nodmgspread","payload","uncletopia"],"game_id":440,"stv_port":27036,"stv_name":"Uncletopia | Dallas | 3 | All Maps | STV","players":[{"user_id":369,"name":"rawful rofl","steam_id":76561198167207112,"connected_time":1273000000000,"state":"active","ping":73},{"user_id":334,"name":"Exetior","steam_id":76561198978688451,"connected_time":4830000000000,"state":"active","ping":70},{"user_id":378,"name":"Pumpkin Hugger","steam_id":76561198834875100,"connected_time":374000000000,"state":"active","ping":51},{"user_id":385,"name":"lament","steam_id":76561198408747483,"connected_time":107000000000,"state":"active","ping":51},{"user_id":382,"name":"tim","steam_id":76561198075510786,"connected_time":281000000000,"state":"active","ping":82},{"user_id":381,"name":"pooping engi","steam_id":76561198073269122,"connected_time":299000000000,"state":"active","ping":90},{"user_id":362,"name":"Green-Guy Geno","steam_id":76561198024512428,"connected_time":1385000000000,"state":"active","ping":94},{"user_id":351,"name":"selling rice","steam_id":76561198063357023,"connected_time":3173000000000,"state":"active","ping":85},{"user_id":371,"name":"Irritated Duck","steam_id":76561198247792076,"connected_time":906000000000,"state":"active","ping":114},{"user_id":376,"name":"doughboy","steam_id":76561198219012928,"connected_time":377000000000,"state":"active","ping":81},{"user_id":364,"name":"Omq_reality","steam_id":76561198093344272,"connected_time":1338000000000,"state":"active","ping":87},{"user_id":372,"name":"Wang of Wall St","steam_id":76561198047460598,"connected_time":890000000000,"state":"active","ping":100},{"user_id":377,"name":"BigBubble42","steam_id":76561198136286123,"connected_time":375000000000,"state":"active","ping":30},{"user_id":384,"name":"LudicrousRed","steam_id":76561199047437703,"connected_time":126000000000,"state":"active","ping":63},{"user_id":383,"name":"nonagon infinity","steam_id":76561198397662124,"connected_time":244000000000,"state":"active","ping":92},{"user_id":379,"name":"kasuraq","steam_id":76561199215184828,"connected_time":362000000000,"state":"active","ping":91},{"user_id":356,"name":"Artic_Ryuu","steam_id":76561198182194918,"connected_time":2162000000000,"state":"active","ping":75},{"user_id":327,"name":"your little goofy homie","steam_id":76561198967158026,"connected_time":5282000000000,"state":"active","ping":73},{"user_id":294,"name":"dog","steam_id":76561198263873491,"connected_time":8977000000000,"state":"active","ping":61},{"user_id":352,"name":"for eel? on cod? no carp?","steam_id":76561198095121758,"connected_time":3162000000000,"state":"active","ping":82},{"user_id":336,"name":"Bubtit","steam_id":76561199138751788,"connected_time":4675000000000,"state":"active","ping":72},{"user_id":348,"name":"CeLeb144","steam_id":76561199089907740,"connected_time":3627000000000,"state":"active","ping":64},{"user_id":380,"name":"mr_angry_guy","steam_id":76561199365643094,"connected_time":355000000000,"state":"active","ping":76}]},{"server_id":405,"name":"Uncletopia | Dallas | 4 | Community","name_short":"dal-4","host":"dal-1.us.uncletopia.com","port":27045,"enabled":true,"region":"us-central","cc":"us","latitude":32.779167,"longitude":-96.80889,"reserved":0,"last_update":"0001-01-01T00:00:00Z","name_a2s":"Uncletopia | Dallas | 4 | Community","protocol":17,"map":"workshop/koth_trenchfoot_b1a.ugc731436616","folder":"tf","game":"Team Fortress","app_id":440,"player_count":0,"max_players":24,"Bots":0,"server_type":"Dedicated","server_os":"Linux","password":true,"vac":true,"version":"7961495","steam_id":85568392924515220,"keywords":["cp","nocrits","nodmgspread","uncletopia"],"game_id":440,"stv_port":27046,"stv_name":"Uncletopia | Dallas | 4 | Community | STV","players":null},{"server_id":5,"name":"Uncletopia | Frankfurt | 1 | All Maps","name_short":"frk-1","host":"frk-1.de.uncletopia.com","port":27015,"enabled":true,"region":"eu","cc":"de","latitude":50.110924,"longitude":8.682127,"reserved":0,"last_update":"0001-01-01T00:00:00Z","name_a2s":"Uncletopia | Frankfurt | 1 | All Maps","protocol":17,"map":"cp_5gorge","folder":"tf","game":"Team Fortress","app_id":440,"player_count":0,"max_players":24,"Bots":0,"server_type":"Dedicated","server_os":"Linux","password":true,"vac":true,"version":"7961495","steam_id":85568392924469989,"keywords":["cp","nocrits","nodmgspread","uncletopia"],"game_id":440,"stv_port":27016,"stv_name":"Uncletopia | Frankfurt | 1 | All Maps | STV","players":null},{"server_id":110,"name":"Uncletopia | Frankfurt | 2 | All Maps","name_short":"frk-2","host":"frk-1.de.uncletopia.com","port":27025,"enabled":true,"region":"eu","cc":"de","latitude":50.110924,"longitude":8.682127,"reserved":0,"last_update":"0001-01-01T00:00:00Z","name_a2s":"Uncletopia | Frankfurt | 2 | All Maps","protocol":17,"map":"cp_process_final","folder":"tf","game":"Team Fortress","app_id":440,"player_count":0,"max_players":24,"Bots":0,"server_type":"Dedicated","server_os":"Linux","password":true,"vac":true,"version":"7961495","steam_id":85568392924469990,"keywords":["cp","nocrits","nodmgspread","uncletopia"],"game_id":440,"stv_port":27026,"stv_name":"Uncletopia | Frankfurt | 2 | All Maps | STV","players":null},{"server_id":308,"name":"Uncletopia | Frankfurt | 3 | All Maps","name_short":"frk-3","host":"frk-1.de.uncletopia.com","port":27035,"enabled":true,"region":"eu","cc":"de","latitude":50.110924,"longitude":8.682127,"reserved":0,"last_update":"0001-01-01T00:00:00Z","name_a2s":"Uncletopia | Frankfurt | 3 | All Maps","protocol":17,"map":"cp_mountainlab","folder":"tf","game":"Team Fortress","app_id":440,"player_count":0,"max_players":24,"Bots":0,"server_type":"Dedicated","server_os":"Linux","password":true,"vac":true,"version":"7961495","steam_id":85568392924504274,"keywords":["cp","nocrits","nodmgspread","uncletopia"],"game_id":440,"stv_port":27036,"stv_name":"Uncletopia | Frankfurt | 3 | All Maps | STV","players":null},{"server_id":309,"name":"Uncletopia | Frankfurt | 4 | All Maps","name_short":"frk-4","host":"frk-1.de.uncletopia.com","port":27045,"enabled":true,"region":"eu","cc":"de","latitude":50.110924,"longitude":8.682127,"reserved":0,"last_update":"0001-01-01T00:00:00Z","name_a2s":"Uncletopia | Frankfurt | 4 | All Maps","protocol":17,"map":"koth_lakeside_final","folder":"tf","game":"Team Fortress","app_id":440,"player_count":0,"max_players":24,"Bots":0,"server_type":"Dedicated","server_os":"Linux","password":true,"vac":true,"version":"7961495","steam_id":85568392924504275,"keywords":["cp","nocrits","nodmgspread","uncletopia"],"game_id":440,"stv_port":27046,"stv_name":"Uncletopia | Frankfurt | 4 | All Maps | STV","players":null},{"server_id":310,"name":"Uncletopia | Frankfurt | 5 | All Maps","name_short":"frk-5","host":"frk-1.de.uncletopia.com","port":27055,"enabled":true,"region":"eu","cc":"de","latitude":50.110924,"longitude":8.682127,"reserved":0,"last_update":"0001-01-01T00:00:00Z","name_a2s":"Uncletopia | Frankfurt | 5 | All Maps","protocol":17,"map":"pl_frontier_final","folder":"tf","game":"Team Fortress","app_id":440,"player_count":0,"max_players":24,"Bots":0,"server_type":"Dedicated","server_os":"Linux","password":true,"vac":true,"version":"7961495","steam_id":85568392924504277,"keywords":["nocrits","nodmgspread","payload","uncletopia"],"game_id":440,"stv_port":27056,"stv_name":"Uncletopia | Frankfurt | 5 | All Maps | STV","players":null},{"server_id":311,"name":"Uncletopia | Frankfurt | 6 | All Maps","name_short":"frk-6","host":"frk-1.de.uncletopia.com","port":27065,"enabled":true,"region":"eu","cc":"de","latitude":50.110924,"longitude":8.682127,"reserved":0,"last_update":"0001-01-01T00:00:00Z","name_a2s":"Uncletopia | Frankfurt | 6 | All Maps","protocol":17,"map":"pl_upward","folder":"tf","game":"Team Fortress","app_id":440,"player_count":0,"max_players":24,"Bots":0,"server_type":"Dedicated","server_os":"Linux","password":true,"vac":true,"version":"7961495","steam_id":85568392924504278,"keywords":["nocrits","nodmgspread","payload","uncletopia"],"game_id":440,"stv_port":27066,"stv_name":"Uncletopia | Frankfurt | 6 | All Maps | STV","players":null},{"server_id":23,"name":"Uncletopia | Frankfurt | 7 | Stopwatch","name_short":"frk-7","host":"frk-1.de.uncletopia.com","port":27075,"enabled":true,"region":"eu","cc":"de","latitude":50.110924,"longitude":8.682127,"reserved":0,"last_update":"0001-01-01T00:00:00Z","name_a2s":"Uncletopia | Frankfurt | 7 | Stopwatch","protocol":17,"map":"pl_borneo","folder":"tf","game":"Team Fortress","app_id":440,"player_count":0,"max_players":24,"Bots":0,"server_type":"Dedicated","server_os":"Linux","password":true,"vac":true,"version":"7961495","steam_id":85568392924742827,"keywords":["nocrits","nodmgspread","payload","uncletopia"],"game_id":440,"stv_port":27076,"stv_name":"Uncletopia | Frankfurt | 7 | Stopwatch | STV","players":null},{"server_id":24,"name":"Uncletopia | Frankfurt | 8 | Community","name_short":"frk-8","host":"frk-1.de.uncletopia.com","port":27085,"enabled":true,"region":"eu","cc":"de","latitude":50.110924,"longitude":8.682127,"reserved":0,"last_update":"0001-01-01T00:00:00Z","name_a2s":"Uncletopia | Frankfurt | 8 | Community","protocol":17,"map":"workshop/pl_boundary_final1.ugc456799153","folder":"tf","game":"Team Fortress","app_id":440,"player_count":0,"max_players":24,"Bots":0,"server_type":"Dedicated","server_os":"Linux","password":true,"vac":true,"version":"7961495","steam_id":85568392924742828,"keywords":["nocrits","nodmgspread","payload","uncletopia"],"game_id":440,"stv_port":27086,"stv_name":"Uncletopia | Frankfurt | 8 | Community | STV","players":null},{"server_id":202,"name":"Uncletopia | Hong Kong | 1 | All Maps","name_short":"hgk-1","host":"hgk-1.hk.uncletopia.com","port":27015,"enabled":true,"region":"asia","cc":"hk","latitude":22.302711,"longitude":114.177216,"reserved":0,"last_update":"0001-01-01T00:00:00Z","name_a2s":"Uncletopia | Hong Kong | 1 | All Maps","protocol":17,"map":"cp_snakewater_final1","folder":"tf","game":"Team Fortress","app_id":440,"player_count":0,"max_players":24,"Bots":0,"server_type":"Dedicated","server_os":"Linux","password":true,"vac":true,"version":"7961495","steam_id":85568392924494504,"keywords":["cp","nocrits","nodmgspread","uncletopia"],"game_id":440,"stv_port":27016,"stv_name":"Uncletopia | Hong Kong | 1 | All Maps | STV","players":null},{"server_id":1,"name":"Uncletopia | Los Angeles | 1 | All Maps","name_short":"lax-1","host":"lax-1.us.uncletopia.com","port":27015,"enabled":true,"region":"us-west","cc":"us","latitude":33.94279,"longitude":-118.41004,"reserved":0,"last_update":"0001-01-01T00:00:00Z","name_a2s":"Uncletopia | Los Angeles | 1 | All Maps","protocol":17,"map":"pl_barnblitz","folder":"tf","game":"Team Fortress","app_id":440,"player_count":24,"max_players":24,"Bots":0,"server_type":"Dedicated","server_os":"Linux","password":true,"vac":true,"version":"7961495","steam_id":85568392924469991,"keywords":["nocrits","nodmgspread","payload","uncletopia"],"game_id":440,"stv_port":27016,"stv_name":"Uncletopia | Los Angeles | 1 | All Maps | STV","players":[{"user_id":257,"name":"Squidlye","steam_id":76561199015857743,"connected_time":4273000000000,"state":"active","ping":93},{"user_id":310,"name":"Cocksneed Fartin","steam_id":76561198126675787,"connected_time":791000000000,"state":"active","ping":93},{"user_id":300,"name":"Battle Bug","steam_id":76561198005793034,"connected_time":1420000000000,"state":"active","ping":75},{"user_id":262,"name":"FlashofAsh","steam_id":76561198400422981,"connected_time":3504000000000,"state":"active","ping":73},{"user_id":309,"name":"Jam Jams","steam_id":76561198128811267,"connected_time":797000000000,"state":"active","ping":96},{"user_id":266,"name":"Mom","steam_id":76561198207936000,"connected_time":2793000000000,"state":"active","ping":48},{"user_id":311,"name":"apple juice pimp","steam_id":76561198072075420,"connected_time":771000000000,"state":"active","ping":108},{"user_id":312,"name":"Bob","steam_id":76561198071249852,"connected_time":770000000000,"state":"active","ping":85},{"user_id":314,"name":"lazy catboy","steam_id":76561198359994674,"connected_time":708000000000,"state":"active","ping":97},{"user_id":282,"name":"OrangeSodaMachine","steam_id":76561198079230156,"connected_time":1908000000000,"state":"active","ping":107},{"user_id":318,"name":"celestia ludenberg","steam_id":76561199196437823,"connected_time":527000000000,"state":"active","ping":68},{"user_id":279,"name":"chabotnick","steam_id":76561198010729008,"connected_time":1954000000000,"state":"active","ping":93},{"user_id":294,"name":"coolbust carti","steam_id":76561198065384345,"connected_time":1719000000000,"state":"active","ping":57},{"user_id":315,"name":"zinnk","steam_id":76561198092081825,"connected_time":708000000000,"state":"active","ping":45},{"user_id":320,"name":"Tortilla boy bean","steam_id":76561198385916730,"connected_time":219000000000,"state":"active","ping":69},{"user_id":322,"name":"Sprite","steam_id":76561199229782599,"connected_time":129000000000,"state":"active","ping":117},{"user_id":306,"name":"[EASY] Necie","steam_id":76561198193908728,"connected_time":923000000000,"state":"active","ping":61},{"user_id":286,"name":"Thunder","steam_id":76561198097721532,"connected_time":1833000000000,"state":"active","ping":53},{"user_id":287,"name":"Uber","steam_id":76561198060564605,"connected_time":1831000000000,"state":"active","ping":87},{"user_id":288,"name":"Not A Warmonger","steam_id":76561198078045441,"connected_time":1831000000000,"state":"active","ping":106},{"user_id":289,"name":"Extoned","steam_id":76561198391311164,"connected_time":1812000000000,"state":"active","ping":100},{"user_id":299,"name":"mankinator095","steam_id":76561199496440759,"connected_time":1522000000000,"state":"active","ping":149},{"user_id":304,"name":"[DATS➡] Sugar Meowth","steam_id":76561197995251793,"connected_time":1012000000000,"state":"active","ping":64},{"user_id":316,"name":"Momazos","steam_id":76561198346410032,"connected_time":679000000000,"state":"active","ping":60}]},{"server_id":112,"name":"Uncletopia | Los Angeles | 2 | All Maps","name_short":"lax-2","host":"lax-1.us.uncletopia.com","port":27025,"enabled":true,"region":"us-west","cc":"us","latitude":33.94279,"longitude":-118.41004,"reserved":0,"last_update":"0001-01-01T00:00:00Z","name_a2s":"Uncletopia | Los Angeles | 2 | All Maps","protocol":17,"map":"cp_powerhouse","folder":"tf","game":"Team Fortress","app_id":440,"player_count":23,"max_players":24,"Bots":0,"server_type":"Dedicated","server_os":"Linux","password":true,"vac":true,"version":"7961495","steam_id":85568392924469992,"keywords":["cp","nocrits","nodmgspread","uncletopia"],"game_id":440,"stv_port":27026,"stv_name":"Uncletopia | Los Angeles | 2 | All Maps | STV","players":[{"user_id":435,"name":"Selment","steam_id":76561198026489601,"connected_time":25000000000,"state":"spawning","ping":90},{"user_id":417,"name":"Lord Scrubling","steam_id":76561198263744445,"connected_time":865000000000,"state":"active","ping":77},{"user_id":418,"name":"Evil Sayori","steam_id":76561198957479336,"connected_time":861000000000,"state":"active","ping":94},{"user_id":413,"name":"Gerbias","steam_id":76561198001002427,"connected_time":971000000000,"state":"active","ping":58},{"user_id":419,"name":"jrmadmallard","steam_id":76561198275994616,"connected_time":832000000000,"state":"active","ping":93},{"user_id":428,"name":"Loogus","steam_id":76561198811561721,"connected_time":557000000000,"state":"active","ping":56},{"user_id":365,"name":"Schnitz","steam_id":76561198265484253,"connected_time":3840000000000,"state":"active","ping":60},{"user_id":420,"name":"MaddieDrinksWater♥","steam_id":76561198103319930,"connected_time":823000000000,"state":"active","ping":92},{"user_id":415,"name":"Moonflower ✦","steam_id":76561198191782483,"connected_time":957000000000,"state":"active","ping":79},{"user_id":430,"name":"luigiclub","steam_id":76561198180548194,"connected_time":465000000000,"state":"active","ping":77},{"user_id":421,"name":"XibFwb","steam_id":76561199435928312,"connected_time":818000000000,"state":"active","ping":72},{"user_id":433,"name":"MancalaMadMan","steam_id":76561198347324053,"connected_time":211000000000,"state":"active","ping":97},{"user_id":434,"name":"xLeoparrd","steam_id":76561198940657194,"connected_time":35000000000,"state":"active","ping":72},{"user_id":432,"name":"Brando","steam_id":76561198078306678,"connected_time":257000000000,"state":"active","ping":75},{"user_id":394,"name":"on that zaza?","steam_id":76561198038713198,"connected_time":2132000000000,"state":"active","ping":114},{"user_id":414,"name":"Fluffy","steam_id":76561198115952540,"connected_time":971000000000,"state":"active","ping":63},{"user_id":405,"name":"Metalogic","steam_id":76561198049469629,"connected_time":1204000000000,"state":"active","ping":85},{"user_id":400,"name":"[S]Mr. X [No Monitor]","steam_id":76561197963746035,"connected_time":1338000000000,"state":"active","ping":102},{"user_id":425,"name":"Doctor X (Michiko Daemon)","steam_id":76561199106264424,"connected_time":663000000000,"state":"active","ping":106},{"user_id":412,"name":"MF DOOM LIZARD","steam_id":76561198882362035,"connected_time":986000000000,"state":"active","ping":121},{"user_id":401,"name":"Tang","steam_id":76561198121340574,"connected_time":1337000000000,"state":"active","ping":64},{"user_id":360,"name":"reko","steam_id":76561198278020887,"connected_time":4015000000000,"state":"active","ping":75},{"user_id":395,"name":"Johnora","steam_id":76561198220495936,"connected_time":2097000000000,"state":"active","ping":87}]},{"server_id":324,"name":"Uncletopia | Los Angeles | 3 | All Maps","name_short":"lax-3","host":"lax-1.us.uncletopia.com","port":27035,"enabled":true,"region":"us-west","cc":"us","latitude":33.94279,"longitude":-118.41004,"reserved":0,"last_update":"0001-01-01T00:00:00Z","name_a2s":"Uncletopia | Los Angeles | 3 | All Maps","protocol":17,"map":"koth_highpass","folder":"tf","game":"Team Fortress","app_id":440,"player_count":0,"max_players":24,"Bots":0,"server_type":"Dedicated","server_os":"Linux","password":true,"vac":true,"version":"7961495","steam_id":85568392924510198,"keywords":["cp","nocrits","nodmgspread","uncletopia"],"game_id":440,"stv_port":27036,"stv_name":"Uncletopia | Los Angeles | 3 | All Maps | STV","players":null},{"server_id":25,"name":"Uncletopia | Los Angeles | 4 | Stopwatch","name_short":"lax-4","host":"lax-1.us.uncletopia.com","port":27045,"enabled":true,"region":"us-west","cc":"us","latitude":33.94279,"longitude":-118.41004,"reserved":0,"last_update":"0001-01-01T00:00:00Z","name_a2s":"Uncletopia | Los Angeles | 4 | Stopwatch","protocol":17,"map":"workshop/koth_bagel_rc6.ugc2514036946","folder":"tf","game":"Team Fortress","app_id":440,"player_count":0,"max_players":24,"Bots":0,"server_type":"Dedicated","server_os":"Linux","password":true,"vac":true,"version":"7961495","steam_id":85568392924510199,"keywords":["cp","nocrits","nodmgspread","uncletopia"],"game_id":440,"stv_port":27046,"stv_name":"Uncletopia | Los Angeles | 4 | Stopwatch | STV","players":null},{"server_id":11,"name":"Uncletopia | London | 1 | All Maps","name_short":"lon-1","host":"lon-1.uk.uncletopia.com","port":27015,"enabled":true,"region":"eu","cc":"gb","latitude":51.509865,"longitude":-0.118092,"reserved":0,"last_update":"0001-01-01T00:00:00Z","name_a2s":"Uncletopia | London | 1 | All Maps","protocol":17,"map":"cp_snakewater_final1","folder":"tf","game":"Team Fortress","app_id":440,"player_count":0,"max_players":24,"Bots":0,"server_type":"Dedicated","server_os":"Linux","password":true,"vac":true,"version":"7961495","steam_id":85568392924367362,"keywords":["cp","nocrits","nodmgspread","uncletopia"],"game_id":440,"stv_port":27016,"stv_name":"Uncletopia | London | 1 | All Maps | STV","players":null},{"server_id":114,"name":"Uncletopia | London | 2 | All Maps","name_short":"lon-2","host":"lon-1.uk.uncletopia.com","port":27025,"enabled":true,"region":"eu","cc":"gb","latitude":51.509865,"longitude":-0.118092,"reserved":0,"last_update":"0001-01-01T00:00:00Z","name_a2s":"Uncletopia | London | 2 | All Maps","protocol":17,"map":"ctf_2fort","folder":"tf","game":"Team Fortress","app_id":440,"player_count":11,"max_players":24,"Bots":0,"server_type":"Dedicated","server_os":"Linux","password":true,"vac":true,"version":"7961495","steam_id":85568392924470941,"keywords":["ctf","nocrits","nodmgspread","uncletopia"],"game_id":440,"stv_port":27026,"stv_name":"Uncletopia | London | 2 | All Maps | STV","players":[{"user_id":626,"name":"Джекет","steam_id":76561198327897125,"connected_time":2938000000000,"state":"active","ping":107},{"user_id":649,"name":"Rerken","steam_id":76561199201353504,"connected_time":194000000000,"state":"active","ping":108},{"user_id":647,"name":"help i have too many names","steam_id":76561198094624704,"connected_time":726000000000,"state":"active","ping":44},{"user_id":630,"name":"jjkun786","steam_id":76561199438517484,"connected_time":2658000000000,"state":"active","ping":73},{"user_id":633,"name":"Thy_Hampter","steam_id":76561198796466427,"connected_time":2254000000000,"state":"active","ping":147},{"user_id":635,"name":"yodel","steam_id":76561198138777659,"connected_time":1912000000000,"state":"active","ping":64},{"user_id":650,"name":"yuhboiZ #savetf2","steam_id":76561198192643775,"connected_time":135000000000,"state":"active","ping":235},{"user_id":638,"name":"Tomatipea29","steam_id":76561198136687652,"connected_time":1507000000000,"state":"active","ping":73},{"user_id":641,"name":"МЕДИК!","steam_id":76561198803488036,"connected_time":1347000000000,"state":"active","ping":115},{"user_id":643,"name":"bricked","steam_id":76561198123562445,"connected_time":1326000000000,"state":"active","ping":42},{"user_id":645,"name":"vivid","steam_id":76561198346546144,"connected_time":1263000000000,"state":"active","ping":71}]},{"server_id":320,"name":"Uncletopia | London | 3 | All Maps","name_short":"lon-3","host":"lon-1.uk.uncletopia.com","port":27035,"enabled":true,"region":"eu","cc":"gb","latitude":51.509865,"longitude":-0.118092,"reserved":0,"last_update":"0001-01-01T00:00:00Z","name_a2s":"Uncletopia | London | 3 | All Maps","protocol":17,"map":"pl_upward","folder":"tf","game":"Team Fortress","app_id":440,"player_count":0,"max_players":24,"Bots":0,"server_type":"Dedicated","server_os":"Linux","password":true,"vac":true,"version":"7961495","steam_id":85568392924510192,"keywords":["nocrits","nodmgspread","payload","uncletopia"],"game_id":440,"stv_port":27036,"stv_name":"Uncletopia | London | 3 | All Maps | STV","players":null},{"server_id":321,"name":"Uncletopia | London | 4 | All Maps","name_short":"lon-4","host":"lon-1.uk.uncletopia.com","port":27045,"enabled":true,"region":"eu","cc":"gb","latitude":51.509865,"longitude":-0.118092,"reserved":0,"last_update":"0001-01-01T00:00:00Z","name_a2s":"Uncletopia | London | 4 | All Maps","protocol":17,"map":"koth_highpass","folder":"tf","game":"Team Fortress","app_id":440,"player_count":0,"max_players":24,"Bots":0,"server_type":"Dedicated","server_os":"Linux","password":true,"vac":true,"version":"7961495","steam_id":85568392924510193,"keywords":["cp","nocrits","nodmgspread","uncletopia"],"game_id":440,"stv_port":27046,"stv_name":"Uncletopia | London | 4 | All Maps | STV","players":null},{"server_id":21,"name":"Uncletopia | London | 5 | All Maps","name_short":"lon-5","host":"lon-1.uk.uncletopia.com","port":27055,"enabled":true,"region":"eu","cc":"gb","latitude":51.509865,"longitude":-0.118092,"reserved":0,"last_update":"0001-01-01T00:00:00Z","name_a2s":"Uncletopia | London | 5 | All Maps","protocol":17,"map":"pl_barnblitz","folder":"tf","game":"Team Fortress","app_id":440,"player_count":11,"max_players":24,"Bots":0,"server_type":"Dedicated","server_os":"Linux","password":true,"vac":true,"version":"7961495","steam_id":85568392924742829,"keywords":["nocrits","nodmgspread","payload","uncletopia"],"game_id":440,"stv_port":27056,"stv_name":"Uncletopia | London | 5 | All Maps | STV","players":[{"user_id":678,"name":"Nakisan","steam_id":76561198237652106,"connected_time":244000000000,"state":"active","ping":53},{"user_id":679,"name":"SUPER HANS","steam_id":76561198342253732,"connected_time":49000000000,"state":"active","ping":46},{"user_id":668,"name":"BLACKBIRD CLOSE [she/her]","steam_id":76561198262910410,"connected_time":1206000000000,"state":"active","ping":96},{"user_id":667,"name":"Not Sussy Tanuki","steam_id":76561198137289375,"connected_time":1388000000000,"state":"active","ping":105},{"user_id":670,"name":"starlightartist","steam_id":76561198050608456,"connected_time":1187000000000,"state":"active","ping":30},{"user_id":674,"name":"frosty","steam_id":76561198094560834,"connected_time":1000000000000,"state":"active","ping":49},{"user_id":585,"name":"piper","steam_id":76561198112687349,"connected_time":8051000000000,"state":"active","ping":43},{"user_id":627,"name":"Plop_","steam_id":76561198112567921,"connected_time":5039000000000,"state":"active","ping":44},{"user_id":677,"name":"Ricy40","steam_id":76561198337122548,"connected_time":573000000000,"state":"active","ping":108},{"user_id":663,"name":"Gooby","steam_id":76561198383937031,"connected_time":1474000000000,"state":"active","ping":50},{"user_id":657,"name":"Proud Jojo Fan #TF2SP","steam_id":76561198847327216,"connected_time":2539000000000,"state":"active","ping":70}]},{"server_id":22,"name":"Uncletopia | London | 6 | All Maps","name_short":"lon-6","host":"lon-1.uk.uncletopia.com","port":27065,"enabled":true,"region":"eu","cc":"gb","latitude":51.509865,"longitude":-0.118092,"reserved":0,"last_update":"0001-01-01T00:00:00Z","name_a2s":"Uncletopia | London | 6 | All Maps","protocol":17,"map":"koth_viaduct","folder":"tf","game":"Team Fortress","app_id":440,"player_count":0,"max_players":24,"Bots":0,"server_type":"Dedicated","server_os":"Linux","password":true,"vac":true,"version":"7961495","steam_id":85568392924742830,"keywords":["cp","nocrits","nodmgspread","uncletopia"],"game_id":440,"stv_port":27066,"stv_name":"Uncletopia | London | 6 | All Maps | STV","players":null},{"server_id":40,"name":"Uncletopia | London | 7 | Stopwatch","name_short":"lon-7","host":"lon-1.uk.uncletopia.com","port":27075,"enabled":true,"region":"eu","cc":"gb","latitude":51.509865,"longitude":-0.118092,"reserved":0,"last_update":"0001-01-01T00:00:00Z","name_a2s":"Uncletopia | London | 7 | Stopwatch","protocol":17,"map":"pl_upward","folder":"tf","game":"Team Fortress","app_id":440,"player_count":0,"max_players":24,"Bots":0,"server_type":"Dedicated","server_os":"Linux","password":true,"vac":true,"version":"7961495","steam_id":85568392924964314,"keywords":["nocrits","nodmgspread","payload","uncletopia"],"game_id":440,"stv_port":27076,"stv_name":"Uncletopia | London | 7 | Stopwatch | STV","players":null},{"server_id":41,"name":"Uncletopia | London | 8 | Community","name_short":"lon-8","host":"lon-1.uk.uncletopia.com","port":27085,"enabled":true,"region":"eu","cc":"gb","latitude":51.509865,"longitude":-0.118092,"reserved":0,"last_update":"0001-01-01T00:00:00Z","name_a2s":"Uncletopia | London | 8 | Community","protocol":17,"map":"workshop/cp_reckoner_rc6.ugc674719999","folder":"tf","game":"Team Fortress","app_id":440,"player_count":0,"max_players":24,"Bots":0,"server_type":"Dedicated","server_os":"Linux","password":true,"vac":true,"version":"7961495","steam_id":85568392924964315,"keywords":["cp","nocrits","nodmgspread","uncletopia"],"game_id":440,"stv_port":27086,"stv_name":"Uncletopia | London | 8 | Community | STV","players":null},{"server_id":300,"name":"Uncletopia | Montréal | 1 | One Thousand Uncles","name_short":"mtl-1","host":"mtl-1.ca.uncletopia.com","port":27015,"enabled":true,"region":"us-east","cc":"ca","latitude":45.50889,"longitude":-73.56167,"reserved":0,"last_update":"0001-01-01T00:00:00Z","name_a2s":"","protocol":0,"map":"","folder":"","game":"","app_id":0,"player_count":7,"max_players":0,"Bots":0,"server_type":"","server_os":"","password":false,"vac":false,"version":"","steam_id":0,"keywords":null,"game_id":0,"stv_port":0,"stv_name":"","players":[{"user_id":637,"name":"hazel (she/her)","steam_id":76561198879911815,"connected_time":1631000000000,"state":"active","ping":51},{"user_id":606,"name":"Orangeboy","steam_id":76561199014097980,"connected_time":4928000000000,"state":"active","ping":39},{"user_id":612,"name":"Waaagh!","steam_id":76561197995317887,"connected_time":3466000000000,"state":"active","ping":33},{"user_id":613,"name":"ChoiBoi9001","steam_id":76561199401392691,"connected_time":3112000000000,"state":"active","ping":55},{"user_id":628,"name":"ChillyJones","steam_id":76561198017658702,"connected_time":2330000000000,"state":"active","ping":74},{"user_id":664,"name":"LightBulbGlue #SaveTF2","steam_id":76561198329573529,"connected_time":537000000000,"state":"active","ping":73},{"user_id":633,"name":"in the ass","steam_id":76561199454364801,"connected_time":1864000000000,"state":"active","ping":136}]},{"server_id":301,"name":"Uncletopia | Montréal | 2 | One Thousand Uncles","name_short":"mtl-2","host":"mtl-1.ca.uncletopia.com","port":27025,"enabled":true,"region":"us-east","cc":"ca","latitude":45.50889,"longitude":-73.56167,"reserved":0,"last_update":"0001-01-01T00:00:00Z","name_a2s":"","protocol":0,"map":"","folder":"","game":"","app_id":0,"player_count":13,"max_players":0,"Bots":0,"server_type":"","server_os":"","password":false,"vac":false,"version":"","steam_id":0,"keywords":null,"game_id":0,"stv_port":0,"stv_name":"","players":[{"user_id":327,"name":"76561199221669701","steam_id":76561199221669701,"connected_time":1573000000000,"state":"active","ping":95},{"user_id":262,"name":"Im Groot","steam_id":76561198294943420,"connected_time":4208000000000,"state":"active","ping":80},{"user_id":331,"name":"sergal saturn","steam_id":76561198303302166,"connected_time":1318000000000,"state":"active","ping":43},{"user_id":218,"name":"Op banana","steam_id":76561198303231451,"connected_time":7724000000000,"state":"active","ping":73},{"user_id":280,"name":"pan","steam_id":76561199019732036,"connected_time":3966000000000,"state":"active","ping":65},{"user_id":339,"name":"Rare High Moments","steam_id":76561198053465042,"connected_time":392000000000,"state":"active","ping":82},{"user_id":329,"name":"WM1 PYRO","steam_id":76561198045893896,"connected_time":1413000000000,"state":"active","ping":105},{"user_id":153,"name":"Dr Madness The Octoling","steam_id":76561198065407703,"connected_time":13943000000000,"state":"active","ping":53},{"user_id":340,"name":"Crying in a laundry basket","steam_id":76561199120845371,"connected_time":365000000000,"state":"active","ping":54},{"user_id":332,"name":"Poyo Boyo","steam_id":76561198010201227,"connected_time":1297000000000,"state":"active","ping":63},{"user_id":341,"name":"Dr Balls","steam_id":76561199147558249,"connected_time":359000000000,"state":"active","ping":65},{"user_id":251,"name":"Winter Not Summer","steam_id":76561198201409574,"connected_time":5565000000000,"state":"active","ping":62},{"user_id":343,"name":"Sexual Butt","steam_id":76561198102241399,"connected_time":246000000000,"state":"active","ping":57}]},{"server_id":302,"name":"Uncletopia | Montréal | 3 | One Thousand Uncles","name_short":"mtl-3","host":"mtl-1.ca.uncletopia.com","port":27035,"enabled":true,"region":"us-east","cc":"ca","latitude":45.50889,"longitude":-73.56167,"reserved":0,"last_update":"0001-01-01T00:00:00Z","name_a2s":"","protocol":0,"map":"","folder":"","game":"","app_id":0,"player_count":0,"max_players":0,"Bots":0,"server_type":"","server_os":"","password":false,"vac":false,"version":"","steam_id":0,"keywords":null,"game_id":0,"stv_port":0,"stv_name":"","players":null},{"server_id":13,"name":"Uncletopia | New York City | 1 | All Maps","name_short":"nyc-1","host":"nyc-1.us.uncletopia.com","port":27015,"enabled":true,"region":"us-east","cc":"us","latitude":40.73061,"longitude":-73.93524,"reserved":0,"last_update":"0001-01-01T00:00:00Z","name_a2s":"Uncletopia | New York City | 1 | All Maps","protocol":17,"map":"pl_pier","folder":"tf","game":"Team Fortress","app_id":440,"player_count":24,"max_players":24,"Bots":0,"server_type":"Dedicated","server_os":"Linux","password":true,"vac":true,"version":"7961495","steam_id":85568392924469993,"keywords":["nocrits","nodmgspread","payload","uncletopia"],"game_id":440,"stv_port":27016,"stv_name":"Uncletopia | New York City | 1 | All Maps | STV","players":[{"user_id":483,"name":"taigaxx","steam_id":76561198202669250,"connected_time":2616000000000,"state":"active","ping":64},{"user_id":497,"name":"Comicsloth","steam_id":76561198380261893,"connected_time":2052000000000,"state":"active","ping":100},{"user_id":482,"name":"Young-OG","steam_id":76561198058800479,"connected_time":2666000000000,"state":"active","ping":75},{"user_id":476,"name":"[NAME-REDACTED]","steam_id":76561198035682975,"connected_time":2915000000000,"state":"active","ping":58},{"user_id":506,"name":"Bigsumoslammer","steam_id":76561198044505076,"connected_time":1142000000000,"state":"active","ping":39},{"user_id":498,"name":"Grawhide","steam_id":76561198065619924,"connected_time":2022000000000,"state":"active","ping":79},{"user_id":512,"name":"flare","steam_id":76561198048623485,"connected_time":873000000000,"state":"active","ping":54},{"user_id":507,"name":"Nitroatyou","steam_id":76561198045001676,"connected_time":1116000000000,"state":"active","ping":100},{"user_id":499,"name":"pea ttv/peabeanz","steam_id":76561198119551968,"connected_time":1958000000000,"state":"active","ping":63},{"user_id":510,"name":"jandajanda","steam_id":76561198235722476,"connected_time":928000000000,"state":"active","ping":76},{"user_id":508,"name":"It's FoolMoon","steam_id":76561198153344375,"connected_time":1104000000000,"state":"active","ping":44},{"user_id":444,"name":"Samrizo el Chorizo","steam_id":76561198009838162,"connected_time":5666000000000,"state":"active","ping":52},{"user_id":455,"name":"flamingcookies","steam_id":76561198280864779,"connected_time":4675000000000,"state":"active","ping":74},{"user_id":501,"name":"The Deer Consumer","steam_id":76561198812026312,"connected_time":1651000000000,"state":"active","ping":63},{"user_id":515,"name":"Bee","steam_id":76561198074681324,"connected_time":499000000000,"state":"active","ping":47},{"user_id":505,"name":"leonardo doujinshi","steam_id":76561198025810326,"connected_time":1147000000000,"state":"active","ping":64},{"user_id":516,"name":"Twitchy","steam_id":76561198061529022,"connected_time":425000000000,"state":"active","ping":55},{"user_id":490,"name":"Aldinach","steam_id":76561198079912615,"connected_time":2548000000000,"state":"active","ping":60},{"user_id":493,"name":"ChozoChorizo","steam_id":76561198272609196,"connected_time":2393000000000,"state":"active","ping":71},{"user_id":496,"name":"PyroEagle","steam_id":76561198296434231,"connected_time":2287000000000,"state":"active","ping":84},{"user_id":504,"name":"Hideo Kojima","steam_id":76561198082582335,"connected_time":1219000000000,"state":"active","ping":59},{"user_id":500,"name":"็Periculosum PhD in Funny","steam_id":76561198123370914,"connected_time":1723000000000,"state":"active","ping":93},{"user_id":514,"name":"Yuzu","steam_id":76561198417913035,"connected_time":555000000000,"state":"active","ping":74},{"user_id":405,"name":"Xx_Savage_Twerks_xX","steam_id":76561198011665915,"connected_time":9098000000000,"state":"active","ping":50}]},{"server_id":14,"name":"Uncletopia | New York City | 2 | All Maps","name_short":"nyc-2","host":"nyc-1.us.uncletopia.com","port":27025,"enabled":true,"region":"us-east","cc":"us","latitude":40.73061,"longitude":-73.93524,"reserved":0,"last_update":"0001-01-01T00:00:00Z","name_a2s":"Uncletopia | New York City | 2 | All Maps","protocol":17,"map":"koth_highpass","folder":"tf","game":"Team Fortress","app_id":440,"player_count":24,"max_players":24,"Bots":0,"server_type":"Dedicated","server_os":"Linux","password":true,"vac":true,"version":"7961495","steam_id":85568392924469994,"keywords":["cp","nocrits","nodmgspread","uncletopia"],"game_id":440,"stv_port":27026,"stv_name":"Uncletopia | New York City | 2 | All Maps | STV","players":[{"user_id":634,"name":"DogMan223","steam_id":76561198258561365,"connected_time":572000000000,"state":"active","ping":51},{"user_id":627,"name":"2.5 Oz of Paprika","steam_id":76561198174647666,"connected_time":853000000000,"state":"active","ping":84},{"user_id":640,"name":"Sooper Smert","steam_id":76561198047958540,"connected_time":95000000000,"state":"active","ping":56},{"user_id":617,"name":"CHIPS","steam_id":76561199085414584,"connected_time":1296000000000,"state":"active","ping":60},{"user_id":607,"name":"Chicken Burger","steam_id":76561198358529311,"connected_time":1892000000000,"state":"active","ping":88},{"user_id":628,"name":"Illest","steam_id":76561198392871557,"connected_time":834000000000,"state":"active","ping":49},{"user_id":575,"name":"ʕ•ᴥ•ʔ the bear","steam_id":76561197989591976,"connected_time":4221000000000,"state":"active","ping":62},{"user_id":638,"name":"Urbanzpinapple","steam_id":76561198115426938,"connected_time":131000000000,"state":"active","ping":69},{"user_id":572,"name":"Nerrrd_","steam_id":76561198870129960,"connected_time":4528000000000,"state":"active","ping":39},{"user_id":637,"name":"ColdTooth","steam_id":76561197994963901,"connected_time":230000000000,"state":"active","ping":65},{"user_id":636,"name":"GigaPenguin","steam_id":76561198805906456,"connected_time":480000000000,"state":"active","ping":45},{"user_id":614,"name":"Parth Makeo","steam_id":76561198002516581,"connected_time":1365000000000,"state":"active","ping":45},{"user_id":615,"name":"MemoxJota (F2P)","steam_id":76561198862661338,"connected_time":1353000000000,"state":"active","ping":124},{"user_id":581,"name":"flappyflap2","steam_id":76561198285048973,"connected_time":3831000000000,"state":"active","ping":45},{"user_id":512,"name":"concrete_car","steam_id":76561198388207363,"connected_time":9481000000000,"state":"active","ping":67},{"user_id":570,"name":"leaving lunar orbit","steam_id":76561199085974120,"connected_time":4843000000000,"state":"active","ping":66},{"user_id":623,"name":"Tri_Hunter","steam_id":76561198108176706,"connected_time":1084000000000,"state":"active","ping":44},{"user_id":601,"name":"Sweet Jesus","steam_id":76561198060068046,"connected_time":2674000000000,"state":"active","ping":97},{"user_id":629,"name":"uzr","steam_id":76561198799343084,"connected_time":830000000000,"state":"active","ping":120},{"user_id":635,"name":"˗ˏˋNima´ˎ˗","steam_id":76561198102045762,"connected_time":539000000000,"state":"active","ping":62},{"user_id":639,"name":"Cat_Soldier","steam_id":76561198799974610,"connected_time":121000000000,"state":"active","ping":69},{"user_id":631,"name":"Ye","steam_id":76561198354719262,"connected_time":814000000000,"state":"active","ping":150},{"user_id":605,"name":"Chewbacca","steam_id":76561198041927925,"connected_time":2449000000000,"state":"active","ping":57},{"user_id":632,"name":"Hopdon The Magic Bunny","steam_id":76561198051616613,"connected_time":813000000000,"state":"active","ping":94}]},{"server_id":15,"name":"Uncletopia | New York City | 3 | Stopwatch","name_short":"nyc-3","host":"nyc-1.us.uncletopia.com","port":27035,"enabled":true,"region":"us-east","cc":"us","latitude":40.73061,"longitude":-73.93524,"reserved":0,"last_update":"0001-01-01T00:00:00Z","name_a2s":"Uncletopia | New York City | 3 | Stopwatch","protocol":17,"map":"workshop/koth_ashville_final.ugc2130459942","folder":"tf","game":"Team Fortress","app_id":440,"player_count":0,"max_players":24,"Bots":0,"server_type":"Dedicated","server_os":"Linux","password":true,"vac":true,"version":"7961495","steam_id":85568392924742820,"keywords":["cp","nocrits","nodmgspread","uncletopia"],"game_id":440,"stv_port":27036,"stv_name":"Uncletopia | New York City | 3 | Stopwatch | STV","players":null},{"server_id":16,"name":"Uncletopia | New York City | 4 | Community","name_short":"nyc-4","host":"nyc-1.us.uncletopia.com","port":27045,"enabled":true,"region":"us-east","cc":"us","latitude":40.73061,"longitude":-73.93524,"reserved":0,"last_update":"0001-01-01T00:00:00Z","name_a2s":"Uncletopia | New York City | 4 | Community","protocol":17,"map":"workshop/pl_shoreleave_rc2.ugc1238849347","folder":"tf","game":"Team Fortress","app_id":440,"player_count":22,"max_players":24,"Bots":0,"server_type":"Dedicated","server_os":"Linux","password":true,"vac":true,"version":"7961495","steam_id":85568392924742821,"keywords":["nocrits","nodmgspread","payload","uncletopia"],"game_id":440,"stv_port":27046,"stv_name":"Uncletopia | New York City | 4 | Community | STV","players":[{"user_id":216,"name":"MrBendy_TF2","steam_id":76561199405558853,"connected_time":739000000000,"state":"active","ping":101},{"user_id":222,"name":"Mer","steam_id":76561198192171041,"connected_time":391000000000,"state":"active","ping":121},{"user_id":218,"name":"re:imu","steam_id":76561198042216235,"connected_time":534000000000,"state":"active","ping":43},{"user_id":226,"name":"AzuriteFoxx","steam_id":76561198998093240,"connected_time":170000000000,"state":"active","ping":53},{"user_id":175,"name":"Unyun","steam_id":76561198057118397,"connected_time":4269000000000,"state":"active","ping":70},{"user_id":215,"name":"LW | [wrd]HaloLagann","steam_id":76561198047561568,"connected_time":863000000000,"state":"active","ping":59},{"user_id":219,"name":"donn","steam_id":76561198113080083,"connected_time":502000000000,"state":"active","ping":61},{"user_id":91,"name":"Captain Chicken","steam_id":76561198047767530,"connected_time":9005000000000,"state":"active","ping":111},{"user_id":220,"name":"bronwyn","steam_id":76561198098475782,"connected_time":470000000000,"state":"active","ping":69},{"user_id":185,"name":"BoopBerry","steam_id":76561198871571711,"connected_time":3820000000000,"state":"active","ping":78},{"user_id":209,"name":"King Sans","steam_id":76561198294198517,"connected_time":1574000000000,"state":"active","ping":43},{"user_id":221,"name":"The Rock","steam_id":76561198433328517,"connected_time":448000000000,"state":"active","ping":82},{"user_id":227,"name":"Mr Dr Prof No","steam_id":76561198057028688,"connected_time":150000000000,"state":"active","ping":82},{"user_id":228,"name":"KaosInfinite","steam_id":76561198009126350,"connected_time":64000000000,"state":"active","ping":124},{"user_id":229,"name":"Mr Bread Mann","steam_id":76561198329530623,"connected_time":47000000000,"state":"spawning","ping":205},{"user_id":230,"name":"TATARA","steam_id":76561199098759517,"connected_time":36000000000,"state":"active","ping":126},{"user_id":231,"name":"DeadDankDreamMemes","steam_id":76561198007053209,"connected_time":22000000000,"state":"spawning","ping":253},{"user_id":233,"name":"robot with human hair","steam_id":76561198018691308,"connected_time":12000000000,"state":"spawning","ping":135},{"user_id":234,"name":"boat dealership","steam_id":76561198262167378,"connected_time":3000000000,"state":"spawning","ping":82},{"user_id":200,"name":"Magnet Dood","steam_id":76561198364178746,"connected_time":2192000000000,"state":"active","ping":75},{"user_id":214,"name":"saucy jack","steam_id":76561198307012859,"connected_time":916000000000,"state":"active","ping":94},{"user_id":180,"name":"Masked","steam_id":76561198093697845,"connected_time":4085000000000,"state":"active","ping":94}]},{"server_id":142,"name":"Uncletopia | São Paulo | 1 | All Maps","name_short":"sao-1","host":"sao-1.br.uncletopia.com","port":27015,"enabled":true,"region":"sa","cc":"br","latitude":-23.533773,"longitude":-46.62529,"reserved":0,"last_update":"0001-01-01T00:00:00Z","name_a2s":"Uncletopia | São Paulo | 1 | All Maps","protocol":17,"map":"koth_highpass","folder":"tf","game":"Team Fortress","app_id":440,"player_count":0,"max_players":24,"Bots":0,"server_type":"Dedicated","server_os":"Linux","password":true,"vac":true,"version":"7961495","steam_id":85568392924469996,"keywords":["cp","nocrits","nodmgspread","uncletopia"],"game_id":440,"stv_port":27016,"stv_name":"Uncletopia | São Paulo | 1 | All Maps | STV","players":null},{"server_id":143,"name":"Uncletopia | São Paulo | 2 | Community","name_short":"sao-2","host":"sao-2.br.uncletopia.com","port":27015,"enabled":true,"region":"sa","cc":"br","latitude":-23.533773,"longitude":-46.62529,"reserved":0,"last_update":"0001-01-01T00:00:00Z","name_a2s":"Uncletopia | São Paulo | 2 | Community","protocol":17,"map":"workshop/koth_slaughter_rc1.ugc1712845210","folder":"tf","game":"Team Fortress","app_id":440,"player_count":5,"max_players":24,"Bots":0,"server_type":"Dedicated","server_os":"Linux","password":true,"vac":true,"version":"7961495","steam_id":85568392924485349,"keywords":["cp","nocrits","nodmgspread","uncletopia"],"game_id":440,"stv_port":27016,"stv_name":"Uncletopia | São Paulo | 2 | Community | STV","players":[{"user_id":36,"name":"Seleste","steam_id":76561199099945745,"connected_time":2983000000000,"state":"active","ping":87},{"user_id":42,"name":"omrboo061","steam_id":76561199443653759,"connected_time":586000000000,"state":"active","ping":81},{"user_id":35,"name":"fernandohll59","steam_id":76561199120728007,"connected_time":3564000000000,"state":"active","ping":142},{"user_id":44,"name":"Kisune","steam_id":76561199368978007,"connected_time":81000000000,"state":"active","ping":173},{"user_id":41,"name":"GufouSquid","steam_id":76561199001434694,"connected_time":1326000000000,"state":"active","ping":55}]},{"server_id":7,"name":"Uncletopia | Seattle | 1 | All Maps","name_short":"sea-1","host":"sea-1.us.uncletopia.com","port":27015,"enabled":true,"region":"us-west","cc":"us","latitude":47.608013,"longitude":-122.33517,"reserved":0,"last_update":"0001-01-01T00:00:00Z","name_a2s":"Uncletopia | Seattle | 1 | All Maps","protocol":17,"map":"pl_badwater","folder":"tf","game":"Team Fortress","app_id":440,"player_count":27,"max_players":24,"Bots":0,"server_type":"Dedicated","server_os":"Linux","password":true,"vac":true,"version":"7961495","steam_id":85568392924469997,"keywords":["nocrits","nodmgspread","payload","uncletopia"],"game_id":440,"stv_port":27016,"stv_name":"Uncletopia | Seattle | 1 | All Maps | STV","players":[{"user_id":473,"name":"PvZ Enthusiast","steam_id":76561199089562026,"connected_time":2809000000000,"state":"active","ping":38},{"user_id":494,"name":"Mitchell","steam_id":76561197972922328,"connected_time":1412000000000,"state":"active","ping":54},{"user_id":456,"name":"Loading...","steam_id":76561198075555396,"connected_time":5288000000000,"state":"active","ping":44},{"user_id":482,"name":"nolove","steam_id":76561198274550638,"connected_time":2240000000000,"state":"active","ping":111},{"user_id":485,"name":"↟ ↟ callie ↟ ↟","steam_id":76561198058199952,"connected_time":1960000000000,"state":"active","ping":38},{"user_id":480,"name":"blest!","steam_id":76561198966232220,"connected_time":2384000000000,"state":"active","ping":80},{"user_id":499,"name":"William P. Ennis","steam_id":76561198073464877,"connected_time":3000000000,"state":"spawning","ping":134},{"user_id":438,"name":"SkobeBeef","steam_id":76561198078638948,"connected_time":6972000000000,"state":"active","ping":60},{"user_id":496,"name":"CharlieChocolatte","steam_id":76561199202003439,"connected_time":1266000000000,"state":"active","ping":43},{"user_id":486,"name":"Splash","steam_id":76561198271994269,"connected_time":1934000000000,"state":"active","ping":64},{"user_id":483,"name":"SnazzyCelestial","steam_id":76561198328763813,"connected_time":2155000000000,"state":"active","ping":121},{"user_id":490,"name":"Skabbety","steam_id":76561198168044257,"connected_time":1899000000000,"state":"active","ping":46},{"user_id":491,"name":"em","steam_id":76561198107213976,"connected_time":1786000000000,"state":"active","ping":66},{"user_id":476,"name":"Gm_Trash","steam_id":76561199445091548,"connected_time":2752000000000,"state":"active","ping":56},{"user_id":498,"name":"Gregg Rulz ok","steam_id":76561199027131213,"connected_time":7000000000,"state":"spawning","ping":46},{"user_id":400,"name":"Ayayayayayahuasca","steam_id":76561199002906056,"connected_time":9972000000000,"state":"active","ping":59},{"user_id":458,"name":"rat who can kickflip","steam_id":76561198073620027,"connected_time":5090000000000,"state":"active","ping":47},{"user_id":484,"name":"mansteam905","steam_id":76561199488421021,"connected_time":2144000000000,"state":"active","ping":132},{"user_id":495,"name":"Arsonist Goose (Phlog 2 Hales)","steam_id":76561198147441830,"connected_time":1385000000000,"state":"active","ping":77},{"user_id":452,"name":"medium Mike","steam_id":76561198111645213,"connected_time":5805000000000,"state":"active","ping":78},{"user_id":497,"name":"Toaster (Hamilton Beach)","steam_id":76561198039891934,"connected_time":1044000000000,"state":"active","ping":65},{"user_id":500,"name":"Ping","steam_id":76561199206514106,"connected_time":2000000000,"state":"spawning","ping":111},{"user_id":435,"name":"Friendly Neighbourhood Arsonist","steam_id":76561198037535169,"connected_time":7371000000000,"state":"active","ping":81},{"user_id":466,"name":"Cinna Mon","steam_id":76561198005840633,"connected_time":4041000000000,"state":"active","ping":66},{"user_id":472,"name":"Sweets","steam_id":76561198998446307,"connected_time":3262000000000,"state":"active","ping":66},{"user_id":501,"name":"reiidaya","steam_id":76561198325306660,"connected_time":2000000000,"state":"spawning","ping":50},{"user_id":502,"name":"bbbbb","steam_id":76561198095480838,"connected_time":0,"state":"spawning","ping":74}]},{"server_id":119,"name":"Uncletopia | Seattle | 2 | All Maps","name_short":"sea-2","host":"sea-1.us.uncletopia.com","port":27025,"enabled":true,"region":"us-west","cc":"us","latitude":47.608013,"longitude":-122.33517,"reserved":0,"last_update":"0001-01-01T00:00:00Z","name_a2s":"Uncletopia | Seattle | 2 | All Maps","protocol":17,"map":"pl_borneo","folder":"tf","game":"Team Fortress","app_id":440,"player_count":24,"max_players":24,"Bots":0,"server_type":"Dedicated","server_os":"Linux","password":true,"vac":true,"version":"7961495","steam_id":85568392924469998,"keywords":["nocrits","nodmgspread","payload","uncletopia"],"game_id":440,"stv_port":27026,"stv_name":"Uncletopia | Seattle | 2 | All Maps | STV","players":[{"user_id":484,"name":"Frostyfoods257","steam_id":76561198332197599,"connected_time":836000000000,"state":"active","ping":85},{"user_id":472,"name":"VoidDragon","steam_id":76561199186496740,"connected_time":1723000000000,"state":"active","ping":145},{"user_id":387,"name":"Nessie is my Waifu","steam_id":76561198076021620,"connected_time":7605000000000,"state":"active","ping":120},{"user_id":491,"name":"Dad","steam_id":76561198083941413,"connected_time":434000000000,"state":"active","ping":54},{"user_id":490,"name":"Skysteele","steam_id":76561198164536662,"connected_time":481000000000,"state":"active","ping":44},{"user_id":492,"name":"toilet master","steam_id":76561198844273999,"connected_time":412000000000,"state":"active","ping":43},{"user_id":433,"name":"Saltine Cracker","steam_id":76561198889144728,"connected_time":4421000000000,"state":"active","ping":61},{"user_id":471,"name":"dougrocks421","steam_id":76561198165063918,"connected_time":1733000000000,"state":"active","ping":43},{"user_id":497,"name":"Ominous Whir","steam_id":76561198002851724,"connected_time":139000000000,"state":"active","ping":92},{"user_id":400,"name":"worker","steam_id":76561198039608940,"connected_time":7187000000000,"state":"active","ping":51},{"user_id":456,"name":"your girl♀","steam_id":76561199050118111,"connected_time":2840000000000,"state":"active","ping":53},{"user_id":493,"name":"okiki_114","steam_id":76561199192983913,"connected_time":408000000000,"state":"active","ping":81},{"user_id":476,"name":"weed lesbian","steam_id":76561198042263805,"connected_time":1663000000000,"state":"active","ping":51},{"user_id":421,"name":"Steve","steam_id":76561198352805460,"connected_time":5860000000000,"state":"active","ping":69},{"user_id":466,"name":"Strikerbolt","steam_id":76561199095622897,"connected_time":2052000000000,"state":"active","ping":109},{"user_id":461,"name":"wmjledger","steam_id":76561198443046861,"connected_time":2543000000000,"state":"active","ping":47},{"user_id":479,"name":"JTheOutsider","steam_id":76561199232894219,"connected_time":1547000000000,"state":"active","ping":139},{"user_id":480,"name":"ShiningForce","steam_id":76561198026039048,"connected_time":1297000000000,"state":"active","ping":75},{"user_id":498,"name":"DORK","steam_id":76561198037384555,"connected_time":3000000000,"state":"spawning","ping":106},{"user_id":439,"name":"FaZe hyazZzZaZa","steam_id":76561199100342013,"connected_time":3653000000000,"state":"active","ping":76},{"user_id":494,"name":"Aaron","steam_id":76561199000179782,"connected_time":404000000000,"state":"active","ping":80},{"user_id":496,"name":"Falcon :V [squack]","steam_id":76561198029147306,"connected_time":271000000000,"state":"active","ping":127},{"user_id":486,"name":"cyren caster","steam_id":76561198204509499,"connected_time":806000000000,"state":"active","ping":68},{"user_id":489,"name":"Acryligoop","steam_id":76561198079850249,"connected_time":487000000000,"state":"active","ping":53}]},{"server_id":406,"name":"Uncletopia | Seattle | 3 | Stopwatch","name_short":"sea-3","host":"sea-1.us.uncletopia.com","port":27035,"enabled":true,"region":"us-west","cc":"us","latitude":47.608013,"longitude":-122.33517,"reserved":0,"last_update":"0001-01-01T00:00:00Z","name_a2s":"Uncletopia | Seattle | 3 | Stopwatch","protocol":17,"map":"cp_granary","folder":"tf","game":"Team Fortress","app_id":440,"player_count":24,"max_players":24,"Bots":0,"server_type":"Dedicated","server_os":"Linux","password":true,"vac":true,"version":"7961495","steam_id":85568392924515217,"keywords":["cp","nocrits","nodmgspread","uncletopia"],"game_id":440,"stv_port":27036,"stv_name":"Uncletopia | Seattle | 3 | Stopwatch | STV","players":[{"user_id":235,"name":"Sindri","steam_id":76561198018654146,"connected_time":793000000000,"state":"active","ping":147},{"user_id":115,"name":"Pacemaker","steam_id":76561198046865217,"connected_time":6407000000000,"state":"active","ping":74},{"user_id":241,"name":"Dice_Dwarf","steam_id":76561199020454907,"connected_time":142000000000,"state":"active","ping":48},{"user_id":167,"name":"remanedur","steam_id":76561198059459507,"connected_time":3803000000000,"state":"active","ping":118},{"user_id":76,"name":"Shagbark","steam_id":76561198173447342,"connected_time":8009000000000,"state":"active","ping":118},{"user_id":225,"name":"Sh3ba Spaniel","steam_id":76561198047412394,"connected_time":1484000000000,"state":"active","ping":108},{"user_id":137,"name":"TheWhoman","steam_id":76561198103921750,"connected_time":4969000000000,"state":"active","ping":104},{"user_id":185,"name":"numa","steam_id":76561198856016840,"connected_time":2762000000000,"state":"active","ping":117},{"user_id":224,"name":"Literally Roxy's Wife Tsuyu","steam_id":76561198175421763,"connected_time":1494000000000,"state":"active","ping":120},{"user_id":239,"name":"Adam Sandler (from grown ups)","steam_id":76561199251933053,"connected_time":284000000000,"state":"active","ping":113},{"user_id":180,"name":"menk3","steam_id":76561198120888597,"connected_time":2991000000000,"state":"active","ping":98},{"user_id":138,"name":"Mr.Guy","steam_id":76561198810472054,"connected_time":4956000000000,"state":"active","ping":73},{"user_id":242,"name":"McDonald","steam_id":76561199028533497,"connected_time":111000000000,"state":"spawning","ping":207},{"user_id":178,"name":"Fray","steam_id":76561198030141282,"connected_time":3193000000000,"state":"active","ping":128},{"user_id":218,"name":"Sorrelyn","steam_id":76561198040851062,"connected_time":1871000000000,"state":"active","ping":117},{"user_id":243,"name":"Minkiraj","steam_id":76561198000381909,"connected_time":110000000000,"state":"active","ping":76},{"user_id":232,"name":"Nordie","steam_id":76561198102297774,"connected_time":1161000000000,"state":"active","ping":96},{"user_id":233,"name":"gerge","steam_id":76561198092238353,"connected_time":1116000000000,"state":"active","ping":76},{"user_id":160,"name":"Nefarious Fentsmokaa Rudebwoy","steam_id":76561198160572249,"connected_time":4215000000000,"state":"active","ping":89},{"user_id":210,"name":"the keebler","steam_id":76561199486326945,"connected_time":2125000000000,"state":"active","ping":128},{"user_id":150,"name":"Jerry Kool-Aid","steam_id":76561198030281560,"connected_time":4572000000000,"state":"active","ping":118},{"user_id":244,"name":"ballmuncher69","steam_id":76561199122915452,"connected_time":108000000000,"state":"active","ping":51},{"user_id":220,"name":"lavbubl","steam_id":76561199468150742,"connected_time":1741000000000,"state":"active","ping":82},{"user_id":234,"name":"elephant thumb","steam_id":76561198118859752,"connected_time":1073000000000,"state":"active","ping":75}]},{"server_id":17,"name":"Uncletopia | San Francisco | 1 | All Maps","name_short":"sfo-1","host":"sfo-1.us.uncletopia.com","port":27015,"enabled":true,"region":"us-west","cc":"us","latitude":37.77397,"longitude":-122.4313,"reserved":0,"last_update":"0001-01-01T00:00:00Z","name_a2s":"Uncletopia | San Francisco | 1 | All Maps","protocol":17,"map":"cp_snakewater_final1","folder":"tf","game":"Team Fortress","app_id":440,"player_count":23,"max_players":24,"Bots":0,"server_type":"Dedicated","server_os":"Linux","password":true,"vac":true,"version":"7961495","steam_id":85568392924469999,"keywords":["cp","nocrits","nodmgspread","uncletopia"],"game_id":440,"stv_port":27016,"stv_name":"Uncletopia | San Francisco | 1 | All Maps | STV","players":[{"user_id":296,"name":"Ryld","steam_id":76561198010174380,"connected_time":607000000000,"state":"active","ping":93},{"user_id":293,"name":"Big Shon","steam_id":76561198183967827,"connected_time":964000000000,"state":"active","ping":85},{"user_id":301,"name":"Engineer","steam_id":76561199138738952,"connected_time":467000000000,"state":"active","ping":102},{"user_id":268,"name":"Varrock Guard #7","steam_id":76561198097178599,"connected_time":3438000000000,"state":"active","ping":70},{"user_id":298,"name":"The_RainbowTrout","steam_id":76561199309554436,"connected_time":593000000000,"state":"active","ping":62},{"user_id":299,"name":"grape","steam_id":76561199071151136,"connected_time":580000000000,"state":"active","ping":57},{"user_id":308,"name":"Tallboi","steam_id":76561198274286470,"connected_time":185000000000,"state":"active","ping":91},{"user_id":300,"name":"Hero Smasher","steam_id":76561198150681669,"connected_time":540000000000,"state":"active","ping":46},{"user_id":280,"name":"Severeburrito16","steam_id":76561198353155991,"connected_time":1957000000000,"state":"active","ping":111},{"user_id":263,"name":"DeckofDragons","steam_id":76561198057398213,"connected_time":4112000000000,"state":"active","ping":79},{"user_id":283,"name":"EpsilonEagle","steam_id":76561197999126769,"connected_time":1725000000000,"state":"active","ping":162},{"user_id":281,"name":"Rick Astley Is A F2P?","steam_id":76561199258805660,"connected_time":1755000000000,"state":"active","ping":116},{"user_id":302,"name":"count blyatula","steam_id":76561198299696217,"connected_time":452000000000,"state":"active","ping":36},{"user_id":264,"name":"Cajun Nationalist","steam_id":76561198278940630,"connected_time":4021000000000,"state":"active","ping":104},{"user_id":284,"name":"melvinsaurus56430","steam_id":76561198170276601,"connected_time":1669000000000,"state":"active","ping":93},{"user_id":309,"name":"choi","steam_id":76561198053669887,"connected_time":174000000000,"state":"active","ping":61},{"user_id":307,"name":"owl","steam_id":76561198088403016,"connected_time":252000000000,"state":"active","ping":150},{"user_id":261,"name":"Hunt0rb","steam_id":76561198120527608,"connected_time":4277000000000,"state":"active","ping":119},{"user_id":287,"name":"hautdaugth","steam_id":76561198166982558,"connected_time":1584000000000,"state":"active","ping":131},{"user_id":304,"name":"Petrivus","steam_id":76561198202152453,"connected_time":375000000000,"state":"active","ping":69},{"user_id":305,"name":"Ulrich Stern","steam_id":76561198101739682,"connected_time":362000000000,"state":"active","ping":111},{"user_id":240,"name":"CasemanTheBlondeBear","steam_id":76561198144862404,"connected_time":5823000000000,"state":"active","ping":73},{"user_id":228,"name":"Jahootis Pootis","steam_id":76561198048879388,"connected_time":6168000000000,"state":"active","ping":80}]},{"server_id":18,"name":"Uncletopia | San Francisco | 2 | All Maps","name_short":"sfo-2","host":"sfo-1.us.uncletopia.com","port":27025,"enabled":true,"region":"us-west","cc":"us","latitude":37.77397,"longitude":-122.4313,"reserved":0,"last_update":"0001-01-01T00:00:00Z","name_a2s":"Uncletopia | San Francisco | 2 | All Maps","protocol":17,"map":"pl_upward","folder":"tf","game":"Team Fortress","app_id":440,"player_count":22,"max_players":24,"Bots":0,"server_type":"Dedicated","server_os":"Linux","password":true,"vac":true,"version":"7961495","steam_id":85568392924470000,"keywords":["nocrits","nodmgspread","payload","uncletopia"],"game_id":440,"stv_port":27026,"stv_name":"Uncletopia | San Francisco | 2 | All Maps | STV","players":[{"user_id":301,"name":"spacetoven","steam_id":76561198115821131,"connected_time":2197000000000,"state":"active","ping":53},{"user_id":336,"name":"self sufficient kitten","steam_id":76561197960592612,"connected_time":581000000000,"state":"active","ping":63},{"user_id":324,"name":"Lazy Broadcasts","steam_id":76561198132871394,"connected_time":969000000000,"state":"active","ping":92},{"user_id":338,"name":"Scoperaider","steam_id":76561199068449848,"connected_time":457000000000,"state":"active","ping":87},{"user_id":334,"name":"Whiskey","steam_id":76561198858154667,"connected_time":630000000000,"state":"active","ping":48},{"user_id":333,"name":"cookiegenius2398.r2","steam_id":76561198970759258,"connected_time":633000000000,"state":"active","ping":44},{"user_id":259,"name":"❤ Ashley ❤","steam_id":76561198056428303,"connected_time":5712000000000,"state":"active","ping":56},{"user_id":295,"name":"chunkysquare","steam_id":76561199076468383,"connected_time":2780000000000,"state":"active","ping":47},{"user_id":322,"name":"Zizen","steam_id":76561199011832069,"connected_time":1259000000000,"state":"active","ping":57},{"user_id":257,"name":"Diclonius","steam_id":76561198075646647,"connected_time":6003000000000,"state":"active","ping":51},{"user_id":337,"name":"D A R U M A A K U","steam_id":76561198253573631,"connected_time":472000000000,"state":"active","ping":39},{"user_id":330,"name":"canna van gogh","steam_id":76561198056331193,"connected_time":717000000000,"state":"active","ping":71},{"user_id":306,"name":"WhoIsFrosty","steam_id":76561198880588117,"connected_time":2056000000000,"state":"active","ping":102},{"user_id":304,"name":"Throws Before Bros󠀡","steam_id":76561197992905530,"connected_time":2133000000000,"state":"active","ping":61},{"user_id":329,"name":"5oc","steam_id":76561199196300397,"connected_time":816000000000,"state":"active","ping":69},{"user_id":340,"name":"Closeted femboy enjoyer","steam_id":76561198217747041,"connected_time":444000000000,"state":"active","ping":52},{"user_id":343,"name":"Millennium","steam_id":76561198120649186,"connected_time":294000000000,"state":"active","ping":45},{"user_id":297,"name":"Grassman (Cc)","steam_id":76561198026488532,"connected_time":2527000000000,"state":"active","ping":41},{"user_id":345,"name":"Juanelo","steam_id":76561199096390505,"connected_time":164000000000,"state":"active","ping":97},{"user_id":344,"name":"i need u","steam_id":76561198030625151,"connected_time":236000000000,"state":"active","ping":35},{"user_id":287,"name":"Bronotos","steam_id":76561198035935672,"connected_time":3565000000000,"state":"active","ping":74},{"user_id":328,"name":"mrthugpug1732","steam_id":76561198881200768,"connected_time":864000000000,"state":"active","ping":69}]},{"server_id":19,"name":"Uncletopia | San Francisco | 3 | Stopwatch","name_short":"sfo-3","host":"sfo-1.us.uncletopia.com","port":27035,"enabled":true,"region":"us-west","cc":"us","latitude":37.77397,"longitude":-122.4313,"reserved":0,"last_update":"0001-01-01T00:00:00Z","name_a2s":"Uncletopia | San Francisco | 3 | Stopwatch","protocol":17,"map":"workshop/cp_reckoner_rc6.ugc674719999","folder":"tf","game":"Team Fortress","app_id":440,"player_count":0,"max_players":24,"Bots":0,"server_type":"Dedicated","server_os":"Linux","password":true,"vac":true,"version":"7961495","steam_id":85568392924742824,"keywords":["cp","nocrits","nodmgspread","uncletopia"],"game_id":440,"stv_port":27036,"stv_name":"Uncletopia | San Francisco | 3 | Stopwatch | STV","players":null},{"server_id":20,"name":"Uncletopia | San Francisco | 4 | Community","name_short":"sfo-4","host":"sfo-1.us.uncletopia.com","port":27045,"enabled":true,"region":"us-west","cc":"us","latitude":37.77397,"longitude":-122.4313,"reserved":0,"last_update":"0001-01-01T00:00:00Z","name_a2s":"Uncletopia | San Francisco | 4 | Community","protocol":17,"map":"workshop/koth_product_final.ugc454272353","folder":"tf","game":"Team Fortress","app_id":440,"player_count":0,"max_players":24,"Bots":0,"server_type":"Dedicated","server_os":"Linux","password":true,"vac":true,"version":"7961495","steam_id":85568392924742826,"keywords":["cp","nocrits","nodmgspread","uncletopia"],"game_id":440,"stv_port":27046,"stv_name":"Uncletopia | San Francisco | 4 | Community | STV","players":null},{"server_id":141,"name":"Uncletopia | Sydney | 1 | All Maps","name_short":"syd-1","host":"syd-1.au.uncletopia.com","port":27015,"enabled":true,"region":"au","cc":"au","latitude":-33.865143,"longitude":151.2099,"reserved":0,"last_update":"0001-01-01T00:00:00Z","name_a2s":"Uncletopia | Sydney | 1 | All Maps","protocol":17,"map":"pl_upward","folder":"tf","game":"Team Fortress","app_id":440,"player_count":11,"max_players":24,"Bots":0,"server_type":"Dedicated","server_os":"Linux","password":true,"vac":true,"version":"7961495","steam_id":85568392924470001,"keywords":["nocrits","nodmgspread","payload","uncletopia"],"game_id":440,"stv_port":27016,"stv_name":"Uncletopia | Sydney | 1 | All Maps | STV","players":[{"user_id":7,"name":"Burnz","steam_id":76561199170593893,"connected_time":6058000000000,"state":"active","ping":62},{"user_id":52,"name":"Rat","steam_id":76561198405227476,"connected_time":1395000000000,"state":"active","ping":67},{"user_id":66,"name":"swaggy seal","steam_id":76561198088993165,"connected_time":337000000000,"state":"active","ping":67},{"user_id":62,"name":"Tain","steam_id":76561198255611856,"connected_time":719000000000,"state":"active","ping":65},{"user_id":49,"name":"gods drunkest driver","steam_id":76561199055702773,"connected_time":1562000000000,"state":"active","ping":59},{"user_id":43,"name":"Domantas Sabonis","steam_id":76561199089854106,"connected_time":1983000000000,"state":"active","ping":39},{"user_id":22,"name":"Really(Del Davis)","steam_id":76561198153397177,"connected_time":3386000000000,"state":"active","ping":57},{"user_id":67,"name":"Derp'l","steam_id":76561198799445877,"connected_time":213000000000,"state":"active","ping":42},{"user_id":50,"name":"4pf mini pekka","steam_id":76561198164892406,"connected_time":1546000000000,"state":"active","ping":64},{"user_id":40,"name":"squash","steam_id":76561198077519485,"connected_time":2247000000000,"state":"active","ping":71},{"user_id":64,"name":"SaltierThanYou","steam_id":76561198444395188,"connected_time":571000000000,"state":"active","ping":79}]},{"server_id":123,"name":"Uncletopia | Sydney | 2 | All Maps","name_short":"syd-2","host":"syd-1.au.uncletopia.com","port":27025,"enabled":true,"region":"au","cc":"au","latitude":-33.865143,"longitude":151.2099,"reserved":0,"last_update":"0001-01-01T00:00:00Z","name_a2s":"Uncletopia | Sydney | 2 | All Maps","protocol":17,"map":"koth_lakeside_final","folder":"tf","game":"Team Fortress","app_id":440,"player_count":0,"max_players":24,"Bots":0,"server_type":"Dedicated","server_os":"Linux","password":true,"vac":true,"version":"7961495","steam_id":85568392924470002,"keywords":["cp","nocrits","nodmgspread","uncletopia"],"game_id":440,"stv_port":27026,"stv_name":"Uncletopia | Sydney | 2 | All Maps | STV","players":null},{"server_id":395,"name":"Uncletopia | Sydney | 3 | All Maps","name_short":"syd-3","host":"syd-1.au.uncletopia.com","port":27035,"enabled":true,"region":"au","cc":"au","latitude":-33.865143,"longitude":151.2099,"reserved":0,"last_update":"0001-01-01T00:00:00Z","name_a2s":"Uncletopia | Sydney | 3 | All Maps","protocol":17,"map":"pl_frontier_final","folder":"tf","game":"Team Fortress","app_id":440,"player_count":0,"max_players":24,"Bots":0,"server_type":"Dedicated","server_os":"Linux","password":true,"vac":true,"version":"7961495","steam_id":85568392925194467,"keywords":["nocrits","nodmgspread","payload","uncletopia"],"game_id":440,"stv_port":27036,"stv_name":"Uncletopia | Sydney | 3 | All Maps | STV","players":null},{"server_id":396,"name":"Uncletopia | Sydney | 4 | All Maps","name_short":"syd-4","host":"syd-1.au.uncletopia.com","port":27045,"enabled":true,"region":"au","cc":"au","latitude":-33.865143,"longitude":151.2099,"reserved":0,"last_update":"0001-01-01T00:00:00Z","name_a2s":"Uncletopia | Sydney | 4 | All Maps","protocol":17,"map":"cp_process_final","folder":"tf","game":"Team Fortress","app_id":440,"player_count":0,"max_players":24,"Bots":0,"server_type":"Dedicated","server_os":"Linux","password":true,"vac":true,"version":"7961495","steam_id":85568392925397958,"keywords":["cp","nocrits","nodmgspread","uncletopia"],"game_id":440,"stv_port":27046,"stv_name":"Uncletopia | Sydney | 4 | All Maps | STV","players":null},{"server_id":58,"name":"Uncletopia | Sydney | 5 | Stopwatch","name_short":"syd-5","host":"syd-1.au.uncletopia.com","port":27055,"enabled":true,"region":"au","cc":"au","latitude":-33.865143,"longitude":151.2099,"reserved":0,"last_update":"0001-01-01T00:00:00Z","name_a2s":"Uncletopia | Sydney | 5 | Stopwatch","protocol":17,"map":"pl_frontier_final","folder":"tf","game":"Team Fortress","app_id":440,"player_count":0,"max_players":24,"Bots":0,"server_type":"Dedicated","server_os":"Linux","password":true,"vac":true,"version":"7961495","steam_id":85568392925397959,"keywords":["nocrits","nodmgspread","payload","uncletopia"],"game_id":440,"stv_port":27056,"stv_name":"Uncletopia | Sydney | 5 | Stopwatch | STV","players":null},{"server_id":59,"name":"Uncletopia | Sydney | 6 | Community","name_short":"syd-6","host":"syd-1.au.uncletopia.com","port":27065,"enabled":true,"region":"au","cc":"au","latitude":-33.865143,"longitude":151.2099,"reserved":0,"last_update":"0001-01-01T00:00:00Z","name_a2s":"Uncletopia | Sydney | 6 | Community","protocol":17,"map":"workshop/koth_ashville_final.ugc2130459942","folder":"tf","game":"Team Fortress","app_id":440,"player_count":0,"max_players":24,"Bots":0,"server_type":"Dedicated","server_os":"Linux","password":true,"vac":true,"version":"7961495","steam_id":85568392925397960,"keywords":["cp","nocrits","nodmgspread","uncletopia"],"game_id":440,"stv_port":27066,"stv_name":"Uncletopia | Sydney | 6 | Community | STV","players":null},{"server_id":49,"name":"Uncletopia | Warsaw | 1 | One Thousand Uncles","name_short":"waw-1","host":"waw-1.pl.uncletopia.com","port":27015,"enabled":true,"region":"eu","cc":"pl","latitude":52.2297,"longitude":21.017532,"reserved":0,"last_update":"0001-01-01T00:00:00Z","name_a2s":"Uncletopia | Warsaw | 1 | One Thousand Uncles","protocol":17,"map":"pl_badwater","folder":"tf","game":"Team Fortress","app_id":440,"player_count":22,"max_players":32,"Bots":16,"server_type":"Dedicated","server_os":"Linux","password":true,"vac":true,"version":"7961495","steam_id":85568392925397850,"keywords":["alltalk","bots","danepve","increased_maxplayers","nocrits","norespawntime","payload","uncletopia"],"game_id":440,"stv_port":0,"stv_name":"","players":[{"user_id":116,"name":"Samuel L. Jackson","steam_id":76561198130427881,"connected_time":4121000000000,"state":"active","ping":177},{"user_id":135,"name":"WolfyGamer21","steam_id":76561199148811704,"connected_time":3401000000000,"state":"active","ping":146},{"user_id":136,"name":"xXx Rexxie Rose xXx","steam_id":76561198087993931,"connected_time":2593000000000,"state":"active","ping":70},{"user_id":139,"name":"deloreg (engineer gaming)","steam_id":76561199487318962,"connected_time":1571000000000,"state":"active","ping":32},{"user_id":142,"name":"TPScout","steam_id":76561198353808504,"connected_time":1128000000000,"state":"active","ping":169},{"user_id":143,"name":"Cacoona","steam_id":76561198272738226,"connected_time":855000000000,"state":"active","ping":160}]},{"server_id":50,"name":"Uncletopia | Warsaw | 2 | One Thousand Uncles","name_short":"waw-2","host":"waw-1.pl.uncletopia.com","port":27025,"enabled":true,"region":"eu","cc":"pl","latitude":52.2297,"longitude":21.017532,"reserved":0,"last_update":"0001-01-01T00:00:00Z","name_a2s":"Uncletopia | Warsaw | 2 | One Thousand Uncles","protocol":17,"map":"pl_goldrush","folder":"tf","game":"Team Fortress","app_id":440,"player_count":0,"max_players":32,"Bots":0,"server_type":"Dedicated","server_os":"Linux","password":true,"vac":true,"version":"7961495","steam_id":85568392925397851,"keywords":["alltalk","danepve","increased_maxplayers","nocrits","norespawntime","payload","uncletopia"],"game_id":440,"stv_port":0,"stv_name":"","players":null},{"server_id":51,"name":"Uncletopia | Warsaw | 3 | All Maps","name_short":"waw-3","host":"waw-1.pl.uncletopia.com","port":27035,"enabled":true,"region":"eu","cc":"pl","latitude":52.2297,"longitude":21.017532,"reserved":0,"last_update":"0001-01-01T00:00:00Z","name_a2s":"Uncletopia | Warsaw | 3 | All Maps","protocol":17,"map":"koth_viaduct","folder":"tf","game":"Team Fortress","app_id":440,"player_count":0,"max_players":24,"Bots":0,"server_type":"Dedicated","server_os":"Linux","password":true,"vac":true,"version":"7961495","steam_id":85568392925397852,"keywords":["cp","nocrits","nodmgspread","uncletopia"],"game_id":440,"stv_port":27036,"stv_name":"Uncletopia | Warsaw | 3 | All Maps | STV","players":null},{"server_id":52,"name":"Uncletopia | Warsaw | 4 | All Maps","name_short":"waw-4","host":"waw-1.pl.uncletopia.com","port":27045,"enabled":true,"region":"eu","cc":"pl","latitude":52.2297,"longitude":21.017532,"reserved":0,"last_update":"0001-01-01T00:00:00Z","name_a2s":"Uncletopia | Warsaw | 4 | All Maps","protocol":17,"map":"pl_swiftwater_final1","folder":"tf","game":"Team Fortress","app_id":440,"player_count":0,"max_players":24,"Bots":0,"server_type":"Dedicated","server_os":"Linux","password":true,"vac":true,"version":"7961495","steam_id":85568392925397853,"keywords":["nocrits","nodmgspread","payload","uncletopia"],"game_id":440,"stv_port":27046,"stv_name":"Uncletopia | Warsaw | 4 | All Maps | STV","players":null},{"server_id":53,"name":"Uncletopia | Warsaw | 5 | Stopwatch","name_short":"waw-5","host":"waw-1.pl.uncletopia.com","port":27055,"enabled":true,"region":"eu","cc":"pl","latitude":52.2297,"longitude":21.017532,"reserved":0,"last_update":"0001-01-01T00:00:00Z","name_a2s":"Uncletopia | Warsaw | 5 | Stopwatch","protocol":17,"map":"workshop/pl_summercoast_rc8e.ugc1761528829","folder":"tf","game":"Team Fortress","app_id":440,"player_count":0,"max_players":24,"Bots":0,"server_type":"Dedicated","server_os":"Linux","password":true,"vac":true,"version":"7961495","steam_id":85568392925397854,"keywords":["nocrits","nodmgspread","payload","uncletopia"],"game_id":440,"stv_port":27056,"stv_name":"Uncletopia | Warsaw | 5 | Stopwatch | STV","players":null},{"server_id":54,"name":"Uncletopia | Warsaw | 6 | Community","name_short":"waw-6","host":"waw-1.pl.uncletopia.com","port":27065,"enabled":true,"region":"eu","cc":"pl","latitude":52.2297,"longitude":21.017532,"reserved":0,"last_update":"0001-01-01T00:00:00Z","name_a2s":"Uncletopia | Warsaw | 6 | Community","protocol":17,"map":"workshop/koth_trenchfoot_b1a.ugc731436616","folder":"tf","game":"Team Fortress","app_id":440,"player_count":0,"max_players":24,"Bots":0,"server_type":"Dedicated","server_os":"Linux","password":true,"vac":true,"version":"7961495","steam_id":85568392925397856,"keywords":["cp","nocrits","nodmgspread","uncletopia"],"game_id":440,"stv_port":27066,"stv_name":"Uncletopia | Warsaw | 6 | Community | STV","players":null}]}