{"status":true,"message":"","result":[{"server_id":9,"name":"Uncletopia | Atlanta | 1 | All Maps","name_short":"atl-1","host":"atl-1.us.uncletopia.com","port":27015,"enabled":true,"region":"us-east","cc":"us","latitude":33.753746,"longitude":-84.38633,"reserved":0,"last_update":"0001-01-01T00:00:00Z","name_a2s":"Uncletopia | Atlanta | 1 | All Maps","protocol":17,"map":"pl_swiftwater_final1","folder":"tf","game":"Team Fortress","app_id":440,"player_count":24,"max_players":24,"Bots":0,"server_type":"Dedicated","server_os":"Linux","password":true,"vac":true,"version":"7882260","steam_id":85568392924469982,"keywords":["nocrits","nodmgspread","payload","uncletopia"],"game_id":440,"stv_port":27016,"stv_name":"Uncletopia | Atlanta | 1 | All Maps | STV","players":[{"user_id":575,"name":"DragonFalcon™","steam_id":76561198044559930,"connected_time":2362000000000,"state":"active","ping":49},{"user_id":594,"name":"eish","steam_id":76561198089463603,"connected_time":263000000000,"state":"active","ping":128},{"user_id":557,"name":"FRANKY!!!","steam_id":76561199211305343,"connected_time":3880000000000,"state":"active","ping":112},{"user_id":529,"name":"Ghetto Smosh Fan","steam_id":76561198097272509,"connected_time":6180000000000,"state":"active","ping":38},{"user_id":565,"name":"G_Bob","steam_id":76561198098133233,"connected_time":2840000000000,"state":"active","ping":56},{"user_id":593,"name":"Toonice","steam_id":76561198402994885,"connected_time":714000000000,"state":"active","ping":83},{"user_id":555,"name":"ChickenExploder","steam_id":76561198214199900,"connected_time":4005000000000,"state":"active","ping":73},{"user_id":570,"name":"highschool drop-out","steam_id":76561198366299848,"connected_time":2621000000000,"state":"active","ping":47},{"user_id":559,"name":"WaluigiThyme","steam_id":76561198347579460,"connected_time":3785000000000,"state":"active","ping":118},{"user_id":561,"name":"Yummy Kabobz","steam_id":76561198067661705,"connected_time":3567000000000,"state":"active","ping":66},{"user_id":566,"name":"λlex","steam_id":76561197990813962,"connected_time":2840000000000,"state":"active","ping":75},{"user_id":585,"name":"Husk","steam_id":76561198271808519,"connected_time":1264000000000,"state":"active","ping":146},{"user_id":580,"name":"BoboSmallz","steam_id":76561198198137679,"connected_time":2033000000000,"state":"active","ping":125},{"user_id":590,"name":"cereaI","steam_id":76561198066929519,"connected_time":1121000000000,"state":"active","ping":66},{"user_id":571,"name":"CrumpledDonut","steam_id":76561198107807617,"connected_time":2554000000000,"state":"active","ping":102},{"user_id":586,"name":"raduski","steam_id":76561198795699119,"connected_time":1255000000000,"state":"active","ping":105},{"user_id":595,"name":"clownBSBR","steam_id":76561199230246701,"connected_time":231000000000,"state":"active","ping":100},{"user_id":579,"name":"Im High","steam_id":76561198049954886,"connected_time":2112000000000,"state":"active","ping":69},{"user_id":591,"name":"Sophie","steam_id":76561198170408057,"connected_time":737000000000,"state":"active","ping":52},{"user_id":581,"name":"Bottle 2:The Movie","steam_id":76561198394890836,"connected_time":1850000000000,"state":"active","ping":50},{"user_id":596,"name":"paetho YT","steam_id":76561198152690003,"connected_time":73000000000,"state":"active","ping":44},{"user_id":556,"name":"AwesomeMissB","steam_id":76561199066244584,"connected_time":3971000000000,"state":"active","ping":49},{"user_id":564,"name":"Trash Rummager","steam_id":76561198085388962,"connected_time":3502000000000,"state":"active","ping":81},{"user_id":528,"name":"jin","steam_id":76561198119873148,"connected_time":6508000000000,"state":"active","ping":64}]},{"server_id":104,"name":"Uncletopia | Atlanta | 2 | All Maps","name_short":"atl-2","host":"atl-1.us.uncletopia.com","port":27025,"enabled":true,"region":"us-east","cc":"us","latitude":33.753746,"longitude":-84.38633,"reserved":0,"last_update":"0001-01-01T00:00:00Z","name_a2s":"Uncletopia | Atlanta | 2 | All Maps","protocol":17,"map":"koth_lakeside_final","folder":"tf","game":"Team Fortress","app_id":440,"player_count":4,"max_players":24,"Bots":0,"server_type":"Dedicated","server_os":"Linux","password":true,"vac":true,"version":"7882260","steam_id":85568392924469983,"keywords":["cp","nocrits","nodmgspread","uncletopia"],"game_id":440,"stv_port":27026,"stv_name":"Uncletopia | Atlanta | 2 | All Maps | STV","players":[{"user_id":546,"name":"Mg330","steam_id":76561199438395728,"connected_time":2575000000000,"state":"active","ping":96},{"user_id":547,"name":"Bogdan Off","steam_id":76561198018604828,"connected_time":2299000000000,"state":"active","ping":79},{"user_id":551,"name":"The_Pacific_gamer","steam_id":76561198089491446,"connected_time":105000000000,"state":"active","ping":101},{"user_id":525,"name":"Noctis","steam_id":76561198845208323,"connected_time":6325000000000,"state":"active","ping":72}]},{"server_id":400,"name":"Uncletopia | Atlanta | 3 | Community","name_short":"atl-3","host":"atl-1.us.uncletopia.com","port":27035,"enabled":true,"region":"us-east","cc":"us","latitude":33.753746,"longitude":-84.38633,"reserved":0,"last_update":"0001-01-01T00:00:00Z","name_a2s":"Uncletopia | Atlanta | 3 | Community","protocol":17,"map":"workshop/koth_trenchfoot_b1a.ugc731436616","folder":"tf","game":"Team Fortress","app_id":440,"player_count":0,"max_players":24,"Bots":0,"server_type":"Dedicated","server_os":"Linux","password":true,"vac":true,"version":"7882260","steam_id":85568392924515187,"keywords":["cp","nocrits","nodmgspread","uncletopia"],"game_id":440,"stv_port":27036,"stv_name":"Uncletopia | Atlanta | 3 | Community | STV","players":null},{"server_id":401,"name":"Uncletopia | Atlanta | 4 | No Payload","name_short":"atl-4","host":"atl-1.us.uncletopia.com","port":27045,"enabled":true,"region":"us-east","cc":"us","latitude":33.753746,"longitude":-84.38633,"reserved":0,"last_update":"0001-01-01T00:00:00Z","name_a2s":"","protocol":0,"map":"","folder":"","game":"","app_id":0,"player_count":0,"max_players":0,"Bots":0,"server_type":"","server_os":"","password":false,"vac":false,"version":"","steam_id":0,"keywords":null,"game_id":0,"stv_port":0,"stv_name":"","players":null},{"server_id":2,"name":"Uncletopia | Chicago | 1 | All Maps","name_short":"chi-1","host":"chi-1.us.uncletopia.com","port":27015,"enabled":true,"region":"us-central","cc":"us","latitude":41.881832,"longitude":-87.62318,"reserved":0,"last_update":"0001-01-01T00:00:00Z","name_a2s":"Uncletopia | Chicago | 1 | All Maps","protocol":17,"map":"cp_sunshine","folder":"tf","game":"Team Fortress","app_id":440,"player_count":0,"max_players":24,"Bots":0,"server_type":"Dedicated","server_os":"Linux","password":true,"vac":true,"version":"7882260","steam_id":85568392924469984,"keywords":["cp","nocrits","nodmgspread","uncletopia"],"game_id":440,"stv_port":27016,"stv_name":"Uncletopia | Chicago | 1 | All Maps | STV","players":null},{"server_id":106,"name":"Uncletopia | Chicago | 2 | All Maps","name_short":"chi-2","host":"chi-1.us.uncletopia.com","port":27025,"enabled":true,"region":"us-central","cc":"us","latitude":41.881832,"longitude":-87.62318,"reserved":0,"last_update":"0001-01-01T00:00:00Z","name_a2s":"Uncletopia | Chicago | 2 | All Maps","protocol":17,"map":"pl_thundermountain","folder":"tf","game":"Team Fortress","app_id":440,"player_count":8,"max_players":24,"Bots":0,"server_type":"Dedicated","server_os":"Linux","password":true,"vac":true,"version":"7882260","steam_id":85568392924469985,"keywords":["nocrits","nodmgspread","payload","uncletopia"],"game_id":440,"stv_port":27026,"stv_name":"Uncletopia | Chicago | 2 | All Maps | STV","players":[{"user_id":464,"name":"O-mega","steam_id":76561199175970696,"connected_time":444000000000,"state":"active","ping":124},{"user_id":458,"name":"cold bones","steam_id":76561198059665627,"connected_time":1095000000000,"state":"active","ping":49},{"user_id":465,"name":"Ġ1 ♦ Synth","steam_id":76561198058660228,"connected_time":261000000000,"state":"active","ping":59},{"user_id":452,"name":"Barress","steam_id":76561198011728743,"connected_time":1963000000000,"state":"active","ping":92},{"user_id":441,"name":"Testiclees Peesaschmidt","steam_id":76561198050582941,"connected_time":2693000000000,"state":"active","ping":59},{"user_id":442,"name":"HundchenTanque","steam_id":76561198122692754,"connected_time":2651000000000,"state":"active","ping":50},{"user_id":448,"name":"BakleBoi","steam_id":76561198294217781,"connected_time":2367000000000,"state":"active","ping":110},{"user_id":451,"name":"Manly Emerald","steam_id":76561198245838476,"connected_time":2305000000000,"state":"active","ping":60}]},{"server_id":402,"name":"Uncletopia | Chicago | 3 | All Maps","name_short":"chi-3","host":"chi-1.us.uncletopia.com","port":27035,"enabled":true,"region":"us-central","cc":"us","latitude":41.881832,"longitude":-87.62318,"reserved":0,"last_update":"0001-01-01T00:00:00Z","name_a2s":"Uncletopia | Chicago | 3 | All Maps","protocol":17,"map":"cp_mercenarypark","folder":"tf","game":"Team Fortress","app_id":440,"player_count":15,"max_players":24,"Bots":0,"server_type":"Dedicated","server_os":"Linux","password":true,"vac":true,"version":"7882260","steam_id":85568392924515191,"keywords":["cp","nocrits","nodmgspread","uncletopia"],"game_id":440,"stv_port":27036,"stv_name":"Uncletopia | Chicago | 3 | All Maps | STV","players":[{"user_id":443,"name":"bingabooga","steam_id":76561198101057741,"connected_time":2601000000000,"state":"active","ping":75},{"user_id":462,"name":"ttv/Everfrost Samoyed","steam_id":76561198072580699,"connected_time":1012000000000,"state":"active","ping":67},{"user_id":384,"name":"BBOSensei","steam_id":76561198071548190,"connected_time":7892000000000,"state":"active","ping":61},{"user_id":469,"name":"Parkman","steam_id":76561198832138144,"connected_time":251000000000,"state":"active","ping":58},{"user_id":470,"name":"Puptid","steam_id":76561198285438152,"connected_time":231000000000,"state":"active","ping":65},{"user_id":472,"name":"kiaan","steam_id":76561198060819695,"connected_time":33000000000,"state":"active","ping":75},{"user_id":468,"name":"Blobbyfish","steam_id":76561198822962650,"connected_time":405000000000,"state":"active","ping":68},{"user_id":398,"name":"cataconik","steam_id":76561198145530829,"connected_time":5886000000000,"state":"active","ping":88},{"user_id":455,"name":"SpecialForce19","steam_id":76561198120974644,"connected_time":1860000000000,"state":"active","ping":71},{"user_id":467,"name":"Brother Pudge","steam_id":76561198247815090,"connected_time":828000000000,"state":"active","ping":53},{"user_id":465,"name":"ben","steam_id":76561198355118155,"connected_time":992000000000,"state":"active","ping":110},{"user_id":457,"name":"Technic","steam_id":76561198200302281,"connected_time":1645000000000,"state":"active","ping":67},{"user_id":456,"name":"cleet","steam_id":76561198042510363,"connected_time":1836000000000,"state":"active","ping":74},{"user_id":452,"name":"Reverie","steam_id":76561198987005784,"connected_time":2036000000000,"state":"active","ping":58},{"user_id":466,"name":"SpeedBoat404™","steam_id":76561199066348520,"connected_time":990000000000,"state":"active","ping":114}]},{"server_id":403,"name":"Uncletopia | Chicago | 4 | All Maps","name_short":"chi-4","host":"chi-1.us.uncletopia.com","port":27045,"enabled":true,"region":"us-central","cc":"us","latitude":41.881832,"longitude":-87.62318,"reserved":0,"last_update":"0001-01-01T00:00:00Z","name_a2s":"Uncletopia | Chicago | 4 | All Maps","protocol":17,"map":"pl_swiftwater_final1","folder":"tf","game":"Team Fortress","app_id":440,"player_count":20,"max_players":24,"Bots":0,"server_type":"Dedicated","server_os":"Linux","password":true,"vac":true,"version":"7882260","steam_id":85568392924515193,"keywords":["nocrits","nodmgspread","payload","uncletopia"],"game_id":440,"stv_port":27046,"stv_name":"Uncletopia | Chicago | 4 | All Maps | STV","players":[{"user_id":478,"name":"Nukeboy","steam_id":76561198147058560,"connected_time":1325000000000,"state":"active","ping":100},{"user_id":475,"name":"Dr. Boofenschmirtz","steam_id":76561198305518490,"connected_time":1508000000000,"state":"active","ping":71},{"user_id":476,"name":"Get_Chuu","steam_id":76561198132392688,"connected_time":1410000000000,"state":"active","ping":78},{"user_id":477,"name":"OffKey","steam_id":76561198017660927,"connected_time":1380000000000,"state":"active","ping":44},{"user_id":489,"name":"nox","steam_id":76561198054390505,"connected_time":172000000000,"state":"active","ping":44},{"user_id":459,"name":"Acto","steam_id":76561198043025164,"connected_time":3467000000000,"state":"active","ping":106},{"user_id":481,"name":"Ayylmao","steam_id":76561198104780147,"connected_time":1196000000000,"state":"active","ping":54},{"user_id":479,"name":"FemFem","steam_id":76561198100162199,"connected_time":1266000000000,"state":"active","ping":75},{"user_id":439,"name":"Marion Moseby","steam_id":76561198052477319,"connected_time":4511000000000,"state":"active","ping":45},{"user_id":397,"name":"Horrizan","steam_id":76561197965028480,"connected_time":7821000000000,"state":"active","ping":73},{"user_id":491,"name":"Rudy","steam_id":76561198013456828,"connected_time":43000000000,"state":"active","ping":60},{"user_id":471,"name":"I. C. Wiener","steam_id":76561198062777610,"connected_time":2029000000000,"state":"active","ping":96},{"user_id":453,"name":"Nigel Powers","steam_id":76561198107382571,"connected_time":3800000000000,"state":"active","ping":127},{"user_id":492,"name":"josh","steam_id":76561198077902438,"connected_time":3000000000,"state":"spawning","ping":72},{"user_id":490,"name":"Mikeonut","steam_id":76561198305752102,"connected_time":75000000000,"state":"active","ping":97},{"user_id":461,"name":"Floaty","steam_id":76561198100029503,"connected_time":3446000000000,"state":"active","ping":105},{"user_id":480,"name":"Bree","steam_id":76561198173427385,"connected_time":1236000000000,"state":"active","ping":93},{"user_id":411,"name":"blossom","steam_id":76561198042735130,"connected_time":6639000000000,"state":"active","ping":108},{"user_id":468,"name":"_","steam_id":76561198191199554,"connected_time":2619000000000,"state":"active","ping":65},{"user_id":484,"name":"CQB","steam_id":76561198249657702,"connected_time":1174000000000,"state":"active","ping":98}]},{"server_id":36,"name":"Uncletopia | Chicago | 5 | All Maps","name_short":"chi-5","host":"chi-2.us.uncletopia.com","port":27015,"enabled":true,"region":"us-central","cc":"us","latitude":41.881832,"longitude":-87.62318,"reserved":0,"last_update":"0001-01-01T00:00:00Z","name_a2s":"Uncletopia | Chicago | 5 | All Maps","protocol":17,"map":"koth_lakeside_final","folder":"tf","game":"Team Fortress","app_id":440,"player_count":0,"max_players":24,"Bots":0,"server_type":"Dedicated","server_os":"Linux","password":true,"vac":true,"version":"7882260","steam_id":85568392924866362,"keywords":["cp","nocrits","nodmgspread","uncletopia"],"game_id":440,"stv_port":27016,"stv_name":"Uncletopia | Chicago | 5 | All Maps | STV","players":null},{"server_id":37,"name":"Uncletopia | Chicago | 6 | All Maps","name_short":"chi-6","host":"chi-2.us.uncletopia.com","port":27025,"enabled":true,"region":"us-central","cc":"us","latitude":41.881832,"longitude":-87.62318,"reserved":0,"last_update":"0001-01-01T00:00:00Z","name_a2s":"Uncletopia | Chicago | 6 | All Maps","protocol":17,"map":"pl_barnblitz","folder":"tf","game":"Team Fortress","app_id":440,"player_count":23,"max_players":24,"Bots":0,"server_type":"Dedicated","server_os":"Linux","password":true,"vac":true,"version":"7882260","steam_id":85568392924866363,"keywords":["nocrits","nodmgspread","payload","uncletopia"],"game_id":440,"stv_port":27026,"stv_name":"Uncletopia | Chicago | 6 | All Maps | STV","players":[{"user_id":911,"name":"bill","steam_id":76561199142779872,"connected_time":246000000000,"state":"active","ping":60},{"user_id":888,"name":"Missing Minus","steam_id":76561198120822928,"connected_time":1786000000000,"state":"active","ping":58},{"user_id":902,"name":"JohnnyGitGud","steam_id":76561198401455467,"connected_time":903000000000,"state":"active","ping":114},{"user_id":887,"name":"Node⋄","steam_id":76561198219359475,"connected_time":1825000000000,"state":"active","ping":60},{"user_id":889,"name":"Thingy","steam_id":76561198140161202,"connected_time":1751000000000,"state":"active","ping":72},{"user_id":862,"name":"comet","steam_id":76561198149217841,"connected_time":4006000000000,"state":"active","ping":95},{"user_id":899,"name":"Hentai Lord","steam_id":76561199030449654,"connected_time":1377000000000,"state":"active","ping":80},{"user_id":894,"name":"ToxicNeedle","steam_id":76561198253548530,"connected_time":1655000000000,"state":"active","ping":75},{"user_id":884,"name":"Merchant","steam_id":76561198130468663,"connected_time":2204000000000,"state":"active","ping":55},{"user_id":903,"name":"quirked up white girl","steam_id":76561198069407799,"connected_time":889000000000,"state":"active","ping":68},{"user_id":898,"name":"Iron","steam_id":76561198247918478,"connected_time":1513000000000,"state":"active","ping":66},{"user_id":910,"name":"WHY U RUNNIN PAPI","steam_id":76561198144766439,"connected_time":291000000000,"state":"active","ping":44},{"user_id":856,"name":"Nr","steam_id":76561198156798850,"connected_time":4247000000000,"state":"active","ping":59},{"user_id":857,"name":"OneMisguidedSlyGuy","steam_id":76561198372243261,"connected_time":4180000000000,"state":"active","ping":93},{"user_id":858,"name":"n99k","steam_id":76561198203732449,"connected_time":4133000000000,"state":"active","ping":71},{"user_id":859,"name":"alex ☆","steam_id":76561198197977237,"connected_time":4082000000000,"state":"active","ping":77},{"user_id":912,"name":"Boysenberry Syrup","steam_id":76561198243582986,"connected_time":223000000000,"state":"active","ping":63},{"user_id":896,"name":"iggybones (girl with balls)","steam_id":76561198101610291,"connected_time":1609000000000,"state":"active","ping":105},{"user_id":905,"name":"Belvidere","steam_id":76561198121336953,"connected_time":848000000000,"state":"active","ping":90},{"user_id":908,"name":"Wizard Raccoon","steam_id":76561198072562591,"connected_time":453000000000,"state":"active","ping":79},{"user_id":893,"name":"Miia Lamia","steam_id":76561198072429321,"connected_time":1679000000000,"state":"active","ping":74},{"user_id":907,"name":"STENDO_CLIP","steam_id":76561198059570167,"connected_time":807000000000,"state":"active","ping":115},{"user_id":909,"name":"compass","steam_id":76561197991223433,"connected_time":409000000000,"state":"active","ping":105}]},{"server_id":38,"name":"Uncletopia | Chicago | 7 | Stopwatch Beta","name_short":"chi-7","host":"chi-2.us.uncletopia.com","port":27035,"enabled":true,"region":"us-central","cc":"us","latitude":41.881832,"longitude":-87.62318,"reserved":0,"last_update":"0001-01-01T00:00:00Z","name_a2s":"Uncletopia | Chicago | 7 | Stopwatch Beta","protocol":17,"map":"cp_granary","folder":"tf","game":"Team Fortress","app_id":440,"player_count":0,"max_players":24,"Bots":0,"server_type":"Dedicated","server_os":"Linux","password":true,"vac":true,"version":"7882260","steam_id":85568392924866364,"keywords":["cp","nocrits","nodmgspread","uncletopia"],"game_id":440,"stv_port":27036,"stv_name":"Uncletopia | Chicago | 7 | Stopwatch Beta | STV","players":null},{"server_id":39,"name":"Uncletopia | Chicago | 8 | Community","name_short":"chi-8","host":"chi-2.us.uncletopia.com","port":27045,"enabled":true,"region":"us-central","cc":"us","latitude":41.881832,"longitude":-87.62318,"reserved":0,"last_update":"0001-01-01T00:00:00Z","name_a2s":"Uncletopia | Chicago | 8 | Community","protocol":17,"map":"workshop/koth_trenchfoot_b1a.ugc731436616","folder":"tf","game":"Team Fortress","app_id":440,"player_count":0,"max_players":24,"Bots":0,"server_type":"Dedicated","server_os":"Linux","password":true,"vac":true,"version":"7882260","steam_id":85568392924866365,"keywords":["cp","nocrits","nodmgspread","uncletopia"],"game_id":440,"stv_port":27046,"stv_name":"Uncletopia | Chicago | 8 | Community | STV","players":null},{"server_id":8,"name":"Uncletopia | Dallas | 1 | All Maps","name_short":"dal-1","host":"dal-1.us.uncletopia.com","port":27015,"enabled":true,"region":"us-central","cc":"us","latitude":32.779167,"longitude":-96.80889,"reserved":0,"last_update":"0001-01-01T00:00:00Z","name_a2s":"Uncletopia | Dallas | 1 | All Maps","protocol":17,"map":"pl_badwater","folder":"tf","game":"Team Fortress","app_id":440,"player_count":24,"max_players":24,"Bots":0,"server_type":"Dedicated","server_os":"Linux","password":true,"vac":true,"version":"7882260","steam_id":85568392924469986,"keywords":["nocrits","nodmgspread","payload","uncletopia"],"game_id":440,"stv_port":27016,"stv_name":"Uncletopia | Dallas | 1 | All Maps | STV","players":[{"user_id":543,"name":"starless","steam_id":76561198044856349,"connected_time":8000000000,"state":"spawning","ping":201},{"user_id":512,"name":"Gasly The Red","steam_id":76561198397898297,"connected_time":989000000000,"state":"active","ping":122},{"user_id":497,"name":"lokm","steam_id":76561198030374238,"connected_time":1976000000000,"state":"active","ping":91},{"user_id":462,"name":"lustful for Pokémon","steam_id":76561198063713049,"connected_time":4285000000000,"state":"active","ping":58},{"user_id":504,"name":"pim","steam_id":76561198095163441,"connected_time":1144000000000,"state":"active","ping":51},{"user_id":507,"name":"Aloc998","steam_id":76561199068623664,"connected_time":1024000000000,"state":"active","ping":139},{"user_id":495,"name":"cesartele3000","steam_id":76561198142149479,"connected_time":2062000000000,"state":"active","ping":89},{"user_id":508,"name":"della","steam_id":76561198118877005,"connected_time":1023000000000,"state":"active","ping":60},{"user_id":510,"name":"FI LO","steam_id":76561198976530881,"connected_time":996000000000,"state":"active","ping":67},{"user_id":511,"name":"eatmyasserole","steam_id":76561198036959626,"connected_time":995000000000,"state":"active","ping":76},{"user_id":499,"name":"plink","steam_id":76561198057829889,"connected_time":1562000000000,"state":"active","ping":56},{"user_id":513,"name":"pigswill","steam_id":76561197999081865,"connected_time":976000000000,"state":"active","ping":90},{"user_id":471,"name":"Clam","steam_id":76561198288570962,"connected_time":3279000000000,"state":"active","ping":95},{"user_id":514,"name":"The Horselords and Animal Gods","steam_id":76561197975094050,"connected_time":974000000000,"state":"active","ping":86},{"user_id":498,"name":"fox news goblin","steam_id":76561198167648580,"connected_time":1812000000000,"state":"active","ping":55},{"user_id":446,"name":"ThugSlug","steam_id":76561198086098047,"connected_time":5933000000000,"state":"active","ping":74},{"user_id":519,"name":"Dumb Queer (she/her)","steam_id":76561198121468734,"connected_time":641000000000,"state":"active","ping":101},{"user_id":490,"name":"Icarus the legend","steam_id":76561199013250091,"connected_time":2324000000000,"state":"active","ping":40},{"user_id":515,"name":"he munch","steam_id":76561198339644583,"connected_time":947000000000,"state":"active","ping":78},{"user_id":478,"name":"A Bloody Meat Bicycle","steam_id":76561198358757709,"connected_time":3255000000000,"state":"active","ping":89},{"user_id":516,"name":"Bobby Ray","steam_id":76561198044131188,"connected_time":945000000000,"state":"active","ping":72},{"user_id":493,"name":"Can You Feel It Mr.Krabs","steam_id":76561198128302414,"connected_time":2228000000000,"state":"active","ping":60},{"user_id":517,"name":"keffers","steam_id":76561198202338796,"connected_time":942000000000,"state":"active","ping":76},{"user_id":494,"name":"Purchase your tracks today","steam_id":76561198084422657,"connected_time":2209000000000,"state":"active","ping":81}]},{"server_id":108,"name":"Uncletopia | Dallas | 2 | All Maps","name_short":"dal-2","host":"dal-1.us.uncletopia.com","port":27025,"enabled":true,"region":"us-central","cc":"us","latitude":32.779167,"longitude":-96.80889,"reserved":0,"last_update":"0001-01-01T00:00:00Z","name_a2s":"Uncletopia | Dallas | 2 | All Maps","protocol":17,"map":"pl_barnblitz","folder":"tf","game":"Team Fortress","app_id":440,"player_count":24,"max_players":24,"Bots":0,"server_type":"Dedicated","server_os":"Linux","password":true,"vac":true,"version":"7882260","steam_id":85568392924469988,"keywords":["nocrits","nodmgspread","payload","uncletopia"],"game_id":440,"stv_port":27026,"stv_name":"Uncletopia | Dallas | 2 | All Maps | STV","players":[{"user_id":639,"name":"The Foolish Samurai","steam_id":76561198094494945,"connected_time":351000000000,"state":"active","ping":89},{"user_id":647,"name":"frozenwasanokmovie","steam_id":76561198157407952,"connected_time":54000000000,"state":"active","ping":80},{"user_id":590,"name":"Specterbomb","steam_id":76561198224550712,"connected_time":3030000000000,"state":"active","ping":115},{"user_id":637,"name":"Jezzus","steam_id":76561199289676387,"connected_time":415000000000,"state":"active","ping":60},{"user_id":638,"name":"Bateman 64","steam_id":76561198093689792,"connected_time":396000000000,"state":"active","ping":78},{"user_id":615,"name":"SpeakerD","steam_id":76561198032618618,"connected_time":1665000000000,"state":"active","ping":63},{"user_id":617,"name":"[̲̅W]Polaris","steam_id":76561199106806054,"connected_time":1583000000000,"state":"active","ping":101},{"user_id":640,"name":"3-13","steam_id":76561198063929021,"connected_time":341000000000,"state":"active","ping":54},{"user_id":641,"name":"Hatfam","steam_id":76561199192629036,"connected_time":335000000000,"state":"active","ping":103},{"user_id":625,"name":"Ruins","steam_id":76561198140372785,"connected_time":656000000000,"state":"active","ping":76},{"user_id":622,"name":"Stoofy","steam_id":76561198280750328,"connected_time":817000000000,"state":"active","ping":107},{"user_id":623,"name":"fitotutus","steam_id":76561197974993253,"connected_time":673000000000,"state":"active","ping":125},{"user_id":642,"name":"Jaguar","steam_id":76561197971152439,"connected_time":324000000000,"state":"active","ping":78},{"user_id":601,"name":"Kirbothebrony","steam_id":76561198971911330,"connected_time":2412000000000,"state":"active","ping":68},{"user_id":624,"name":"Monty","steam_id":76561197993567253,"connected_time":666000000000,"state":"active","ping":100},{"user_id":626,"name":"None of that $9.99 bullshit","steam_id":76561198116169903,"connected_time":643000000000,"state":"active","ping":73},{"user_id":648,"name":"Antwan","steam_id":76561198246200638,"connected_time":49000000000,"state":"active","ping":45},{"user_id":644,"name":"Tuna!","steam_id":76561198354590331,"connected_time":293000000000,"state":"active","ping":62},{"user_id":629,"name":"Michaelpc1","steam_id":76561198088365519,"connected_time":573000000000,"state":"active","ping":90},{"user_id":630,"name":"Lavender","steam_id":76561198142770666,"connected_time":562000000000,"state":"active","ping":72},{"user_id":646,"name":"Jabroni Kris","steam_id":76561198048736247,"connected_time":217000000000,"state":"active","ping":113},{"user_id":633,"name":"Kosmo","steam_id":76561198079015843,"connected_time":532000000000,"state":"active","ping":60},{"user_id":634,"name":"Grizzly Arke","steam_id":76561197966307835,"connected_time":525000000000,"state":"active","ping":59}]},{"server_id":5,"name":"Uncletopia | Frankfurt | 1 | All Maps","name_short":"frk-1","host":"frk-1.de.uncletopia.com","port":27015,"enabled":true,"region":"eu","cc":"de","latitude":50.110924,"longitude":8.682127,"reserved":0,"last_update":"0001-01-01T00:00:00Z","name_a2s":"Uncletopia | Frankfurt | 1 | All Maps","protocol":17,"map":"cp_process_final","folder":"tf","game":"Team Fortress","app_id":440,"player_count":0,"max_players":24,"Bots":0,"server_type":"Dedicated","server_os":"Linux","password":true,"vac":true,"version":"7882260","steam_id":85568392924469989,"keywords":["cp","nocrits","nodmgspread","uncletopia"],"game_id":440,"stv_port":27016,"stv_name":"Uncletopia | Frankfurt | 1 | All Maps | STV","players":null},{"server_id":110,"name":"Uncletopia | Frankfurt | 2 | All Maps","name_short":"frk-2","host":"frk-1.de.uncletopia.com","port":27025,"enabled":true,"region":"eu","cc":"de","latitude":50.110924,"longitude":8.682127,"reserved":0,"last_update":"0001-01-01T00:00:00Z","name_a2s":"Uncletopia | Frankfurt | 2 | All Maps","protocol":17,"map":"pl_swiftwater_final1","folder":"tf","game":"Team Fortress","app_id":440,"player_count":0,"max_players":24,"Bots":0,"server_type":"Dedicated","server_os":"Linux","password":true,"vac":true,"version":"7882260","steam_id":85568392924469990,"keywords":["nocrits","nodmgspread","payload","uncletopia"],"game_id":440,"stv_port":27026,"stv_name":"Uncletopia | Frankfurt | 2 | All Maps | STV","players":null},{"server_id":308,"name":"Uncletopia | Frankfurt | 3 | All Maps","name_short":"frk-3","host":"frk-1.de.uncletopia.com","port":27035,"enabled":true,"region":"eu","cc":"de","latitude":50.110924,"longitude":8.682127,"reserved":0,"last_update":"0001-01-01T00:00:00Z","name_a2s":"Uncletopia | Frankfurt | 3 | All Maps","protocol":17,"map":"pl_snowycoast","folder":"tf","game":"Team Fortress","app_id":440,"player_count":0,"max_players":24,"Bots":0,"server_type":"Dedicated","server_os":"Linux","password":true,"vac":true,"version":"7882260","steam_id":85568392924504274,"keywords":["nocrits","nodmgspread","payload","uncletopia"],"game_id":440,"stv_port":27036,"stv_name":"Uncletopia | Frankfurt | 3 | All Maps | STV","players":null},{"server_id":309,"name":"Uncletopia | Frankfurt | 4 | All Maps","name_short":"frk-4","host":"frk-1.de.uncletopia.com","port":27045,"enabled":true,"region":"eu","cc":"de","latitude":50.110924,"longitude":8.682127,"reserved":0,"last_update":"0001-01-01T00:00:00Z","name_a2s":"Uncletopia | Frankfurt | 4 | All Maps","protocol":17,"map":"pl_rumford_event","folder":"tf","game":"Team Fortress","app_id":440,"player_count":24,"max_players":24,"Bots":0,"server_type":"Dedicated","server_os":"Linux","password":true,"vac":true,"version":"7882260","steam_id":85568392924504275,"keywords":["nocrits","nodmgspread","payload","uncletopia"],"game_id":440,"stv_port":27046,"stv_name":"Uncletopia | Frankfurt | 4 | All Maps | STV","players":[{"user_id":13,"name":"john fortress the second","steam_id":76561198110198881,"connected_time":6134000000000,"state":"active","ping":72},{"user_id":67,"name":"Dio","steam_id":76561198117685434,"connected_time":164000000000,"state":"active","ping":76},{"user_id":51,"name":"Remembrancer","steam_id":76561198049983016,"connected_time":1628000000000,"state":"active","ping":87},{"user_id":16,"name":"dorak","steam_id":76561198818037965,"connected_time":5584000000000,"state":"active","ping":111},{"user_id":62,"name":"cy \u003c3","steam_id":76561198361682674,"connected_time":631000000000,"state":"active","ping":89},{"user_id":26,"name":"Neimon","steam_id":76561198343485710,"connected_time":4123000000000,"state":"active","ping":115},{"user_id":27,"name":"Hussain_144","steam_id":76561198346029208,"connected_time":3812000000000,"state":"active","ping":165},{"user_id":33,"name":"shits in urinals","steam_id":76561199480942903,"connected_time":2859000000000,"state":"active","ping":64},{"user_id":60,"name":"0","steam_id":76561199084809092,"connected_time":761000000000,"state":"active","ping":96},{"user_id":36,"name":"chopsticks","steam_id":76561198045899345,"connected_time":2423000000000,"state":"active","ping":101},{"user_id":30,"name":"LSKi","steam_id":76561198215470228,"connected_time":3464000000000,"state":"active","ping":68},{"user_id":37,"name":"Topme","steam_id":76561198091734693,"connected_time":2415000000000,"state":"active","ping":75},{"user_id":38,"name":"plainz","steam_id":76561198158549976,"connected_time":2386000000000,"state":"active","ping":105},{"user_id":64,"name":"Joe","steam_id":76561198061717026,"connected_time":490000000000,"state":"active","ping":60},{"user_id":40,"name":"ÃNVS DRÃNVS","steam_id":76561198138733015,"connected_time":2344000000000,"state":"active","ping":105},{"user_id":47,"name":"Divorce Agreement","steam_id":76561198999493859,"connected_time":1822000000000,"state":"active","ping":140},{"user_id":55,"name":"Moby Chick (F2P)","steam_id":76561198151152730,"connected_time":1313000000000,"state":"active","ping":106},{"user_id":44,"name":"Pesky Plumber","steam_id":76561198241999094,"connected_time":2045000000000,"state":"active","ping":59},{"user_id":68,"name":"Leafeon","steam_id":76561199219653853,"connected_time":146000000000,"state":"active","ping":936},{"user_id":46,"name":"dafydd","steam_id":76561198052200325,"connected_time":1832000000000,"state":"active","ping":75},{"user_id":48,"name":"Bandit","steam_id":76561198449500252,"connected_time":1769000000000,"state":"active","ping":95},{"user_id":66,"name":"B O R F","steam_id":76561197962461333,"connected_time":275000000000,"state":"active","ping":73},{"user_id":53,"name":"Pico","steam_id":76561198063552545,"connected_time":1583000000000,"state":"active","ping":97},{"user_id":57,"name":"Anlaki Koszmarek","steam_id":76561198074581818,"connected_time":1275000000000,"state":"active","ping":69}]},{"server_id":310,"name":"Uncletopia | Frankfurt | 5 | All Maps","name_short":"frk-5","host":"frk-1.de.uncletopia.com","port":27055,"enabled":true,"region":"eu","cc":"de","latitude":50.110924,"longitude":8.682127,"reserved":0,"last_update":"0001-01-01T00:00:00Z","name_a2s":"Uncletopia | Frankfurt | 5 | All Maps","protocol":17,"map":"pl_badwater","folder":"tf","game":"Team Fortress","app_id":440,"player_count":0,"max_players":24,"Bots":0,"server_type":"Dedicated","server_os":"Linux","password":true,"vac":true,"version":"7882260","steam_id":85568392924504277,"keywords":["nocrits","nodmgspread","payload","uncletopia"],"game_id":440,"stv_port":27056,"stv_name":"Uncletopia | Frankfurt | 5 | All Maps | STV","players":null},{"server_id":311,"name":"Uncletopia | Frankfurt | 6 | All Maps","name_short":"frk-6","host":"frk-1.de.uncletopia.com","port":27065,"enabled":true,"region":"eu","cc":"de","latitude":50.110924,"longitude":8.682127,"reserved":0,"last_update":"0001-01-01T00:00:00Z","name_a2s":"Uncletopia | Frankfurt | 6 | All Maps","protocol":17,"map":"pl_badwater","folder":"tf","game":"Team Fortress","app_id":440,"player_count":0,"max_players":24,"Bots":0,"server_type":"Dedicated","server_os":"Linux","password":true,"vac":true,"version":"7882260","steam_id":85568392924504278,"keywords":["nocrits","nodmgspread","payload","uncletopia"],"game_id":440,"stv_port":27066,"stv_name":"Uncletopia | Frankfurt | 6 | All Maps | STV","players":null},{"server_id":23,"name":"Uncletopia | Frankfurt | 7 | Stopwatch Beta","name_short":"frk-7","host":"frk-1.de.uncletopia.com","port":27075,"enabled":true,"region":"eu","cc":"de","latitude":50.110924,"longitude":8.682127,"reserved":0,"last_update":"0001-01-01T00:00:00Z","name_a2s":"Uncletopia | Frankfurt | 7 | Stopwatch Beta","protocol":17,"map":"cp_dustbowl","folder":"tf","game":"Team Fortress","app_id":440,"player_count":0,"max_players":24,"Bots":0,"server_type":"Dedicated","server_os":"Linux","password":true,"vac":true,"version":"7882260","steam_id":85568392924742827,"keywords":["cp","nocrits","nodmgspread","uncletopia"],"game_id":440,"stv_port":27076,"stv_name":"Uncletopia | Frankfurt | 7 | Stopwatch Beta | STV","players":null},{"server_id":24,"name":"Uncletopia | Frankfurt | 8 | Community","name_short":"frk-8","host":"frk-1.de.uncletopia.com","port":27085,"enabled":true,"region":"eu","cc":"de","latitude":50.110924,"longitude":8.682127,"reserved":0,"last_update":"0001-01-01T00:00:00Z","name_a2s":"Uncletopia | Frankfurt | 8 | Community","protocol":17,"map":"koth_cascade","folder":"tf","game":"Team Fortress","app_id":440,"player_count":0,"max_players":24,"Bots":0,"server_type":"Dedicated","server_os":"Linux","password":true,"vac":true,"version":"7882260","steam_id":85568392924742828,"keywords":["cp","nocrits","nodmgspread","uncletopia"],"game_id":440,"stv_port":27086,"stv_name":"Uncletopia | Frankfurt | 8 | Community | STV","players":null},{"server_id":202,"name":"Uncletopia | Hong Kong | 1 | All Maps","name_short":"hgk-1","host":"hgk-1.hk.uncletopia.com","port":27015,"enabled":true,"region":"asia","cc":"hk","latitude":22.302711,"longitude":114.177216,"reserved":0,"last_update":"0001-01-01T00:00:00Z","name_a2s":"Uncletopia | Hong Kong | 1 | All Maps","protocol":17,"map":"pl_frontier_final","folder":"tf","game":"Team Fortress","app_id":440,"player_count":24,"max_players":24,"Bots":0,"server_type":"Dedicated","server_os":"Linux","password":true,"vac":true,"version":"7882260","steam_id":85568392924494504,"keywords":["nocrits","nodmgspread","payload","uncletopia"],"game_id":440,"stv_port":27016,"stv_name":"Uncletopia | Hong Kong | 1 | All Maps | STV","players":[{"user_id":11,"name":"RP birdzz","steam_id":76561198318077734,"connected_time":9394000000000,"state":"active","ping":66},{"user_id":64,"name":"Bossrabeet (ඬ arc)","steam_id":76561199203075792,"connected_time":2304000000000,"state":"active","ping":47},{"user_id":78,"name":"Metric13","steam_id":76561198131657478,"connected_time":971000000000,"state":"active","ping":93},{"user_id":60,"name":"ඞ Basil ;) ඞ","steam_id":76561199262353252,"connected_time":3213000000000,"state":"active","ping":68},{"user_id":76,"name":"NeutralM4sk","steam_id":76561199034346807,"connected_time":1438000000000,"state":"active","ping":78},{"user_id":51,"name":"Typewriter","steam_id":76561199055466497,"connected_time":3718000000000,"state":"active","ping":171},{"user_id":75,"name":"Telekhine","steam_id":76561198387120618,"connected_time":1500000000000,"state":"active","ping":55},{"user_id":77,"name":"daigennki","steam_id":76561198046328609,"connected_time":1283000000000,"state":"active","ping":100},{"user_id":67,"name":"Momoxhien","steam_id":76561198414997429,"connected_time":2032000000000,"state":"active","ping":61},{"user_id":79,"name":"hotgamerth","steam_id":76561199026418153,"connected_time":934000000000,"state":"active","ping":95},{"user_id":33,"name":"brizzard","steam_id":76561198048438653,"connected_time":4967000000000,"state":"active","ping":51},{"user_id":34,"name":"Lelouch","steam_id":76561198828840546,"connected_time":4874000000000,"state":"active","ping":74},{"user_id":70,"name":"tiden2000","steam_id":76561198092969425,"connected_time":1993000000000,"state":"active","ping":106},{"user_id":59,"name":"TheChainsaw","steam_id":76561198312001455,"connected_time":3280000000000,"state":"active","ping":115},{"user_id":38,"name":"Andrew Tate","steam_id":76561199198221353,"connected_time":4639000000000,"state":"active","ping":61},{"user_id":80,"name":"kaBLOOEY","steam_id":76561199094053915,"connected_time":911000000000,"state":"active","ping":130},{"user_id":53,"name":"PanDorA | trade.tf","steam_id":76561198864942478,"connected_time":3532000000000,"state":"active","ping":107},{"user_id":43,"name":"Drutzhfer","steam_id":76561198299948446,"connected_time":4132000000000,"state":"active","ping":102},{"user_id":45,"name":"WaifuThatGiveMeBloodPressure","steam_id":76561199090343752,"connected_time":4124000000000,"state":"active","ping":115},{"user_id":83,"name":"Dolla","steam_id":76561199401233865,"connected_time":218000000000,"state":"active","ping":67},{"user_id":50,"name":"j_rex","steam_id":76561198132473926,"connected_time":3906000000000,"state":"active","ping":49},{"user_id":54,"name":"Compressed","steam_id":76561199230196794,"connected_time":3488000000000,"state":"active","ping":119},{"user_id":84,"name":"\"I will have order!\"","steam_id":76561199118887297,"connected_time":100000000000,"state":"active","ping":85},{"user_id":73,"name":"Katami","steam_id":76561199061052792,"connected_time":1898000000000,"state":"active","ping":111}]},{"server_id":1,"name":"Uncletopia | Los Angeles | 1 | All Maps","name_short":"lax-1","host":"lax-1.us.uncletopia.com","port":27015,"enabled":true,"region":"us-west","cc":"us","latitude":33.94279,"longitude":-118.41004,"reserved":0,"last_update":"0001-01-01T00:00:00Z","name_a2s":"Uncletopia | Los Angeles | 1 | All Maps","protocol":17,"map":"pl_pier","folder":"tf","game":"Team Fortress","app_id":440,"player_count":24,"max_players":24,"Bots":0,"server_type":"Dedicated","server_os":"Linux","password":true,"vac":true,"version":"7882260","steam_id":85568392924469991,"keywords":["nocrits","nodmgspread","payload","uncletopia"],"game_id":440,"stv_port":27016,"stv_name":"Uncletopia | Los Angeles | 1 | All Maps | STV","players":[{"user_id":415,"name":"pharaoh","steam_id":76561198018820928,"connected_time":1200000000000,"state":"active","ping":29},{"user_id":397,"name":"Literally Printer Jesus","steam_id":76561198093687962,"connected_time":3019000000000,"state":"active","ping":63},{"user_id":296,"name":"usedhalfcart","steam_id":76561198072621852,"connected_time":12876000000000,"state":"active","ping":87},{"user_id":413,"name":"Trippy","steam_id":76561199090730294,"connected_time":1283000000000,"state":"active","ping":74},{"user_id":317,"name":"Lonlily","steam_id":76561198130418647,"connected_time":11204000000000,"state":"active","ping":56},{"user_id":403,"name":"Magnetic","steam_id":76561198312113698,"connected_time":2773000000000,"state":"active","ping":66},{"user_id":411,"name":"yellow ᗜˬᗜ","steam_id":76561198366474647,"connected_time":1516000000000,"state":"active","ping":41},{"user_id":380,"name":"THC Freebaser","steam_id":76561198075779863,"connected_time":4863000000000,"state":"active","ping":108},{"user_id":361,"name":"June","steam_id":76561198141803658,"connected_time":7612000000000,"state":"active","ping":46},{"user_id":418,"name":"Sadistic Dentist","steam_id":76561198103189993,"connected_time":547000000000,"state":"active","ping":65},{"user_id":412,"name":"xeryl","steam_id":76561198304342044,"connected_time":1379000000000,"state":"active","ping":90},{"user_id":393,"name":"Knuckles","steam_id":76561198000704259,"connected_time":3697000000000,"state":"active","ping":104},{"user_id":356,"name":"2 for $3.50 McChickens","steam_id":76561198089908660,"connected_time":8701000000000,"state":"active","ping":59},{"user_id":405,"name":"Rah","steam_id":76561198059906615,"connected_time":2133000000000,"state":"active","ping":49},{"user_id":406,"name":"charley","steam_id":76561198828238339,"connected_time":1971000000000,"state":"active","ping":78},{"user_id":270,"name":"fire","steam_id":76561198044354279,"connected_time":14577000000000,"state":"active","ping":47},{"user_id":410,"name":"ArumiKaze","steam_id":76561198026814729,"connected_time":1638000000000,"state":"active","ping":61},{"user_id":401,"name":"Pizza Fucker","steam_id":76561198334059206,"connected_time":2857000000000,"state":"active","ping":59},{"user_id":368,"name":"Archie","steam_id":76561198137112917,"connected_time":7044000000000,"state":"active","ping":57},{"user_id":419,"name":"nothing personal","steam_id":76561199163838005,"connected_time":466000000000,"state":"active","ping":96},{"user_id":416,"name":"Justtophat","steam_id":76561198308787175,"connected_time":1138000000000,"state":"active","ping":59},{"user_id":293,"name":"Taco+Taco=Burrito","steam_id":76561198063128663,"connected_time":12959000000000,"state":"active","ping":46},{"user_id":395,"name":"Bambeau","steam_id":76561198047904568,"connected_time":3040000000000,"state":"active","ping":99},{"user_id":328,"name":"Mythical Lag","steam_id":76561198347031281,"connected_time":10733000000000,"state":"active","ping":76}]},{"server_id":112,"name":"Uncletopia | Los Angeles | 2 | All Maps","name_short":"lax-2","host":"lax-1.us.uncletopia.com","port":27025,"enabled":true,"region":"us-west","cc":"us","latitude":33.94279,"longitude":-118.41004,"reserved":0,"last_update":"0001-01-01T00:00:00Z","name_a2s":"Uncletopia | Los Angeles | 2 | All Maps","protocol":17,"map":"pl_barnblitz","folder":"tf","game":"Team Fortress","app_id":440,"player_count":0,"max_players":24,"Bots":0,"server_type":"Dedicated","server_os":"Linux","password":true,"vac":true,"version":"7882260","steam_id":85568392924469992,"keywords":["nocrits","nodmgspread","payload","uncletopia"],"game_id":440,"stv_port":27026,"stv_name":"Uncletopia | Los Angeles | 2 | All Maps | STV","players":null},{"server_id":324,"name":"Uncletopia | Los Angeles | 3 | All Maps","name_short":"lax-3","host":"lax-1.us.uncletopia.com","port":27035,"enabled":true,"region":"us-west","cc":"us","latitude":33.94279,"longitude":-118.41004,"reserved":0,"last_update":"0001-01-01T00:00:00Z","name_a2s":"Uncletopia | Los Angeles | 3 | All Maps","protocol":17,"map":"koth_harvest_final","folder":"tf","game":"Team Fortress","app_id":440,"player_count":24,"max_players":24,"Bots":0,"server_type":"Dedicated","server_os":"Linux","password":true,"vac":true,"version":"7882260","steam_id":85568392924510198,"keywords":["cp","nocrits","nodmgspread","uncletopia"],"game_id":440,"stv_port":27036,"stv_name":"Uncletopia | Los Angeles | 3 | All Maps | STV","players":[{"user_id":399,"name":"1738 gecs","steam_id":76561198058617608,"connected_time":2600000000000,"state":"active","ping":46},{"user_id":401,"name":"The Assistant Regional Manager","steam_id":76561199221484936,"connected_time":2495000000000,"state":"active","ping":65},{"user_id":360,"name":"Rollo","steam_id":76561198064812108,"connected_time":4827000000000,"state":"active","ping":88},{"user_id":416,"name":"Jokezonyu","steam_id":76561198213167893,"connected_time":1426000000000,"state":"active","ping":59},{"user_id":420,"name":"Renota","steam_id":76561198058224488,"connected_time":923000000000,"state":"active","ping":119},{"user_id":362,"name":"Seanvich","steam_id":76561198065805500,"connected_time":4806000000000,"state":"active","ping":103},{"user_id":410,"name":"I throw a lot","steam_id":76561198209650964,"connected_time":2077000000000,"state":"active","ping":56},{"user_id":428,"name":"Herr Müller","steam_id":76561198064876829,"connected_time":19000000000,"state":"active","ping":114},{"user_id":419,"name":"Leroy","steam_id":76561199013064727,"connected_time":1129000000000,"state":"active","ping":75},{"user_id":425,"name":"HateIsOnSale","steam_id":76561199060968518,"connected_time":401000000000,"state":"active","ping":90},{"user_id":386,"name":"Tanuki in your attic.","steam_id":76561198027487285,"connected_time":3887000000000,"state":"active","ping":146},{"user_id":412,"name":"magnolia","steam_id":76561199474493516,"connected_time":1782000000000,"state":"active","ping":45},{"user_id":320,"name":"Racist Pyro","steam_id":76561198016168993,"connected_time":8461000000000,"state":"active","ping":81},{"user_id":329,"name":"SleeplessCollin","steam_id":76561198968140914,"connected_time":8073000000000,"state":"active","ping":50},{"user_id":384,"name":"riSygneD","steam_id":76561198331618687,"connected_time":3998000000000,"state":"active","ping":31},{"user_id":423,"name":"smogun","steam_id":76561198361158518,"connected_time":761000000000,"state":"active","ping":58},{"user_id":405,"name":"HeroOfTime","steam_id":76561199096218001,"connected_time":2389000000000,"state":"active","ping":52},{"user_id":397,"name":"Peter, what are you doing?","steam_id":76561198066452726,"connected_time":2627000000000,"state":"active","ping":49},{"user_id":378,"name":"punch you i'll punch you","steam_id":76561198035698704,"connected_time":4360000000000,"state":"active","ping":60},{"user_id":426,"name":"insane jester","steam_id":76561198079609974,"connected_time":341000000000,"state":"active","ping":59},{"user_id":417,"name":"Mr. Yoshida","steam_id":76561198263829831,"connected_time":1394000000000,"state":"active","ping":77},{"user_id":415,"name":"Terror","steam_id":76561198188685728,"connected_time":1627000000000,"state":"active","ping":93},{"user_id":422,"name":"themadlad67","steam_id":76561199309554436,"connected_time":864000000000,"state":"active","ping":66},{"user_id":380,"name":"Whyamidoingthisaaaa","steam_id":76561199168837342,"connected_time":4230000000000,"state":"active","ping":111}]},{"server_id":25,"name":"Uncletopia | Los Angeles | 4 | Stopwatch Beta","name_short":"lax-4","host":"lax-1.us.uncletopia.com","port":27045,"enabled":true,"region":"us-west","cc":"us","latitude":33.94279,"longitude":-118.41004,"reserved":0,"last_update":"0001-01-01T00:00:00Z","name_a2s":"Uncletopia | Los Angeles | 4 | Stopwatch Beta","protocol":17,"map":"workshop/koth_ramjam_rc1.ugc459778887","folder":"tf","game":"Team Fortress","app_id":440,"player_count":0,"max_players":24,"Bots":0,"server_type":"Dedicated","server_os":"Linux","password":true,"vac":true,"version":"7882260","steam_id":85568392924510199,"keywords":["cp","nocrits","nodmgspread","uncletopia"],"game_id":440,"stv_port":27046,"stv_name":"Uncletopia | Los Angeles | 4 | Stopwatch Beta | STV","players":null},{"server_id":11,"name":"Uncletopia | London | 1 | All Maps","name_short":"lon-1","host":"lon-1.uk.uncletopia.com","port":27015,"enabled":true,"region":"eu","cc":"gb","latitude":51.509865,"longitude":-0.118092,"reserved":0,"last_update":"0001-01-01T00:00:00Z","name_a2s":"Uncletopia | London | 1 | All Maps","protocol":17,"map":"cp_process_final","folder":"tf","game":"Team Fortress","app_id":440,"player_count":0,"max_players":24,"Bots":0,"server_type":"Dedicated","server_os":"Linux","password":true,"vac":true,"version":"7882260","steam_id":85568392924367362,"keywords":["cp","nocrits","nodmgspread","uncletopia"],"game_id":440,"stv_port":27016,"stv_name":"Uncletopia | London | 1 | All Maps | STV","players":null},{"server_id":114,"name":"Uncletopia | London | 2 | All Maps","name_short":"lon-2","host":"lon-1.uk.uncletopia.com","port":27025,"enabled":true,"region":"eu","cc":"gb","latitude":51.509865,"longitude":-0.118092,"reserved":0,"last_update":"0001-01-01T00:00:00Z","name_a2s":"Uncletopia | London | 2 | All Maps","protocol":17,"map":"pl_swiftwater_final1","folder":"tf","game":"Team Fortress","app_id":440,"player_count":0,"max_players":24,"Bots":0,"server_type":"Dedicated","server_os":"Linux","password":true,"vac":true,"version":"7882260","steam_id":85568392924470941,"keywords":["nocrits","nodmgspread","payload","uncletopia"],"game_id":440,"stv_port":27026,"stv_name":"Uncletopia | London | 2 | All Maps | STV","players":null},{"server_id":320,"name":"Uncletopia | London | 3 | All Maps","name_short":"lon-3","host":"lon-1.uk.uncletopia.com","port":27035,"enabled":true,"region":"eu","cc":"gb","latitude":51.509865,"longitude":-0.118092,"reserved":0,"last_update":"0001-01-01T00:00:00Z","name_a2s":"Uncletopia | London | 3 | All Maps","protocol":17,"map":"koth_highpass","folder":"tf","game":"Team Fortress","app_id":440,"player_count":0,"max_players":24,"Bots":0,"server_type":"Dedicated","server_os":"Linux","password":true,"vac":true,"version":"7882260","steam_id":85568392924510192,"keywords":["cp","nocrits","nodmgspread","uncletopia"],"game_id":440,"stv_port":27036,"stv_name":"Uncletopia | London | 3 | All Maps | STV","players":null},{"server_id":321,"name":"Uncletopia | London | 4 | All Maps","name_short":"lon-4","host":"lon-1.uk.uncletopia.com","port":27045,"enabled":true,"region":"eu","cc":"gb","latitude":51.509865,"longitude":-0.118092,"reserved":0,"last_update":"0001-01-01T00:00:00Z","name_a2s":"Uncletopia | London | 4 | All Maps","protocol":17,"map":"pl_badwater","folder":"tf","game":"Team Fortress","app_id":440,"player_count":5,"max_players":24,"Bots":0,"server_type":"Dedicated","server_os":"Linux","password":true,"vac":true,"version":"7882260","steam_id":85568392924510193,"keywords":["nocrits","nodmgspread","payload","uncletopia"],"game_id":440,"stv_port":27046,"stv_name":"Uncletopia | London | 4 | All Maps | STV","players":[{"user_id":3,"name":"Marcus","steam_id":76561198205027963,"connected_time":3784000000000,"state":"active","ping":61},{"user_id":10,"name":"Corpus Christi","steam_id":76561198417999443,"connected_time":242000000000,"state":"active","ping":105},{"user_id":8,"name":"Zama","steam_id":76561199121691104,"connected_time":1289000000000,"state":"active","ping":46},{"user_id":6,"name":"apples","steam_id":76561198032787233,"connected_time":2938000000000,"state":"active","ping":74},{"user_id":11,"name":"Boeing B-29 Superfortress","steam_id":76561198439997726,"connected_time":94000000000,"state":"active","ping":57}]},{"server_id":21,"name":"Uncletopia | London | 5 | All Maps","name_short":"lon-5","host":"lon-1.uk.uncletopia.com","port":27055,"enabled":true,"region":"eu","cc":"gb","latitude":51.509865,"longitude":-0.118092,"reserved":0,"last_update":"0001-01-01T00:00:00Z","name_a2s":"Uncletopia | London | 5 | All Maps","protocol":17,"map":"pl_frontier_final","folder":"tf","game":"Team Fortress","app_id":440,"player_count":0,"max_players":24,"Bots":0,"server_type":"Dedicated","server_os":"Linux","password":true,"vac":true,"version":"7882260","steam_id":85568392924742829,"keywords":["nocrits","nodmgspread","payload","uncletopia"],"game_id":440,"stv_port":27056,"stv_name":"Uncletopia | London | 5 | All Maps | STV","players":null},{"server_id":22,"name":"Uncletopia | London | 6 | All Maps","name_short":"lon-6","host":"lon-1.uk.uncletopia.com","port":27065,"enabled":true,"region":"eu","cc":"gb","latitude":51.509865,"longitude":-0.118092,"reserved":0,"last_update":"0001-01-01T00:00:00Z","name_a2s":"Uncletopia | London | 6 | All Maps","protocol":17,"map":"cp_altitude","folder":"tf","game":"Team Fortress","app_id":440,"player_count":0,"max_players":24,"Bots":0,"server_type":"Dedicated","server_os":"Linux","password":true,"vac":true,"version":"7882260","steam_id":85568392924742830,"keywords":["cp","nocrits","nodmgspread","uncletopia"],"game_id":440,"stv_port":27066,"stv_name":"Uncletopia | London | 6 | All Maps | STV","players":null},{"server_id":40,"name":"Uncletopia | London | 7 | No Payload","name_short":"lon-7","host":"lon-1.uk.uncletopia.com","port":27075,"enabled":true,"region":"eu","cc":"gb","latitude":51.509865,"longitude":-0.118092,"reserved":0,"last_update":"0001-01-01T00:00:00Z","name_a2s":"Uncletopia | London | 7 | No Payload","protocol":17,"map":"pl_pier","folder":"tf","game":"Team Fortress","app_id":440,"player_count":0,"max_players":24,"Bots":0,"server_type":"Dedicated","server_os":"Linux","password":true,"vac":true,"version":"7882260","steam_id":85568392924964314,"keywords":["nocrits","nodmgspread","payload","uncletopia"],"game_id":440,"stv_port":27076,"stv_name":"Uncletopia | London | 7 | No Payload | STV","players":null},{"server_id":41,"name":"Uncletopia | London | 8 | Community","name_short":"lon-8","host":"lon-1.uk.uncletopia.com","port":27085,"enabled":true,"region":"eu","cc":"gb","latitude":51.509865,"longitude":-0.118092,"reserved":0,"last_update":"0001-01-01T00:00:00Z","name_a2s":"Uncletopia | London | 8 | Community","protocol":17,"map":"pl_swiftwater_final1","folder":"tf","game":"Team Fortress","app_id":440,"player_count":0,"max_players":24,"Bots":0,"server_type":"Dedicated","server_os":"Linux","password":true,"vac":true,"version":"7882260","steam_id":85568392924964315,"keywords":["nocrits","nodmgspread","payload","uncletopia"],"game_id":440,"stv_port":27086,"stv_name":"Uncletopia | London | 8 | Community | STV","players":null},{"server_id":300,"name":"Uncletopia | Montréal | 1 | All Maps","name_short":"mtl-1","host":"mtl-1.ca.uncletopia.com","port":27015,"enabled":true,"region":"us-east","cc":"ca","latitude":45.50889,"longitude":-73.56167,"reserved":0,"last_update":"0001-01-01T00:00:00Z","name_a2s":"Uncletopia | Montréal | 1 | All Maps","protocol":17,"map":"cp_snakewater_final1","folder":"tf","game":"Team Fortress","app_id":440,"player_count":0,"max_players":24,"Bots":0,"server_type":"Dedicated","server_os":"Linux","password":true,"vac":true,"version":"7882260","steam_id":85568392924500087,"keywords":["cp","nocrits","nodmgspread","uncletopia"],"game_id":440,"stv_port":27016,"stv_name":"Uncletopia | Montréal | 1 | All Maps | STV","players":null},{"server_id":301,"name":"Uncletopia | Montréal | 2 | All Maps","name_short":"mtl-2","host":"mtl-1.ca.uncletopia.com","port":27025,"enabled":true,"region":"us-east","cc":"ca","latitude":45.50889,"longitude":-73.56167,"reserved":0,"last_update":"0001-01-01T00:00:00Z","name_a2s":"Uncletopia | Montréal | 2 | All Maps","protocol":17,"map":"koth_highpass","folder":"tf","game":"Team Fortress","app_id":440,"player_count":0,"max_players":24,"Bots":0,"server_type":"Dedicated","server_os":"Linux","password":true,"vac":true,"version":"7882260","steam_id":85568392924500088,"keywords":["cp","nocrits","nodmgspread","uncletopia"],"game_id":440,"stv_port":27026,"stv_name":"Uncletopia | Montréal | 2 | All Maps | STV","players":null},{"server_id":302,"name":"Uncletopia | Montréal | 3 | All Maps","name_short":"mtl-3","host":"mtl-1.ca.uncletopia.com","port":27035,"enabled":true,"region":"us-east","cc":"ca","latitude":45.50889,"longitude":-73.56167,"reserved":0,"last_update":"0001-01-01T00:00:00Z","name_a2s":"Uncletopia | Montréal | 3 | All Maps","protocol":17,"map":"cp_snakewater_final1","folder":"tf","game":"Team Fortress","app_id":440,"player_count":0,"max_players":24,"Bots":0,"server_type":"Dedicated","server_os":"Linux","password":true,"vac":true,"version":"7882260","steam_id":85568392924500089,"keywords":["cp","nocrits","nodmgspread","uncletopia"],"game_id":440,"stv_port":27036,"stv_name":"Uncletopia | Montréal | 3 | All Maps | STV","players":null},{"server_id":303,"name":"Uncletopia | Montréal | 4 | No Payload","name_short":"mtl-4","host":"mtl-1.ca.uncletopia.com","port":27045,"enabled":true,"region":"us-east","cc":"ca","latitude":45.50889,"longitude":-73.56167,"reserved":0,"last_update":"0001-01-01T00:00:00Z","name_a2s":"Uncletopia | Montréal | 4 | No Payload","protocol":17,"map":"plr_pipeline","folder":"tf","game":"Team Fortress","app_id":440,"player_count":0,"max_players":24,"Bots":0,"server_type":"Dedicated","server_os":"Linux","password":true,"vac":true,"version":"7882260","steam_id":85568392924500090,"keywords":["nocrits","nodmgspread","payload","uncletopia"],"game_id":440,"stv_port":27046,"stv_name":"Uncletopia | Montréal | 4 | No Payload | STV","players":null},{"server_id":13,"name":"Uncletopia | New York City | 1 | All Maps","name_short":"nyc-1","host":"nyc-1.us.uncletopia.com","port":27015,"enabled":true,"region":"us-east","cc":"us","latitude":40.73061,"longitude":-73.93524,"reserved":0,"last_update":"0001-01-01T00:00:00Z","name_a2s":"Uncletopia | New York City | 1 | All Maps","protocol":17,"map":"koth_cascade","folder":"tf","game":"Team Fortress","app_id":440,"player_count":2,"max_players":24,"Bots":0,"server_type":"Dedicated","server_os":"Linux","password":true,"vac":true,"version":"7882260","steam_id":85568392924469993,"keywords":["cp","nocrits","nodmgspread","uncletopia"],"game_id":440,"stv_port":27016,"stv_name":"Uncletopia | New York City | 1 | All Maps | STV","players":[{"user_id":701,"name":"I'm a easy kill","steam_id":76561199092023746,"connected_time":541000000000,"state":"active","ping":111},{"user_id":610,"name":"Ludcmorais","steam_id":76561198359217809,"connected_time":9164000000000,"state":"active","ping":169}]},{"server_id":14,"name":"Uncletopia | New York City | 2 | All Maps","name_short":"nyc-2","host":"nyc-1.us.uncletopia.com","port":27025,"enabled":true,"region":"us-east","cc":"us","latitude":40.73061,"longitude":-73.93524,"reserved":0,"last_update":"0001-01-01T00:00:00Z","name_a2s":"Uncletopia | New York City | 2 | All Maps","protocol":17,"map":"pl_upward","folder":"tf","game":"Team Fortress","app_id":440,"player_count":0,"max_players":24,"Bots":0,"server_type":"Dedicated","server_os":"Linux","password":true,"vac":true,"version":"7882260","steam_id":85568392924469994,"keywords":["nocrits","nodmgspread","payload","uncletopia"],"game_id":440,"stv_port":27026,"stv_name":"Uncletopia | New York City | 2 | All Maps | STV","players":null},{"server_id":15,"name":"Uncletopia | New York City | 3 | Stopwatch Beta","name_short":"nyc-3","host":"nyc-1.us.uncletopia.com","port":27035,"enabled":true,"region":"us-east","cc":"us","latitude":40.73061,"longitude":-73.93524,"reserved":0,"last_update":"0001-01-01T00:00:00Z","name_a2s":"Uncletopia | New York City | 3 | Stopwatch Beta","protocol":17,"map":"workshop/koth_product_final.ugc454272353","folder":"tf","game":"Team Fortress","app_id":440,"player_count":0,"max_players":24,"Bots":0,"server_type":"Dedicated","server_os":"Linux","password":true,"vac":true,"version":"7882260","steam_id":85568392924742820,"keywords":["cp","nocrits","nodmgspread","uncletopia"],"game_id":440,"stv_port":27036,"stv_name":"Uncletopia | New York City | 3 | Stopwatch Beta | STV","players":null},{"server_id":16,"name":"Uncletopia | New York City | 4 | Community","name_short":"nyc-4","host":"nyc-1.us.uncletopia.com","port":27045,"enabled":true,"region":"us-east","cc":"us","latitude":40.73061,"longitude":-73.93524,"reserved":0,"last_update":"0001-01-01T00:00:00Z","name_a2s":"Uncletopia | New York City | 4 | Community","protocol":17,"map":"workshop/cp_snowbase_b18.ugc2081770490","folder":"tf","game":"Team Fortress","app_id":440,"player_count":0,"max_players":24,"Bots":0,"server_type":"Dedicated","server_os":"Linux","password":true,"vac":true,"version":"7882260","steam_id":85568392924742821,"keywords":["cp","nocrits","nodmgspread","uncletopia"],"game_id":440,"stv_port":27046,"stv_name":"Uncletopia | New York City | 4 | Community | STV","players":null},{"server_id":142,"name":"Uncletopia | São Paulo | 1 | All Maps","name_short":"sao-1","host":"sao-1.br.uncletopia.com","port":27015,"enabled":true,"region":"sa","cc":"br","latitude":-23.533773,"longitude":-46.62529,"reserved":0,"last_update":"0001-01-01T00:00:00Z","name_a2s":"Uncletopia | São Paulo | 1 | All Maps","protocol":17,"map":"koth_highpass","folder":"tf","game":"Team Fortress","app_id":440,"player_count":0,"max_players":24,"Bots":0,"server_type":"Dedicated","server_os":"Linux","password":true,"vac":true,"version":"7882260","steam_id":85568392924469996,"keywords":["cp","nocrits","nodmgspread","uncletopia"],"game_id":440,"stv_port":27016,"stv_name":"Uncletopia | São Paulo | 1 | All Maps | STV","players":null},{"server_id":143,"name":"Uncletopia | São Paulo | 2 | All Maps","name_short":"sao-2","host":"sao-2.br.uncletopia.com","port":27015,"enabled":true,"region":"sa","cc":"br","latitude":-23.533773,"longitude":-46.62529,"reserved":0,"last_update":"0001-01-01T00:00:00Z","name_a2s":"Uncletopia | São Paulo | 2 | All Maps","protocol":17,"map":"koth_cascade","folder":"tf","game":"Team Fortress","app_id":440,"player_count":0,"max_players":24,"Bots":0,"server_type":"Dedicated","server_os":"Linux","password":true,"vac":true,"version":"7882260","steam_id":85568392924485349,"keywords":["cp","nocrits","nodmgspread","uncletopia"],"game_id":440,"stv_port":27016,"stv_name":"Uncletopia | São Paulo | 2 | All Maps | STV","players":null},{"server_id":7,"name":"Uncletopia | Seattle | 1 | All Maps","name_short":"sea-1","host":"sea-1.us.uncletopia.com","port":27015,"enabled":true,"region":"us-west","cc":"us","latitude":47.608013,"longitude":-122.33517,"reserved":0,"last_update":"0001-01-01T00:00:00Z","name_a2s":"Uncletopia | Seattle | 1 | All Maps","protocol":17,"map":"pl_badwater","folder":"tf","game":"Team Fortress","app_id":440,"player_count":25,"max_players":24,"Bots":0,"server_type":"Dedicated","server_os":"Linux","password":true,"vac":true,"version":"7882260","steam_id":85568392924469997,"keywords":["nocrits","nodmgspread","payload","uncletopia"],"game_id":440,"stv_port":27016,"stv_name":"Uncletopia | Seattle | 1 | All Maps | STV","players":[{"user_id":791,"name":"Teddy","steam_id":76561198048106221,"connected_time":894000000000,"state":"active","ping":61},{"user_id":765,"name":"w1ppy","steam_id":76561198324695896,"connected_time":2620000000000,"state":"active","ping":45},{"user_id":796,"name":"Willy Wonker","steam_id":76561198082944789,"connected_time":656000000000,"state":"active","ping":75},{"user_id":742,"name":"gwy","steam_id":76561198277458653,"connected_time":4663000000000,"state":"active","ping":37},{"user_id":797,"name":"mango cafe","steam_id":76561198142328193,"connected_time":527000000000,"state":"active","ping":47},{"user_id":780,"name":"Otael","steam_id":76561198040685975,"connected_time":1563000000000,"state":"active","ping":120},{"user_id":722,"name":"Mr. Ravioli","steam_id":76561197996625649,"connected_time":6460000000000,"state":"active","ping":57},{"user_id":762,"name":"Shortbane","steam_id":76561198247166584,"connected_time":3137000000000,"state":"active","ping":116},{"user_id":800,"name":"Wavelengths (they/it)","steam_id":76561197997621320,"connected_time":5000000000,"state":"spawning","ping":83},{"user_id":748,"name":"exephur","steam_id":76561198135763234,"connected_time":4030000000000,"state":"active","ping":65},{"user_id":795,"name":"Username","steam_id":76561198855586261,"connected_time":784000000000,"state":"active","ping":68},{"user_id":778,"name":"antagonistic cutlery","steam_id":76561198844273999,"connected_time":1734000000000,"state":"active","ping":41},{"user_id":767,"name":"Miniclone #SaveTF2","steam_id":76561198435829882,"connected_time":2407000000000,"state":"active","ping":80},{"user_id":781,"name":"Periergos","steam_id":76561198062030412,"connected_time":1287000000000,"state":"active","ping":108},{"user_id":784,"name":"CEO of sticky's","steam_id":76561198343435310,"connected_time":1199000000000,"state":"active","ping":72},{"user_id":750,"name":"strbry","steam_id":76561198155133601,"connected_time":3636000000000,"state":"active","ping":53},{"user_id":729,"name":"rat gets the cheese","steam_id":76561198031234032,"connected_time":5694000000000,"state":"active","ping":96},{"user_id":787,"name":"SadFapping","steam_id":76561198076651049,"connected_time":918000000000,"state":"active","ping":56},{"user_id":739,"name":"An Old Lady","steam_id":76561198047480318,"connected_time":4690000000000,"state":"active","ping":81},{"user_id":798,"name":"Fostrel","steam_id":76561198152160601,"connected_time":437000000000,"state":"active","ping":107},{"user_id":801,"name":"wicked sick","steam_id":76561198873905070,"connected_time":5000000000,"state":"spawning","ping":108},{"user_id":731,"name":"Ayayayayayahuasca","steam_id":76561199002906056,"connected_time":5625000000000,"state":"active","ping":45},{"user_id":782,"name":"Bloblobbob","steam_id":76561199135937774,"connected_time":1221000000000,"state":"active","ping":71},{"user_id":789,"name":"Stev the Prurient Oxymoron","steam_id":76561197999442625,"connected_time":910000000000,"state":"active","ping":66},{"user_id":790,"name":"PopcornBucketGames","steam_id":76561199089562026,"connected_time":910000000000,"state":"active","ping":54}]},{"server_id":119,"name":"Uncletopia | Seattle | 2 | All Maps","name_short":"sea-2","host":"sea-1.us.uncletopia.com","port":27025,"enabled":true,"region":"us-west","cc":"us","latitude":47.608013,"longitude":-122.33517,"reserved":0,"last_update":"0001-01-01T00:00:00Z","name_a2s":"Uncletopia | Seattle | 2 | All Maps","protocol":17,"map":"pl_barnblitz","folder":"tf","game":"Team Fortress","app_id":440,"player_count":24,"max_players":24,"Bots":0,"server_type":"Dedicated","server_os":"Linux","password":true,"vac":true,"version":"7882260","steam_id":85568392924469998,"keywords":["nocrits","nodmgspread","payload","uncletopia"],"game_id":440,"stv_port":27026,"stv_name":"Uncletopia | Seattle | 2 | All Maps | STV","players":[{"user_id":699,"name":"Rat (real)","steam_id":76561198302366619,"connected_time":2991000000000,"state":"active","ping":70},{"user_id":723,"name":"mike, freshly circed","steam_id":76561198225411004,"connected_time":1368000000000,"state":"active","ping":60},{"user_id":675,"name":"rorywashere /ᐠ - ˕ -マ Ⳋ","steam_id":76561198065825165,"connected_time":5034000000000,"state":"active","ping":102},{"user_id":773,"name":"oil","steam_id":76561198099980149,"connected_time":110000000000,"state":"active","ping":79},{"user_id":687,"name":"Chocc","steam_id":76561198068070211,"connected_time":4280000000000,"state":"active","ping":92},{"user_id":590,"name":"Battery Acid Slurper","steam_id":76561198439793697,"connected_time":10498000000000,"state":"active","ping":100},{"user_id":696,"name":"NEBULA","steam_id":76561198086878595,"connected_time":3195000000000,"state":"active","ping":70},{"user_id":772,"name":"Finkly","steam_id":76561198049828110,"connected_time":117000000000,"state":"active","ping":45},{"user_id":778,"name":"Boyaredeen","steam_id":76561198880492636,"connected_time":64000000000,"state":"spawning","ping":59},{"user_id":749,"name":"Orca?","steam_id":76561198164341099,"connected_time":495000000000,"state":"active","ping":142},{"user_id":731,"name":"gerald","steam_id":76561198206903132,"connected_time":894000000000,"state":"active","ping":75},{"user_id":728,"name":"Ducks","steam_id":76561198130038345,"connected_time":1026000000000,"state":"active","ping":59},{"user_id":695,"name":"CranAppleGaming","steam_id":76561198398206209,"connected_time":3358000000000,"state":"active","ping":90},{"user_id":706,"name":"steelmonkey","steam_id":76561198144924704,"connected_time":2213000000000,"state":"active","ping":59},{"user_id":682,"name":"Cr0w!","steam_id":76561198178437265,"connected_time":4475000000000,"state":"active","ping":46},{"user_id":726,"name":"Thanks Ants","steam_id":76561197966221018,"connected_time":1155000000000,"state":"active","ping":49},{"user_id":776,"name":"Popeyes Employee","steam_id":76561198157341489,"connected_time":80000000000,"state":"active","ping":165},{"user_id":782,"name":"Vonny","steam_id":76561198126741957,"connected_time":9000000000,"state":"spawning","ping":54},{"user_id":713,"name":"lker","steam_id":76561197976975075,"connected_time":2086000000000,"state":"active","ping":105},{"user_id":719,"name":"louie, engineer main","steam_id":76561198168084763,"connected_time":1461000000000,"state":"active","ping":44},{"user_id":707,"name":"cheeto dorito","steam_id":76561198107941274,"connected_time":2207000000000,"state":"active","ping":77},{"user_id":737,"name":"Worm God","steam_id":76561198087339875,"connected_time":674000000000,"state":"active","ping":82},{"user_id":677,"name":"birthday jorts","steam_id":76561199041179985,"connected_time":4982000000000,"state":"active","ping":70},{"user_id":744,"name":"NecoArc_Fan2002","steam_id":76561199010139584,"connected_time":536000000000,"state":"active","ping":64}]},{"server_id":406,"name":"Uncletopia | Seattle | 3 | Stopwatch Beta","name_short":"sea-3","host":"sea-1.us.uncletopia.com","port":27035,"enabled":true,"region":"us-west","cc":"us","latitude":47.608013,"longitude":-122.33517,"reserved":0,"last_update":"0001-01-01T00:00:00Z","name_a2s":"Uncletopia | Seattle | 3 | Stopwatch Beta","protocol":17,"map":"cp_metalworks","folder":"tf","game":"Team Fortress","app_id":440,"player_count":22,"max_players":24,"Bots":0,"server_type":"Dedicated","server_os":"Linux","password":true,"vac":true,"version":"7882260","steam_id":85568392924515217,"keywords":["cp","nocrits","nodmgspread","uncletopia"],"game_id":440,"stv_port":27036,"stv_name":"Uncletopia | Seattle | 3 | Stopwatch Beta | STV","players":[{"user_id":206,"name":"Mr. Baseball","steam_id":76561198112635823,"connected_time":538000000000,"state":"active","ping":78},{"user_id":209,"name":"Edendelt","steam_id":76561199382750867,"connected_time":452000000000,"state":"active","ping":84},{"user_id":216,"name":"ghostFireGloom","steam_id":76561198385231745,"connected_time":47000000000,"state":"active","ping":51},{"user_id":204,"name":"Dreamy Sweat from 2hu","steam_id":76561198094602446,"connected_time":567000000000,"state":"active","ping":60},{"user_id":158,"name":"big fish","steam_id":76561198186479818,"connected_time":3613000000000,"state":"active","ping":84},{"user_id":199,"name":"PulledPork","steam_id":76561198182077258,"connected_time":785000000000,"state":"active","ping":32},{"user_id":170,"name":"SleezeBaggerMcSwagger","steam_id":76561198397836238,"connected_time":2716000000000,"state":"active","ping":74},{"user_id":195,"name":"Leaderofthe00fkins","steam_id":76561198281999872,"connected_time":1181000000000,"state":"active","ping":81},{"user_id":189,"name":"Lambchop","steam_id":76561198043900363,"connected_time":1437000000000,"state":"active","ping":75},{"user_id":190,"name":"Mapachito Lindo","steam_id":76561198031359995,"connected_time":1436000000000,"state":"active","ping":47},{"user_id":217,"name":"Wermware Tech. Standing CTO","steam_id":76561198143209841,"connected_time":21000000000,"state":"active","ping":45},{"user_id":211,"name":"WhyRoman","steam_id":76561199484705544,"connected_time":345000000000,"state":"active","ping":82},{"user_id":177,"name":"orio","steam_id":76561198116550170,"connected_time":2500000000000,"state":"active","ping":61},{"user_id":197,"name":"A very angry bear","steam_id":76561199247095754,"connected_time":1088000000000,"state":"active","ping":71},{"user_id":200,"name":"Mikidy","steam_id":76561197972958970,"connected_time":770000000000,"state":"active","ping":76},{"user_id":213,"name":"crystal","steam_id":76561198106859701,"connected_time":276000000000,"state":"active","ping":61},{"user_id":183,"name":"chimpman","steam_id":76561198295713840,"connected_time":2363000000000,"state":"active","ping":77},{"user_id":181,"name":"Leidon","steam_id":76561198078386945,"connected_time":2381000000000,"state":"active","ping":87},{"user_id":187,"name":"Dallas","steam_id":76561198106184089,"connected_time":1829000000000,"state":"active","ping":116},{"user_id":214,"name":"GIGAHAXX","steam_id":76561197993714726,"connected_time":255000000000,"state":"active","ping":74},{"user_id":163,"name":"ゴ?!Jon Chainsaw!?ゴ","steam_id":76561198400240040,"connected_time":3438000000000,"state":"active","ping":118},{"user_id":182,"name":"gung6n","steam_id":76561198099843841,"connected_time":2377000000000,"state":"active","ping":96}]},{"server_id":17,"name":"Uncletopia | San Francisco | 1 | All Maps","name_short":"sfo-1","host":"sfo-1.us.uncletopia.com","port":27015,"enabled":true,"region":"us-west","cc":"us","latitude":37.77397,"longitude":-122.4313,"reserved":0,"last_update":"0001-01-01T00:00:00Z","name_a2s":"Uncletopia | San Francisco | 1 | All Maps","protocol":17,"map":"cp_process_final","folder":"tf","game":"Team Fortress","app_id":440,"player_count":0,"max_players":24,"Bots":0,"server_type":"Dedicated","server_os":"Linux","password":true,"vac":true,"version":"7757534","steam_id":85568392924469999,"keywords":["cp","nocrits","nodmgspread","uncletopia"],"game_id":440,"stv_port":27016,"stv_name":"Uncletopia | San Francisco | 1 | All Maps | STV","players":null},{"server_id":18,"name":"Uncletopia | San Francisco | 2 | All Maps","name_short":"sfo-2","host":"sfo-1.us.uncletopia.com","port":27025,"enabled":true,"region":"us-west","cc":"us","latitude":37.77397,"longitude":-122.4313,"reserved":0,"last_update":"0001-01-01T00:00:00Z","name_a2s":"Uncletopia | San Francisco | 2 | All Maps","protocol":17,"map":"koth_highpass","folder":"tf","game":"Team Fortress","app_id":440,"player_count":0,"max_players":24,"Bots":0,"server_type":"Dedicated","server_os":"Linux","password":true,"vac":true,"version":"7757534","steam_id":85568392924470000,"keywords":["cp","nocrits","nodmgspread","uncletopia"],"game_id":440,"stv_port":27026,"stv_name":"Uncletopia | San Francisco | 2 | All Maps | STV","players":null},{"server_id":19,"name":"Uncletopia | San Francisco | 3 | Stopwatch Beta","name_short":"sfo-3","host":"sfo-1.us.uncletopia.com","port":27035,"enabled":true,"region":"us-west","cc":"us","latitude":37.77397,"longitude":-122.4313,"reserved":0,"last_update":"0001-01-01T00:00:00Z","name_a2s":"Uncletopia | San Francisco | 3 | Stopwatch Beta","protocol":17,"map":"koth_lakeside_final","folder":"tf","game":"Team Fortress","app_id":440,"player_count":0,"max_players":24,"Bots":0,"server_type":"Dedicated","server_os":"Linux","password":true,"vac":true,"version":"7757534","steam_id":85568392924742824,"keywords":["cp","nocrits","nodmgspread","uncletopia"],"game_id":440,"stv_port":27036,"stv_name":"Uncletopia | San Francisco | 3 | Stopwatch Beta | STV","players":null},{"server_id":20,"name":"Uncletopia | San Francisco | 4 | Community","name_short":"sfo-4","host":"sfo-1.us.uncletopia.com","port":27045,"enabled":true,"region":"us-west","cc":"us","latitude":37.77397,"longitude":-122.4313,"reserved":0,"last_update":"0001-01-01T00:00:00Z","name_a2s":"Uncletopia | San Francisco | 4 | Community","protocol":17,"map":"cp_altitude","folder":"tf","game":"Team Fortress","app_id":440,"player_count":0,"max_players":24,"Bots":0,"server_type":"Dedicated","server_os":"Linux","password":true,"vac":true,"version":"7757534","steam_id":85568392924742826,"keywords":["cp","nocrits","nodmgspread","uncletopia"],"game_id":440,"stv_port":27046,"stv_name":"Uncletopia | San Francisco | 4 | Community | STV","players":null},{"server_id":141,"name":"Uncletopia | Sydney | 1 | All Maps","name_short":"syd-1","host":"syd-1.au.uncletopia.com","port":27015,"enabled":true,"region":"au","cc":"au","latitude":-33.865143,"longitude":151.2099,"reserved":0,"last_update":"0001-01-01T00:00:00Z","name_a2s":"Uncletopia | Sydney | 1 | All Maps","protocol":17,"map":"pl_badwater","folder":"tf","game":"Team Fortress","app_id":440,"player_count":24,"max_players":24,"Bots":0,"server_type":"Dedicated","server_os":"Linux","password":true,"vac":true,"version":"7882260","steam_id":85568392924470001,"keywords":["nocrits","nodmgspread","payload","uncletopia"],"game_id":440,"stv_port":27016,"stv_name":"Uncletopia | Sydney | 1 | All Maps | STV","players":[{"user_id":127,"name":"Hungry for thumbtacks","steam_id":76561198059129270,"connected_time":241000000000,"state":"active","ping":70},{"user_id":128,"name":"Kremmen","steam_id":76561198051368641,"connected_time":192000000000,"state":"active","ping":66},{"user_id":119,"name":"i only said","steam_id":76561199436707447,"connected_time":937000000000,"state":"active","ping":57},{"user_id":123,"name":"Overlold","steam_id":76561197978635495,"connected_time":844000000000,"state":"active","ping":83},{"user_id":82,"name":"Rodan","steam_id":76561198038401873,"connected_time":2788000000000,"state":"active","ping":89},{"user_id":121,"name":"[ѵƇity] it has been ages","steam_id":76561198016686295,"connected_time":875000000000,"state":"active","ping":68},{"user_id":125,"name":"thewisecowboy","steam_id":76561198040196873,"connected_time":253000000000,"state":"active","ping":61},{"user_id":87,"name":"Pizza","steam_id":76561199154318083,"connected_time":2490000000000,"state":"active","ping":69},{"user_id":126,"name":"SubHam","steam_id":76561198071578622,"connected_time":249000000000,"state":"active","ping":72},{"user_id":117,"name":"Minimindd","steam_id":76561199006274892,"connected_time":1084000000000,"state":"active","ping":52},{"user_id":101,"name":"Islandofawesome","steam_id":76561198047527920,"connected_time":2057000000000,"state":"active","ping":53},{"user_id":91,"name":"Denszeal","steam_id":76561198313718095,"connected_time":2322000000000,"state":"active","ping":76},{"user_id":92,"name":"Juice","steam_id":76561198345462790,"connected_time":2271000000000,"state":"active","ping":58},{"user_id":93,"name":"WogBat","steam_id":76561198151221055,"connected_time":2265000000000,"state":"active","ping":57},{"user_id":113,"name":"Second Lieutenant Pisser","steam_id":76561198866538028,"connected_time":1300000000000,"state":"active","ping":78},{"user_id":120,"name":"veteran","steam_id":76561199457046392,"connected_time":927000000000,"state":"active","ping":80},{"user_id":96,"name":"LeDentalFloose","steam_id":76561198004537575,"connected_time":2192000000000,"state":"active","ping":97},{"user_id":108,"name":"soupy","steam_id":76561198073734936,"connected_time":1816000000000,"state":"active","ping":86},{"user_id":114,"name":"Mooty","steam_id":76561198301293435,"connected_time":1280000000000,"state":"active","ping":53},{"user_id":109,"name":"whiteshaq","steam_id":76561198131988811,"connected_time":1709000000000,"state":"active","ping":54},{"user_id":105,"name":"MagicalPotato","steam_id":76561198057107336,"connected_time":1952000000000,"state":"active","ping":82},{"user_id":106,"name":"BUMHOLE","steam_id":76561199222889832,"connected_time":1948000000000,"state":"active","ping":77},{"user_id":111,"name":"1337","steam_id":76561198014150202,"connected_time":1465000000000,"state":"active","ping":106},{"user_id":116,"name":"Father Russia","steam_id":76561198850058789,"connected_time":1182000000000,"state":"active","ping":95}]},{"server_id":123,"name":"Uncletopia | Sydney | 2 | All Maps","name_short":"syd-2","host":"syd-1.au.uncletopia.com","port":27025,"enabled":true,"region":"au","cc":"au","latitude":-33.865143,"longitude":151.2099,"reserved":0,"last_update":"0001-01-01T00:00:00Z","name_a2s":"Uncletopia | Sydney | 2 | All Maps","protocol":17,"map":"koth_viaduct","folder":"tf","game":"Team Fortress","app_id":440,"player_count":6,"max_players":24,"Bots":0,"server_type":"Dedicated","server_os":"Linux","password":true,"vac":true,"version":"7882260","steam_id":85568392924470002,"keywords":["cp","nocrits","nodmgspread","uncletopia"],"game_id":440,"stv_port":27026,"stv_name":"Uncletopia | Sydney | 2 | All Maps | STV","players":[{"user_id":16,"name":"Creamy Gusset","steam_id":76561198001544539,"connected_time":22000000000,"state":"active","ping":53},{"user_id":7,"name":"Sissy Hypno Enjoyer","steam_id":76561198082820368,"connected_time":913000000000,"state":"active","ping":71},{"user_id":14,"name":"dreamydoggy","steam_id":76561198448243169,"connected_time":276000000000,"state":"active","ping":54},{"user_id":9,"name":"Doc","steam_id":76561198065324789,"connected_time":894000000000,"state":"active","ping":59},{"user_id":10,"name":"MikkyD","steam_id":76561198043452962,"connected_time":633000000000,"state":"active","ping":60},{"user_id":15,"name":"Retrovertigo","steam_id":76561198049285942,"connected_time":257000000000,"state":"active","ping":77}]},{"server_id":395,"name":"Uncletopia | Sydney | 3 | All Maps","name_short":"syd-3","host":"syd-1.au.uncletopia.com","port":27035,"enabled":true,"region":"au","cc":"au","latitude":-33.865143,"longitude":151.2099,"reserved":0,"last_update":"0001-01-01T00:00:00Z","name_a2s":"Uncletopia | Sydney | 3 | All Maps","protocol":17,"map":"koth_cascade","folder":"tf","game":"Team Fortress","app_id":440,"player_count":0,"max_players":24,"Bots":0,"server_type":"Dedicated","server_os":"Linux","password":true,"vac":true,"version":"7882260","steam_id":85568392925194467,"keywords":["cp","nocrits","nodmgspread","uncletopia"],"game_id":440,"stv_port":27036,"stv_name":"Uncletopia | Sydney | 3 | All Maps | STV","players":null},{"server_id":396,"name":"Uncletopia | Sydney | 4 | All Maps","name_short":"syd-4","host":"syd-1.au.uncletopia.com","port":27045,"enabled":true,"region":"au","cc":"au","latitude":-33.865143,"longitude":151.2099,"reserved":0,"last_update":"0001-01-01T00:00:00Z","name_a2s":"Uncletopia | Sydney | 4 | All Maps","protocol":17,"map":"koth_cascade","folder":"tf","game":"Team Fortress","app_id":440,"player_count":0,"max_players":24,"Bots":0,"server_type":"Dedicated","server_os":"Linux","password":true,"vac":true,"version":"7882260","steam_id":85568392925397958,"keywords":["cp","nocrits","nodmgspread","uncletopia"],"game_id":440,"stv_port":27046,"stv_name":"Uncletopia | Sydney | 4 | All Maps | STV","players":null},{"server_id":58,"name":"Uncletopia | Sydney | 5 | Stopwatch Beta","name_short":"syd-5","host":"syd-1.au.uncletopia.com","port":27055,"enabled":true,"region":"au","cc":"au","latitude":-33.865143,"longitude":151.2099,"reserved":0,"last_update":"0001-01-01T00:00:00Z","name_a2s":"Uncletopia | Sydney | 5 | Stopwatch Beta","protocol":17,"map":"pl_swiftwater_final1","folder":"tf","game":"Team Fortress","app_id":440,"player_count":0,"max_players":24,"Bots":0,"server_type":"Dedicated","server_os":"Linux","password":true,"vac":true,"version":"7882260","steam_id":85568392925397959,"keywords":["nocrits","nodmgspread","payload","uncletopia"],"game_id":440,"stv_port":27056,"stv_name":"Uncletopia | Sydney | 5 | Stopwatch Beta | STV","players":null},{"server_id":59,"name":"Uncletopia | Sydney | 6 | Community","name_short":"syd-6","host":"syd-1.au.uncletopia.com","port":27065,"enabled":true,"region":"au","cc":"au","latitude":-33.865143,"longitude":151.2099,"reserved":0,"last_update":"0001-01-01T00:00:00Z","name_a2s":"Uncletopia | Sydney | 6 | Community","protocol":17,"map":"pl_snowycoast","folder":"tf","game":"Team Fortress","app_id":440,"player_count":0,"max_players":24,"Bots":0,"server_type":"Dedicated","server_os":"Linux","password":true,"vac":true,"version":"7882260","steam_id":85568392925397960,"keywords":["nocrits","nodmgspread","payload","uncletopia"],"game_id":440,"stv_port":27066,"stv_name":"Uncletopia | Sydney | 6 | Community | STV","players":null},{"server_id":49,"name":"Uncletopia | Warsaw | 1 | All Maps","name_short":"waw-1","host":"waw-1.pl.uncletopia.com","port":27015,"enabled":true,"region":"eu","cc":"pl","latitude":52.2297,"longitude":21.017532,"reserved":0,"last_update":"0001-01-01T00:00:00Z","name_a2s":"","protocol":0,"map":"","folder":"","game":"","app_id":0,"player_count":0,"max_players":0,"Bots":0,"server_type":"","server_os":"","password":false,"vac":false,"version":"","steam_id":0,"keywords":null,"game_id":0,"stv_port":0,"stv_name":"","players":null},{"server_id":50,"name":"Uncletopia | Warsaw | 2 | All Maps","name_short":"waw-2","host":"waw-1.pl.uncletopia.com","port":27025,"enabled":true,"region":"eu","cc":"pl","latitude":52.2297,"longitude":21.017532,"reserved":0,"last_update":"0001-01-01T00:00:00Z","name_a2s":"Uncletopia | Warsaw | 2 | All Maps","protocol":17,"map":"pl_swiftwater_final1","folder":"tf","game":"Team Fortress","app_id":440,"player_count":0,"max_players":24,"Bots":0,"server_type":"Dedicated","server_os":"Linux","password":true,"vac":true,"version":"7882260","steam_id":85568392925397851,"keywords":["nocrits","nodmgspread","payload","uncletopia"],"game_id":440,"stv_port":27026,"stv_name":"Uncletopia | Warsaw | 2 | All Maps | STV","players":null},{"server_id":51,"name":"Uncletopia | Warsaw | 3 | All Maps","name_short":"waw-3","host":"waw-1.pl.uncletopia.com","port":27035,"enabled":true,"region":"eu","cc":"pl","latitude":52.2297,"longitude":21.017532,"reserved":0,"last_update":"0001-01-01T00:00:00Z","name_a2s":"Uncletopia | Warsaw | 3 | All Maps","protocol":17,"map":"koth_viaduct","folder":"tf","game":"Team Fortress","app_id":440,"player_count":0,"max_players":24,"Bots":0,"server_type":"Dedicated","server_os":"Linux","password":true,"vac":true,"version":"7882260","steam_id":85568392925397852,"keywords":["cp","nocrits","nodmgspread","uncletopia"],"game_id":440,"stv_port":27036,"stv_name":"Uncletopia | Warsaw | 3 | All Maps | STV","players":null},{"server_id":52,"name":"Uncletopia | Warsaw | 4 | All Maps","name_short":"waw-4","host":"waw-1.pl.uncletopia.com","port":27045,"enabled":true,"region":"eu","cc":"pl","latitude":52.2297,"longitude":21.017532,"reserved":0,"last_update":"0001-01-01T00:00:00Z","name_a2s":"Uncletopia | Warsaw | 4 | All Maps","protocol":17,"map":"koth_highpass","folder":"tf","game":"Team Fortress","app_id":440,"player_count":0,"max_players":24,"Bots":0,"server_type":"Dedicated","server_os":"Linux","password":true,"vac":true,"version":"7882260","steam_id":85568392925397853,"keywords":["cp","nocrits","nodmgspread","uncletopia"],"game_id":440,"stv_port":27046,"stv_name":"Uncletopia | Warsaw | 4 | All Maps | STV","players":null},{"server_id":53,"name":"Uncletopia | Warsaw | 5 | Stopwatch Beta","name_short":"waw-5","host":"waw-1.pl.uncletopia.com","port":27055,"enabled":true,"region":"eu","cc":"pl","latitude":52.2297,"longitude":21.017532,"reserved":0,"last_update":"0001-01-01T00:00:00Z","name_a2s":"Uncletopia | Warsaw | 5 | Stopwatch Beta","protocol":17,"map":"cp_mountainlab","folder":"tf","game":"Team Fortress","app_id":440,"player_count":0,"max_players":24,"Bots":0,"server_type":"Dedicated","server_os":"Linux","password":true,"vac":true,"version":"7882260","steam_id":85568392925397854,"keywords":["cp","nocrits","nodmgspread","uncletopia"],"game_id":440,"stv_port":27056,"stv_name":"Uncletopia | Warsaw | 5 | Stopwatch Beta | STV","players":null},{"server_id":54,"name":"Uncletopia | Warsaw | 6 | Community","name_short":"waw-6","host":"waw-1.pl.uncletopia.com","port":27065,"enabled":true,"region":"eu","cc":"pl","latitude":52.2297,"longitude":21.017532,"reserved":0,"last_update":"0001-01-01T00:00:00Z","name_a2s":"Uncletopia | Warsaw | 6 | Community","protocol":17,"map":"koth_viaduct","folder":"tf","game":"Team Fortress","app_id":440,"player_count":0,"max_players":24,"Bots":0,"server_type":"Dedicated","server_os":"Linux","password":true,"vac":true,"version":"7882260","steam_id":85568392925397856,"keywords":["cp","nocrits","nodmgspread","uncletopia"],"game_id":440,"stv_port":27066,"stv_name":"Uncletopia | Warsaw | 6 | Community | STV","players":null}]}