{"status":true,"message":"","result":[{"server_id":9,"name":"Uncletopia | Atlanta | 1 | All Maps","name_short":"atl-1","host":"atl-1.us.uncletopia.com","port":27015,"enabled":true,"region":"us-east","cc":"us","latitude":33.753746,"longitude":-84.38633,"reserved":0,"last_update":"0001-01-01T00:00:00Z","name_a2s":"Uncletopia | Atlanta | 1 | All Maps","protocol":17,"map":"pl_pier","folder":"tf","game":"Team Fortress","app_id":440,"player_count":24,"max_players":24,"Bots":0,"server_type":"Dedicated","server_os":"Linux","password":true,"vac":true,"version":"7961495","steam_id":85568392924469982,"keywords":["nocrits","nodmgspread","payload","uncletopia"],"game_id":440,"stv_port":27016,"stv_name":"Uncletopia | Atlanta | 1 | All Maps | STV","players":null},{"server_id":104,"name":"Uncletopia | Atlanta | 2 | All Maps","name_short":"atl-2","host":"atl-1.us.uncletopia.com","port":27025,"enabled":true,"region":"us-east","cc":"us","latitude":33.753746,"longitude":-84.38633,"reserved":0,"last_update":"0001-01-01T00:00:00Z","name_a2s":"Uncletopia | Atlanta | 2 | All Maps","protocol":17,"map":"koth_cascade","folder":"tf","game":"Team Fortress","app_id":440,"player_count":0,"max_players":24,"Bots":0,"server_type":"Dedicated","server_os":"Linux","password":true,"vac":true,"version":"7961495","steam_id":85568392924469983,"keywords":["cp","nocrits","nodmgspread","uncletopia"],"game_id":440,"stv_port":27026,"stv_name":"Uncletopia | Atlanta | 2 | All Maps | STV","players":null},{"server_id":400,"name":"Uncletopia | Atlanta | 3 | Stopwatch","name_short":"atl-3","host":"atl-1.us.uncletopia.com","port":27035,"enabled":true,"region":"us-east","cc":"us","latitude":33.753746,"longitude":-84.38633,"reserved":0,"last_update":"0001-01-01T00:00:00Z","name_a2s":"Uncletopia | Atlanta | 3 | Stopwatch","protocol":17,"map":"pl_upward","folder":"tf","game":"Team Fortress","app_id":440,"player_count":0,"max_players":24,"Bots":0,"server_type":"Dedicated","server_os":"Linux","password":true,"vac":true,"version":"7961495","steam_id":85568392924515187,"keywords":["nocrits","nodmgspread","payload","uncletopia"],"game_id":440,"stv_port":27036,"stv_name":"Uncletopia | Atlanta | 3 | Stopwatch | STV","players":null},{"server_id":401,"name":"Uncletopia | Atlanta | 4 | Community","name_short":"atl-4","host":"atl-1.us.uncletopia.com","port":27045,"enabled":true,"region":"us-east","cc":"us","latitude":33.753746,"longitude":-84.38633,"reserved":0,"last_update":"0001-01-01T00:00:00Z","name_a2s":"Uncletopia | Atlanta | 4 | Community","protocol":17,"map":"koth_kemptown_rc1","folder":"tf","game":"Team Fortress","app_id":440,"player_count":0,"max_players":24,"Bots":0,"server_type":"Dedicated","server_os":"Linux","password":true,"vac":true,"version":"7961495","steam_id":85568392924515188,"keywords":["cp","nocrits","nodmgspread","uncletopia"],"game_id":440,"stv_port":27046,"stv_name":"Uncletopia | Atlanta | 4 | Community | STV","players":null},{"server_id":2,"name":"Uncletopia | Chicago | 1 | All Maps","name_short":"chi-1","host":"chi-1.us.uncletopia.com","port":27015,"enabled":true,"region":"us-central","cc":"us","latitude":41.881832,"longitude":-87.62318,"reserved":0,"last_update":"0001-01-01T00:00:00Z","name_a2s":"Uncletopia | Chicago | 1 | All Maps","protocol":17,"map":"pl_borneo","folder":"tf","game":"Team Fortress","app_id":440,"player_count":24,"max_players":24,"Bots":0,"server_type":"Dedicated","server_os":"Linux","password":true,"vac":true,"version":"7961495","steam_id":85568392924469984,"keywords":["nocrits","nodmgspread","payload","uncletopia"],"game_id":440,"stv_port":27016,"stv_name":"Uncletopia | Chicago | 1 | All Maps | STV","players":[{"user_id":404,"name":"Hezxp","steam_id":76561198312931111,"connected_time":676000000000,"state":"active","ping":75},{"user_id":405,"name":"Jeremy","steam_id":76561198286240347,"connected_time":603000000000,"state":"active","ping":64},{"user_id":377,"name":"SaaxoM","steam_id":76561198208256603,"connected_time":3116000000000,"state":"active","ping":100},{"user_id":391,"name":"moe","steam_id":76561198929586245,"connected_time":2064000000000,"state":"active","ping":106},{"user_id":387,"name":"Sunflower","steam_id":76561198081223793,"connected_time":2500000000000,"state":"active","ping":52},{"user_id":417,"name":"aiden","steam_id":76561198449527009,"connected_time":235000000000,"state":"active","ping":107},{"user_id":407,"name":"BigBubble42","steam_id":76561198136286123,"connected_time":582000000000,"state":"active","ping":53},{"user_id":414,"name":"Hertz","steam_id":76561198245322982,"connected_time":410000000000,"state":"active","ping":46},{"user_id":333,"name":"Ras","steam_id":76561198123546775,"connected_time":4970000000000,"state":"active","ping":90},{"user_id":397,"name":"I haven't even begun to peak","steam_id":76561198022302843,"connected_time":1313000000000,"state":"active","ping":83},{"user_id":398,"name":"Rappitor","steam_id":76561198105613110,"connected_time":1186000000000,"state":"active","ping":48},{"user_id":381,"name":"Teleporter  (Entrance, Level 3)","steam_id":76561198316927664,"connected_time":2688000000000,"state":"active","ping":76},{"user_id":334,"name":"Smooth, Refreshing Bleach™","steam_id":76561197981060504,"connected_time":4957000000000,"state":"active","ping":49},{"user_id":412,"name":"Lemons","steam_id":76561198125139930,"connected_time":471000000000,"state":"active","ping":58},{"user_id":367,"name":"berserker_tf2 yt","steam_id":76561198303464488,"connected_time":3839000000000,"state":"active","ping":67},{"user_id":413,"name":"CTRLZ0Y","steam_id":76561198183346187,"connected_time":443000000000,"state":"active","ping":75},{"user_id":360,"name":"Rtx Fred ●","steam_id":76561198999217575,"connected_time":4180000000000,"state":"active","ping":69},{"user_id":416,"name":"MR.THE TOASTER","steam_id":76561199109565739,"connected_time":326000000000,"state":"active","ping":79},{"user_id":409,"name":"Willhelm","steam_id":76561198046569146,"connected_time":573000000000,"state":"active","ping":134},{"user_id":418,"name":"Comfy!","steam_id":76561198008818346,"connected_time":106000000000,"state":"active","ping":72},{"user_id":410,"name":"::INVEST IN SKYNET::","steam_id":76561198144436132,"connected_time":558000000000,"state":"active","ping":77},{"user_id":411,"name":"soup time","steam_id":76561197961488590,"connected_time":545000000000,"state":"active","ping":60},{"user_id":374,"name":"Hylic","steam_id":76561199051314589,"connected_time":3281000000000,"state":"active","ping":72},{"user_id":415,"name":"Sqiddwr","steam_id":76561197998071622,"connected_time":386000000000,"state":"active","ping":88}]},{"server_id":106,"name":"Uncletopia | Chicago | 2 | All Maps","name_short":"chi-2","host":"chi-1.us.uncletopia.com","port":27025,"enabled":true,"region":"us-central","cc":"us","latitude":41.881832,"longitude":-87.62318,"reserved":0,"last_update":"0001-01-01T00:00:00Z","name_a2s":"Uncletopia | Chicago | 2 | All Maps","protocol":17,"map":"koth_nucleus","folder":"tf","game":"Team Fortress","app_id":440,"player_count":24,"max_players":24,"Bots":0,"server_type":"Dedicated","server_os":"Linux","password":true,"vac":true,"version":"7961495","steam_id":85568392924469985,"keywords":["cp","nocrits","nodmgspread","uncletopia"],"game_id":440,"stv_port":27026,"stv_name":"Uncletopia | Chicago | 2 | All Maps | STV","players":[{"user_id":8,"name":"Bobato Chaps","steam_id":76561198065103552,"connected_time":13699000000000,"state":"active","ping":47},{"user_id":97,"name":"qt pa 2t","steam_id":76561198066867150,"connected_time":7855000000000,"state":"active","ping":63},{"user_id":177,"name":"5yt LFB","steam_id":76561198041643833,"connected_time":967000000000,"state":"active","ping":88},{"user_id":178,"name":"Kremit the Frog","steam_id":76561198075985995,"connected_time":959000000000,"state":"active","ping":68},{"user_id":191,"name":"VerrucktMedic","steam_id":76561198093144226,"connected_time":332000000000,"state":"active","ping":73},{"user_id":180,"name":"Moudura","steam_id":76561199102790129,"connected_time":933000000000,"state":"active","ping":180},{"user_id":170,"name":"[MRY] Sk-iLite","steam_id":76561198041797350,"connected_time":1831000000000,"state":"active","ping":69},{"user_id":95,"name":"fi_ji","steam_id":76561198126087725,"connected_time":7879000000000,"state":"active","ping":69},{"user_id":190,"name":"NaselPopcorn","steam_id":76561199454333176,"connected_time":517000000000,"state":"active","ping":98},{"user_id":184,"name":"g00bur","steam_id":76561197993622520,"connected_time":876000000000,"state":"active","ping":67},{"user_id":160,"name":"Asha'man","steam_id":76561198057913763,"connected_time":3156000000000,"state":"active","ping":45},{"user_id":137,"name":"William Wallace","steam_id":76561199343316814,"connected_time":5023000000000,"state":"active","ping":70},{"user_id":168,"name":"Ġ1 ♦ Synth","steam_id":76561198058660228,"connected_time":2068000000000,"state":"active","ping":59},{"user_id":149,"name":"Barmy","steam_id":76561198111626352,"connected_time":4400000000000,"state":"active","ping":91},{"user_id":128,"name":"Bear","steam_id":76561198062949510,"connected_time":5298000000000,"state":"active","ping":49},{"user_id":140,"name":"the rizzler","steam_id":76561198012917426,"connected_time":4985000000000,"state":"active","ping":67},{"user_id":182,"name":"Galaxy_42","steam_id":76561198845514831,"connected_time":925000000000,"state":"active","ping":75},{"user_id":183,"name":"_grug__","steam_id":76561198165311232,"connected_time":890000000000,"state":"active","ping":72},{"user_id":117,"name":"kimchy101","steam_id":76561198202721584,"connected_time":5640000000000,"state":"active","ping":54},{"user_id":148,"name":"i suffer from ligma","steam_id":76561199158496518,"connected_time":4449000000000,"state":"active","ping":141},{"user_id":172,"name":"jxh300","steam_id":76561199196579894,"connected_time":1462000000000,"state":"active","ping":73},{"user_id":188,"name":"Nassu","steam_id":76561198147367577,"connected_time":580000000000,"state":"active","ping":78},{"user_id":186,"name":"the rizzenstein","steam_id":76561199054562939,"connected_time":778000000000,"state":"active","ping":80},{"user_id":189,"name":"JxyGREED","steam_id":76561198345026653,"connected_time":571000000000,"state":"active","ping":73}]},{"server_id":402,"name":"Uncletopia | Chicago | 3 | All Maps","name_short":"chi-3","host":"chi-1.us.uncletopia.com","port":27035,"enabled":true,"region":"us-central","cc":"us","latitude":41.881832,"longitude":-87.62318,"reserved":0,"last_update":"0001-01-01T00:00:00Z","name_a2s":"Uncletopia | Chicago | 3 | All Maps","protocol":17,"map":"pl_pier","folder":"tf","game":"Team Fortress","app_id":440,"player_count":5,"max_players":24,"Bots":0,"server_type":"Dedicated","server_os":"Linux","password":true,"vac":true,"version":"7961495","steam_id":85568392924515191,"keywords":["nocrits","nodmgspread","payload","uncletopia"],"game_id":440,"stv_port":27036,"stv_name":"Uncletopia | Chicago | 3 | All Maps | STV","players":[{"user_id":25,"name":"Carlos Spartan","steam_id":76561198362047478,"connected_time":267000000000,"state":"active","ping":93},{"user_id":24,"name":"cakgamin","steam_id":76561199088909749,"connected_time":370000000000,"state":"active","ping":57},{"user_id":20,"name":"Spright","steam_id":76561199144266247,"connected_time":1367000000000,"state":"active","ping":77},{"user_id":27,"name":"ChillyJones","steam_id":76561198017658702,"connected_time":91000000000,"state":"active","ping":75},{"user_id":28,"name":"misterspud","steam_id":76561198195306218,"connected_time":54000000000,"state":"active","ping":43}]},{"server_id":403,"name":"Uncletopia | Chicago | 4 | All Maps","name_short":"chi-4","host":"chi-1.us.uncletopia.com","port":27045,"enabled":true,"region":"us-central","cc":"us","latitude":41.881832,"longitude":-87.62318,"reserved":0,"last_update":"0001-01-01T00:00:00Z","name_a2s":"Uncletopia | Chicago | 4 | All Maps","protocol":17,"map":"cp_mountainlab","folder":"tf","game":"Team Fortress","app_id":440,"player_count":3,"max_players":24,"Bots":0,"server_type":"Dedicated","server_os":"Linux","password":true,"vac":true,"version":"7961495","steam_id":85568392924515193,"keywords":["cp","nocrits","nodmgspread","uncletopia"],"game_id":440,"stv_port":27046,"stv_name":"Uncletopia | Chicago | 4 | All Maps | STV","players":[{"user_id":7,"name":"Mikael_01","steam_id":76561199080253129,"connected_time":230000000000,"state":"active","ping":185},{"user_id":8,"name":"LeBron James","steam_id":76561198167974713,"connected_time":149000000000,"state":"active","ping":60},{"user_id":10,"name":"OrangeSodaMachine","steam_id":76561198079230156,"connected_time":73000000000,"state":"active","ping":65}]},{"server_id":36,"name":"Uncletopia | Chicago | 5 | All Maps","name_short":"chi-5","host":"chi-2.us.uncletopia.com","port":27015,"enabled":true,"region":"us-central","cc":"us","latitude":41.881832,"longitude":-87.62318,"reserved":0,"last_update":"0001-01-01T00:00:00Z","name_a2s":"Uncletopia | Chicago | 5 | All Maps","protocol":17,"map":"cp_sunshine","folder":"tf","game":"Team Fortress","app_id":440,"player_count":24,"max_players":24,"Bots":0,"server_type":"Dedicated","server_os":"Linux","password":true,"vac":true,"version":"7961495","steam_id":85568392924866362,"keywords":["cp","nocrits","nodmgspread","uncletopia"],"game_id":440,"stv_port":27016,"stv_name":"Uncletopia | Chicago | 5 | All Maps | STV","players":[{"user_id":30,"name":"Loaf","steam_id":76561198446378419,"connected_time":1003000000000,"state":"active","ping":86},{"user_id":7,"name":"Keymaster","steam_id":76561198881514228,"connected_time":2090000000000,"state":"active","ping":74},{"user_id":46,"name":"Wilhelmktx","steam_id":76561198158102295,"connected_time":460000000000,"state":"active","ping":44},{"user_id":52,"name":"Taurus","steam_id":76561198113083726,"connected_time":180000000000,"state":"active","ping":71},{"user_id":47,"name":"Bleat","steam_id":76561198138678917,"connected_time":449000000000,"state":"active","ping":139},{"user_id":42,"name":"Sh3ba Spaniel","steam_id":76561198047412394,"connected_time":664000000000,"state":"active","ping":58},{"user_id":50,"name":"meme_lad21","steam_id":76561199229567068,"connected_time":373000000000,"state":"active","ping":84},{"user_id":29,"name":"BiggsyBoy","steam_id":76561198119656147,"connected_time":1043000000000,"state":"active","ping":64},{"user_id":34,"name":"Preacher","steam_id":76561198022215764,"connected_time":937000000000,"state":"active","ping":73},{"user_id":43,"name":"dang it darn it crap","steam_id":76561198204593875,"connected_time":612000000000,"state":"active","ping":62},{"user_id":19,"name":"Would You Make Me A Sandwich?","steam_id":76561198152332211,"connected_time":1347000000000,"state":"active","ping":58},{"user_id":48,"name":"el_presidente","steam_id":76561199063461257,"connected_time":439000000000,"state":"active","ping":104},{"user_id":26,"name":"Bitch Princess","steam_id":76561198368944263,"connected_time":1133000000000,"state":"active","ping":83},{"user_id":22,"name":"feudalism (real)","steam_id":76561198057374871,"connected_time":1246000000000,"state":"active","ping":61},{"user_id":35,"name":"Gamer Princess","steam_id":76561198048205270,"connected_time":903000000000,"state":"active","ping":89},{"user_id":24,"name":"ඞ","steam_id":76561199365672047,"connected_time":1194000000000,"state":"active","ping":84},{"user_id":25,"name":"genius of love","steam_id":76561198282764599,"connected_time":1194000000000,"state":"active","ping":45},{"user_id":32,"name":"Zaxis","steam_id":76561198847843026,"connected_time":992000000000,"state":"active","ping":58},{"user_id":36,"name":"real worm","steam_id":76561199065645094,"connected_time":878000000000,"state":"active","ping":84},{"user_id":37,"name":"Oaky Loafs","steam_id":76561198317179010,"connected_time":877000000000,"state":"active","ping":111},{"user_id":49,"name":"tiredfisherman69","steam_id":76561199228963816,"connected_time":425000000000,"state":"active","ping":100},{"user_id":45,"name":"Phocae {She/Her}","steam_id":76561199317584594,"connected_time":573000000000,"state":"active","ping":63},{"user_id":51,"name":"waffle man","steam_id":76561198096242339,"connected_time":332000000000,"state":"active","ping":58},{"user_id":44,"name":"Cyndaquil Fan","steam_id":76561198799205521,"connected_time":611000000000,"state":"active","ping":78}]},{"server_id":37,"name":"Uncletopia | Chicago | 6 | All Maps","name_short":"chi-6","host":"chi-2.us.uncletopia.com","port":27025,"enabled":true,"region":"us-central","cc":"us","latitude":41.881832,"longitude":-87.62318,"reserved":0,"last_update":"0001-01-01T00:00:00Z","name_a2s":"Uncletopia | Chicago | 6 | All Maps","protocol":17,"map":"pl_frontier_final","folder":"tf","game":"Team Fortress","app_id":440,"player_count":0,"max_players":24,"Bots":0,"server_type":"Dedicated","server_os":"Linux","password":true,"vac":true,"version":"7961495","steam_id":85568392924866363,"keywords":["nocrits","nodmgspread","payload","uncletopia"],"game_id":440,"stv_port":27026,"stv_name":"Uncletopia | Chicago | 6 | All Maps | STV","players":null},{"server_id":38,"name":"Uncletopia | Chicago | 7 | Stopwatch","name_short":"chi-7","host":"chi-2.us.uncletopia.com","port":27035,"enabled":true,"region":"us-central","cc":"us","latitude":41.881832,"longitude":-87.62318,"reserved":0,"last_update":"0001-01-01T00:00:00Z","name_a2s":"Uncletopia | Chicago | 7 | Stopwatch","protocol":17,"map":"pl_borneo","folder":"tf","game":"Team Fortress","app_id":440,"player_count":0,"max_players":24,"Bots":0,"server_type":"Dedicated","server_os":"Linux","password":true,"vac":true,"version":"7961495","steam_id":85568392924866364,"keywords":["nocrits","nodmgspread","payload","uncletopia"],"game_id":440,"stv_port":27036,"stv_name":"Uncletopia | Chicago | 7 | Stopwatch | STV","players":null},{"server_id":39,"name":"Uncletopia | Chicago | 8 | Community","name_short":"chi-8","host":"chi-2.us.uncletopia.com","port":27045,"enabled":true,"region":"us-central","cc":"us","latitude":41.881832,"longitude":-87.62318,"reserved":0,"last_update":"0001-01-01T00:00:00Z","name_a2s":"Uncletopia | Chicago | 8 | Community","protocol":17,"map":"workshop/koth_trenchfoot_b1a.ugc731436616","folder":"tf","game":"Team Fortress","app_id":440,"player_count":0,"max_players":24,"Bots":0,"server_type":"Dedicated","server_os":"Linux","password":true,"vac":true,"version":"7961495","steam_id":85568392924866365,"keywords":["cp","nocrits","nodmgspread","uncletopia"],"game_id":440,"stv_port":27046,"stv_name":"Uncletopia | Chicago | 8 | Community | STV","players":null},{"server_id":8,"name":"Uncletopia | Dallas | 1 | All Maps","name_short":"dal-1","host":"dal-1.us.uncletopia.com","port":27015,"enabled":true,"region":"us-central","cc":"us","latitude":32.779167,"longitude":-96.80889,"reserved":0,"last_update":"0001-01-01T00:00:00Z","name_a2s":"Uncletopia | Dallas | 1 | All Maps","protocol":17,"map":"pl_thundermountain","folder":"tf","game":"Team Fortress","app_id":440,"player_count":17,"max_players":24,"Bots":0,"server_type":"Dedicated","server_os":"Linux","password":true,"vac":true,"version":"7961495","steam_id":85568392924469986,"keywords":["nocrits","nodmgspread","payload","uncletopia"],"game_id":440,"stv_port":27016,"stv_name":"Uncletopia | Dallas | 1 | All Maps | STV","players":[{"user_id":65,"name":"Japes","steam_id":76561198079625724,"connected_time":16000000000,"state":"active","ping":97},{"user_id":62,"name":"Master Of Whales","steam_id":76561198349104889,"connected_time":524000000000,"state":"active","ping":89},{"user_id":66,"name":"Mellou","steam_id":76561198212048740,"connected_time":14000000000,"state":"spawning","ping":56},{"user_id":54,"name":"G R E E N","steam_id":76561198046401833,"connected_time":1338000000000,"state":"active","ping":106},{"user_id":58,"name":"rmx^-^","steam_id":76561197961779026,"connected_time":1062000000000,"state":"active","ping":76},{"user_id":29,"name":"Pork44","steam_id":76561198005773170,"connected_time":2144000000000,"state":"active","ping":45},{"user_id":32,"name":"VixianUwU","steam_id":76561198948815060,"connected_time":2104000000000,"state":"spawning","ping":74},{"user_id":57,"name":"Pontifex","steam_id":76561198013016489,"connected_time":1105000000000,"state":"active","ping":46},{"user_id":38,"name":"Nemiel Zaharion","steam_id":76561197999234678,"connected_time":2040000000000,"state":"active","ping":47},{"user_id":56,"name":"Freyja","steam_id":76561198207412177,"connected_time":1244000000000,"state":"active","ping":61},{"user_id":43,"name":"mollusk_obliteration","steam_id":76561198085388962,"connected_time":1976000000000,"state":"active","ping":64},{"user_id":44,"name":"Zetta","steam_id":76561198045710113,"connected_time":1972000000000,"state":"active","ping":86},{"user_id":45,"name":"relay","steam_id":76561198314662811,"connected_time":1961000000000,"state":"active","ping":95},{"user_id":53,"name":"chubbs from happy gilmore","steam_id":76561198143538672,"connected_time":1438000000000,"state":"active","ping":89},{"user_id":64,"name":"MeMyBongusAndTheGreatOutdoors","steam_id":76561198097708978,"connected_time":69000000000,"state":"active","ping":48},{"user_id":49,"name":"Rafl","steam_id":76561198055222756,"connected_time":1908000000000,"state":"active","ping":35},{"user_id":50,"name":"Legit_Jaxer","steam_id":76561198172234053,"connected_time":1902000000000,"state":"active","ping":110}]},{"server_id":108,"name":"Uncletopia | Dallas | 2 | All Maps","name_short":"dal-2","host":"dal-1.us.uncletopia.com","port":27025,"enabled":true,"region":"us-central","cc":"us","latitude":32.779167,"longitude":-96.80889,"reserved":0,"last_update":"0001-01-01T00:00:00Z","name_a2s":"Uncletopia | Dallas | 2 | All Maps","protocol":17,"map":"cp_dustbowl","folder":"tf","game":"Team Fortress","app_id":440,"player_count":24,"max_players":24,"Bots":0,"server_type":"Dedicated","server_os":"Linux","password":true,"vac":true,"version":"7961495","steam_id":85568392924469988,"keywords":["cp","nocrits","nodmgspread","uncletopia"],"game_id":440,"stv_port":27026,"stv_name":"Uncletopia | Dallas | 2 | All Maps | STV","players":[{"user_id":324,"name":"Spaceman","steam_id":76561198098025074,"connected_time":2766000000000,"state":"active","ping":65},{"user_id":349,"name":"Tommy Provolone","steam_id":76561198170062377,"connected_time":69000000000,"state":"active","ping":67},{"user_id":344,"name":"Loogus","steam_id":76561198811561721,"connected_time":860000000000,"state":"active","ping":71},{"user_id":325,"name":"Tanna Tuver","steam_id":76561198382485444,"connected_time":2725000000000,"state":"active","ping":65},{"user_id":339,"name":"BackwardsEagle","steam_id":76561199013712612,"connected_time":1844000000000,"state":"active","ping":97},{"user_id":333,"name":"Crazy Insane Proboscis Monkey","steam_id":76561198061011176,"connected_time":2550000000000,"state":"active","ping":97},{"user_id":334,"name":"5kPrime","steam_id":76561198039471915,"connected_time":2546000000000,"state":"active","ping":97},{"user_id":318,"name":"Rob","steam_id":76561199187786660,"connected_time":3390000000000,"state":"active","ping":54},{"user_id":327,"name":"Dumgum","steam_id":76561198044960992,"connected_time":2692000000000,"state":"active","ping":68},{"user_id":306,"name":"Levi","steam_id":76561198089832776,"connected_time":4163000000000,"state":"active","ping":57},{"user_id":307,"name":"Jankyo","steam_id":76561198083339492,"connected_time":4158000000000,"state":"active","ping":84},{"user_id":335,"name":"Squibbzin","steam_id":76561198254519678,"connected_time":2540000000000,"state":"active","ping":100},{"user_id":276,"name":"ALDOMLG","steam_id":76561198343776095,"connected_time":5640000000000,"state":"active","ping":98},{"user_id":311,"name":"hforce11","steam_id":76561198087647130,"connected_time":4031000000000,"state":"active","ping":69},{"user_id":316,"name":"the","steam_id":76561199026721822,"connected_time":3445000000000,"state":"active","ping":113},{"user_id":342,"name":"Soju","steam_id":76561198044130442,"connected_time":1039000000000,"state":"active","ping":55},{"user_id":329,"name":"Sollyz","steam_id":76561198081110786,"connected_time":2656000000000,"state":"active","ping":100},{"user_id":292,"name":"aisu","steam_id":76561198043768507,"connected_time":5281000000000,"state":"active","ping":91},{"user_id":338,"name":"TOKENLIZARD","steam_id":76561198218765205,"connected_time":2330000000000,"state":"active","ping":59},{"user_id":347,"name":"Cosmic Soup","steam_id":76561198448801117,"connected_time":258000000000,"state":"active","ping":70},{"user_id":346,"name":"root","steam_id":76561198001727518,"connected_time":394000000000,"state":"active","ping":91},{"user_id":331,"name":"Kirby.exe","steam_id":76561198242714582,"connected_time":2641000000000,"state":"active","ping":48},{"user_id":336,"name":"Your Dad™","steam_id":76561198254739340,"connected_time":2526000000000,"state":"active","ping":93},{"user_id":351,"name":"memelover","steam_id":76561199397388468,"connected_time":44000000000,"state":"active","ping":117}]},{"server_id":404,"name":"Uncletopia | Dallas | 3 | All Maps","name_short":"dal-3","host":"dal-1.us.uncletopia.com","port":27035,"enabled":true,"region":"us-central","cc":"us","latitude":32.779167,"longitude":-96.80889,"reserved":0,"last_update":"0001-01-01T00:00:00Z","name_a2s":"Uncletopia | Dallas | 3 | All Maps","protocol":17,"map":"cp_process_final","folder":"tf","game":"Team Fortress","app_id":440,"player_count":0,"max_players":24,"Bots":0,"server_type":"Dedicated","server_os":"Linux","password":true,"vac":true,"version":"7961495","steam_id":85568392924515219,"keywords":["cp","nocrits","nodmgspread","uncletopia"],"game_id":440,"stv_port":27036,"stv_name":"Uncletopia | Dallas | 3 | All Maps | STV","players":null},{"server_id":405,"name":"Uncletopia | Dallas | 4 | Community","name_short":"dal-4","host":"dal-1.us.uncletopia.com","port":27045,"enabled":true,"region":"us-central","cc":"us","latitude":32.779167,"longitude":-96.80889,"reserved":0,"last_update":"0001-01-01T00:00:00Z","name_a2s":"Uncletopia | Dallas | 4 | Community","protocol":17,"map":"pl_pier","folder":"tf","game":"Team Fortress","app_id":440,"player_count":0,"max_players":24,"Bots":0,"server_type":"Dedicated","server_os":"Linux","password":true,"vac":true,"version":"7961495","steam_id":85568392924515220,"keywords":["nocrits","nodmgspread","payload","uncletopia"],"game_id":440,"stv_port":27046,"stv_name":"Uncletopia | Dallas | 4 | Community | STV","players":null},{"server_id":5,"name":"Uncletopia | Frankfurt | 1 | All Maps","name_short":"frk-1","host":"frk-1.de.uncletopia.com","port":27015,"enabled":true,"region":"eu","cc":"de","latitude":50.110924,"longitude":8.682127,"reserved":0,"last_update":"0001-01-01T00:00:00Z","name_a2s":"Uncletopia | Frankfurt | 1 | All Maps","protocol":17,"map":"cp_steel","folder":"tf","game":"Team Fortress","app_id":440,"player_count":23,"max_players":24,"Bots":0,"server_type":"Dedicated","server_os":"Linux","password":true,"vac":true,"version":"7961495","steam_id":85568392924469989,"keywords":["cp","nocrits","nodmgspread","uncletopia"],"game_id":440,"stv_port":27016,"stv_name":"Uncletopia | Frankfurt | 1 | All Maps | STV","players":[{"user_id":371,"name":"Ceiling fan enthusiast","steam_id":76561197989214268,"connected_time":3269000000000,"state":"active","ping":67},{"user_id":388,"name":"Санечка","steam_id":76561198258884232,"connected_time":2108000000000,"state":"active","ping":76},{"user_id":415,"name":"Omni","steam_id":76561197964320557,"connected_time":853000000000,"state":"active","ping":61},{"user_id":418,"name":"xulera","steam_id":76561198080736030,"connected_time":576000000000,"state":"active","ping":68},{"user_id":376,"name":"Venkids","steam_id":76561198086518702,"connected_time":3118000000000,"state":"active","ping":62},{"user_id":413,"name":"booba","steam_id":76561198158018284,"connected_time":918000000000,"state":"active","ping":61},{"user_id":372,"name":"autistic","steam_id":76561198897732673,"connected_time":3204000000000,"state":"active","ping":80},{"user_id":403,"name":"Fanta®","steam_id":76561198416458968,"connected_time":1736000000000,"state":"active","ping":62},{"user_id":424,"name":"Federal Republic Of Yugoslavia","steam_id":76561198883033062,"connected_time":40000000000,"state":"active","ping":353},{"user_id":414,"name":"Magiccomplex","steam_id":76561199203555188,"connected_time":889000000000,"state":"active","ping":52},{"user_id":420,"name":"Carl","steam_id":76561198045638738,"connected_time":169000000000,"state":"active","ping":75},{"user_id":387,"name":"pep","steam_id":76561198207543607,"connected_time":2357000000000,"state":"active","ping":64},{"user_id":417,"name":"Kirby2Rosy","steam_id":76561198013115723,"connected_time":759000000000,"state":"active","ping":72},{"user_id":406,"name":"Popop","steam_id":76561198004793795,"connected_time":1480000000000,"state":"active","ping":46},{"user_id":355,"name":"AlphaDog","steam_id":76561198110238357,"connected_time":5798000000000,"state":"active","ping":66},{"user_id":377,"name":"Khrinde","steam_id":76561198036744526,"connected_time":3117000000000,"state":"active","ping":98},{"user_id":407,"name":"|RED|ILuc","steam_id":76561198313272787,"connected_time":1479000000000,"state":"active","ping":83},{"user_id":367,"name":"Toni","steam_id":76561198342821250,"connected_time":3703000000000,"state":"active","ping":58},{"user_id":408,"name":"Atsiputelis","steam_id":76561198066201111,"connected_time":1407000000000,"state":"active","ping":59},{"user_id":379,"name":"Mario Moretti [BR]","steam_id":76561198179299606,"connected_time":3058000000000,"state":"active","ping":98},{"user_id":419,"name":"K.O.wal","steam_id":76561198317737261,"connected_time":544000000000,"state":"active","ping":56},{"user_id":383,"name":"cactus_octoling","steam_id":76561198837919828,"connected_time":2500000000000,"state":"active","ping":90},{"user_id":411,"name":"Lowbird","steam_id":76561198137424821,"connected_time":1280000000000,"state":"active","ping":57}]},{"server_id":110,"name":"Uncletopia | Frankfurt | 2 | All Maps","name_short":"frk-2","host":"frk-1.de.uncletopia.com","port":27025,"enabled":true,"region":"eu","cc":"de","latitude":50.110924,"longitude":8.682127,"reserved":0,"last_update":"0001-01-01T00:00:00Z","name_a2s":"Uncletopia | Frankfurt | 2 | All Maps","protocol":17,"map":"pl_barnblitz","folder":"tf","game":"Team Fortress","app_id":440,"player_count":24,"max_players":24,"Bots":0,"server_type":"Dedicated","server_os":"Linux","password":true,"vac":true,"version":"7961495","steam_id":85568392924469990,"keywords":["nocrits","nodmgspread","payload","uncletopia"],"game_id":440,"stv_port":27026,"stv_name":"Uncletopia | Frankfurt | 2 | All Maps | STV","players":[{"user_id":536,"name":"Silver","steam_id":76561198175238807,"connected_time":391000000000,"state":"active","ping":79},{"user_id":518,"name":"doctwoeight","steam_id":76561198153488940,"connected_time":1852000000000,"state":"active","ping":87},{"user_id":532,"name":"Carrotcracker","steam_id":76561198034862396,"connected_time":784000000000,"state":"active","ping":75},{"user_id":530,"name":"LOBZIK","steam_id":76561198114830120,"connected_time":1102000000000,"state":"active","ping":76},{"user_id":525,"name":"KENZO","steam_id":76561197993520279,"connected_time":1520000000000,"state":"active","ping":55},{"user_id":533,"name":"Grillem Dafoe","steam_id":76561198306874574,"connected_time":637000000000,"state":"active","ping":80},{"user_id":537,"name":"PurpleDream","steam_id":76561198135942104,"connected_time":379000000000,"state":"active","ping":58},{"user_id":539,"name":"Keroz1n","steam_id":76561197998681491,"connected_time":344000000000,"state":"active","ping":68},{"user_id":529,"name":"ArcX","steam_id":76561198805049375,"connected_time":1114000000000,"state":"active","ping":56},{"user_id":504,"name":"Wild","steam_id":76561198196320754,"connected_time":3080000000000,"state":"active","ping":67},{"user_id":538,"name":"kelm","steam_id":76561198027166144,"connected_time":356000000000,"state":"active","ping":80},{"user_id":540,"name":"󠀡󠀡","steam_id":76561198059375315,"connected_time":343000000000,"state":"active","ping":67},{"user_id":475,"name":"꧁༒Xenon༒꧂","steam_id":76561198120502313,"connected_time":4852000000000,"state":"active","ping":87},{"user_id":535,"name":"Accident","steam_id":76561198037232641,"connected_time":556000000000,"state":"active","ping":97},{"user_id":541,"name":"󠁳⁧⁧ Kruthal","steam_id":76561198245726582,"connected_time":332000000000,"state":"active","ping":73},{"user_id":497,"name":"Elma Canón del Toro","steam_id":76561198081053203,"connected_time":3567000000000,"state":"active","ping":179},{"user_id":523,"name":"Na záchodě","steam_id":76561198383952144,"connected_time":1772000000000,"state":"active","ping":126},{"user_id":498,"name":"eiflA","steam_id":76561198094886044,"connected_time":3557000000000,"state":"active","ping":72},{"user_id":524,"name":"cobblestone","steam_id":76561198079123043,"connected_time":1767000000000,"state":"active","ping":77},{"user_id":542,"name":"Rohnus","steam_id":76561198074049934,"connected_time":324000000000,"state":"active","ping":68},{"user_id":511,"name":"r0la","steam_id":76561198128315340,"connected_time":2694000000000,"state":"active","ping":85},{"user_id":544,"name":"Voks_","steam_id":76561198159687785,"connected_time":313000000000,"state":"active","ping":77},{"user_id":502,"name":"King Goomba","steam_id":76561198146467813,"connected_time":3428000000000,"state":"active","ping":87},{"user_id":481,"name":"Worm","steam_id":76561198296497176,"connected_time":4373000000000,"state":"active","ping":61}]},{"server_id":308,"name":"Uncletopia | Frankfurt | 3 | All Maps","name_short":"frk-3","host":"frk-1.de.uncletopia.com","port":27035,"enabled":true,"region":"eu","cc":"de","latitude":50.110924,"longitude":8.682127,"reserved":0,"last_update":"0001-01-01T00:00:00Z","name_a2s":"Uncletopia | Frankfurt | 3 | All Maps","protocol":17,"map":"pl_frontier_final","folder":"tf","game":"Team Fortress","app_id":440,"player_count":24,"max_players":24,"Bots":0,"server_type":"Dedicated","server_os":"Linux","password":true,"vac":true,"version":"7961495","steam_id":85568392924504274,"keywords":["nocrits","nodmgspread","payload","uncletopia"],"game_id":440,"stv_port":27036,"stv_name":"Uncletopia | Frankfurt | 3 | All Maps | STV","players":[{"user_id":298,"name":"Alice_Neko","steam_id":76561198411388911,"connected_time":5284000000000,"state":"active","ping":125},{"user_id":370,"name":"Curry","steam_id":76561198150834540,"connected_time":459000000000,"state":"active","ping":102},{"user_id":389,"name":"BucklingPARTY34","steam_id":76561199026306287,"connected_time":44000000000,"state":"spawning","ping":100},{"user_id":380,"name":"Vivas","steam_id":76561199118814729,"connected_time":338000000000,"state":"active","ping":113},{"user_id":359,"name":"Walking In My Shoes","steam_id":76561198159100379,"connected_time":1024000000000,"state":"active","ping":59},{"user_id":363,"name":"Fox","steam_id":76561198052541711,"connected_time":802000000000,"state":"active","ping":61},{"user_id":371,"name":"Capri-Sun","steam_id":76561198218065699,"connected_time":459000000000,"state":"active","ping":52},{"user_id":372,"name":"Advokat","steam_id":76561198307121174,"connected_time":447000000000,"state":"active","ping":88},{"user_id":316,"name":"Sinnmeister","steam_id":76561198201091797,"connected_time":4255000000000,"state":"active","ping":61},{"user_id":376,"name":"Kabajsa","steam_id":76561198111264439,"connected_time":395000000000,"state":"active","ping":79},{"user_id":374,"name":"GermanBoy","steam_id":76561199230176650,"connected_time":407000000000,"state":"active","ping":54},{"user_id":365,"name":"sneaky snake","steam_id":76561198279965791,"connected_time":693000000000,"state":"active","ping":106},{"user_id":373,"name":"Roland Deschain","steam_id":76561198023296355,"connected_time":440000000000,"state":"active","ping":100},{"user_id":375,"name":"Palex","steam_id":76561198093219465,"connected_time":398000000000,"state":"active","ping":54},{"user_id":388,"name":"squillisky","steam_id":76561198083569327,"connected_time":52000000000,"state":"spawning","ping":46},{"user_id":377,"name":"dddddddd","steam_id":76561197992974431,"connected_time":394000000000,"state":"active","ping":69},{"user_id":378,"name":"Curlew","steam_id":76561198075884540,"connected_time":382000000000,"state":"active","ping":84},{"user_id":381,"name":"[V.G.T.41] Seva the Gnome","steam_id":76561198951268072,"connected_time":331000000000,"state":"active","ping":90},{"user_id":382,"name":"Sprite790856","steam_id":76561198440389325,"connected_time":302000000000,"state":"active","ping":177},{"user_id":383,"name":"quarks and stuff","steam_id":76561198137869662,"connected_time":259000000000,"state":"active","ping":61},{"user_id":384,"name":"Scottish Fox","steam_id":76561198052990270,"connected_time":238000000000,"state":"active","ping":67},{"user_id":385,"name":"Mza28","steam_id":76561198873993324,"connected_time":219000000000,"state":"active","ping":69},{"user_id":386,"name":"Predrag218","steam_id":76561199242439630,"connected_time":218000000000,"state":"active","ping":120},{"user_id":387,"name":"Chlorine","steam_id":76561198995993972,"connected_time":204000000000,"state":"active","ping":67}]},{"server_id":309,"name":"Uncletopia | Frankfurt | 4 | All Maps","name_short":"frk-4","host":"frk-1.de.uncletopia.com","port":27045,"enabled":true,"region":"eu","cc":"de","latitude":50.110924,"longitude":8.682127,"reserved":0,"last_update":"0001-01-01T00:00:00Z","name_a2s":"Uncletopia | Frankfurt | 4 | All Maps","protocol":17,"map":"pl_swiftwater_final1","folder":"tf","game":"Team Fortress","app_id":440,"player_count":24,"max_players":24,"Bots":0,"server_type":"Dedicated","server_os":"Linux","password":true,"vac":true,"version":"7961495","steam_id":85568392924504275,"keywords":["nocrits","nodmgspread","payload","uncletopia"],"game_id":440,"stv_port":27046,"stv_name":"Uncletopia | Frankfurt | 4 | All Maps | STV","players":[{"user_id":424,"name":"Fenrys","steam_id":76561198353946813,"connected_time":1758000000000,"state":"active","ping":64},{"user_id":339,"name":"Michał","steam_id":76561198320346362,"connected_time":8182000000000,"state":"active","ping":54},{"user_id":357,"name":"Flohr","steam_id":76561198191948841,"connected_time":6766000000000,"state":"active","ping":54},{"user_id":432,"name":"DODGE CHALLENGER thepurge.xyz","steam_id":76561198804609222,"connected_time":1291000000000,"state":"active","ping":45},{"user_id":439,"name":"villain","steam_id":76561198096088749,"connected_time":640000000000,"state":"active","ping":61},{"user_id":448,"name":"Pariah","steam_id":76561198300479600,"connected_time":269000000000,"state":"active","ping":133},{"user_id":414,"name":"crazycalumrock","steam_id":76561198049890080,"connected_time":1929000000000,"state":"active","ping":47},{"user_id":440,"name":"BackDoorExit","steam_id":76561199136645382,"connected_time":635000000000,"state":"active","ping":67},{"user_id":441,"name":"Rick Astley Is A F2P?","steam_id":76561199258805660,"connected_time":607000000000,"state":"active","ping":134},{"user_id":401,"name":"Boba","steam_id":76561198369465924,"connected_time":3501000000000,"state":"active","ping":67},{"user_id":409,"name":"Lux","steam_id":76561198060417740,"connected_time":2520000000000,"state":"active","ping":45},{"user_id":415,"name":"Talkkari","steam_id":76561198025327723,"connected_time":1915000000000,"state":"active","ping":65},{"user_id":447,"name":"mp1mp2mp3","steam_id":76561198088967665,"connected_time":350000000000,"state":"active","ping":89},{"user_id":407,"name":"StingyLettuce","steam_id":76561199010337406,"connected_time":2999000000000,"state":"active","ping":111},{"user_id":446,"name":"amdon.art","steam_id":76561198066251000,"connected_time":357000000000,"state":"active","ping":46},{"user_id":427,"name":"TheEwaffle","steam_id":76561198058280997,"connected_time":1629000000000,"state":"active","ping":75},{"user_id":435,"name":"joebot","steam_id":76561197975606100,"connected_time":1160000000000,"state":"active","ping":140},{"user_id":384,"name":"Zm4j","steam_id":76561198259465946,"connected_time":5044000000000,"state":"active","ping":77},{"user_id":445,"name":"Ziy???","steam_id":76561197995765491,"connected_time":462000000000,"state":"active","ping":115},{"user_id":443,"name":"Qwerty","steam_id":76561198023525894,"connected_time":531000000000,"state":"active","ping":123},{"user_id":419,"name":"Vriska Serket","steam_id":76561198201870332,"connected_time":1882000000000,"state":"active","ping":54},{"user_id":426,"name":"Gibby","steam_id":76561198048213112,"connected_time":1691000000000,"state":"active","ping":49},{"user_id":444,"name":"Amethyst Stardust","steam_id":76561198033683448,"connected_time":500000000000,"state":"active","ping":68},{"user_id":449,"name":"kgf","steam_id":76561198181442259,"connected_time":230000000000,"state":"active","ping":61}]},{"server_id":310,"name":"Uncletopia | Frankfurt | 5 | All Maps","name_short":"frk-5","host":"frk-1.de.uncletopia.com","port":27055,"enabled":true,"region":"eu","cc":"de","latitude":50.110924,"longitude":8.682127,"reserved":0,"last_update":"0001-01-01T00:00:00Z","name_a2s":"Uncletopia | Frankfurt | 5 | All Maps","protocol":17,"map":"cp_dustbowl","folder":"tf","game":"Team Fortress","app_id":440,"player_count":24,"max_players":24,"Bots":0,"server_type":"Dedicated","server_os":"Linux","password":true,"vac":true,"version":"7961495","steam_id":85568392924504277,"keywords":["cp","nocrits","nodmgspread","uncletopia"],"game_id":440,"stv_port":27056,"stv_name":"Uncletopia | Frankfurt | 5 | All Maps | STV","players":[{"user_id":508,"name":"Bottle O' Scrumpy","steam_id":76561199244250562,"connected_time":2792000000000,"state":"active","ping":108},{"user_id":550,"name":"mitical uknown","steam_id":76561198844852761,"connected_time":712000000000,"state":"active","ping":67},{"user_id":538,"name":"Lusitana","steam_id":76561198186320802,"connected_time":1420000000000,"state":"active","ping":76},{"user_id":551,"name":"ThunderCluckz","steam_id":76561198055066162,"connected_time":673000000000,"state":"active","ping":81},{"user_id":499,"name":"realness","steam_id":76561199129226935,"connected_time":3836000000000,"state":"active","ping":90},{"user_id":552,"name":"Rock..","steam_id":76561198004641963,"connected_time":649000000000,"state":"active","ping":81},{"user_id":519,"name":"ascension","steam_id":76561198114056695,"connected_time":2280000000000,"state":"active","ping":75},{"user_id":553,"name":"Ratatatatatatouille","steam_id":76561198182267098,"connected_time":346000000000,"state":"active","ping":84},{"user_id":539,"name":"LE$KA","steam_id":76561198211434744,"connected_time":1371000000000,"state":"active","ping":99},{"user_id":526,"name":"Ozzie","steam_id":76561197992915315,"connected_time":2220000000000,"state":"active","ping":75},{"user_id":541,"name":"omnibombulator","steam_id":76561198025858897,"connected_time":1331000000000,"state":"active","ping":58},{"user_id":540,"name":"Arsonist","steam_id":76561199087953833,"connected_time":1359000000000,"state":"active","ping":101},{"user_id":470,"name":"my mom","steam_id":76561199225201569,"connected_time":6020000000000,"state":"active","ping":148},{"user_id":528,"name":"Rigby","steam_id":76561198021552128,"connected_time":2185000000000,"state":"active","ping":95},{"user_id":513,"name":"Temka","steam_id":76561198331323738,"connected_time":2728000000000,"state":"active","ping":62},{"user_id":497,"name":"Archive","steam_id":76561198071255385,"connected_time":4299000000000,"state":"active","ping":91},{"user_id":537,"name":"MaypulSoyrup","steam_id":76561199213966821,"connected_time":1535000000000,"state":"active","ping":98},{"user_id":515,"name":"Kotlonizator","steam_id":76561198993830128,"connected_time":2720000000000,"state":"active","ping":77},{"user_id":549,"name":"bowchika wowa #SlavaUkraine","steam_id":76561198159564550,"connected_time":1105000000000,"state":"active","ping":71},{"user_id":507,"name":"Koli","steam_id":76561197992428783,"connected_time":2980000000000,"state":"active","ping":52},{"user_id":543,"name":"Sleepy Dummy","steam_id":76561198122108762,"connected_time":1282000000000,"state":"active","ping":51},{"user_id":544,"name":"Moondrop","steam_id":76561199421181719,"connected_time":1273000000000,"state":"active","ping":79},{"user_id":548,"name":"Baklava","steam_id":76561199165415466,"connected_time":1161000000000,"state":"active","ping":60},{"user_id":529,"name":"Rojapokemona","steam_id":76561198179925894,"connected_time":2164000000000,"state":"active","ping":69}]},{"server_id":311,"name":"Uncletopia | Frankfurt | 6 | All Maps","name_short":"frk-6","host":"frk-1.de.uncletopia.com","port":27065,"enabled":true,"region":"eu","cc":"de","latitude":50.110924,"longitude":8.682127,"reserved":0,"last_update":"0001-01-01T00:00:00Z","name_a2s":"Uncletopia | Frankfurt | 6 | All Maps","protocol":17,"map":"pl_borneo","folder":"tf","game":"Team Fortress","app_id":440,"player_count":24,"max_players":24,"Bots":0,"server_type":"Dedicated","server_os":"Linux","password":true,"vac":true,"version":"7961495","steam_id":85568392924504278,"keywords":["nocrits","nodmgspread","payload","uncletopia"],"game_id":440,"stv_port":27066,"stv_name":"Uncletopia | Frankfurt | 6 | All Maps | STV","players":[{"user_id":389,"name":"Dr Ultraman","steam_id":76561198060787567,"connected_time":2341000000000,"state":"active","ping":80},{"user_id":403,"name":"Cookies and Bakies","steam_id":76561198017442928,"connected_time":1544000000000,"state":"active","ping":57},{"user_id":408,"name":"I sell exotic parrots","steam_id":76561199192434258,"connected_time":1046000000000,"state":"active","ping":102},{"user_id":390,"name":"competitive sex","steam_id":76561198060530483,"connected_time":2337000000000,"state":"active","ping":74},{"user_id":368,"name":"Cosmic Gamer","steam_id":76561198027357981,"connected_time":3009000000000,"state":"active","ping":98},{"user_id":325,"name":"Eggy_The_Tyrone","steam_id":76561198036857277,"connected_time":6134000000000,"state":"active","ping":58},{"user_id":406,"name":"dab-dab","steam_id":76561198088930298,"connected_time":1372000000000,"state":"active","ping":82},{"user_id":410,"name":"Valheim","steam_id":76561198044199912,"connected_time":1033000000000,"state":"active","ping":82},{"user_id":398,"name":"Maddox","steam_id":76561198026419869,"connected_time":2111000000000,"state":"active","ping":65},{"user_id":392,"name":"benjaminmarkMLP","steam_id":76561198920361202,"connected_time":2322000000000,"state":"active","ping":124},{"user_id":404,"name":"JugoTopia","steam_id":76561197996067209,"connected_time":1535000000000,"state":"active","ping":140},{"user_id":312,"name":"๖ۣۜSir Robbiewolf","steam_id":76561198001357988,"connected_time":6671000000000,"state":"active","ping":73},{"user_id":330,"name":"FoOzTV","steam_id":76561197998636728,"connected_time":5751000000000,"state":"active","ping":73},{"user_id":414,"name":"Jitlan","steam_id":76561198061456459,"connected_time":292000000000,"state":"active","ping":73},{"user_id":413,"name":"PashaVerti","steam_id":76561199013963024,"connected_time":884000000000,"state":"active","ping":79},{"user_id":402,"name":"Dokuro","steam_id":76561198005413903,"connected_time":1688000000000,"state":"active","ping":72},{"user_id":409,"name":"ALARM","steam_id":76561198120686521,"connected_time":1042000000000,"state":"active","ping":48},{"user_id":379,"name":"Deckard","steam_id":76561198004704647,"connected_time":2820000000000,"state":"active","ping":78},{"user_id":395,"name":"rev","steam_id":76561198134512931,"connected_time":2304000000000,"state":"active","ping":57},{"user_id":292,"name":"Donki Wonki","steam_id":76561198327761273,"connected_time":7770000000000,"state":"active","ping":74},{"user_id":397,"name":"nemo","steam_id":76561199488507139,"connected_time":2292000000000,"state":"active","ping":114},{"user_id":411,"name":"mt","steam_id":76561197961319303,"connected_time":1005000000000,"state":"active","ping":46},{"user_id":412,"name":"TidB","steam_id":76561198055342304,"connected_time":993000000000,"state":"active","ping":55},{"user_id":407,"name":"Temperance","steam_id":76561198446955878,"connected_time":1372000000000,"state":"active","ping":70}]},{"server_id":23,"name":"Uncletopia | Frankfurt | 7 | Stopwatch","name_short":"frk-7","host":"frk-1.de.uncletopia.com","port":27075,"enabled":true,"region":"eu","cc":"de","latitude":50.110924,"longitude":8.682127,"reserved":0,"last_update":"0001-01-01T00:00:00Z","name_a2s":"Uncletopia | Frankfurt | 7 | Stopwatch","protocol":17,"map":"workshop/koth_ashville_final.ugc2130459942","folder":"tf","game":"Team Fortress","app_id":440,"player_count":0,"max_players":24,"Bots":0,"server_type":"Dedicated","server_os":"Linux","password":true,"vac":true,"version":"7961495","steam_id":85568392924742827,"keywords":["cp","nocrits","nodmgspread","uncletopia"],"game_id":440,"stv_port":27076,"stv_name":"Uncletopia | Frankfurt | 7 | Stopwatch | STV","players":null},{"server_id":24,"name":"Uncletopia | Frankfurt | 8 | Community","name_short":"frk-8","host":"frk-1.de.uncletopia.com","port":27085,"enabled":true,"region":"eu","cc":"de","latitude":50.110924,"longitude":8.682127,"reserved":0,"last_update":"0001-01-01T00:00:00Z","name_a2s":"Uncletopia | Frankfurt | 8 | Community","protocol":17,"map":"workshop/pl_cashworks_final1.ugc2904065412","folder":"tf","game":"Team Fortress","app_id":440,"player_count":24,"max_players":24,"Bots":0,"server_type":"Dedicated","server_os":"Linux","password":true,"vac":true,"version":"7961495","steam_id":85568392924742828,"keywords":["nocrits","nodmgspread","payload","uncletopia"],"game_id":440,"stv_port":27086,"stv_name":"Uncletopia | Frankfurt | 8 | Community | STV","players":[{"user_id":164,"name":"oscail","steam_id":76561198180640198,"connected_time":1563000000000,"state":"active","ping":86},{"user_id":162,"name":"CMD_God","steam_id":76561198333037007,"connected_time":1624000000000,"state":"active","ping":101},{"user_id":138,"name":"TriRИЌ","steam_id":76561198119622375,"connected_time":3209000000000,"state":"active","ping":74},{"user_id":142,"name":"Thisisthecat","steam_id":76561198403314907,"connected_time":3060000000000,"state":"active","ping":49},{"user_id":174,"name":"A simple berry picker","steam_id":76561198091969871,"connected_time":1333000000000,"state":"active","ping":94},{"user_id":165,"name":"Durin sein Vater","steam_id":76561198021246713,"connected_time":1526000000000,"state":"active","ping":39},{"user_id":121,"name":"JazzMaster","steam_id":76561198204524845,"connected_time":4690000000000,"state":"active","ping":96},{"user_id":169,"name":"MR.BLOTTO","steam_id":76561198067920111,"connected_time":1495000000000,"state":"active","ping":45},{"user_id":132,"name":"Darkf065","steam_id":76561199029257202,"connected_time":3811000000000,"state":"active","ping":104},{"user_id":143,"name":"ScoutPilgrim","steam_id":76561198013007215,"connected_time":3016000000000,"state":"active","ping":49},{"user_id":139,"name":"sudo","steam_id":76561198045575797,"connected_time":3204000000000,"state":"active","ping":59},{"user_id":123,"name":"SPANISH LIGMA","steam_id":76561198846916016,"connected_time":4665000000000,"state":"active","ping":100},{"user_id":163,"name":"Kyra","steam_id":76561199151490064,"connected_time":1611000000000,"state":"active","ping":67},{"user_id":168,"name":"capslocked","steam_id":76561198095960796,"connected_time":1515000000000,"state":"active","ping":54},{"user_id":134,"name":"TrolololNor.","steam_id":76561198324592461,"connected_time":3784000000000,"state":"active","ping":59},{"user_id":178,"name":"BigBurger2013","steam_id":76561199208431091,"connected_time":1193000000000,"state":"active","ping":61},{"user_id":176,"name":"BeefHammer","steam_id":76561198078426223,"connected_time":1234000000000,"state":"active","ping":93},{"user_id":131,"name":"CLIF Bar Blueberry Crisp","steam_id":76561198060339391,"connected_time":4129000000000,"state":"active","ping":47},{"user_id":170,"name":"Sexycube","steam_id":76561198796371690,"connected_time":1489000000000,"state":"active","ping":76},{"user_id":171,"name":"genesys2000","steam_id":76561198196139526,"connected_time":1452000000000,"state":"active","ping":71},{"user_id":172,"name":"Banzaiiiii ai ça pique","steam_id":76561198008634711,"connected_time":1415000000000,"state":"active","ping":69},{"user_id":179,"name":"FishD.ck_47","steam_id":76561198114773103,"connected_time":653000000000,"state":"active","ping":88},{"user_id":181,"name":"e36 1.8","steam_id":76561198134203031,"connected_time":307000000000,"state":"active","ping":52},{"user_id":177,"name":"ScampSixteen","steam_id":76561198021771000,"connected_time":1224000000000,"state":"active","ping":68}]},{"server_id":202,"name":"Uncletopia | Hong Kong | 1 | All Maps","name_short":"hgk-1","host":"hgk-1.hk.uncletopia.com","port":27015,"enabled":true,"region":"asia","cc":"hk","latitude":22.302711,"longitude":114.177216,"reserved":0,"last_update":"0001-01-01T00:00:00Z","name_a2s":"Uncletopia | Hong Kong | 1 | All Maps","protocol":17,"map":"cp_mountainlab","folder":"tf","game":"Team Fortress","app_id":440,"player_count":0,"max_players":24,"Bots":0,"server_type":"Dedicated","server_os":"Linux","password":true,"vac":true,"version":"7961495","steam_id":85568392924494504,"keywords":["cp","nocrits","nodmgspread","uncletopia"],"game_id":440,"stv_port":27016,"stv_name":"Uncletopia | Hong Kong | 1 | All Maps | STV","players":null},{"server_id":1,"name":"Uncletopia | Los Angeles | 1 | All Maps","name_short":"lax-1","host":"lax-1.us.uncletopia.com","port":27015,"enabled":true,"region":"us-west","cc":"us","latitude":33.94279,"longitude":-118.41004,"reserved":0,"last_update":"0001-01-01T00:00:00Z","name_a2s":"Uncletopia | Los Angeles | 1 | All Maps","protocol":17,"map":"koth_highpass","folder":"tf","game":"Team Fortress","app_id":440,"player_count":0,"max_players":24,"Bots":0,"server_type":"Dedicated","server_os":"Linux","password":true,"vac":true,"version":"7961495","steam_id":85568392924469991,"keywords":["cp","nocrits","nodmgspread","uncletopia"],"game_id":440,"stv_port":27016,"stv_name":"Uncletopia | Los Angeles | 1 | All Maps | STV","players":null},{"server_id":112,"name":"Uncletopia | Los Angeles | 2 | All Maps","name_short":"lax-2","host":"lax-1.us.uncletopia.com","port":27025,"enabled":true,"region":"us-west","cc":"us","latitude":33.94279,"longitude":-118.41004,"reserved":0,"last_update":"0001-01-01T00:00:00Z","name_a2s":"Uncletopia | Los Angeles | 2 | All Maps","protocol":17,"map":"pl_borneo","folder":"tf","game":"Team Fortress","app_id":440,"player_count":24,"max_players":24,"Bots":0,"server_type":"Dedicated","server_os":"Linux","password":true,"vac":true,"version":"7961495","steam_id":85568392924469992,"keywords":["nocrits","nodmgspread","payload","uncletopia"],"game_id":440,"stv_port":27026,"stv_name":"Uncletopia | Los Angeles | 2 | All Maps | STV","players":[{"user_id":112,"name":"Jazpy","steam_id":76561198036872545,"connected_time":1406000000000,"state":"active","ping":75},{"user_id":65,"name":"Matisguy","steam_id":76561199020903681,"connected_time":5708000000000,"state":"active","ping":89},{"user_id":113,"name":"brando_not_lando","steam_id":76561198163197384,"connected_time":1361000000000,"state":"active","ping":60},{"user_id":99,"name":"space dog","steam_id":76561198153384032,"connected_time":2485000000000,"state":"active","ping":86},{"user_id":120,"name":"McSpazatron","steam_id":76561198955942148,"connected_time":619000000000,"state":"active","ping":82},{"user_id":100,"name":"Cartmachine","steam_id":76561198060362323,"connected_time":2458000000000,"state":"active","ping":67},{"user_id":123,"name":"KellyKapoor","steam_id":76561198040828123,"connected_time":251000000000,"state":"active","ping":64},{"user_id":78,"name":"Karthos","steam_id":76561198040827487,"connected_time":4722000000000,"state":"active","ping":113},{"user_id":110,"name":"chanoc","steam_id":76561198026734746,"connected_time":1874000000000,"state":"active","ping":59},{"user_id":85,"name":"AudaCD","steam_id":76561198202775853,"connected_time":4544000000000,"state":"active","ping":84},{"user_id":122,"name":"Canadian Toast","steam_id":76561199140338095,"connected_time":446000000000,"state":"active","ping":32},{"user_id":124,"name":"RocketofPanda(It/They)","steam_id":76561198133133187,"connected_time":160000000000,"state":"active","ping":58},{"user_id":86,"name":"Silvermace","steam_id":76561198090696843,"connected_time":4535000000000,"state":"active","ping":45},{"user_id":72,"name":"Unemployed","steam_id":76561199127423378,"connected_time":5301000000000,"state":"active","ping":61},{"user_id":105,"name":"dankmemer9999","steam_id":76561199088438884,"connected_time":2136000000000,"state":"active","ping":91},{"user_id":116,"name":"enaZ9","steam_id":76561198075580317,"connected_time":1331000000000,"state":"active","ping":85},{"user_id":121,"name":"RUMHAM","steam_id":76561198044880032,"connected_time":554000000000,"state":"active","ping":45},{"user_id":108,"name":"Berner415TTV","steam_id":76561198082334363,"connected_time":1920000000000,"state":"active","ping":82},{"user_id":73,"name":"mega","steam_id":76561198089520959,"connected_time":5192000000000,"state":"active","ping":117},{"user_id":118,"name":"Satori Komeiji","steam_id":76561198158211423,"connected_time":1253000000000,"state":"active","ping":51},{"user_id":97,"name":"triph","steam_id":76561198067196509,"connected_time":2622000000000,"state":"active","ping":44},{"user_id":67,"name":"cheesebro","steam_id":76561198002072852,"connected_time":5647000000000,"state":"active","ping":47},{"user_id":111,"name":"VyruzDed。","steam_id":76561199070671785,"connected_time":1784000000000,"state":"active","ping":64},{"user_id":91,"name":"atmBomb","steam_id":76561198055557988,"connected_time":3807000000000,"state":"active","ping":75}]},{"server_id":324,"name":"Uncletopia | Los Angeles | 3 | All Maps","name_short":"lax-3","host":"lax-1.us.uncletopia.com","port":27035,"enabled":true,"region":"us-west","cc":"us","latitude":33.94279,"longitude":-118.41004,"reserved":0,"last_update":"0001-01-01T00:00:00Z","name_a2s":"Uncletopia | Los Angeles | 3 | All Maps","protocol":17,"map":"cp_process_final","folder":"tf","game":"Team Fortress","app_id":440,"player_count":0,"max_players":24,"Bots":0,"server_type":"Dedicated","server_os":"Linux","password":true,"vac":true,"version":"7961495","steam_id":85568392924510198,"keywords":["cp","nocrits","nodmgspread","uncletopia"],"game_id":440,"stv_port":27036,"stv_name":"Uncletopia | Los Angeles | 3 | All Maps | STV","players":null},{"server_id":25,"name":"Uncletopia | Los Angeles | 4 | Stopwatch","name_short":"lax-4","host":"lax-1.us.uncletopia.com","port":27045,"enabled":true,"region":"us-west","cc":"us","latitude":33.94279,"longitude":-118.41004,"reserved":0,"last_update":"0001-01-01T00:00:00Z","name_a2s":"Uncletopia | Los Angeles | 4 | Stopwatch","protocol":17,"map":"cp_gullywash_final1","folder":"tf","game":"Team Fortress","app_id":440,"player_count":0,"max_players":24,"Bots":0,"server_type":"Dedicated","server_os":"Linux","password":true,"vac":true,"version":"7961495","steam_id":85568392924510199,"keywords":["cp","nocrits","nodmgspread","uncletopia"],"game_id":440,"stv_port":27046,"stv_name":"Uncletopia | Los Angeles | 4 | Stopwatch | STV","players":null},{"server_id":11,"name":"Uncletopia | London | 1 | All Maps","name_short":"lon-1","host":"lon-1.uk.uncletopia.com","port":27015,"enabled":true,"region":"eu","cc":"gb","latitude":51.509865,"longitude":-0.118092,"reserved":0,"last_update":"0001-01-01T00:00:00Z","name_a2s":"Uncletopia | London | 1 | All Maps","protocol":17,"map":"pl_borneo","folder":"tf","game":"Team Fortress","app_id":440,"player_count":24,"max_players":24,"Bots":0,"server_type":"Dedicated","server_os":"Linux","password":true,"vac":true,"version":"7961495","steam_id":85568392924367362,"keywords":["nocrits","nodmgspread","payload","uncletopia"],"game_id":440,"stv_port":27016,"stv_name":"Uncletopia | London | 1 | All Maps | STV","players":[{"user_id":457,"name":"Maveth","steam_id":76561198315021197,"connected_time":2781000000000,"state":"active","ping":135},{"user_id":383,"name":"face beautiful lies","steam_id":76561198079277466,"connected_time":7901000000000,"state":"active","ping":71},{"user_id":416,"name":"Clown","steam_id":76561198074657015,"connected_time":5206000000000,"state":"active","ping":71},{"user_id":480,"name":"Mister_fLeXsS","steam_id":76561198075613556,"connected_time":118000000000,"state":"active","ping":99},{"user_id":472,"name":"♂ Twink Hunter ♂","steam_id":76561198397024973,"connected_time":874000000000,"state":"active","ping":39},{"user_id":432,"name":"TomNoSocks","steam_id":76561198114071046,"connected_time":4487000000000,"state":"active","ping":65},{"user_id":367,"name":"Alter","steam_id":76561199135934698,"connected_time":9554000000000,"state":"active","ping":95},{"user_id":382,"name":"yup that extream78711","steam_id":76561198106049954,"connected_time":7982000000000,"state":"active","ping":155},{"user_id":469,"name":"After8","steam_id":76561198090750865,"connected_time":1512000000000,"state":"active","ping":62},{"user_id":476,"name":"Castellan","steam_id":76561197994861142,"connected_time":528000000000,"state":"active","ping":66},{"user_id":463,"name":"Without warning","steam_id":76561199383437138,"connected_time":1795000000000,"state":"active","ping":130},{"user_id":474,"name":"coella","steam_id":76561198442803577,"connected_time":593000000000,"state":"active","ping":67},{"user_id":473,"name":"Kphi(i)","steam_id":76561198970587061,"connected_time":691000000000,"state":"active","ping":57},{"user_id":459,"name":"Persephone","steam_id":76561198246467946,"connected_time":2605000000000,"state":"active","ping":80},{"user_id":477,"name":"John0309","steam_id":76561198447428162,"connected_time":526000000000,"state":"active","ping":89},{"user_id":442,"name":"Slifer the GiantEnemy SkyDragon","steam_id":76561198062255803,"connected_time":3547000000000,"state":"active","ping":75},{"user_id":387,"name":"enine","steam_id":76561198890193313,"connected_time":7564000000000,"state":"active","ping":60},{"user_id":455,"name":"That Bussy Can Squirt","steam_id":76561199185615752,"connected_time":2841000000000,"state":"active","ping":58},{"user_id":380,"name":"Pantroglodytestherapy","steam_id":76561198236015392,"connected_time":8386000000000,"state":"active","ping":120},{"user_id":435,"name":"Mapavri","steam_id":76561198370196400,"connected_time":4233000000000,"state":"active","ping":90},{"user_id":478,"name":"mira","steam_id":76561199040246790,"connected_time":443000000000,"state":"active","ping":58},{"user_id":461,"name":"SwLucie","steam_id":76561197969984656,"connected_time":2104000000000,"state":"active","ping":58},{"user_id":468,"name":"Ja","steam_id":76561198396340174,"connected_time":1525000000000,"state":"active","ping":130},{"user_id":471,"name":"Aaron","steam_id":76561197990046953,"connected_time":1075000000000,"state":"active","ping":55}]},{"server_id":114,"name":"Uncletopia | London | 2 | All Maps","name_short":"lon-2","host":"lon-1.uk.uncletopia.com","port":27025,"enabled":true,"region":"eu","cc":"gb","latitude":51.509865,"longitude":-0.118092,"reserved":0,"last_update":"0001-01-01T00:00:00Z","name_a2s":"Uncletopia | London | 2 | All Maps","protocol":17,"map":"pl_badwater","folder":"tf","game":"Team Fortress","app_id":440,"player_count":24,"max_players":24,"Bots":0,"server_type":"Dedicated","server_os":"Linux","password":true,"vac":true,"version":"7961495","steam_id":85568392924470941,"keywords":["nocrits","nodmgspread","payload","uncletopia"],"game_id":440,"stv_port":27026,"stv_name":"Uncletopia | London | 2 | All Maps | STV","players":[{"user_id":112,"name":"Lyell","steam_id":76561198350329389,"connected_time":998000000000,"state":"active","ping":80},{"user_id":59,"name":"Spectre","steam_id":76561198163819482,"connected_time":3741000000000,"state":"active","ping":89},{"user_id":109,"name":"Twiggu","steam_id":76561198070853128,"connected_time":1409000000000,"state":"active","ping":82},{"user_id":57,"name":"Texas Red","steam_id":76561199069782779,"connected_time":4116000000000,"state":"active","ping":91},{"user_id":116,"name":"Karl Marxman","steam_id":76561197988226117,"connected_time":253000000000,"state":"active","ping":79},{"user_id":113,"name":"steve","steam_id":76561198335143890,"connected_time":754000000000,"state":"active","ping":64},{"user_id":106,"name":"Bronze Age Furvert","steam_id":76561198859118263,"connected_time":1578000000000,"state":"active","ping":147},{"user_id":64,"name":"Diamhair","steam_id":76561198109020178,"connected_time":3397000000000,"state":"active","ping":64},{"user_id":107,"name":"Binah ♠","steam_id":76561198105207050,"connected_time":1560000000000,"state":"active","ping":54},{"user_id":99,"name":"gabagool","steam_id":76561198307111838,"connected_time":2425000000000,"state":"active","ping":37},{"user_id":67,"name":"Mr.O","steam_id":76561198039567498,"connected_time":3314000000000,"state":"active","ping":57},{"user_id":94,"name":"spy's arent real","steam_id":76561198165871469,"connected_time":2670000000000,"state":"active","ping":72},{"user_id":105,"name":"aberatus","steam_id":76561197979455244,"connected_time":1659000000000,"state":"active","ping":77},{"user_id":103,"name":"Mav","steam_id":76561198004403881,"connected_time":1800000000000,"state":"active","ping":61},{"user_id":117,"name":"rez777ka","steam_id":76561198107605938,"connected_time":120000000000,"state":"active","ping":99},{"user_id":74,"name":"Gubbly Bubbins","steam_id":76561198101451654,"connected_time":3208000000000,"state":"active","ping":46},{"user_id":76,"name":"Hodood","steam_id":76561198167443476,"connected_time":3204000000000,"state":"active","ping":61},{"user_id":104,"name":"fickens","steam_id":76561198209950723,"connected_time":1769000000000,"state":"active","ping":56},{"user_id":88,"name":"--mmx--","steam_id":76561197997344902,"connected_time":2913000000000,"state":"active","ping":71},{"user_id":114,"name":"cat","steam_id":76561198832231975,"connected_time":600000000000,"state":"active","ping":90},{"user_id":102,"name":"VampiuS","steam_id":76561197998827007,"connected_time":1941000000000,"state":"active","ping":69},{"user_id":119,"name":"suriver22","steam_id":76561198231778492,"connected_time":37000000000,"state":"active","ping":165},{"user_id":96,"name":"Big Al","steam_id":76561198079585198,"connected_time":2631000000000,"state":"active","ping":59},{"user_id":98,"name":"Bineapple","steam_id":76561198983650763,"connected_time":2540000000000,"state":"active","ping":47}]},{"server_id":320,"name":"Uncletopia | London | 3 | All Maps","name_short":"lon-3","host":"lon-1.uk.uncletopia.com","port":27035,"enabled":true,"region":"eu","cc":"gb","latitude":51.509865,"longitude":-0.118092,"reserved":0,"last_update":"0001-01-01T00:00:00Z","name_a2s":"Uncletopia | London | 3 | All Maps","protocol":17,"map":"cp_snakewater_final1","folder":"tf","game":"Team Fortress","app_id":440,"player_count":24,"max_players":24,"Bots":0,"server_type":"Dedicated","server_os":"Linux","password":true,"vac":true,"version":"7961495","steam_id":85568392924510192,"keywords":["cp","nocrits","nodmgspread","uncletopia"],"game_id":440,"stv_port":27036,"stv_name":"Uncletopia | London | 3 | All Maps | STV","players":[{"user_id":249,"name":"fence_","steam_id":76561198150386379,"connected_time":6399000000000,"state":"active","ping":44},{"user_id":307,"name":"Vince","steam_id":76561199103000131,"connected_time":815000000000,"state":"active","ping":60},{"user_id":292,"name":"taste Fanta through your balls","steam_id":76561198823497252,"connected_time":1530000000000,"state":"active","ping":61},{"user_id":252,"name":"Caruzon - Obismal","steam_id":76561198036211170,"connected_time":5733000000000,"state":"active","ping":85},{"user_id":298,"name":"Olufsen","steam_id":76561198009324148,"connected_time":975000000000,"state":"active","ping":111},{"user_id":300,"name":"ume_ybbuhc","steam_id":76561199482149729,"connected_time":961000000000,"state":"active","ping":119},{"user_id":308,"name":"Jasperatus","steam_id":76561198196733750,"connected_time":694000000000,"state":"active","ping":100},{"user_id":255,"name":"R8N - Obismal","steam_id":76561198007482714,"connected_time":5725000000000,"state":"active","ping":77},{"user_id":312,"name":"DelaNo","steam_id":76561199125086655,"connected_time":81000000000,"state":"active","ping":42},{"user_id":299,"name":"Avitz","steam_id":76561197986150359,"connected_time":963000000000,"state":"active","ping":46},{"user_id":301,"name":"Krabs","steam_id":76561198161679477,"connected_time":947000000000,"state":"active","ping":45},{"user_id":305,"name":"PrimeTarget","steam_id":76561198046409289,"connected_time":863000000000,"state":"active","ping":72},{"user_id":311,"name":"Shovelhalfrusty","steam_id":76561198346447513,"connected_time":107000000000,"state":"active","ping":60},{"user_id":295,"name":"Schiever","steam_id":76561198052136026,"connected_time":1314000000000,"state":"active","ping":55},{"user_id":290,"name":"protëin","steam_id":76561197998423616,"connected_time":2271000000000,"state":"active","ping":69},{"user_id":310,"name":"=flashpoint=","steam_id":76561197976774456,"connected_time":211000000000,"state":"active","ping":46},{"user_id":297,"name":"Tort","steam_id":76561198329646769,"connected_time":986000000000,"state":"active","ping":59},{"user_id":275,"name":"Just1s","steam_id":76561198026597437,"connected_time":4133000000000,"state":"active","ping":74},{"user_id":309,"name":"ThornDrayton","steam_id":76561198141985675,"connected_time":480000000000,"state":"active","ping":55},{"user_id":272,"name":"Macci - Obismal","steam_id":76561198050485404,"connected_time":4350000000000,"state":"active","ping":88},{"user_id":279,"name":"♬ ᴛᴇᴋɪᴛ ♬","steam_id":76561198111704722,"connected_time":3534000000000,"state":"active","ping":94},{"user_id":306,"name":"Rat King","steam_id":76561198256783599,"connected_time":840000000000,"state":"active","ping":77},{"user_id":304,"name":"Intruder","steam_id":76561198156128173,"connected_time":904000000000,"state":"active","ping":75},{"user_id":282,"name":"padillacampos","steam_id":76561198161923970,"connected_time":2636000000000,"state":"active","ping":81}]},{"server_id":321,"name":"Uncletopia | London | 4 | All Maps","name_short":"lon-4","host":"lon-1.uk.uncletopia.com","port":27045,"enabled":true,"region":"eu","cc":"gb","latitude":51.509865,"longitude":-0.118092,"reserved":0,"last_update":"0001-01-01T00:00:00Z","name_a2s":"Uncletopia | London | 4 | All Maps","protocol":17,"map":"pl_badwater","folder":"tf","game":"Team Fortress","app_id":440,"player_count":24,"max_players":24,"Bots":0,"server_type":"Dedicated","server_os":"Linux","password":true,"vac":true,"version":"7961495","steam_id":85568392924510193,"keywords":["nocrits","nodmgspread","payload","uncletopia"],"game_id":440,"stv_port":27046,"stv_name":"Uncletopia | London | 4 | All Maps | STV","players":[{"user_id":454,"name":"Eoghan","steam_id":76561198095344395,"connected_time":3223000000000,"state":"active","ping":62},{"user_id":494,"name":"rock☆","steam_id":76561198095560087,"connected_time":1212000000000,"state":"active","ping":78},{"user_id":512,"name":"⚜︎ LoGaN ⚜","steam_id":76561198300678500,"connected_time":573000000000,"state":"active","ping":100},{"user_id":504,"name":"xiiski","steam_id":76561198152387747,"connected_time":818000000000,"state":"active","ping":109},{"user_id":513,"name":"Proud Jojo Fan #TF2SP","steam_id":76561198847327216,"connected_time":483000000000,"state":"active","ping":74},{"user_id":517,"name":"stankboxers #savetf2","steam_id":76561198058609582,"connected_time":83000000000,"state":"active","ping":1458},{"user_id":463,"name":"Dapper","steam_id":76561198081694974,"connected_time":3082000000000,"state":"active","ping":45},{"user_id":514,"name":"powej","steam_id":76561198056381418,"connected_time":481000000000,"state":"active","ping":31},{"user_id":483,"name":"worm with a fat ass","steam_id":76561198170026338,"connected_time":2012000000000,"state":"active","ping":71},{"user_id":516,"name":"Mr. Enjoy da money","steam_id":76561198152681460,"connected_time":107000000000,"state":"active","ping":76},{"user_id":519,"name":"hud_saytext_time 0","steam_id":76561198010327228,"connected_time":3000000000,"state":"spawning","ping":74},{"user_id":485,"name":"Narvhalø","steam_id":76561198147495474,"connected_time":1976000000000,"state":"active","ping":45},{"user_id":482,"name":"Fofenho","steam_id":76561198436817109,"connected_time":2066000000000,"state":"active","ping":53},{"user_id":455,"name":"DANDELION","steam_id":76561198038451376,"connected_time":3222000000000,"state":"active","ping":38},{"user_id":507,"name":"DeBozMann_","steam_id":76561198266876790,"connected_time":745000000000,"state":"active","ping":53},{"user_id":472,"name":"Batters🌸","steam_id":76561198927992205,"connected_time":2709000000000,"state":"active","ping":50},{"user_id":506,"name":"oskaroku00","steam_id":76561199025360128,"connected_time":810000000000,"state":"active","ping":60},{"user_id":518,"name":"hhhhhh","steam_id":76561198031982574,"connected_time":72000000000,"state":"active","ping":66},{"user_id":515,"name":"Lola bunny","steam_id":76561198214149431,"connected_time":268000000000,"state":"active","ping":49},{"user_id":478,"name":"2BCD","steam_id":76561198178254946,"connected_time":2244000000000,"state":"active","ping":70},{"user_id":508,"name":"KrevTiz","steam_id":76561199043366861,"connected_time":742000000000,"state":"active","ping":86},{"user_id":499,"name":"moseley519","steam_id":76561198045485374,"connected_time":1066000000000,"state":"active","ping":48},{"user_id":289,"name":"♂ Animan ♂ Studios ♂","steam_id":76561198308302932,"connected_time":13566000000000,"state":"active","ping":107},{"user_id":511,"name":"Theleomaster","steam_id":76561198342580499,"connected_time":607000000000,"state":"active","ping":96}]},{"server_id":21,"name":"Uncletopia | London | 5 | All Maps","name_short":"lon-5","host":"lon-1.uk.uncletopia.com","port":27055,"enabled":true,"region":"eu","cc":"gb","latitude":51.509865,"longitude":-0.118092,"reserved":0,"last_update":"0001-01-01T00:00:00Z","name_a2s":"Uncletopia | London | 5 | All Maps","protocol":17,"map":"pl_barnblitz","folder":"tf","game":"Team Fortress","app_id":440,"player_count":24,"max_players":24,"Bots":0,"server_type":"Dedicated","server_os":"Linux","password":true,"vac":true,"version":"7961495","steam_id":85568392924742829,"keywords":["nocrits","nodmgspread","payload","uncletopia"],"game_id":440,"stv_port":27056,"stv_name":"Uncletopia | London | 5 | All Maps | STV","players":[{"user_id":408,"name":"Banana","steam_id":76561199445100850,"connected_time":1197000000000,"state":"active","ping":128},{"user_id":381,"name":"L4gman","steam_id":76561198048227040,"connected_time":2283000000000,"state":"active","ping":69},{"user_id":376,"name":"Tea","steam_id":76561198799243030,"connected_time":2928000000000,"state":"active","ping":67},{"user_id":307,"name":"rets_","steam_id":76561198061551392,"connected_time":8359000000000,"state":"active","ping":62},{"user_id":345,"name":"t.tv/soarfps","steam_id":76561198010662796,"connected_time":5376000000000,"state":"active","ping":57},{"user_id":406,"name":"Vermin","steam_id":76561198045527771,"connected_time":1600000000000,"state":"active","ping":96},{"user_id":402,"name":"scramble my ass","steam_id":76561198133901720,"connected_time":1839000000000,"state":"active","ping":71},{"user_id":383,"name":"Deimos","steam_id":76561198852007512,"connected_time":2240000000000,"state":"active","ping":67},{"user_id":413,"name":"Spotmonkey","steam_id":76561198003994092,"connected_time":589000000000,"state":"active","ping":57},{"user_id":382,"name":"Jack","steam_id":76561198209102833,"connected_time":2263000000000,"state":"active","ping":40},{"user_id":384,"name":"Gardvord","steam_id":76561198120715753,"connected_time":2199000000000,"state":"active","ping":73},{"user_id":369,"name":"Dr. Funkenstein","steam_id":76561197977816210,"connected_time":4211000000000,"state":"active","ping":62},{"user_id":387,"name":"Bortas","steam_id":76561197972282153,"connected_time":2185000000000,"state":"active","ping":75},{"user_id":398,"name":"Mankor","steam_id":76561198020439322,"connected_time":2042000000000,"state":"active","ping":66},{"user_id":374,"name":"Herb","steam_id":76561198205266944,"connected_time":3325000000000,"state":"active","ping":45},{"user_id":407,"name":"pipe bomb gaming","steam_id":76561199036776540,"connected_time":1270000000000,"state":"active","ping":64},{"user_id":390,"name":"Beep","steam_id":76561198151248575,"connected_time":2178000000000,"state":"active","ping":73},{"user_id":371,"name":"Omyskull","steam_id":76561198131711758,"connected_time":4151000000000,"state":"active","ping":71},{"user_id":391,"name":"Hexagon","steam_id":76561198151205758,"connected_time":2176000000000,"state":"active","ping":60},{"user_id":404,"name":"niandits","steam_id":76561198419798900,"connected_time":1670000000000,"state":"active","ping":125},{"user_id":414,"name":"ter","steam_id":76561198436549033,"connected_time":326000000000,"state":"active","ping":97},{"user_id":403,"name":"jù xiē","steam_id":76561198096189399,"connected_time":1837000000000,"state":"active","ping":66},{"user_id":411,"name":"svepitos","steam_id":76561198287351235,"connected_time":1151000000000,"state":"active","ping":70},{"user_id":416,"name":"Meladoom2","steam_id":76561198086845387,"connected_time":99000000000,"state":"active","ping":92}]},{"server_id":22,"name":"Uncletopia | London | 6 | All Maps","name_short":"lon-6","host":"lon-1.uk.uncletopia.com","port":27065,"enabled":true,"region":"eu","cc":"gb","latitude":51.509865,"longitude":-0.118092,"reserved":0,"last_update":"0001-01-01T00:00:00Z","name_a2s":"Uncletopia | London | 6 | All Maps","protocol":17,"map":"koth_highpass","folder":"tf","game":"Team Fortress","app_id":440,"player_count":6,"max_players":24,"Bots":0,"server_type":"Dedicated","server_os":"Linux","password":true,"vac":true,"version":"7961495","steam_id":85568392924742830,"keywords":["cp","nocrits","nodmgspread","uncletopia"],"game_id":440,"stv_port":27066,"stv_name":"Uncletopia | London | 6 | All Maps | STV","players":[{"user_id":28,"name":"Dyld","steam_id":76561197979603871,"connected_time":1031000000000,"state":"active","ping":60},{"user_id":29,"name":"Tx_madmash","steam_id":76561198924656512,"connected_time":915000000000,"state":"active","ping":203},{"user_id":35,"name":"Lorenzo Lovers","steam_id":76561198073973581,"connected_time":39000000000,"state":"active","ping":80},{"user_id":31,"name":"TSx* Naxer","steam_id":76561198011986779,"connected_time":292000000000,"state":"active","ping":75},{"user_id":32,"name":"PidgeonsOfWar","steam_id":76561198849223850,"connected_time":142000000000,"state":"active","ping":40},{"user_id":33,"name":"TSx* Osa__PL","steam_id":76561198027016799,"connected_time":66000000000,"state":"active","ping":75}]},{"server_id":40,"name":"Uncletopia | London | 7 | Stopwatch","name_short":"lon-7","host":"lon-1.uk.uncletopia.com","port":27075,"enabled":true,"region":"eu","cc":"gb","latitude":51.509865,"longitude":-0.118092,"reserved":0,"last_update":"0001-01-01T00:00:00Z","name_a2s":"Uncletopia | London | 7 | Stopwatch","protocol":17,"map":"workshop/koth_ramjam_rc1.ugc459778887","folder":"tf","game":"Team Fortress","app_id":440,"player_count":3,"max_players":24,"Bots":0,"server_type":"Dedicated","server_os":"Linux","password":true,"vac":true,"version":"7961495","steam_id":85568392924964314,"keywords":["cp","nocrits","nodmgspread","uncletopia"],"game_id":440,"stv_port":27076,"stv_name":"Uncletopia | London | 7 | Stopwatch | STV","players":[{"user_id":8,"name":"Trying to be a Hero","steam_id":76561198983700087,"connected_time":253000000000,"state":"active","ping":70},{"user_id":9,"name":"Mentally challenged","steam_id":76561199265514696,"connected_time":175000000000,"state":"active","ping":65},{"user_id":10,"name":"Jack.Orlando","steam_id":76561198802400236,"connected_time":170000000000,"state":"active","ping":84}]},{"server_id":41,"name":"Uncletopia | London | 8 | Community","name_short":"lon-8","host":"lon-1.uk.uncletopia.com","port":27085,"enabled":true,"region":"eu","cc":"gb","latitude":51.509865,"longitude":-0.118092,"reserved":0,"last_update":"0001-01-01T00:00:00Z","name_a2s":"Uncletopia | London | 8 | Community","protocol":17,"map":"workshop/koth_ashville_final.ugc2130459942","folder":"tf","game":"Team Fortress","app_id":440,"player_count":0,"max_players":24,"Bots":0,"server_type":"Dedicated","server_os":"Linux","password":true,"vac":true,"version":"7961495","steam_id":85568392924964315,"keywords":["cp","nocrits","nodmgspread","uncletopia"],"game_id":440,"stv_port":27086,"stv_name":"Uncletopia | London | 8 | Community | STV","players":null},{"server_id":300,"name":"Uncletopia | Montréal | 1 | All Maps","name_short":"mtl-1","host":"mtl-1.ca.uncletopia.com","port":27015,"enabled":true,"region":"us-east","cc":"ca","latitude":45.50889,"longitude":-73.56167,"reserved":0,"last_update":"0001-01-01T00:00:00Z","name_a2s":"","protocol":0,"map":"","folder":"","game":"","app_id":0,"player_count":0,"max_players":0,"Bots":0,"server_type":"","server_os":"","password":false,"vac":false,"version":"","steam_id":0,"keywords":null,"game_id":0,"stv_port":0,"stv_name":"","players":null},{"server_id":301,"name":"Uncletopia | Montréal | 2 | All Maps","name_short":"mtl-2","host":"mtl-1.ca.uncletopia.com","port":27025,"enabled":true,"region":"us-east","cc":"ca","latitude":45.50889,"longitude":-73.56167,"reserved":0,"last_update":"0001-01-01T00:00:00Z","name_a2s":"","protocol":0,"map":"","folder":"","game":"","app_id":0,"player_count":0,"max_players":0,"Bots":0,"server_type":"","server_os":"","password":false,"vac":false,"version":"","steam_id":0,"keywords":null,"game_id":0,"stv_port":0,"stv_name":"","players":null},{"server_id":302,"name":"Uncletopia | Montréal | 3 | All Maps","name_short":"mtl-3","host":"mtl-1.ca.uncletopia.com","port":27035,"enabled":true,"region":"us-east","cc":"ca","latitude":45.50889,"longitude":-73.56167,"reserved":0,"last_update":"0001-01-01T00:00:00Z","name_a2s":"","protocol":0,"map":"","folder":"","game":"","app_id":0,"player_count":2,"max_players":0,"Bots":0,"server_type":"","server_os":"","password":false,"vac":false,"version":"","steam_id":0,"keywords":null,"game_id":0,"stv_port":0,"stv_name":"","players":[{"user_id":3,"name":"vexter 95","steam_id":76561199135937285,"connected_time":473000000000,"state":"active","ping":154},{"user_id":4,"name":"alxmck","steam_id":76561198264560869,"connected_time":460000000000,"state":"active","ping":185}]},{"server_id":303,"name":"Uncletopia | Montréal | 4 | No Payload","name_short":"mtl-4","host":"mtl-1.ca.uncletopia.com","port":27045,"enabled":true,"region":"us-east","cc":"ca","latitude":45.50889,"longitude":-73.56167,"reserved":0,"last_update":"0001-01-01T00:00:00Z","name_a2s":"","protocol":0,"map":"","folder":"","game":"","app_id":0,"player_count":0,"max_players":0,"Bots":0,"server_type":"","server_os":"","password":false,"vac":false,"version":"","steam_id":0,"keywords":null,"game_id":0,"stv_port":0,"stv_name":"","players":null},{"server_id":13,"name":"Uncletopia | New York City | 1 | All Maps","name_short":"nyc-1","host":"nyc-1.us.uncletopia.com","port":27015,"enabled":true,"region":"us-east","cc":"us","latitude":40.73061,"longitude":-73.93524,"reserved":0,"last_update":"0001-01-01T00:00:00Z","name_a2s":"Uncletopia | New York City | 1 | All Maps","protocol":17,"map":"plr_hightower","folder":"tf","game":"Team Fortress","app_id":440,"player_count":24,"max_players":24,"Bots":0,"server_type":"Dedicated","server_os":"Linux","password":true,"vac":true,"version":"7961495","steam_id":85568392924469993,"keywords":["nocrits","nodmgspread","payload","uncletopia"],"game_id":440,"stv_port":27016,"stv_name":"Uncletopia | New York City | 1 | All Maps | STV","players":[{"user_id":107,"name":"dcqwerty","steam_id":76561198964101426,"connected_time":751000000000,"state":"active","ping":38},{"user_id":108,"name":"TheGingerOne","steam_id":76561198354203847,"connected_time":657000000000,"state":"active","ping":86},{"user_id":122,"name":"Spike Bones","steam_id":76561198234926120,"connected_time":118000000000,"state":"active","ping":80},{"user_id":61,"name":"Mayor McCheese","steam_id":76561198095788861,"connected_time":4116000000000,"state":"active","ping":77},{"user_id":63,"name":"LocaKola","steam_id":76561198173435430,"connected_time":3917000000000,"state":"active","ping":67},{"user_id":123,"name":"Charlie","steam_id":76561198798127908,"connected_time":65000000000,"state":"active","ping":77},{"user_id":118,"name":"Coptimus10","steam_id":76561199074912882,"connected_time":255000000000,"state":"active","ping":71},{"user_id":111,"name":"DuchienBandie4","steam_id":76561198260348930,"connected_time":541000000000,"state":"active","ping":124},{"user_id":100,"name":"H202","steam_id":76561198149361309,"connected_time":1753000000000,"state":"active","ping":87},{"user_id":72,"name":"THORNFIELDGAMER","steam_id":76561199087167473,"connected_time":3107000000000,"state":"active","ping":72},{"user_id":104,"name":"Nashoba","steam_id":76561198301622877,"connected_time":946000000000,"state":"active","ping":88},{"user_id":113,"name":"banana","steam_id":76561199159928133,"connected_time":454000000000,"state":"active","ping":62},{"user_id":119,"name":"JJames","steam_id":76561198055687973,"connected_time":244000000000,"state":"active","ping":72},{"user_id":82,"name":"Lovedaddy","steam_id":76561198006569710,"connected_time":2953000000000,"state":"active","ping":75},{"user_id":84,"name":"Detective Rectum ♡","steam_id":76561198018558677,"connected_time":2921000000000,"state":"active","ping":70},{"user_id":102,"name":"whalemart","steam_id":76561198203395648,"connected_time":1203000000000,"state":"active","ping":58},{"user_id":87,"name":"crayonnipple","steam_id":76561198070253331,"connected_time":2781000000000,"state":"active","ping":66},{"user_id":101,"name":"Jojoker","steam_id":76561198049833406,"connected_time":1695000000000,"state":"active","ping":75},{"user_id":115,"name":"Mr. Fluffy Penguins","steam_id":76561198172538149,"connected_time":415000000000,"state":"active","ping":92},{"user_id":58,"name":"turd ferguson","steam_id":76561198071620782,"connected_time":4199000000000,"state":"active","ping":70},{"user_id":116,"name":"InstantOzone","steam_id":76561198067556825,"connected_time":398000000000,"state":"active","ping":83},{"user_id":120,"name":"Rue","steam_id":76561198013135993,"connected_time":235000000000,"state":"active","ping":56},{"user_id":121,"name":"GodPanda","steam_id":76561198838303653,"connected_time":234000000000,"state":"active","ping":61},{"user_id":125,"name":"Headless","steam_id":76561199093367930,"connected_time":37000000000,"state":"spawning","ping":149}]},{"server_id":14,"name":"Uncletopia | New York City | 2 | All Maps","name_short":"nyc-2","host":"nyc-1.us.uncletopia.com","port":27025,"enabled":true,"region":"us-east","cc":"us","latitude":40.73061,"longitude":-73.93524,"reserved":0,"last_update":"0001-01-01T00:00:00Z","name_a2s":"Uncletopia | New York City | 2 | All Maps","protocol":17,"map":"pl_barnblitz","folder":"tf","game":"Team Fortress","app_id":440,"player_count":24,"max_players":24,"Bots":0,"server_type":"Dedicated","server_os":"Linux","password":true,"vac":true,"version":"7961495","steam_id":85568392924469994,"keywords":["nocrits","nodmgspread","payload","uncletopia"],"game_id":440,"stv_port":27026,"stv_name":"Uncletopia | New York City | 2 | All Maps | STV","players":[{"user_id":235,"name":"CherryPieRed2023","steam_id":76561198998007496,"connected_time":1747000000000,"state":"active","ping":126},{"user_id":256,"name":"The Wave","steam_id":76561198268225109,"connected_time":324000000000,"state":"active","ping":77},{"user_id":257,"name":"unusualnuma","steam_id":76561198856016840,"connected_time":310000000000,"state":"active","ping":48},{"user_id":12,"name":"uhooter","steam_id":76561198007829078,"connected_time":19702000000000,"state":"active","ping":59},{"user_id":234,"name":"RuinLucky","steam_id":76561199481172481,"connected_time":1750000000000,"state":"active","ping":92},{"user_id":215,"name":"Snoopy","steam_id":76561198273735974,"connected_time":3890000000000,"state":"active","ping":118},{"user_id":233,"name":"Maggie Rhee","steam_id":76561198055921722,"connected_time":1762000000000,"state":"active","ping":79},{"user_id":227,"name":"cactail","steam_id":76561198238898732,"connected_time":2593000000000,"state":"active","ping":62},{"user_id":255,"name":"MetalNavigator","steam_id":76561198974231439,"connected_time":363000000000,"state":"active","ping":99},{"user_id":259,"name":"F2P Rights Activist","steam_id":76561199012786293,"connected_time":305000000000,"state":"active","ping":91},{"user_id":249,"name":"remanedur","steam_id":76561198059459507,"connected_time":936000000000,"state":"active","ping":64},{"user_id":223,"name":"A Puppy","steam_id":76561198828184456,"connected_time":3594000000000,"state":"active","ping":53},{"user_id":239,"name":"WarMace","steam_id":76561198395937853,"connected_time":1601000000000,"state":"active","ping":117},{"user_id":260,"name":"Manwich","steam_id":76561198357334558,"connected_time":297000000000,"state":"active","ping":171},{"user_id":254,"name":"My balls hurt","steam_id":76561198158206236,"connected_time":653000000000,"state":"active","ping":120},{"user_id":229,"name":"Dum_Bass(Fish)","steam_id":76561197988105207,"connected_time":2536000000000,"state":"active","ping":58},{"user_id":247,"name":"De","steam_id":76561198206728044,"connected_time":1130000000000,"state":"active","ping":77},{"user_id":104,"name":"Maet","steam_id":76561198030208485,"connected_time":12914000000000,"state":"active","ping":83},{"user_id":154,"name":"googa","steam_id":76561198133130452,"connected_time":9699000000000,"state":"active","ping":44},{"user_id":222,"name":"Just PYE","steam_id":76561199439622967,"connected_time":3664000000000,"state":"active","ping":91},{"user_id":238,"name":"ZER0COOL","steam_id":76561198165521812,"connected_time":1649000000000,"state":"active","ping":70},{"user_id":197,"name":"Machine Girl - SAD CLAPS","steam_id":76561198294013916,"connected_time":5291000000000,"state":"active","ping":45},{"user_id":261,"name":"Tony hawks pro skater 2 dlc","steam_id":76561198243387974,"connected_time":282000000000,"state":"active","ping":57},{"user_id":225,"name":"vv","steam_id":76561198134813102,"connected_time":2623000000000,"state":"active","ping":69}]},{"server_id":15,"name":"Uncletopia | New York City | 3 | Stopwatch","name_short":"nyc-3","host":"nyc-1.us.uncletopia.com","port":27035,"enabled":true,"region":"us-east","cc":"us","latitude":40.73061,"longitude":-73.93524,"reserved":0,"last_update":"0001-01-01T00:00:00Z","name_a2s":"Uncletopia | New York City | 3 | Stopwatch","protocol":17,"map":"pl_snowycoast","folder":"tf","game":"Team Fortress","app_id":440,"player_count":0,"max_players":24,"Bots":0,"server_type":"Dedicated","server_os":"Linux","password":true,"vac":true,"version":"7961495","steam_id":85568392924742820,"keywords":["nocrits","nodmgspread","payload","uncletopia"],"game_id":440,"stv_port":27036,"stv_name":"Uncletopia | New York City | 3 | Stopwatch | STV","players":null},{"server_id":16,"name":"Uncletopia | New York City | 4 | Community","name_short":"nyc-4","host":"nyc-1.us.uncletopia.com","port":27045,"enabled":true,"region":"us-east","cc":"us","latitude":40.73061,"longitude":-73.93524,"reserved":0,"last_update":"0001-01-01T00:00:00Z","name_a2s":"Uncletopia | New York City | 4 | Community","protocol":17,"map":"cp_altitude","folder":"tf","game":"Team Fortress","app_id":440,"player_count":0,"max_players":24,"Bots":0,"server_type":"Dedicated","server_os":"Linux","password":true,"vac":true,"version":"7961495","steam_id":85568392924742821,"keywords":["cp","nocrits","nodmgspread","uncletopia"],"game_id":440,"stv_port":27046,"stv_name":"Uncletopia | New York City | 4 | Community | STV","players":null},{"server_id":142,"name":"Uncletopia | São Paulo | 1 | All Maps","name_short":"sao-1","host":"sao-1.br.uncletopia.com","port":27015,"enabled":true,"region":"sa","cc":"br","latitude":-23.533773,"longitude":-46.62529,"reserved":0,"last_update":"0001-01-01T00:00:00Z","name_a2s":"Uncletopia | São Paulo | 1 | All Maps","protocol":17,"map":"cp_dustbowl","folder":"tf","game":"Team Fortress","app_id":440,"player_count":0,"max_players":24,"Bots":0,"server_type":"Dedicated","server_os":"Linux","password":true,"vac":true,"version":"7961495","steam_id":85568392924469996,"keywords":["cp","nocrits","nodmgspread","uncletopia"],"game_id":440,"stv_port":27016,"stv_name":"Uncletopia | São Paulo | 1 | All Maps | STV","players":null},{"server_id":143,"name":"Uncletopia | São Paulo | 2 | Community","name_short":"sao-2","host":"sao-2.br.uncletopia.com","port":27015,"enabled":true,"region":"sa","cc":"br","latitude":-23.533773,"longitude":-46.62529,"reserved":0,"last_update":"0001-01-01T00:00:00Z","name_a2s":"Uncletopia | São Paulo | 2 | Community","protocol":17,"map":"workshop/cp_croissant_final.ugc458840209","folder":"tf","game":"Team Fortress","app_id":440,"player_count":0,"max_players":24,"Bots":0,"server_type":"Dedicated","server_os":"Linux","password":true,"vac":true,"version":"7961495","steam_id":85568392924485349,"keywords":["cp","nocrits","nodmgspread","uncletopia"],"game_id":440,"stv_port":27016,"stv_name":"Uncletopia | São Paulo | 2 | Community | STV","players":null},{"server_id":7,"name":"Uncletopia | Seattle | 1 | All Maps","name_short":"sea-1","host":"sea-1.us.uncletopia.com","port":27015,"enabled":true,"region":"us-west","cc":"us","latitude":47.608013,"longitude":-122.33517,"reserved":0,"last_update":"0001-01-01T00:00:00Z","name_a2s":"Uncletopia | Seattle | 1 | All Maps","protocol":17,"map":"cp_process_final","folder":"tf","game":"Team Fortress","app_id":440,"player_count":24,"max_players":24,"Bots":0,"server_type":"Dedicated","server_os":"Linux","password":true,"vac":true,"version":"7961495","steam_id":85568392924469997,"keywords":["cp","nocrits","nodmgspread","uncletopia"],"game_id":440,"stv_port":27016,"stv_name":"Uncletopia | Seattle | 1 | All Maps | STV","players":[{"user_id":184,"name":"laggy mcstab","steam_id":76561198106379962,"connected_time":4408000000000,"state":"active","ping":58},{"user_id":185,"name":"✫P∀nck∈✫","steam_id":76561198050163618,"connected_time":4381000000000,"state":"active","ping":66},{"user_id":200,"name":"Vruk","steam_id":76561198116930332,"connected_time":2381000000000,"state":"active","ping":53},{"user_id":221,"name":"TwoBit","steam_id":76561198062437559,"connected_time":1350000000000,"state":"active","ping":135},{"user_id":204,"name":"Sir-Samuraialot","steam_id":76561198885712212,"connected_time":2051000000000,"state":"active","ping":128},{"user_id":205,"name":"lol","steam_id":76561198026491738,"connected_time":1963000000000,"state":"active","ping":86},{"user_id":198,"name":"Whiskey","steam_id":76561198858154667,"connected_time":2572000000000,"state":"active","ping":71},{"user_id":196,"name":"COOL master_9","steam_id":76561198073041151,"connected_time":2593000000000,"state":"active","ping":96},{"user_id":197,"name":"Grassman (Cc)","steam_id":76561198026488532,"connected_time":2578000000000,"state":"active","ping":63},{"user_id":231,"name":"squart guy","steam_id":76561199411560141,"connected_time":82000000000,"state":"active","ping":48},{"user_id":212,"name":"tooru_hagakure, exhibitionism","steam_id":76561198097330521,"connected_time":1621000000000,"state":"active","ping":131},{"user_id":208,"name":"funkeymonkey15","steam_id":76561198930961042,"connected_time":1804000000000,"state":"active","ping":106},{"user_id":230,"name":"Grand","steam_id":76561198290143399,"connected_time":863000000000,"state":"active","ping":78},{"user_id":227,"name":"MxProf","steam_id":76561198044519572,"connected_time":1096000000000,"state":"active","ping":59},{"user_id":211,"name":"darkon52","steam_id":76561198249180528,"connected_time":1639000000000,"state":"active","ping":107},{"user_id":229,"name":"Sailor","steam_id":76561199081983517,"connected_time":968000000000,"state":"active","ping":101},{"user_id":226,"name":"Breetus","steam_id":76561198142421024,"connected_time":1144000000000,"state":"active","ping":81},{"user_id":215,"name":"DamerDoozle","steam_id":76561199121686201,"connected_time":1543000000000,"state":"active","ping":113},{"user_id":225,"name":"Pneumo.","steam_id":76561197987911883,"connected_time":1177000000000,"state":"active","ping":68},{"user_id":228,"name":"Truffles","steam_id":76561198095868800,"connected_time":1054000000000,"state":"active","ping":116},{"user_id":218,"name":"Just a baby","steam_id":76561198018660838,"connected_time":1417000000000,"state":"active","ping":145},{"user_id":219,"name":"Willem Dafoe","steam_id":76561198037453253,"connected_time":1405000000000,"state":"active","ping":114},{"user_id":223,"name":"Curse of the Blackened Eye","steam_id":76561198097175164,"connected_time":1332000000000,"state":"active","ping":133},{"user_id":222,"name":"Princess Bootylicious","steam_id":76561198334977151,"connected_time":1348000000000,"state":"active","ping":61}]},{"server_id":119,"name":"Uncletopia | Seattle | 2 | All Maps","name_short":"sea-2","host":"sea-1.us.uncletopia.com","port":27025,"enabled":true,"region":"us-west","cc":"us","latitude":47.608013,"longitude":-122.33517,"reserved":0,"last_update":"0001-01-01T00:00:00Z","name_a2s":"Uncletopia | Seattle | 2 | All Maps","protocol":17,"map":"pl_snowycoast","folder":"tf","game":"Team Fortress","app_id":440,"player_count":0,"max_players":24,"Bots":0,"server_type":"Dedicated","server_os":"Linux","password":true,"vac":true,"version":"7961495","steam_id":85568392924469998,"keywords":["nocrits","nodmgspread","payload","uncletopia"],"game_id":440,"stv_port":27026,"stv_name":"Uncletopia | Seattle | 2 | All Maps | STV","players":null},{"server_id":406,"name":"Uncletopia | Seattle | 3 | Stopwatch","name_short":"sea-3","host":"sea-1.us.uncletopia.com","port":27035,"enabled":true,"region":"us-west","cc":"us","latitude":47.608013,"longitude":-122.33517,"reserved":0,"last_update":"0001-01-01T00:00:00Z","name_a2s":"Uncletopia | Seattle | 3 | Stopwatch","protocol":17,"map":"koth_lakeside_final","folder":"tf","game":"Team Fortress","app_id":440,"player_count":0,"max_players":24,"Bots":0,"server_type":"Dedicated","server_os":"Linux","password":true,"vac":true,"version":"7961495","steam_id":85568392924515217,"keywords":["cp","nocrits","nodmgspread","uncletopia"],"game_id":440,"stv_port":27036,"stv_name":"Uncletopia | Seattle | 3 | Stopwatch | STV","players":null},{"server_id":17,"name":"Uncletopia | San Francisco | 1 | All Maps","name_short":"sfo-1","host":"sfo-1.us.uncletopia.com","port":27015,"enabled":true,"region":"us-west","cc":"us","latitude":37.77397,"longitude":-122.4313,"reserved":0,"last_update":"0001-01-01T00:00:00Z","name_a2s":"Uncletopia | San Francisco | 1 | All Maps","protocol":17,"map":"koth_cascade","folder":"tf","game":"Team Fortress","app_id":440,"player_count":0,"max_players":24,"Bots":0,"server_type":"Dedicated","server_os":"Linux","password":true,"vac":true,"version":"7961495","steam_id":85568392924469999,"keywords":["cp","nocrits","nodmgspread","uncletopia"],"game_id":440,"stv_port":27016,"stv_name":"Uncletopia | San Francisco | 1 | All Maps | STV","players":null},{"server_id":18,"name":"Uncletopia | San Francisco | 2 | All Maps","name_short":"sfo-2","host":"sfo-1.us.uncletopia.com","port":27025,"enabled":true,"region":"us-west","cc":"us","latitude":37.77397,"longitude":-122.4313,"reserved":0,"last_update":"0001-01-01T00:00:00Z","name_a2s":"Uncletopia | San Francisco | 2 | All Maps","protocol":17,"map":"pl_barnblitz","folder":"tf","game":"Team Fortress","app_id":440,"player_count":22,"max_players":24,"Bots":0,"server_type":"Dedicated","server_os":"Linux","password":true,"vac":true,"version":"7961495","steam_id":85568392924470000,"keywords":["nocrits","nodmgspread","payload","uncletopia"],"game_id":440,"stv_port":27026,"stv_name":"Uncletopia | San Francisco | 2 | All Maps | STV","players":[{"user_id":215,"name":"normal","steam_id":76561198133712839,"connected_time":46000000000,"state":"active","ping":109},{"user_id":183,"name":"Keamy","steam_id":76561199471434875,"connected_time":1512000000000,"state":"active","ping":57},{"user_id":196,"name":"culruldoh","steam_id":76561199467334502,"connected_time":479000000000,"state":"active","ping":45},{"user_id":184,"name":"Lili W.","steam_id":76561199391478575,"connected_time":1194000000000,"state":"active","ping":79},{"user_id":148,"name":"I GOT LAID AT SHEN YUN 2023","steam_id":76561198844003641,"connected_time":3971000000000,"state":"active","ping":57},{"user_id":198,"name":"Norse Code","steam_id":76561198036032168,"connected_time":366000000000,"state":"active","ping":108},{"user_id":181,"name":"Christian Anglo-Saxon","steam_id":76561198067439057,"connected_time":2008000000000,"state":"active","ping":170},{"user_id":187,"name":"mattmungus224","steam_id":76561199494809185,"connected_time":972000000000,"state":"active","ping":137},{"user_id":199,"name":"JC The Dumb","steam_id":76561199186185567,"connected_time":365000000000,"state":"active","ping":63},{"user_id":201,"name":"Big Jack","steam_id":76561198132755619,"connected_time":296000000000,"state":"active","ping":47},{"user_id":136,"name":"FizzleWizard","steam_id":76561198045990868,"connected_time":5128000000000,"state":"active","ping":117},{"user_id":202,"name":"Ben Shapiro's Lil Slut","steam_id":76561199198633203,"connected_time":282000000000,"state":"active","ping":85},{"user_id":195,"name":"xX-D4rK.W1TnE5S-Xx","steam_id":76561198105374054,"connected_time":645000000000,"state":"active","ping":74},{"user_id":214,"name":"Bread","steam_id":76561198046006469,"connected_time":80000000000,"state":"active","ping":116},{"user_id":203,"name":"Callahan","steam_id":76561198849981151,"connected_time":270000000000,"state":"active","ping":87},{"user_id":137,"name":"Big Tony","steam_id":76561198341885311,"connected_time":5065000000000,"state":"active","ping":112},{"user_id":216,"name":"Blue Jackal","steam_id":76561198139235071,"connected_time":33000000000,"state":"active","ping":103},{"user_id":172,"name":"SLEEPY-Class NHP","steam_id":76561198064583865,"connected_time":2822000000000,"state":"active","ping":113},{"user_id":205,"name":"KaosInfinite","steam_id":76561198009126350,"connected_time":216000000000,"state":"active","ping":59},{"user_id":206,"name":"Largedong McGillicuddy","steam_id":76561198082955430,"connected_time":200000000000,"state":"active","ping":36},{"user_id":177,"name":"Urby","steam_id":76561199074391666,"connected_time":2246000000000,"state":"active","ping":81},{"user_id":212,"name":"bogus","steam_id":76561198377555279,"connected_time":112000000000,"state":"active","ping":119}]},{"server_id":19,"name":"Uncletopia | San Francisco | 3 | Stopwatch","name_short":"sfo-3","host":"sfo-1.us.uncletopia.com","port":27035,"enabled":true,"region":"us-west","cc":"us","latitude":37.77397,"longitude":-122.4313,"reserved":0,"last_update":"0001-01-01T00:00:00Z","name_a2s":"Uncletopia | San Francisco | 3 | Stopwatch","protocol":17,"map":"workshop/cp_reckoner_rc6.ugc674719999","folder":"tf","game":"Team Fortress","app_id":440,"player_count":0,"max_players":24,"Bots":0,"server_type":"Dedicated","server_os":"Linux","password":true,"vac":true,"version":"7961495","steam_id":85568392924742824,"keywords":["cp","nocrits","nodmgspread","uncletopia"],"game_id":440,"stv_port":27036,"stv_name":"Uncletopia | San Francisco | 3 | Stopwatch | STV","players":null},{"server_id":20,"name":"Uncletopia | San Francisco | 4 | Community","name_short":"sfo-4","host":"sfo-1.us.uncletopia.com","port":27045,"enabled":true,"region":"us-west","cc":"us","latitude":37.77397,"longitude":-122.4313,"reserved":0,"last_update":"0001-01-01T00:00:00Z","name_a2s":"Uncletopia | San Francisco | 4 | Community","protocol":17,"map":"pl_pier","folder":"tf","game":"Team Fortress","app_id":440,"player_count":0,"max_players":24,"Bots":0,"server_type":"Dedicated","server_os":"Linux","password":true,"vac":true,"version":"7961495","steam_id":85568392924742826,"keywords":["nocrits","nodmgspread","payload","uncletopia"],"game_id":440,"stv_port":27046,"stv_name":"Uncletopia | San Francisco | 4 | Community | STV","players":null},{"server_id":141,"name":"Uncletopia | Sydney | 1 | All Maps","name_short":"syd-1","host":"syd-1.au.uncletopia.com","port":27015,"enabled":true,"region":"au","cc":"au","latitude":-33.865143,"longitude":151.2099,"reserved":0,"last_update":"0001-01-01T00:00:00Z","name_a2s":"Uncletopia | Sydney | 1 | All Maps","protocol":17,"map":"koth_cascade","folder":"tf","game":"Team Fortress","app_id":440,"player_count":0,"max_players":24,"Bots":0,"server_type":"Dedicated","server_os":"Linux","password":true,"vac":true,"version":"7961495","steam_id":85568392924470001,"keywords":["cp","nocrits","nodmgspread","uncletopia"],"game_id":440,"stv_port":27016,"stv_name":"Uncletopia | Sydney | 1 | All Maps | STV","players":null},{"server_id":123,"name":"Uncletopia | Sydney | 2 | All Maps","name_short":"syd-2","host":"syd-1.au.uncletopia.com","port":27025,"enabled":true,"region":"au","cc":"au","latitude":-33.865143,"longitude":151.2099,"reserved":0,"last_update":"0001-01-01T00:00:00Z","name_a2s":"Uncletopia | Sydney | 2 | All Maps","protocol":17,"map":"pl_frontier_final","folder":"tf","game":"Team Fortress","app_id":440,"player_count":0,"max_players":24,"Bots":0,"server_type":"Dedicated","server_os":"Linux","password":true,"vac":true,"version":"7961495","steam_id":85568392924470002,"keywords":["nocrits","nodmgspread","payload","uncletopia"],"game_id":440,"stv_port":27026,"stv_name":"Uncletopia | Sydney | 2 | All Maps | STV","players":null},{"server_id":395,"name":"Uncletopia | Sydney | 3 | All Maps","name_short":"syd-3","host":"syd-1.au.uncletopia.com","port":27035,"enabled":true,"region":"au","cc":"au","latitude":-33.865143,"longitude":151.2099,"reserved":0,"last_update":"0001-01-01T00:00:00Z","name_a2s":"Uncletopia | Sydney | 3 | All Maps","protocol":17,"map":"cp_sunshine","folder":"tf","game":"Team Fortress","app_id":440,"player_count":0,"max_players":24,"Bots":0,"server_type":"Dedicated","server_os":"Linux","password":true,"vac":true,"version":"7961495","steam_id":85568392925194467,"keywords":["cp","nocrits","nodmgspread","uncletopia"],"game_id":440,"stv_port":27036,"stv_name":"Uncletopia | Sydney | 3 | All Maps | STV","players":null},{"server_id":396,"name":"Uncletopia | Sydney | 4 | All Maps","name_short":"syd-4","host":"syd-1.au.uncletopia.com","port":27045,"enabled":true,"region":"au","cc":"au","latitude":-33.865143,"longitude":151.2099,"reserved":0,"last_update":"0001-01-01T00:00:00Z","name_a2s":"Uncletopia | Sydney | 4 | All Maps","protocol":17,"map":"cp_process_final","folder":"tf","game":"Team Fortress","app_id":440,"player_count":0,"max_players":24,"Bots":0,"server_type":"Dedicated","server_os":"Linux","password":true,"vac":true,"version":"7961495","steam_id":85568392925397958,"keywords":["cp","nocrits","nodmgspread","uncletopia"],"game_id":440,"stv_port":27046,"stv_name":"Uncletopia | Sydney | 4 | All Maps | STV","players":null},{"server_id":58,"name":"Uncletopia | Sydney | 5 | Stopwatch","name_short":"syd-5","host":"syd-1.au.uncletopia.com","port":27055,"enabled":true,"region":"au","cc":"au","latitude":-33.865143,"longitude":151.2099,"reserved":0,"last_update":"0001-01-01T00:00:00Z","name_a2s":"Uncletopia | Sydney | 5 | Stopwatch","protocol":17,"map":"pl_frontier_final","folder":"tf","game":"Team Fortress","app_id":440,"player_count":0,"max_players":24,"Bots":0,"server_type":"Dedicated","server_os":"Linux","password":true,"vac":true,"version":"7961495","steam_id":85568392925397959,"keywords":["nocrits","nodmgspread","payload","uncletopia"],"game_id":440,"stv_port":27056,"stv_name":"Uncletopia | Sydney | 5 | Stopwatch | STV","players":null},{"server_id":59,"name":"Uncletopia | Sydney | 6 | Community","name_short":"syd-6","host":"syd-1.au.uncletopia.com","port":27065,"enabled":true,"region":"au","cc":"au","latitude":-33.865143,"longitude":151.2099,"reserved":0,"last_update":"0001-01-01T00:00:00Z","name_a2s":"Uncletopia | Sydney | 6 | Community","protocol":17,"map":"cp_sunshine","folder":"tf","game":"Team Fortress","app_id":440,"player_count":0,"max_players":24,"Bots":0,"server_type":"Dedicated","server_os":"Linux","password":true,"vac":true,"version":"7961495","steam_id":85568392925397960,"keywords":["cp","nocrits","nodmgspread","uncletopia"],"game_id":440,"stv_port":27066,"stv_name":"Uncletopia | Sydney | 6 | Community | STV","players":null},{"server_id":49,"name":"Uncletopia | Warsaw | 1 | All Maps","name_short":"waw-1","host":"waw-1.pl.uncletopia.com","port":27015,"enabled":true,"region":"eu","cc":"pl","latitude":52.2297,"longitude":21.017532,"reserved":0,"last_update":"0001-01-01T00:00:00Z","name_a2s":"Uncletopia | Warsaw | 1 | All Maps","protocol":17,"map":"koth_highpass","folder":"tf","game":"Team Fortress","app_id":440,"player_count":0,"max_players":24,"Bots":0,"server_type":"Dedicated","server_os":"Linux","password":true,"vac":true,"version":"7961495","steam_id":85568392925397850,"keywords":["cp","nocrits","nodmgspread","uncletopia"],"game_id":440,"stv_port":27016,"stv_name":"Uncletopia | Warsaw | 1 | All Maps | STV","players":null},{"server_id":50,"name":"Uncletopia | Warsaw | 2 | All Maps","name_short":"waw-2","host":"waw-1.pl.uncletopia.com","port":27025,"enabled":true,"region":"eu","cc":"pl","latitude":52.2297,"longitude":21.017532,"reserved":0,"last_update":"0001-01-01T00:00:00Z","name_a2s":"Uncletopia | Warsaw | 2 | All Maps","protocol":17,"map":"koth_highpass","folder":"tf","game":"Team Fortress","app_id":440,"player_count":0,"max_players":24,"Bots":0,"server_type":"Dedicated","server_os":"Linux","password":true,"vac":true,"version":"7961495","steam_id":85568392925397851,"keywords":["cp","nocrits","nodmgspread","uncletopia"],"game_id":440,"stv_port":27026,"stv_name":"Uncletopia | Warsaw | 2 | All Maps | STV","players":null},{"server_id":51,"name":"Uncletopia | Warsaw | 3 | All Maps","name_short":"waw-3","host":"waw-1.pl.uncletopia.com","port":27035,"enabled":true,"region":"eu","cc":"pl","latitude":52.2297,"longitude":21.017532,"reserved":0,"last_update":"0001-01-01T00:00:00Z","name_a2s":"Uncletopia | Warsaw | 3 | All Maps","protocol":17,"map":"cp_process_final","folder":"tf","game":"Team Fortress","app_id":440,"player_count":0,"max_players":24,"Bots":0,"server_type":"Dedicated","server_os":"Linux","password":true,"vac":true,"version":"7961495","steam_id":85568392925397852,"keywords":["cp","nocrits","nodmgspread","uncletopia"],"game_id":440,"stv_port":27036,"stv_name":"Uncletopia | Warsaw | 3 | All Maps | STV","players":null},{"server_id":52,"name":"Uncletopia | Warsaw | 4 | All Maps","name_short":"waw-4","host":"waw-1.pl.uncletopia.com","port":27045,"enabled":true,"region":"eu","cc":"pl","latitude":52.2297,"longitude":21.017532,"reserved":0,"last_update":"0001-01-01T00:00:00Z","name_a2s":"Uncletopia | Warsaw | 4 | All Maps","protocol":17,"map":"pl_borneo","folder":"tf","game":"Team Fortress","app_id":440,"player_count":0,"max_players":24,"Bots":0,"server_type":"Dedicated","server_os":"Linux","password":true,"vac":true,"version":"7961495","steam_id":85568392925397853,"keywords":["nocrits","nodmgspread","payload","uncletopia"],"game_id":440,"stv_port":27046,"stv_name":"Uncletopia | Warsaw | 4 | All Maps | STV","players":null},{"server_id":53,"name":"Uncletopia | Warsaw | 5 | Stopwatch","name_short":"waw-5","host":"waw-1.pl.uncletopia.com","port":27055,"enabled":true,"region":"eu","cc":"pl","latitude":52.2297,"longitude":21.017532,"reserved":0,"last_update":"0001-01-01T00:00:00Z","name_a2s":"Uncletopia | Warsaw | 5 | Stopwatch","protocol":17,"map":"cp_granary","folder":"tf","game":"Team Fortress","app_id":440,"player_count":0,"max_players":24,"Bots":0,"server_type":"Dedicated","server_os":"Linux","password":true,"vac":true,"version":"7961495","steam_id":85568392925397854,"keywords":["cp","nocrits","nodmgspread","uncletopia"],"game_id":440,"stv_port":27056,"stv_name":"Uncletopia | Warsaw | 5 | Stopwatch | STV","players":null},{"server_id":54,"name":"Uncletopia | Warsaw | 6 | Community","name_short":"waw-6","host":"waw-1.pl.uncletopia.com","port":27065,"enabled":true,"region":"eu","cc":"pl","latitude":52.2297,"longitude":21.017532,"reserved":0,"last_update":"0001-01-01T00:00:00Z","name_a2s":"Uncletopia | Warsaw | 6 | Community","protocol":17,"map":"workshop/cp_hazyfort_rc6.ugc1365963729","folder":"tf","game":"Team Fortress","app_id":440,"player_count":0,"max_players":24,"Bots":0,"server_type":"Dedicated","server_os":"Linux","password":true,"vac":true,"version":"7961495","steam_id":85568392925397856,"keywords":["cp","nocrits","nodmgspread","uncletopia"],"game_id":440,"stv_port":27066,"stv_name":"Uncletopia | Warsaw | 6 | Community | STV","players":null}]}