{"status":true,"message":"","result":[{"server_id":9,"name":"Uncletopia | Atlanta | 1 | All Maps","name_short":"atl-1","host":"atl-1.us.uncletopia.com","port":27015,"enabled":true,"region":"us-east","cc":"us","latitude":33.753746,"longitude":-84.38633,"reserved":0,"last_update":"0001-01-01T00:00:00Z","name_a2s":"Uncletopia | Atlanta | 1 | All Maps","protocol":17,"map":"pl_snowycoast","folder":"tf","game":"Team Fortress","app_id":440,"player_count":24,"max_players":24,"Bots":0,"server_type":"Dedicated","server_os":"Linux","password":true,"vac":true,"version":"7757534","steam_id":85568392924469982,"keywords":["nocrits","nodmgspread","payload","uncletopia"],"game_id":440,"stv_port":27016,"stv_name":"Uncletopia | Atlanta | 1 | All Maps | STV","players":[{"user_id":427,"name":"Actuary","steam_id":76561198838757422,"connected_time":7570000000000,"state":"active","ping":79},{"user_id":470,"name":"scrambledeggs3","steam_id":76561198066112579,"connected_time":2735000000000,"state":"active","ping":78},{"user_id":490,"name":"stink","steam_id":76561198099318923,"connected_time":639000000000,"state":"active","ping":77},{"user_id":471,"name":"Lilith","steam_id":76561198125102885,"connected_time":2733000000000,"state":"active","ping":71},{"user_id":493,"name":"nomad","steam_id":76561197998740399,"connected_time":536000000000,"state":"active","ping":67},{"user_id":472,"name":"The Pope","steam_id":76561198313560302,"connected_time":2354000000000,"state":"active","ping":43},{"user_id":453,"name":"eish","steam_id":76561198089463603,"connected_time":4994000000000,"state":"active","ping":118},{"user_id":473,"name":"Eden Hazard","steam_id":76561198089241053,"connected_time":2022000000000,"state":"active","ping":72},{"user_id":485,"name":"floofy","steam_id":76561198389769098,"connected_time":885000000000,"state":"active","ping":85},{"user_id":492,"name":"StarPhantasy","steam_id":76561199083081251,"connected_time":622000000000,"state":"active","ping":80},{"user_id":487,"name":"ATL1 | Vee (very cool)","steam_id":76561198330432889,"connected_time":864000000000,"state":"active","ping":60},{"user_id":476,"name":"Electroid","steam_id":76561199092263960,"connected_time":1369000000000,"state":"active","ping":54},{"user_id":464,"name":"BreadReceiver","steam_id":76561198862555841,"connected_time":2756000000000,"state":"active","ping":72},{"user_id":462,"name":"Onyx","steam_id":76561198275349640,"connected_time":2973000000000,"state":"active","ping":78},{"user_id":456,"name":"Inky (Coolest)","steam_id":76561198968337022,"connected_time":4739000000000,"state":"active","ping":59},{"user_id":486,"name":"David De Bergerac","steam_id":76561198010306294,"connected_time":879000000000,"state":"active","ping":83},{"user_id":484,"name":"luxin","steam_id":76561198399383047,"connected_time":896000000000,"state":"active","ping":55},{"user_id":466,"name":"Mage","steam_id":76561198285026879,"connected_time":2756000000000,"state":"active","ping":85},{"user_id":479,"name":"cola","steam_id":76561198374390458,"connected_time":1099000000000,"state":"active","ping":56},{"user_id":488,"name":"cow farmer","steam_id":76561198249206656,"connected_time":864000000000,"state":"active","ping":90},{"user_id":480,"name":"the opposition","steam_id":76561198246064626,"connected_time":1099000000000,"state":"active","ping":75},{"user_id":413,"name":"ATL1 | Pango","steam_id":76561198069811545,"connected_time":10159000000000,"state":"active","ping":45},{"user_id":426,"name":"com lag","steam_id":76561198019019392,"connected_time":7668000000000,"state":"active","ping":64},{"user_id":489,"name":"ATL1 | Psionic Box","steam_id":76561198151019322,"connected_time":863000000000,"state":"active","ping":61}]},{"server_id":104,"name":"Uncletopia | Atlanta | 2 | All Maps","name_short":"atl-2","host":"atl-1.us.uncletopia.com","port":27025,"enabled":true,"region":"us-east","cc":"us","latitude":33.753746,"longitude":-84.38633,"reserved":0,"last_update":"0001-01-01T00:00:00Z","name_a2s":"Uncletopia | Atlanta | 2 | All Maps","protocol":17,"map":"pl_borneo","folder":"tf","game":"Team Fortress","app_id":440,"player_count":24,"max_players":24,"Bots":0,"server_type":"Dedicated","server_os":"Linux","password":true,"vac":true,"version":"7757534","steam_id":85568392924469983,"keywords":["nocrits","nodmgspread","payload","uncletopia"],"game_id":440,"stv_port":27026,"stv_name":"Uncletopia | Atlanta | 2 | All Maps | STV","players":[{"user_id":455,"name":"BeanBag♥♫","steam_id":76561198167002197,"connected_time":655000000000,"state":"active","ping":59},{"user_id":449,"name":"Uung","steam_id":76561198183956731,"connected_time":910000000000,"state":"active","ping":53},{"user_id":458,"name":"CivilWarMike","steam_id":76561198141188839,"connected_time":536000000000,"state":"active","ping":54},{"user_id":451,"name":"keffers","steam_id":76561198202338796,"connected_time":730000000000,"state":"active","ping":102},{"user_id":473,"name":"lovely wife","steam_id":76561198406252824,"connected_time":94000000000,"state":"active","ping":110},{"user_id":452,"name":"my scrims were poverty ;-;","steam_id":76561198277163301,"connected_time":721000000000,"state":"active","ping":81},{"user_id":403,"name":"Strange Festive Femboy","steam_id":76561198050385093,"connected_time":4976000000000,"state":"active","ping":94},{"user_id":444,"name":"Vladikr1","steam_id":76561198401495362,"connected_time":1924000000000,"state":"active","ping":84},{"user_id":424,"name":"Mr.Clean(All Purpose Cleaner)","steam_id":76561198208014257,"connected_time":3719000000000,"state":"active","ping":72},{"user_id":454,"name":"Bip","steam_id":76561199022962204,"connected_time":667000000000,"state":"active","ping":58},{"user_id":465,"name":"Falleax","steam_id":76561198021154908,"connected_time":343000000000,"state":"active","ping":61},{"user_id":471,"name":"MrPoopy","steam_id":76561199456009540,"connected_time":105000000000,"state":"active","ping":74},{"user_id":434,"name":"hippo mode","steam_id":76561198073455521,"connected_time":2738000000000,"state":"active","ping":41},{"user_id":460,"name":"Boter","steam_id":76561198066994093,"connected_time":451000000000,"state":"active","ping":86},{"user_id":402,"name":"C papi","steam_id":76561198027779564,"connected_time":5080000000000,"state":"active","ping":51},{"user_id":410,"name":"Korshal","steam_id":76561198819036121,"connected_time":4428000000000,"state":"active","ping":56},{"user_id":474,"name":"beesechurger","steam_id":76561199008077046,"connected_time":40000000000,"state":"active","ping":125},{"user_id":426,"name":"Amy Roxwell","steam_id":76561198303391830,"connected_time":3447000000000,"state":"active","ping":107},{"user_id":467,"name":"playman shopping cart","steam_id":76561198397009880,"connected_time":263000000000,"state":"active","ping":48},{"user_id":411,"name":"trappy (soggy)","steam_id":76561198402801140,"connected_time":4312000000000,"state":"active","ping":85},{"user_id":448,"name":"FancyBones","steam_id":76561198180198885,"connected_time":1236000000000,"state":"active","ping":73},{"user_id":468,"name":"4+1MyriadFuturesCosMo@BousouFC","steam_id":76561198181929019,"connected_time":248000000000,"state":"active","ping":70},{"user_id":464,"name":"boo_thefeared","steam_id":76561198127967685,"connected_time":369000000000,"state":"active","ping":137},{"user_id":472,"name":"i love my wife","steam_id":76561198103496593,"connected_time":104000000000,"state":"active","ping":46}]},{"server_id":400,"name":"Uncletopia | Atlanta | 3 | Community","name_short":"atl-3","host":"atl-1.us.uncletopia.com","port":27035,"enabled":true,"region":"us-east","cc":"us","latitude":33.753746,"longitude":-84.38633,"reserved":0,"last_update":"0001-01-01T00:00:00Z","name_a2s":"Uncletopia | Atlanta | 3 | Community","protocol":17,"map":"workshop/cp_glacier_rc6.ugc2905735376","folder":"tf","game":"Team Fortress","app_id":440,"player_count":23,"max_players":24,"Bots":0,"server_type":"Dedicated","server_os":"Linux","password":true,"vac":true,"version":"7757534","steam_id":85568392924515187,"keywords":["cp","nocrits","nodmgspread","uncletopia"],"game_id":440,"stv_port":27036,"stv_name":"Uncletopia | Atlanta | 3 | Community | STV","players":[{"user_id":371,"name":"hud_saytext_time 0","steam_id":76561198010327228,"connected_time":4501000000000,"state":"active","ping":174},{"user_id":443,"name":"DAR","steam_id":76561198006306720,"connected_time":989000000000,"state":"active","ping":78},{"user_id":422,"name":"Your best mate","steam_id":76561199427729136,"connected_time":2105000000000,"state":"active","ping":103},{"user_id":442,"name":"Chickaen","steam_id":76561198928719045,"connected_time":1104000000000,"state":"active","ping":123},{"user_id":444,"name":"Seli_Petra","steam_id":76561199122253034,"connected_time":976000000000,"state":"active","ping":107},{"user_id":413,"name":"holyward7787","steam_id":76561199164183180,"connected_time":2466000000000,"state":"active","ping":70},{"user_id":445,"name":"Drunken Bastard","steam_id":76561198131629233,"connected_time":968000000000,"state":"active","ping":89},{"user_id":423,"name":"Jopheth","steam_id":76561198012902961,"connected_time":2084000000000,"state":"active","ping":58},{"user_id":412,"name":"Its Dr.Stoned","steam_id":76561198079622791,"connected_time":2572000000000,"state":"active","ping":68},{"user_id":450,"name":"Jesse Pinkman","steam_id":76561199088697633,"connected_time":858000000000,"state":"active","ping":86},{"user_id":447,"name":"TheTruthOfTheCessationOfDukkha","steam_id":76561198214370515,"connected_time":940000000000,"state":"active","ping":66},{"user_id":352,"name":"ribbonborn","steam_id":76561198001195423,"connected_time":5589000000000,"state":"active","ping":88},{"user_id":448,"name":"phinninja","steam_id":76561199205221690,"connected_time":910000000000,"state":"active","ping":67},{"user_id":449,"name":"buiboi","steam_id":76561198308981643,"connected_time":910000000000,"state":"active","ping":68},{"user_id":416,"name":"Thermalpwn","steam_id":76561198027552989,"connected_time":2189000000000,"state":"active","ping":85},{"user_id":356,"name":"Simply Mystic","steam_id":76561198055495647,"connected_time":5490000000000,"state":"active","ping":74},{"user_id":420,"name":"oddlyobtuselemon1654","steam_id":76561198877069773,"connected_time":2156000000000,"state":"active","ping":67},{"user_id":452,"name":"Hoofuyu","steam_id":76561199022142345,"connected_time":681000000000,"state":"active","ping":70},{"user_id":453,"name":"TruffleShuffl","steam_id":76561198833742625,"connected_time":635000000000,"state":"active","ping":58},{"user_id":458,"name":"Crack Wizard","steam_id":76561198055463619,"connected_time":211000000000,"state":"active","ping":83},{"user_id":456,"name":"markie","steam_id":76561198170206590,"connected_time":487000000000,"state":"active","ping":119},{"user_id":459,"name":"OrangeLuigi (#saveTF2)","steam_id":76561198408581975,"connected_time":207000000000,"state":"active","ping":88}]},{"server_id":401,"name":"Uncletopia | Atlanta | 4 | No Payload","name_short":"atl-4","host":"atl-1.us.uncletopia.com","port":27045,"enabled":true,"region":"us-east","cc":"us","latitude":33.753746,"longitude":-84.38633,"reserved":0,"last_update":"0001-01-01T00:00:00Z","name_a2s":"","protocol":0,"map":"","folder":"","game":"","app_id":0,"player_count":0,"max_players":0,"Bots":0,"server_type":"","server_os":"","password":false,"vac":false,"version":"","steam_id":0,"keywords":null,"game_id":0,"stv_port":0,"stv_name":"","players":null},{"server_id":2,"name":"Uncletopia | Chicago | 1 | All Maps","name_short":"chi-1","host":"chi-1.us.uncletopia.com","port":27015,"enabled":true,"region":"us-central","cc":"us","latitude":41.881832,"longitude":-87.62318,"reserved":0,"last_update":"0001-01-01T00:00:00Z","name_a2s":"Uncletopia | Chicago | 1 | All Maps","protocol":17,"map":"pl_badwater","folder":"tf","game":"Team Fortress","app_id":440,"player_count":22,"max_players":24,"Bots":0,"server_type":"Dedicated","server_os":"Linux","password":true,"vac":true,"version":"7757534","steam_id":85568392924469984,"keywords":["nocrits","nodmgspread","payload","uncletopia"],"game_id":440,"stv_port":27016,"stv_name":"Uncletopia | Chicago | 1 | All Maps | STV","players":[{"user_id":689,"name":"Agent Braise","steam_id":76561198421117063,"connected_time":158000000000,"state":"active","ping":83},{"user_id":687,"name":"Devoid","steam_id":76561198254039012,"connected_time":241000000000,"state":"active","ping":49},{"user_id":653,"name":"Astoriae!","steam_id":76561199090168858,"connected_time":4214000000000,"state":"active","ping":72},{"user_id":664,"name":"Tohubohu","steam_id":76561198077838448,"connected_time":2554000000000,"state":"active","ping":116},{"user_id":668,"name":"amazing","steam_id":76561198386233160,"connected_time":1883000000000,"state":"active","ping":76},{"user_id":669,"name":"Sevice","steam_id":76561198108904001,"connected_time":1883000000000,"state":"active","ping":56},{"user_id":690,"name":"Well, this annoying","steam_id":76561198010708247,"connected_time":59000000000,"state":"active","ping":68},{"user_id":670,"name":"-+","steam_id":76561198125261443,"connected_time":1853000000000,"state":"active","ping":106},{"user_id":620,"name":"PKBEAST_7","steam_id":76561198177136537,"connected_time":8572000000000,"state":"active","ping":85},{"user_id":651,"name":"Captain S. Forrest","steam_id":76561198062463029,"connected_time":4513000000000,"state":"active","ping":78},{"user_id":691,"name":"*****setget","steam_id":76561198118824188,"connected_time":36000000000,"state":"active","ping":115},{"user_id":692,"name":"ummnumm","steam_id":76561198280879341,"connected_time":0,"state":"spawning","ping":0},{"user_id":647,"name":"ᵖᵃᵖᵖᵉʳ ❀","steam_id":76561198171714389,"connected_time":5128000000000,"state":"active","ping":92},{"user_id":671,"name":"C.C.C.O.","steam_id":76561198053967778,"connected_time":1849000000000,"state":"active","ping":66},{"user_id":688,"name":"Person","steam_id":76561198093244204,"connected_time":206000000000,"state":"active","ping":74},{"user_id":658,"name":"Crab Rangoon","steam_id":76561198059310510,"connected_time":2706000000000,"state":"active","ping":60},{"user_id":619,"name":"Jill the Owl","steam_id":76561197999210583,"connected_time":8584000000000,"state":"active","ping":76},{"user_id":631,"name":"blob","steam_id":76561198122375328,"connected_time":7754000000000,"state":"active","ping":64},{"user_id":665,"name":"pro-PAIN","steam_id":76561198104544593,"connected_time":2553000000000,"state":"active","ping":102},{"user_id":678,"name":"Crystallixed","steam_id":76561198072263515,"connected_time":987000000000,"state":"active","ping":78},{"user_id":679,"name":"BurnN8or101","steam_id":76561198132668224,"connected_time":979000000000,"state":"active","ping":63},{"user_id":663,"name":"Craig Isonychia","steam_id":76561198272013678,"connected_time":2576000000000,"state":"active","ping":71}]},{"server_id":106,"name":"Uncletopia | Chicago | 2 | All Maps","name_short":"chi-2","host":"chi-1.us.uncletopia.com","port":27025,"enabled":true,"region":"us-central","cc":"us","latitude":41.881832,"longitude":-87.62318,"reserved":0,"last_update":"0001-01-01T00:00:00Z","name_a2s":"Uncletopia | Chicago | 2 | All Maps","protocol":17,"map":"cp_sunshine","folder":"tf","game":"Team Fortress","app_id":440,"player_count":0,"max_players":24,"Bots":0,"server_type":"Dedicated","server_os":"Linux","password":true,"vac":true,"version":"7757534","steam_id":85568392924469985,"keywords":["cp","nocrits","nodmgspread","uncletopia"],"game_id":440,"stv_port":27026,"stv_name":"Uncletopia | Chicago | 2 | All Maps | STV","players":null},{"server_id":402,"name":"Uncletopia | Chicago | 3 | All Maps","name_short":"chi-3","host":"chi-1.us.uncletopia.com","port":27035,"enabled":true,"region":"us-central","cc":"us","latitude":41.881832,"longitude":-87.62318,"reserved":0,"last_update":"0001-01-01T00:00:00Z","name_a2s":"Uncletopia | Chicago | 3 | All Maps","protocol":17,"map":"cp_mountainlab","folder":"tf","game":"Team Fortress","app_id":440,"player_count":18,"max_players":24,"Bots":0,"server_type":"Dedicated","server_os":"Linux","password":true,"vac":true,"version":"7757534","steam_id":85568392924515191,"keywords":["cp","nocrits","nodmgspread","uncletopia"],"game_id":440,"stv_port":27036,"stv_name":"Uncletopia | Chicago | 3 | All Maps | STV","players":[{"user_id":483,"name":"YHH face","steam_id":76561198035629877,"connected_time":25000000000,"state":"active","ping":32},{"user_id":477,"name":"Bronir","steam_id":76561198361945024,"connected_time":97000000000,"state":"active","ping":73},{"user_id":481,"name":"peter from family man","steam_id":76561198070923665,"connected_time":50000000000,"state":"active","ping":74},{"user_id":466,"name":"Walter White Gaming","steam_id":76561198380926090,"connected_time":1305000000000,"state":"active","ping":56},{"user_id":463,"name":"Cheif","steam_id":76561198802147518,"connected_time":1765000000000,"state":"active","ping":55},{"user_id":482,"name":"Flopper","steam_id":76561197974874355,"connected_time":50000000000,"state":"active","ping":54},{"user_id":456,"name":"Kazel","steam_id":76561197989757682,"connected_time":2111000000000,"state":"active","ping":55},{"user_id":452,"name":"AYAYA!!!","steam_id":76561198992102180,"connected_time":2142000000000,"state":"active","ping":45},{"user_id":467,"name":"Gonorrhea Gaming","steam_id":76561199121158746,"connected_time":1013000000000,"state":"active","ping":76},{"user_id":480,"name":"krispin wah","steam_id":76561198027052378,"connected_time":84000000000,"state":"active","ping":63},{"user_id":440,"name":"Adam (Cursed Confetti Creature)","steam_id":76561198317690197,"connected_time":3740000000000,"state":"active","ping":46},{"user_id":439,"name":"Bread Baker","steam_id":76561198185335103,"connected_time":3755000000000,"state":"active","ping":60},{"user_id":472,"name":"SadVeggie","steam_id":76561198163430099,"connected_time":397000000000,"state":"active","ping":103},{"user_id":458,"name":"Decot","steam_id":76561198042016967,"connected_time":2084000000000,"state":"active","ping":70},{"user_id":412,"name":"Monochi","steam_id":76561198093093118,"connected_time":5876000000000,"state":"active","ping":76},{"user_id":339,"name":"annie","steam_id":76561197994492154,"connected_time":9803000000000,"state":"active","ping":165},{"user_id":376,"name":"mike\"3loavesofbread\"jones","steam_id":76561198064342804,"connected_time":8546000000000,"state":"active","ping":180},{"user_id":471,"name":"draining to stay happy","steam_id":76561198797823116,"connected_time":494000000000,"state":"active","ping":61}]},{"server_id":403,"name":"Uncletopia | Chicago | 4 | All Maps","name_short":"chi-4","host":"chi-1.us.uncletopia.com","port":27045,"enabled":true,"region":"us-central","cc":"us","latitude":41.881832,"longitude":-87.62318,"reserved":0,"last_update":"0001-01-01T00:00:00Z","name_a2s":"Uncletopia | Chicago | 4 | All Maps","protocol":17,"map":"pl_swiftwater_final1","folder":"tf","game":"Team Fortress","app_id":440,"player_count":24,"max_players":24,"Bots":0,"server_type":"Dedicated","server_os":"Linux","password":true,"vac":true,"version":"7757534","steam_id":85568392924515193,"keywords":["nocrits","nodmgspread","payload","uncletopia"],"game_id":440,"stv_port":27046,"stv_name":"Uncletopia | Chicago | 4 | All Maps | STV","players":[{"user_id":686,"name":"gabagool","steam_id":76561198012131766,"connected_time":238000000000,"state":"active","ping":49},{"user_id":662,"name":"Dagoth","steam_id":76561198100896443,"connected_time":2139000000000,"state":"active","ping":59},{"user_id":673,"name":"jorjor wells","steam_id":76561199073429082,"connected_time":920000000000,"state":"active","ping":310},{"user_id":568,"name":"HOODEDLAWYER285","steam_id":76561198156496197,"connected_time":9493000000000,"state":"active","ping":53},{"user_id":653,"name":"WhoIsFrosty","steam_id":76561198880588117,"connected_time":2615000000000,"state":"active","ping":49},{"user_id":668,"name":"L0b5terlick","steam_id":76561198134990930,"connected_time":1677000000000,"state":"active","ping":62},{"user_id":674,"name":"Lightish Red","steam_id":76561198060879701,"connected_time":885000000000,"state":"active","ping":45},{"user_id":675,"name":"Admiral Crumbs","steam_id":76561198108791583,"connected_time":876000000000,"state":"active","ping":61},{"user_id":676,"name":"Lore","steam_id":76561198098407538,"connected_time":865000000000,"state":"active","ping":46},{"user_id":665,"name":"Robin","steam_id":76561198121165149,"connected_time":1721000000000,"state":"active","ping":40},{"user_id":661,"name":"Bee","steam_id":76561198074681324,"connected_time":2203000000000,"state":"active","ping":60},{"user_id":667,"name":"Loans","steam_id":76561198204683565,"connected_time":1683000000000,"state":"active","ping":55},{"user_id":652,"name":"Cruisin'","steam_id":76561199245457119,"connected_time":2629000000000,"state":"active","ping":79},{"user_id":685,"name":"Notation","steam_id":76561198119509319,"connected_time":314000000000,"state":"active","ping":61},{"user_id":647,"name":"brit76","steam_id":76561198032541553,"connected_time":3620000000000,"state":"active","ping":66},{"user_id":645,"name":"Yoshi62","steam_id":76561199103748704,"connected_time":3725000000000,"state":"active","ping":115},{"user_id":644,"name":"Goober","steam_id":76561198988863807,"connected_time":3886000000000,"state":"active","ping":74},{"user_id":624,"name":"too funky ᗜˬᗜ","steam_id":76561199120399776,"connected_time":4386000000000,"state":"active","ping":65},{"user_id":669,"name":"Walkiing","steam_id":76561198074473413,"connected_time":1501000000000,"state":"active","ping":44},{"user_id":682,"name":"primordialheath","steam_id":76561199386942638,"connected_time":551000000000,"state":"active","ping":55},{"user_id":683,"name":"8462","steam_id":76561198119826352,"connected_time":493000000000,"state":"active","ping":75},{"user_id":679,"name":"Sprucelass","steam_id":76561197998391724,"connected_time":759000000000,"state":"active","ping":49},{"user_id":657,"name":"chiswola","steam_id":76561198046920142,"connected_time":2587000000000,"state":"active","ping":76},{"user_id":681,"name":"ramrod","steam_id":76561197972297003,"connected_time":668000000000,"state":"active","ping":85}]},{"server_id":36,"name":"Uncletopia | Chicago | 5 | All Maps","name_short":"chi-5","host":"chi-2.us.uncletopia.com","port":27015,"enabled":true,"region":"us-central","cc":"us","latitude":41.881832,"longitude":-87.62318,"reserved":0,"last_update":"0001-01-01T00:00:00Z","name_a2s":"Uncletopia | Chicago | 5 | All Maps","protocol":17,"map":"cp_dustbowl","folder":"tf","game":"Team Fortress","app_id":440,"player_count":24,"max_players":24,"Bots":0,"server_type":"Dedicated","server_os":"Linux","password":true,"vac":true,"version":"7757534","steam_id":85568392924866362,"keywords":["cp","nocrits","nodmgspread","uncletopia"],"game_id":440,"stv_port":27016,"stv_name":"Uncletopia | Chicago | 5 | All Maps | STV","players":[{"user_id":246,"name":"MILK","steam_id":76561198253574099,"connected_time":7146000000000,"state":"active","ping":57},{"user_id":309,"name":"surrender to the void","steam_id":76561198055494039,"connected_time":1762000000000,"state":"active","ping":80},{"user_id":294,"name":"Spazicle12™","steam_id":76561198080182569,"connected_time":3073000000000,"state":"active","ping":99},{"user_id":320,"name":"Cats","steam_id":76561197965022076,"connected_time":935000000000,"state":"active","ping":57},{"user_id":268,"name":"ATL1 | Lylith!!!","steam_id":76561198386687546,"connected_time":5052000000000,"state":"active","ping":64},{"user_id":233,"name":"CORGI.EXE","steam_id":76561198077093432,"connected_time":8639000000000,"state":"active","ping":68},{"user_id":270,"name":"banned from uncletopia","steam_id":76561199102185708,"connected_time":4981000000000,"state":"active","ping":49},{"user_id":273,"name":"navis","steam_id":76561198996230924,"connected_time":4804000000000,"state":"active","ping":54},{"user_id":260,"name":"ATL1 | Le4n!!!","steam_id":76561198045522596,"connected_time":5858000000000,"state":"active","ping":80},{"user_id":299,"name":"hidinq","steam_id":76561198321277216,"connected_time":2502000000000,"state":"active","ping":102},{"user_id":311,"name":"thecal","steam_id":76561198307893384,"connected_time":1731000000000,"state":"active","ping":53},{"user_id":312,"name":"C4K3","steam_id":76561197996963285,"connected_time":1714000000000,"state":"active","ping":85},{"user_id":287,"name":"hazel","steam_id":76561198173271218,"connected_time":3775000000000,"state":"active","ping":76},{"user_id":321,"name":"ƐՌѴƳ","steam_id":76561198099470277,"connected_time":612000000000,"state":"active","ping":83},{"user_id":318,"name":"Camero","steam_id":76561198119070238,"connected_time":1188000000000,"state":"active","ping":56},{"user_id":301,"name":"Pixeled","steam_id":76561198088917077,"connected_time":2441000000000,"state":"active","ping":91},{"user_id":325,"name":"vegeta","steam_id":76561198819838355,"connected_time":15000000000,"state":"active","ping":199},{"user_id":323,"name":"Shylo","steam_id":76561199276858045,"connected_time":119000000000,"state":"active","ping":82},{"user_id":296,"name":"Remy the rat","steam_id":76561198080519558,"connected_time":2989000000000,"state":"active","ping":81},{"user_id":317,"name":"JestinJester","steam_id":76561198411846094,"connected_time":1211000000000,"state":"active","ping":71},{"user_id":302,"name":"Jackie McCracky","steam_id":76561198404707064,"connected_time":2427000000000,"state":"active","ping":60},{"user_id":303,"name":"CollDragon","steam_id":76561198067534450,"connected_time":2425000000000,"state":"active","ping":69},{"user_id":319,"name":"Bigguysal","steam_id":76561198171204223,"connected_time":1062000000000,"state":"active","ping":140},{"user_id":298,"name":"Vensita","steam_id":76561198372434928,"connected_time":2768000000000,"state":"active","ping":59}]},{"server_id":37,"name":"Uncletopia | Chicago | 6 | All Maps","name_short":"chi-6","host":"chi-2.us.uncletopia.com","port":27025,"enabled":true,"region":"us-central","cc":"us","latitude":41.881832,"longitude":-87.62318,"reserved":0,"last_update":"0001-01-01T00:00:00Z","name_a2s":"Uncletopia | Chicago | 6 | All Maps","protocol":17,"map":"pl_upward","folder":"tf","game":"Team Fortress","app_id":440,"player_count":22,"max_players":24,"Bots":0,"server_type":"Dedicated","server_os":"Linux","password":true,"vac":true,"version":"7757534","steam_id":85568392924866363,"keywords":["nocrits","nodmgspread","payload","uncletopia"],"game_id":440,"stv_port":27026,"stv_name":"Uncletopia | Chicago | 6 | All Maps | STV","players":[{"user_id":437,"name":"Uncle Majic the Hip Hop Magicia","steam_id":76561198107924303,"connected_time":823000000000,"state":"active","ping":58},{"user_id":383,"name":"hrVst-m00n","steam_id":76561198062484489,"connected_time":7755000000000,"state":"active","ping":77},{"user_id":390,"name":"Aquacuga","steam_id":76561198054571890,"connected_time":6849000000000,"state":"active","ping":113},{"user_id":431,"name":"Bluedot","steam_id":76561198019909639,"connected_time":2542000000000,"state":"active","ping":57},{"user_id":424,"name":"MedRed™ #IATAH","steam_id":76561198002962970,"connected_time":2711000000000,"state":"active","ping":92},{"user_id":389,"name":"MantisToboggan","steam_id":76561197969447887,"connected_time":7285000000000,"state":"active","ping":136},{"user_id":434,"name":"Swshbcklr","steam_id":76561197969421355,"connected_time":1552000000000,"state":"active","ping":47},{"user_id":397,"name":"LBFable","steam_id":76561198034232593,"connected_time":5318000000000,"state":"active","ping":58},{"user_id":448,"name":"TheHarmacist","steam_id":76561198068249096,"connected_time":59000000000,"state":"active","ping":46},{"user_id":447,"name":"Ferret","steam_id":76561198060416458,"connected_time":91000000000,"state":"active","ping":101},{"user_id":439,"name":"Bheem","steam_id":76561198170453459,"connected_time":780000000000,"state":"active","ping":87},{"user_id":449,"name":"jolo","steam_id":76561198042831480,"connected_time":19000000000,"state":"active","ping":63},{"user_id":450,"name":"Apple Zoo","steam_id":76561198013732450,"connected_time":15000000000,"state":"active","ping":57},{"user_id":441,"name":"laptop_gaming","steam_id":76561199086696628,"connected_time":594000000000,"state":"active","ping":44},{"user_id":442,"name":"Bippity Jones","steam_id":76561197998388374,"connected_time":586000000000,"state":"active","ping":62},{"user_id":433,"name":"hej","steam_id":76561197996366940,"connected_time":1560000000000,"state":"active","ping":67},{"user_id":436,"name":"Dr.KombatPhD.ttv","steam_id":76561198263847667,"connected_time":985000000000,"state":"active","ping":57},{"user_id":443,"name":"original username","steam_id":76561198193388986,"connected_time":555000000000,"state":"active","ping":45},{"user_id":451,"name":"Crunchy","steam_id":76561199065412274,"connected_time":6000000000,"state":"spawning","ping":209},{"user_id":408,"name":"Cyanide Cookie Dealer","steam_id":76561198273154644,"connected_time":4654000000000,"state":"active","ping":57},{"user_id":446,"name":"Dieu-Sama","steam_id":76561198002075862,"connected_time":486000000000,"state":"active","ping":76},{"user_id":399,"name":"Thomas the train","steam_id":76561198040153410,"connected_time":5169000000000,"state":"active","ping":44}]},{"server_id":38,"name":"Uncletopia | Chicago | 7 | Stopwatch Beta","name_short":"chi-7","host":"chi-2.us.uncletopia.com","port":27035,"enabled":true,"region":"us-central","cc":"us","latitude":41.881832,"longitude":-87.62318,"reserved":0,"last_update":"0001-01-01T00:00:00Z","name_a2s":"Uncletopia | Chicago | 7 | Stopwatch Beta","protocol":17,"map":"cp_gullywash_final1","folder":"tf","game":"Team Fortress","app_id":440,"player_count":24,"max_players":24,"Bots":0,"server_type":"Dedicated","server_os":"Linux","password":true,"vac":true,"version":"7757534","steam_id":85568392924866364,"keywords":["cp","nocrits","nodmgspread","uncletopia"],"game_id":440,"stv_port":27036,"stv_name":"Uncletopia | Chicago | 7 | Stopwatch Beta | STV","players":[{"user_id":190,"name":"Bobbn","steam_id":76561198876124683,"connected_time":899000000000,"state":"active","ping":72},{"user_id":183,"name":"Dr. Penguin","steam_id":76561198095234195,"connected_time":1349000000000,"state":"active","ping":105},{"user_id":192,"name":"Pocket m8","steam_id":76561198311438179,"connected_time":532000000000,"state":"active","ping":128},{"user_id":205,"name":"checkswing","steam_id":76561198999816132,"connected_time":176000000000,"state":"active","ping":62},{"user_id":112,"name":"Uncultivated","steam_id":76561197998724156,"connected_time":5161000000000,"state":"active","ping":67},{"user_id":189,"name":"Pekkaking","steam_id":76561199198232196,"connected_time":1099000000000,"state":"active","ping":66},{"user_id":193,"name":"BotBee","steam_id":76561198997590783,"connected_time":516000000000,"state":"active","ping":79},{"user_id":130,"name":"beyonder","steam_id":76561198045844070,"connected_time":4325000000000,"state":"active","ping":77},{"user_id":188,"name":"IzzyB","steam_id":76561198300315088,"connected_time":1212000000000,"state":"active","ping":112},{"user_id":131,"name":"BreakfastTacos","steam_id":76561198847620442,"connected_time":4322000000000,"state":"active","ping":107},{"user_id":208,"name":"e_the_cat","steam_id":76561198214264483,"connected_time":10000000000,"state":"active","ping":130},{"user_id":177,"name":"Welcome ♡ Hel","steam_id":76561198007942920,"connected_time":1522000000000,"state":"active","ping":68},{"user_id":206,"name":"andyy.r01","steam_id":76561199465918331,"connected_time":153000000000,"state":"active","ping":110},{"user_id":178,"name":"PaPá Soulzuneヅ","steam_id":76561198139615052,"connected_time":1502000000000,"state":"active","ping":105},{"user_id":179,"name":"froggy","steam_id":76561199130822721,"connected_time":1470000000000,"state":"active","ping":66},{"user_id":197,"name":"Stormz64","steam_id":76561198239036482,"connected_time":381000000000,"state":"active","ping":62},{"user_id":181,"name":"Walter765","steam_id":76561199103002097,"connected_time":1456000000000,"state":"active","ping":56},{"user_id":182,"name":"Phantom","steam_id":76561199200400404,"connected_time":1453000000000,"state":"active","ping":115},{"user_id":201,"name":"amaze balls","steam_id":76561199361525078,"connected_time":280000000000,"state":"active","ping":125},{"user_id":113,"name":"Sir Cakeman","steam_id":76561198127486789,"connected_time":5123000000000,"state":"active","ping":75},{"user_id":202,"name":"Rock Kickass","steam_id":76561198450510841,"connected_time":229000000000,"state":"active","ping":119},{"user_id":203,"name":"Laura Palmer Gaming","steam_id":76561198282965733,"connected_time":222000000000,"state":"active","ping":75},{"user_id":207,"name":"sharia compliant gamer","steam_id":76561198005884261,"connected_time":139000000000,"state":"active","ping":65},{"user_id":157,"name":"Nodin","steam_id":76561198135757376,"connected_time":3237000000000,"state":"active","ping":54}]},{"server_id":39,"name":"Uncletopia | Chicago | 8 | Community","name_short":"chi-8","host":"chi-2.us.uncletopia.com","port":27045,"enabled":true,"region":"us-central","cc":"us","latitude":41.881832,"longitude":-87.62318,"reserved":0,"last_update":"0001-01-01T00:00:00Z","name_a2s":"Uncletopia | Chicago | 8 | Community","protocol":17,"map":"workshop/cp_villa_b19.ugc2113052569","folder":"tf","game":"Team Fortress","app_id":440,"player_count":24,"max_players":24,"Bots":0,"server_type":"Dedicated","server_os":"Linux","password":true,"vac":true,"version":"7757534","steam_id":85568392924866365,"keywords":["cp","nocrits","nodmgspread","uncletopia"],"game_id":440,"stv_port":27046,"stv_name":"Uncletopia | Chicago | 8 | Community | STV","players":[{"user_id":253,"name":"Takeo","steam_id":76561197999385838,"connected_time":303000000000,"state":"active","ping":76},{"user_id":254,"name":"Source Enjoyer","steam_id":76561198105663173,"connected_time":287000000000,"state":"active","ping":47},{"user_id":233,"name":"*Gage*","steam_id":76561197975233869,"connected_time":2678000000000,"state":"active","ping":90},{"user_id":246,"name":"kramer","steam_id":76561198117761965,"connected_time":1199000000000,"state":"active","ping":70},{"user_id":249,"name":"stacybaby80","steam_id":76561198406951007,"connected_time":987000000000,"state":"active","ping":72},{"user_id":255,"name":"pissbaby","steam_id":76561198155434598,"connected_time":280000000000,"state":"active","ping":87},{"user_id":225,"name":"Krom","steam_id":76561198107896376,"connected_time":4131000000000,"state":"active","ping":56},{"user_id":256,"name":"DaSoulFlaya","steam_id":76561198047916808,"connected_time":274000000000,"state":"active","ping":122},{"user_id":179,"name":"ttv/IanTheAwsm","steam_id":76561198093031738,"connected_time":7118000000000,"state":"active","ping":68},{"user_id":232,"name":"the pest","steam_id":76561198826298849,"connected_time":2725000000000,"state":"active","ping":96},{"user_id":234,"name":"Peter Popoff","steam_id":76561198027171160,"connected_time":2678000000000,"state":"active","ping":49},{"user_id":188,"name":"Rose Wolf","steam_id":76561198437084762,"connected_time":6817000000000,"state":"active","ping":84},{"user_id":257,"name":"girl smell","steam_id":76561198118962168,"connected_time":264000000000,"state":"active","ping":86},{"user_id":258,"name":"Holy Dwight","steam_id":76561198012334980,"connected_time":258000000000,"state":"active","ping":85},{"user_id":241,"name":"Bad Namesman","steam_id":76561198027205470,"connected_time":2059000000000,"state":"active","ping":106},{"user_id":251,"name":"SuperChief","steam_id":76561198046519824,"connected_time":886000000000,"state":"active","ping":79},{"user_id":235,"name":"bug o1","steam_id":76561198126386686,"connected_time":2661000000000,"state":"active","ping":56},{"user_id":239,"name":"Papa Meme a la Cream","steam_id":76561198067810973,"connected_time":2456000000000,"state":"active","ping":57},{"user_id":252,"name":"TwinAirplane959","steam_id":76561198866756840,"connected_time":764000000000,"state":"active","ping":86},{"user_id":260,"name":"Sliced Ham","steam_id":76561198098015568,"connected_time":130000000000,"state":"active","ping":99},{"user_id":242,"name":"NUt","steam_id":76561198031007966,"connected_time":1494000000000,"state":"active","ping":69},{"user_id":206,"name":"MischievousDingo","steam_id":76561198013222619,"connected_time":5228000000000,"state":"active","ping":46},{"user_id":243,"name":"PoisonIvy","steam_id":76561198072384574,"connected_time":1414000000000,"state":"active","ping":53},{"user_id":238,"name":"John Coltrane","steam_id":76561198037789297,"connected_time":2581000000000,"state":"active","ping":118}]},{"server_id":8,"name":"Uncletopia | Dallas | 1 | All Maps","name_short":"dal-1","host":"dal-1.us.uncletopia.com","port":27015,"enabled":true,"region":"us-central","cc":"us","latitude":32.779167,"longitude":-96.80889,"reserved":0,"last_update":"0001-01-01T00:00:00Z","name_a2s":"Uncletopia | Dallas | 1 | All Maps","protocol":17,"map":"pl_snowycoast","folder":"tf","game":"Team Fortress","app_id":440,"player_count":23,"max_players":24,"Bots":0,"server_type":"Dedicated","server_os":"Linux","password":true,"vac":true,"version":"7757534","steam_id":85568392924469986,"keywords":["nocrits","nodmgspread","payload","uncletopia"],"game_id":440,"stv_port":27016,"stv_name":"Uncletopia | Dallas | 1 | All Maps | STV","players":[{"user_id":621,"name":"Yahtza","steam_id":76561198152171495,"connected_time":8390000000000,"state":"active","ping":62},{"user_id":1068,"name":"blue","steam_id":76561198342449098,"connected_time":433000000000,"state":"active","ping":47},{"user_id":945,"name":"gorf?","steam_id":76561198142286417,"connected_time":2992000000000,"state":"active","ping":76},{"user_id":1043,"name":"Egghead","steam_id":76561198159723876,"connected_time":1070000000000,"state":"active","ping":79},{"user_id":1059,"name":"Jezzus","steam_id":76561199289676387,"connected_time":622000000000,"state":"active","ping":60},{"user_id":1044,"name":"mkl","steam_id":76561197986401685,"connected_time":1054000000000,"state":"active","ping":61},{"user_id":1046,"name":"AoD  Pyro","steam_id":76561198312228050,"connected_time":1003000000000,"state":"active","ping":77},{"user_id":1029,"name":"FUSION","steam_id":76561197972659738,"connected_time":1446000000000,"state":"active","ping":73},{"user_id":1045,"name":"Wubbox From My Singing Monsters","steam_id":76561198272471440,"connected_time":1044000000000,"state":"active","ping":67},{"user_id":1037,"name":"Professional Membean Player","steam_id":76561198045244794,"connected_time":1255000000000,"state":"active","ping":94},{"user_id":1060,"name":"loudpisser","steam_id":76561198078802110,"connected_time":619000000000,"state":"active","ping":92},{"user_id":965,"name":"wunkem","steam_id":76561198055948497,"connected_time":2769000000000,"state":"active","ping":86},{"user_id":1048,"name":"[ØWQJØ]chubacaalatake","steam_id":76561198136201697,"connected_time":974000000000,"state":"active","ping":121},{"user_id":1053,"name":"cade","steam_id":76561198349941380,"connected_time":835000000000,"state":"active","ping":63},{"user_id":1049,"name":"Aü","steam_id":76561199031241776,"connected_time":960000000000,"state":"active","ping":50},{"user_id":693,"name":"chanoc","steam_id":76561198026734746,"connected_time":7472000000000,"state":"active","ping":88},{"user_id":972,"name":"keyboard not broke :)","steam_id":76561198104357969,"connected_time":2703000000000,"state":"active","ping":80},{"user_id":1062,"name":"mu","steam_id":76561197997530228,"connected_time":599000000000,"state":"active","ping":100},{"user_id":1026,"name":"RavenEmpress","steam_id":76561198954259711,"connected_time":1496000000000,"state":"active","ping":254},{"user_id":840,"name":"iluvtoust","steam_id":76561198869269207,"connected_time":5021000000000,"state":"active","ping":43},{"user_id":615,"name":"GarretGood","steam_id":76561198071881495,"connected_time":9688000000000,"state":"active","ping":156},{"user_id":982,"name":"Justy","steam_id":76561198044014069,"connected_time":2581000000000,"state":"active","ping":62},{"user_id":1017,"name":"El NeotixAzul","steam_id":76561199206547178,"connected_time":1787000000000,"state":"active","ping":137}]},{"server_id":108,"name":"Uncletopia | Dallas | 2 | All Maps","name_short":"dal-2","host":"dal-1.us.uncletopia.com","port":27025,"enabled":true,"region":"us-central","cc":"us","latitude":32.779167,"longitude":-96.80889,"reserved":0,"last_update":"0001-01-01T00:00:00Z","name_a2s":"Uncletopia | Dallas | 2 | All Maps","protocol":17,"map":"pl_pier","folder":"tf","game":"Team Fortress","app_id":440,"player_count":24,"max_players":24,"Bots":0,"server_type":"Dedicated","server_os":"Linux","password":true,"vac":true,"version":"7757534","steam_id":85568392924469988,"keywords":["nocrits","nodmgspread","payload","uncletopia"],"game_id":440,"stv_port":27026,"stv_name":"Uncletopia | Dallas | 2 | All Maps | STV","players":[{"user_id":313,"name":"psycho   joe","steam_id":76561198135656828,"connected_time":8216000000000,"state":"active","ping":69},{"user_id":385,"name":"coin","steam_id":76561198128374956,"connected_time":2999000000000,"state":"active","ping":64},{"user_id":411,"name":"guy","steam_id":76561198967158026,"connected_time":1473000000000,"state":"active","ping":66},{"user_id":417,"name":"DargaribdusPersonOfLordlyCalibe","steam_id":76561198020876416,"connected_time":222000000000,"state":"active","ping":62},{"user_id":418,"name":"Your Local NPR Station","steam_id":76561198143830279,"connected_time":216000000000,"state":"active","ping":58},{"user_id":414,"name":"sneakyflamingo","steam_id":76561199093026056,"connected_time":721000000000,"state":"active","ping":93},{"user_id":336,"name":"xZackAttack27x","steam_id":76561198035446639,"connected_time":6844000000000,"state":"active","ping":40},{"user_id":410,"name":"intek","steam_id":76561198052705291,"connected_time":1753000000000,"state":"active","ping":73},{"user_id":419,"name":"NBA Youngboy","steam_id":76561199118797200,"connected_time":216000000000,"state":"active","ping":55},{"user_id":345,"name":"Bluetooth_Person","steam_id":76561198871571711,"connected_time":5146000000000,"state":"active","ping":83},{"user_id":395,"name":"a bucket of chicken","steam_id":76561198023710042,"connected_time":1807000000000,"state":"active","ping":58},{"user_id":430,"name":"aisu","steam_id":76561198043768507,"connected_time":2000000000,"state":"spawning","ping":77},{"user_id":389,"name":"Fantastic Mr. Fox Appreciator","steam_id":76561198096306325,"connected_time":2712000000000,"state":"active","ping":89},{"user_id":427,"name":"c","steam_id":76561199215821942,"connected_time":110000000000,"state":"active","ping":47},{"user_id":415,"name":"Will Walters","steam_id":76561198249138216,"connected_time":565000000000,"state":"active","ping":52},{"user_id":387,"name":"totally not a pile of beans","steam_id":76561198119851931,"connected_time":2981000000000,"state":"active","ping":98},{"user_id":422,"name":"Aeri","steam_id":76561197996522919,"connected_time":194000000000,"state":"active","ping":98},{"user_id":388,"name":"so true","steam_id":76561198340469895,"connected_time":2760000000000,"state":"active","ping":92},{"user_id":384,"name":"Effie","steam_id":76561198261842068,"connected_time":3050000000000,"state":"active","ping":91},{"user_id":428,"name":"jazaniac","steam_id":76561198059955588,"connected_time":77000000000,"state":"active","ping":93},{"user_id":424,"name":"Inadequate","steam_id":76561198108263810,"connected_time":166000000000,"state":"active","ping":101},{"user_id":425,"name":"Red","steam_id":76561198031865869,"connected_time":152000000000,"state":"active","ping":64},{"user_id":340,"name":"Pourpel","steam_id":76561198059125470,"connected_time":6455000000000,"state":"active","ping":80},{"user_id":426,"name":"Kush","steam_id":76561198021243202,"connected_time":115000000000,"state":"active","ping":60}]},{"server_id":5,"name":"Uncletopia | Frankfurt | 1 | All Maps","name_short":"frk-1","host":"frk-1.de.uncletopia.com","port":27015,"enabled":true,"region":"eu","cc":"de","latitude":50.110924,"longitude":8.682127,"reserved":0,"last_update":"0001-01-01T00:00:00Z","name_a2s":"Uncletopia | Frankfurt | 1 | All Maps","protocol":17,"map":"cp_dustbowl","folder":"tf","game":"Team Fortress","app_id":440,"player_count":0,"max_players":24,"Bots":0,"server_type":"Dedicated","server_os":"Linux","password":true,"vac":true,"version":"7757534","steam_id":85568392924469989,"keywords":["cp","nocrits","nodmgspread","uncletopia"],"game_id":440,"stv_port":27016,"stv_name":"Uncletopia | Frankfurt | 1 | All Maps | STV","players":null},{"server_id":110,"name":"Uncletopia | Frankfurt | 2 | All Maps","name_short":"frk-2","host":"frk-1.de.uncletopia.com","port":27025,"enabled":true,"region":"eu","cc":"de","latitude":50.110924,"longitude":8.682127,"reserved":0,"last_update":"0001-01-01T00:00:00Z","name_a2s":"Uncletopia | Frankfurt | 2 | All Maps","protocol":17,"map":"koth_nucleus","folder":"tf","game":"Team Fortress","app_id":440,"player_count":0,"max_players":24,"Bots":0,"server_type":"Dedicated","server_os":"Linux","password":true,"vac":true,"version":"7757534","steam_id":85568392924469990,"keywords":["cp","nocrits","nodmgspread","uncletopia"],"game_id":440,"stv_port":27026,"stv_name":"Uncletopia | Frankfurt | 2 | All Maps | STV","players":null},{"server_id":308,"name":"Uncletopia | Frankfurt | 3 | All Maps","name_short":"frk-3","host":"frk-1.de.uncletopia.com","port":27035,"enabled":true,"region":"eu","cc":"de","latitude":50.110924,"longitude":8.682127,"reserved":0,"last_update":"0001-01-01T00:00:00Z","name_a2s":"Uncletopia | Frankfurt | 3 | All Maps","protocol":17,"map":"koth_cascade","folder":"tf","game":"Team Fortress","app_id":440,"player_count":0,"max_players":24,"Bots":0,"server_type":"Dedicated","server_os":"Linux","password":true,"vac":true,"version":"7757534","steam_id":85568392924504274,"keywords":["cp","nocrits","nodmgspread","uncletopia"],"game_id":440,"stv_port":27036,"stv_name":"Uncletopia | Frankfurt | 3 | All Maps | STV","players":null},{"server_id":309,"name":"Uncletopia | Frankfurt | 4 | All Maps","name_short":"frk-4","host":"frk-1.de.uncletopia.com","port":27045,"enabled":true,"region":"eu","cc":"de","latitude":50.110924,"longitude":8.682127,"reserved":0,"last_update":"0001-01-01T00:00:00Z","name_a2s":"Uncletopia | Frankfurt | 4 | All Maps","protocol":17,"map":"koth_lakeside_final","folder":"tf","game":"Team Fortress","app_id":440,"player_count":0,"max_players":24,"Bots":0,"server_type":"Dedicated","server_os":"Linux","password":true,"vac":true,"version":"7757534","steam_id":85568392924504275,"keywords":["cp","nocrits","nodmgspread","uncletopia"],"game_id":440,"stv_port":27046,"stv_name":"Uncletopia | Frankfurt | 4 | All Maps | STV","players":null},{"server_id":310,"name":"Uncletopia | Frankfurt | 5 | All Maps","name_short":"frk-5","host":"frk-1.de.uncletopia.com","port":27055,"enabled":true,"region":"eu","cc":"de","latitude":50.110924,"longitude":8.682127,"reserved":0,"last_update":"0001-01-01T00:00:00Z","name_a2s":"Uncletopia | Frankfurt | 5 | All Maps","protocol":17,"map":"cp_sunshine","folder":"tf","game":"Team Fortress","app_id":440,"player_count":0,"max_players":24,"Bots":0,"server_type":"Dedicated","server_os":"Linux","password":true,"vac":true,"version":"7757534","steam_id":85568392924504277,"keywords":["cp","nocrits","nodmgspread","uncletopia"],"game_id":440,"stv_port":27056,"stv_name":"Uncletopia | Frankfurt | 5 | All Maps | STV","players":null},{"server_id":311,"name":"Uncletopia | Frankfurt | 6 | All Maps","name_short":"frk-6","host":"frk-1.de.uncletopia.com","port":27065,"enabled":true,"region":"eu","cc":"de","latitude":50.110924,"longitude":8.682127,"reserved":0,"last_update":"0001-01-01T00:00:00Z","name_a2s":"Uncletopia | Frankfurt | 6 | All Maps","protocol":17,"map":"cp_sunshine","folder":"tf","game":"Team Fortress","app_id":440,"player_count":0,"max_players":24,"Bots":0,"server_type":"Dedicated","server_os":"Linux","password":true,"vac":true,"version":"7757534","steam_id":85568392924504278,"keywords":["cp","nocrits","nodmgspread","uncletopia"],"game_id":440,"stv_port":27066,"stv_name":"Uncletopia | Frankfurt | 6 | All Maps | STV","players":null},{"server_id":23,"name":"Uncletopia | Frankfurt | 7 | Stopwatch Beta","name_short":"frk-7","host":"frk-1.de.uncletopia.com","port":27075,"enabled":true,"region":"eu","cc":"de","latitude":50.110924,"longitude":8.682127,"reserved":0,"last_update":"0001-01-01T00:00:00Z","name_a2s":"Uncletopia | Frankfurt | 7 | Stopwatch Beta","protocol":17,"map":"cp_granary","folder":"tf","game":"Team Fortress","app_id":440,"player_count":0,"max_players":24,"Bots":0,"server_type":"Dedicated","server_os":"Linux","password":true,"vac":true,"version":"7757534","steam_id":85568392924742827,"keywords":["cp","nocrits","nodmgspread","uncletopia"],"game_id":440,"stv_port":27076,"stv_name":"Uncletopia | Frankfurt | 7 | Stopwatch Beta | STV","players":null},{"server_id":24,"name":"Uncletopia | Frankfurt | 8 | Community","name_short":"frk-8","host":"frk-1.de.uncletopia.com","port":27085,"enabled":true,"region":"eu","cc":"de","latitude":50.110924,"longitude":8.682127,"reserved":0,"last_update":"0001-01-01T00:00:00Z","name_a2s":"Uncletopia | Frankfurt | 8 | Community","protocol":17,"map":"koth_lakeside_final","folder":"tf","game":"Team Fortress","app_id":440,"player_count":0,"max_players":24,"Bots":0,"server_type":"Dedicated","server_os":"Linux","password":true,"vac":true,"version":"7757534","steam_id":85568392924742828,"keywords":["cp","nocrits","nodmgspread","uncletopia"],"game_id":440,"stv_port":27086,"stv_name":"Uncletopia | Frankfurt | 8 | Community | STV","players":null},{"server_id":202,"name":"Uncletopia | Hong Kong | 1 | All Maps","name_short":"hgk-1","host":"hgk-1.hk.uncletopia.com","port":27015,"enabled":true,"region":"asia","cc":"hk","latitude":22.302711,"longitude":114.177216,"reserved":0,"last_update":"0001-01-01T00:00:00Z","name_a2s":"Uncletopia | Hong Kong | 1 | All Maps","protocol":17,"map":"cp_egypt_final","folder":"tf","game":"Team Fortress","app_id":440,"player_count":24,"max_players":24,"Bots":0,"server_type":"Dedicated","server_os":"Linux","password":true,"vac":true,"version":"7757534","steam_id":85568392924494504,"keywords":["cp","nocrits","nodmgspread","uncletopia"],"game_id":440,"stv_port":27016,"stv_name":"Uncletopia | Hong Kong | 1 | All Maps | STV","players":[{"user_id":80,"name":"帕","steam_id":76561198439343999,"connected_time":1828000000000,"state":"active","ping":77},{"user_id":47,"name":"蠢脸骑士脸不蠢","steam_id":76561198422372840,"connected_time":4796000000000,"state":"active","ping":53},{"user_id":53,"name":"Leroy \"2noGood\"","steam_id":76561199137927625,"connected_time":4128000000000,"state":"active","ping":91},{"user_id":74,"name":"3wfFbdrjEze5d2G","steam_id":76561198435900451,"connected_time":2624000000000,"state":"active","ping":120},{"user_id":59,"name":"Nimbus","steam_id":76561198877713016,"connected_time":3874000000000,"state":"active","ping":178},{"user_id":86,"name":"505","steam_id":76561198400698408,"connected_time":1059000000000,"state":"active","ping":89},{"user_id":87,"name":"Wx","steam_id":76561199217780897,"connected_time":998000000000,"state":"active","ping":120},{"user_id":63,"name":"MsD IV","steam_id":76561198059707655,"connected_time":3756000000000,"state":"active","ping":75},{"user_id":71,"name":"✧BaKa BAzooKA✧(◕▿◕ )","steam_id":76561198061628689,"connected_time":2730000000000,"state":"active","ping":50},{"user_id":79,"name":"siyu","steam_id":76561198952342211,"connected_time":2322000000000,"state":"active","ping":54},{"user_id":67,"name":"Strawberry Jam","steam_id":76561198158666692,"connected_time":3223000000000,"state":"active","ping":35},{"user_id":76,"name":"Water = Soup","steam_id":76561198349949683,"connected_time":2553000000000,"state":"active","ping":39},{"user_id":32,"name":"p1st0n","steam_id":76561198992723983,"connected_time":5613000000000,"state":"active","ping":103},{"user_id":81,"name":"spinach (old mouse)","steam_id":76561198042539541,"connected_time":1812000000000,"state":"active","ping":83},{"user_id":73,"name":"plague568","steam_id":76561199446244255,"connected_time":2636000000000,"state":"active","ping":81},{"user_id":78,"name":"thought crime hotline","steam_id":76561198054545683,"connected_time":2351000000000,"state":"active","ping":82},{"user_id":82,"name":"P","steam_id":76561198304514505,"connected_time":1615000000000,"state":"active","ping":73},{"user_id":62,"name":"Spskza","steam_id":76561199385504837,"connected_time":3833000000000,"state":"active","ping":135},{"user_id":41,"name":"anemoia","steam_id":76561198074339034,"connected_time":5178000000000,"state":"active","ping":76},{"user_id":50,"name":"煙海 | Enkai","steam_id":76561198050460825,"connected_time":4495000000000,"state":"active","ping":75},{"user_id":89,"name":"Michael Scott","steam_id":76561198023082794,"connected_time":839000000000,"state":"active","ping":54},{"user_id":65,"name":"Nephew Nate","steam_id":76561199137872034,"connected_time":3626000000000,"state":"active","ping":174},{"user_id":75,"name":"momosneakeradventure","steam_id":76561199046440440,"connected_time":2577000000000,"state":"active","ping":41},{"user_id":85,"name":"Mega 00F","steam_id":76561198962485791,"connected_time":1422000000000,"state":"active","ping":134}]},{"server_id":1,"name":"Uncletopia | Los Angeles | 1 | All Maps","name_short":"lax-1","host":"lax-1.us.uncletopia.com","port":27015,"enabled":true,"region":"us-west","cc":"us","latitude":33.94279,"longitude":-118.41004,"reserved":0,"last_update":"0001-01-01T00:00:00Z","name_a2s":"Uncletopia | Los Angeles | 1 | All Maps","protocol":17,"map":"pl_borneo","folder":"tf","game":"Team Fortress","app_id":440,"player_count":24,"max_players":24,"Bots":0,"server_type":"Dedicated","server_os":"Linux","password":true,"vac":true,"version":"7757534","steam_id":85568392924469991,"keywords":["nocrits","nodmgspread","payload","uncletopia"],"game_id":440,"stv_port":27016,"stv_name":"Uncletopia | Los Angeles | 1 | All Maps | STV","players":[{"user_id":240,"name":"Pro Box","steam_id":76561198035990809,"connected_time":2907000000000,"state":"active","ping":154},{"user_id":252,"name":"Ion","steam_id":76561197992690915,"connected_time":2478000000000,"state":"active","ping":87},{"user_id":207,"name":"doozy","steam_id":76561198033106776,"connected_time":5770000000000,"state":"active","ping":120},{"user_id":230,"name":"skelter","steam_id":76561199228915146,"connected_time":3986000000000,"state":"active","ping":69},{"user_id":279,"name":"Petroleum Jelly","steam_id":76561198118778800,"connected_time":267000000000,"state":"active","ping":46},{"user_id":254,"name":"ForAPessimistImPrettyOptimistic","steam_id":76561198170128009,"connected_time":2219000000000,"state":"active","ping":58},{"user_id":266,"name":"SleepyGhost","steam_id":76561198378762909,"connected_time":874000000000,"state":"active","ping":185},{"user_id":261,"name":"GuyThatSaysNooice","steam_id":76561199085707466,"connected_time":1381000000000,"state":"active","ping":56},{"user_id":265,"name":"Lambchop","steam_id":76561198043900363,"connected_time":930000000000,"state":"active","ping":70},{"user_id":282,"name":"Bee's","steam_id":76561198041888432,"connected_time":74000000000,"state":"active","ping":123},{"user_id":258,"name":"ooga booga","steam_id":76561197985807310,"connected_time":1476000000000,"state":"active","ping":69},{"user_id":281,"name":"Skarp129","steam_id":76561198108679057,"connected_time":256000000000,"state":"active","ping":51},{"user_id":269,"name":"Newport1","steam_id":76561198074614044,"connected_time":860000000000,"state":"active","ping":45},{"user_id":270,"name":"DevDaKitsune","steam_id":76561198035298119,"connected_time":855000000000,"state":"active","ping":72},{"user_id":275,"name":"Benshiro","steam_id":76561198151776951,"connected_time":518000000000,"state":"active","ping":63},{"user_id":276,"name":"shadow wizard money gang","steam_id":76561198150406851,"connected_time":507000000000,"state":"active","ping":56},{"user_id":260,"name":"vanillain","steam_id":76561198058617608,"connected_time":1387000000000,"state":"active","ping":54},{"user_id":283,"name":"PileofPolygons","steam_id":76561199321343460,"connected_time":70000000000,"state":"active","ping":99},{"user_id":199,"name":"rmbl","steam_id":76561198150137369,"connected_time":6424000000000,"state":"active","ping":57},{"user_id":277,"name":"Killa*4*Hire","steam_id":76561197963445579,"connected_time":400000000000,"state":"active","ping":84},{"user_id":284,"name":"leumas","steam_id":76561198240408540,"connected_time":57000000000,"state":"active","ping":91},{"user_id":231,"name":"SQbuilder","steam_id":76561198076473375,"connected_time":3954000000000,"state":"active","ping":37},{"user_id":189,"name":"GRONT","steam_id":76561198040464533,"connected_time":7110000000000,"state":"active","ping":107},{"user_id":274,"name":"Minerkid2004","steam_id":76561198044262827,"connected_time":653000000000,"state":"active","ping":59}]},{"server_id":112,"name":"Uncletopia | Los Angeles | 2 | All Maps","name_short":"lax-2","host":"lax-1.us.uncletopia.com","port":27025,"enabled":true,"region":"us-west","cc":"us","latitude":33.94279,"longitude":-118.41004,"reserved":0,"last_update":"0001-01-01T00:00:00Z","name_a2s":"Uncletopia | Los Angeles | 2 | All Maps","protocol":17,"map":"pl_snowycoast","folder":"tf","game":"Team Fortress","app_id":440,"player_count":24,"max_players":24,"Bots":0,"server_type":"Dedicated","server_os":"Linux","password":true,"vac":true,"version":"7757534","steam_id":85568392924469992,"keywords":["nocrits","nodmgspread","payload","uncletopia"],"game_id":440,"stv_port":27026,"stv_name":"Uncletopia | Los Angeles | 2 | All Maps | STV","players":[{"user_id":761,"name":"ace","steam_id":76561198067677576,"connected_time":1174000000000,"state":"active","ping":46},{"user_id":722,"name":"\u003c`)))))\u003c fish","steam_id":76561198410078962,"connected_time":4684000000000,"state":"active","ping":48},{"user_id":736,"name":"Literal Vampire Potbelly Goblin","steam_id":76561197970527356,"connected_time":3589000000000,"state":"active","ping":31},{"user_id":743,"name":"asphalt eater","steam_id":76561198844273999,"connected_time":3051000000000,"state":"active","ping":75},{"user_id":773,"name":"ice cream (冰淇淋)","steam_id":76561198976530881,"connected_time":18000000000,"state":"active","ping":35},{"user_id":756,"name":"Thunder","steam_id":76561198097721532,"connected_time":1837000000000,"state":"active","ping":46},{"user_id":768,"name":"cass","steam_id":76561198074502046,"connected_time":434000000000,"state":"active","ping":103},{"user_id":764,"name":"Hollow gamer","steam_id":76561198426798913,"connected_time":1101000000000,"state":"active","ping":60},{"user_id":751,"name":"Toasty Gyro","steam_id":76561198001026643,"connected_time":2352000000000,"state":"active","ping":99},{"user_id":755,"name":"ADALEXAD","steam_id":76561198037496891,"connected_time":1879000000000,"state":"active","ping":86},{"user_id":747,"name":"walrooos","steam_id":76561198024521839,"connected_time":2396000000000,"state":"active","ping":42},{"user_id":658,"name":"moe5x","steam_id":76561198316877833,"connected_time":10017000000000,"state":"active","ping":133},{"user_id":727,"name":"YASAI JUICE","steam_id":76561198131971992,"connected_time":4267000000000,"state":"active","ping":87},{"user_id":728,"name":"Jolly","steam_id":76561198116357972,"connected_time":4238000000000,"state":"active","ping":47},{"user_id":769,"name":"KentYardAssociate","steam_id":76561198290499758,"connected_time":392000000000,"state":"active","ping":132},{"user_id":748,"name":"f*rt yourself to death","steam_id":76561198190962742,"connected_time":2370000000000,"state":"active","ping":78},{"user_id":767,"name":"Bullterriergaming","steam_id":76561199031506356,"connected_time":935000000000,"state":"active","ping":56},{"user_id":771,"name":"{ᴛʀ_ᴄᴇʀᴘ} shullers","steam_id":76561198889997809,"connected_time":230000000000,"state":"active","ping":45},{"user_id":763,"name":"cow","steam_id":76561198117331762,"connected_time":1120000000000,"state":"active","ping":104},{"user_id":770,"name":"Glar","steam_id":76561198341907150,"connected_time":336000000000,"state":"active","ping":66},{"user_id":759,"name":"Dob Bole","steam_id":76561198056367220,"connected_time":1362000000000,"state":"active","ping":33},{"user_id":765,"name":"oil","steam_id":76561198099980149,"connected_time":1076000000000,"state":"active","ping":45},{"user_id":760,"name":"Reyloko","steam_id":76561198172480913,"connected_time":1305000000000,"state":"active","ping":107},{"user_id":705,"name":"DieroBarbarian","steam_id":76561199005805933,"connected_time":5570000000000,"state":"active","ping":131}]},{"server_id":324,"name":"Uncletopia | Los Angeles | 3 | All Maps","name_short":"lax-3","host":"lax-1.us.uncletopia.com","port":27035,"enabled":true,"region":"us-west","cc":"us","latitude":33.94279,"longitude":-118.41004,"reserved":0,"last_update":"0001-01-01T00:00:00Z","name_a2s":"Uncletopia | Los Angeles | 3 | All Maps","protocol":17,"map":"pl_pier","folder":"tf","game":"Team Fortress","app_id":440,"player_count":24,"max_players":24,"Bots":0,"server_type":"Dedicated","server_os":"Linux","password":true,"vac":true,"version":"7757534","steam_id":85568392924510198,"keywords":["nocrits","nodmgspread","payload","uncletopia"],"game_id":440,"stv_port":27036,"stv_name":"Uncletopia | Los Angeles | 3 | All Maps | STV","players":[{"user_id":137,"name":"【 caden / karma 】","steam_id":76561198072276429,"connected_time":348000000000,"state":"active","ping":116},{"user_id":112,"name":"unchi","steam_id":76561198130813230,"connected_time":2911000000000,"state":"active","ping":99},{"user_id":102,"name":"large pootis","steam_id":76561198078373457,"connected_time":3958000000000,"state":"active","ping":45},{"user_id":120,"name":"Castleson","steam_id":76561198054330537,"connected_time":2208000000000,"state":"active","ping":97},{"user_id":118,"name":"undie","steam_id":76561197995238532,"connected_time":2353000000000,"state":"active","ping":106},{"user_id":127,"name":"Look a Bird","steam_id":76561198016294724,"connected_time":1050000000000,"state":"active","ping":57},{"user_id":130,"name":"El Gato Paranoico","steam_id":76561198116567116,"connected_time":986000000000,"state":"active","ping":90},{"user_id":128,"name":"Mom","steam_id":76561198207936000,"connected_time":1037000000000,"state":"active","ping":45},{"user_id":139,"name":"Isn't Water","steam_id":76561199253511650,"connected_time":218000000000,"state":"active","ping":95},{"user_id":97,"name":"cringy","steam_id":76561198323000455,"connected_time":4532000000000,"state":"active","ping":55},{"user_id":134,"name":"❄️ uno ❄","steam_id":76561198041573220,"connected_time":526000000000,"state":"active","ping":86},{"user_id":138,"name":"cream team","steam_id":76561198139043953,"connected_time":264000000000,"state":"active","ping":83},{"user_id":113,"name":"kr1tsurf3r","steam_id":76561198076402476,"connected_time":2902000000000,"state":"active","ping":69},{"user_id":99,"name":"KingOmegaVolt","steam_id":76561199187481231,"connected_time":4517000000000,"state":"active","ping":115},{"user_id":115,"name":"triiiple","steam_id":76561198058490388,"connected_time":2794000000000,"state":"active","ping":115},{"user_id":31,"name":"TransWomanGaming","steam_id":76561198809645656,"connected_time":8370000000000,"state":"active","ping":105},{"user_id":32,"name":"ღLotus","steam_id":76561198205338192,"connected_time":8341000000000,"state":"active","ping":133},{"user_id":132,"name":"M4 Sherman","steam_id":76561198011096132,"connected_time":962000000000,"state":"active","ping":60},{"user_id":135,"name":"Gut125Cin","steam_id":76561198101787225,"connected_time":441000000000,"state":"active","ping":47},{"user_id":45,"name":"Yoyo-Wo","steam_id":76561198880520205,"connected_time":7994000000000,"state":"active","ping":99},{"user_id":140,"name":"Owl_eyes","steam_id":76561198066199203,"connected_time":163000000000,"state":"active","ping":65},{"user_id":47,"name":"Cargro","steam_id":76561198197786481,"connected_time":7989000000000,"state":"active","ping":99},{"user_id":61,"name":"watterson :3","steam_id":76561198035536955,"connected_time":7007000000000,"state":"active","ping":91},{"user_id":101,"name":"Gundam Guy","steam_id":76561198178453993,"connected_time":4155000000000,"state":"active","ping":70}]},{"server_id":25,"name":"Uncletopia | Los Angeles | 4 | Stopwatch Beta","name_short":"lax-4","host":"lax-1.us.uncletopia.com","port":27045,"enabled":true,"region":"us-west","cc":"us","latitude":33.94279,"longitude":-118.41004,"reserved":0,"last_update":"0001-01-01T00:00:00Z","name_a2s":"Uncletopia | Los Angeles | 4 | Stopwatch Beta","protocol":17,"map":"pl_upward","folder":"tf","game":"Team Fortress","app_id":440,"player_count":0,"max_players":24,"Bots":0,"server_type":"Dedicated","server_os":"Linux","password":true,"vac":true,"version":"7757534","steam_id":85568392924510199,"keywords":["nocrits","nodmgspread","payload","uncletopia"],"game_id":440,"stv_port":27046,"stv_name":"Uncletopia | Los Angeles | 4 | Stopwatch Beta | STV","players":null},{"server_id":11,"name":"Uncletopia | London | 1 | All Maps","name_short":"lon-1","host":"lon-1.uk.uncletopia.com","port":27015,"enabled":true,"region":"eu","cc":"gb","latitude":51.509865,"longitude":-0.118092,"reserved":0,"last_update":"0001-01-01T00:00:00Z","name_a2s":"Uncletopia | London | 1 | All Maps","protocol":17,"map":"cp_mountainlab","folder":"tf","game":"Team Fortress","app_id":440,"player_count":0,"max_players":24,"Bots":0,"server_type":"Dedicated","server_os":"Linux","password":true,"vac":true,"version":"7757534","steam_id":85568392924367362,"keywords":["cp","nocrits","nodmgspread","uncletopia"],"game_id":440,"stv_port":27016,"stv_name":"Uncletopia | London | 1 | All Maps | STV","players":null},{"server_id":114,"name":"Uncletopia | London | 2 | All Maps","name_short":"lon-2","host":"lon-1.uk.uncletopia.com","port":27025,"enabled":true,"region":"eu","cc":"gb","latitude":51.509865,"longitude":-0.118092,"reserved":0,"last_update":"0001-01-01T00:00:00Z","name_a2s":"Uncletopia | London | 2 | All Maps","protocol":17,"map":"cp_altitude","folder":"tf","game":"Team Fortress","app_id":440,"player_count":0,"max_players":24,"Bots":0,"server_type":"Dedicated","server_os":"Linux","password":true,"vac":true,"version":"7757534","steam_id":85568392924470941,"keywords":["cp","nocrits","nodmgspread","uncletopia"],"game_id":440,"stv_port":27026,"stv_name":"Uncletopia | London | 2 | All Maps | STV","players":null},{"server_id":320,"name":"Uncletopia | London | 3 | All Maps","name_short":"lon-3","host":"lon-1.uk.uncletopia.com","port":27035,"enabled":true,"region":"eu","cc":"gb","latitude":51.509865,"longitude":-0.118092,"reserved":0,"last_update":"0001-01-01T00:00:00Z","name_a2s":"Uncletopia | London | 3 | All Maps","protocol":17,"map":"koth_lakeside_final","folder":"tf","game":"Team Fortress","app_id":440,"player_count":0,"max_players":24,"Bots":0,"server_type":"Dedicated","server_os":"Linux","password":true,"vac":true,"version":"7757534","steam_id":85568392924510192,"keywords":["cp","nocrits","nodmgspread","uncletopia"],"game_id":440,"stv_port":27036,"stv_name":"Uncletopia | London | 3 | All Maps | STV","players":null},{"server_id":321,"name":"Uncletopia | London | 4 | All Maps","name_short":"lon-4","host":"lon-1.uk.uncletopia.com","port":27045,"enabled":true,"region":"eu","cc":"gb","latitude":51.509865,"longitude":-0.118092,"reserved":0,"last_update":"0001-01-01T00:00:00Z","name_a2s":"Uncletopia | London | 4 | All Maps","protocol":17,"map":"cp_snakewater_final1","folder":"tf","game":"Team Fortress","app_id":440,"player_count":0,"max_players":24,"Bots":0,"server_type":"Dedicated","server_os":"Linux","password":true,"vac":true,"version":"7757534","steam_id":85568392924510193,"keywords":["cp","nocrits","nodmgspread","uncletopia"],"game_id":440,"stv_port":27046,"stv_name":"Uncletopia | London | 4 | All Maps | STV","players":null},{"server_id":21,"name":"Uncletopia | London | 5 | All Maps","name_short":"lon-5","host":"lon-1.uk.uncletopia.com","port":27055,"enabled":true,"region":"eu","cc":"gb","latitude":51.509865,"longitude":-0.118092,"reserved":0,"last_update":"0001-01-01T00:00:00Z","name_a2s":"Uncletopia | London | 5 | All Maps","protocol":17,"map":"cp_steel","folder":"tf","game":"Team Fortress","app_id":440,"player_count":20,"max_players":24,"Bots":0,"server_type":"Dedicated","server_os":"Linux","password":true,"vac":true,"version":"7757534","steam_id":85568392924742829,"keywords":["cp","nocrits","nodmgspread","uncletopia"],"game_id":440,"stv_port":27056,"stv_name":"Uncletopia | London | 5 | All Maps | STV","players":[{"user_id":710,"name":"Not Jessie","steam_id":76561198025129721,"connected_time":5921000000000,"state":"active","ping":31},{"user_id":733,"name":"ุ","steam_id":76561198045466919,"connected_time":3045000000000,"state":"active","ping":74},{"user_id":725,"name":"BlueBlueFox","steam_id":76561198053817230,"connected_time":4514000000000,"state":"active","ping":75},{"user_id":721,"name":"alice","steam_id":76561198180361759,"connected_time":4962000000000,"state":"active","ping":40},{"user_id":754,"name":"MIFIXZZZZ#SaveTF2","steam_id":76561198976567322,"connected_time":1252000000000,"state":"active","ping":131},{"user_id":755,"name":"FNF","steam_id":76561199151422826,"connected_time":1165000000000,"state":"active","ping":130},{"user_id":718,"name":"rag","steam_id":76561198083505031,"connected_time":5307000000000,"state":"active","ping":44},{"user_id":757,"name":"Fjellape","steam_id":76561198094819884,"connected_time":927000000000,"state":"active","ping":95},{"user_id":668,"name":"SuperBob103","steam_id":76561199175360012,"connected_time":10688000000000,"state":"active","ping":50},{"user_id":751,"name":"blindwaffle12","steam_id":76561198134723718,"connected_time":1718000000000,"state":"active","ping":54},{"user_id":758,"name":"RiAvoTheOfficial","steam_id":76561199121022061,"connected_time":810000000000,"state":"active","ping":137},{"user_id":762,"name":"minn","steam_id":76561198099101232,"connected_time":137000000000,"state":"active","ping":58},{"user_id":759,"name":"Portal2Player","steam_id":76561198062870114,"connected_time":587000000000,"state":"active","ping":148},{"user_id":760,"name":"Tank","steam_id":76561199059174576,"connected_time":478000000000,"state":"active","ping":174},{"user_id":763,"name":"Pineapple Okan","steam_id":76561198069199449,"connected_time":73000000000,"state":"active","ping":125},{"user_id":579,"name":"CumbustiblePunda","steam_id":76561197974274677,"connected_time":15500000000000,"state":"active","ping":55},{"user_id":715,"name":"Logic Not Found","steam_id":76561198273025576,"connected_time":5738000000000,"state":"active","ping":53},{"user_id":753,"name":"Lemmy","steam_id":76561199038870751,"connected_time":1609000000000,"state":"active","ping":57},{"user_id":742,"name":"kbbq","steam_id":76561198346638308,"connected_time":2518000000000,"state":"active","ping":47},{"user_id":744,"name":"Borat","steam_id":76561198122226417,"connected_time":2384000000000,"state":"active","ping":44}]},{"server_id":22,"name":"Uncletopia | London | 6 | All Maps","name_short":"lon-6","host":"lon-1.uk.uncletopia.com","port":27065,"enabled":true,"region":"eu","cc":"gb","latitude":51.509865,"longitude":-0.118092,"reserved":0,"last_update":"0001-01-01T00:00:00Z","name_a2s":"Uncletopia | London | 6 | All Maps","protocol":17,"map":"koth_highpass","folder":"tf","game":"Team Fortress","app_id":440,"player_count":0,"max_players":24,"Bots":0,"server_type":"Dedicated","server_os":"Linux","password":true,"vac":true,"version":"7757534","steam_id":85568392924742830,"keywords":["cp","nocrits","nodmgspread","uncletopia"],"game_id":440,"stv_port":27066,"stv_name":"Uncletopia | London | 6 | All Maps | STV","players":null},{"server_id":40,"name":"Uncletopia | London | 7 | No Payload","name_short":"lon-7","host":"lon-1.uk.uncletopia.com","port":27075,"enabled":true,"region":"eu","cc":"gb","latitude":51.509865,"longitude":-0.118092,"reserved":0,"last_update":"0001-01-01T00:00:00Z","name_a2s":"Uncletopia | London | 7 | No Payload","protocol":17,"map":"plr_hightower","folder":"tf","game":"Team Fortress","app_id":440,"player_count":0,"max_players":24,"Bots":0,"server_type":"Dedicated","server_os":"Linux","password":true,"vac":true,"version":"7757534","steam_id":85568392924964314,"keywords":["nocrits","nodmgspread","payload","uncletopia"],"game_id":440,"stv_port":27076,"stv_name":"Uncletopia | London | 7 | No Payload | STV","players":null},{"server_id":41,"name":"Uncletopia | London | 8 | Community","name_short":"lon-8","host":"lon-1.uk.uncletopia.com","port":27085,"enabled":true,"region":"eu","cc":"gb","latitude":51.509865,"longitude":-0.118092,"reserved":0,"last_update":"0001-01-01T00:00:00Z","name_a2s":"Uncletopia | London | 8 | Community","protocol":17,"map":"workshop/koth_trenchfoot_b1a.ugc731436616","folder":"tf","game":"Team Fortress","app_id":440,"player_count":0,"max_players":24,"Bots":0,"server_type":"Dedicated","server_os":"Linux","password":true,"vac":true,"version":"7757534","steam_id":85568392924964315,"keywords":["cp","nocrits","nodmgspread","uncletopia"],"game_id":440,"stv_port":27086,"stv_name":"Uncletopia | London | 8 | Community | STV","players":null},{"server_id":300,"name":"Uncletopia | Montréal | 1 | All Maps","name_short":"mtl-1","host":"mtl-1.ca.uncletopia.com","port":27015,"enabled":true,"region":"us-east","cc":"ca","latitude":45.50889,"longitude":-73.56167,"reserved":0,"last_update":"0001-01-01T00:00:00Z","name_a2s":"Uncletopia | Montréal | 1 | All Maps","protocol":17,"map":"koth_cascade","folder":"tf","game":"Team Fortress","app_id":440,"player_count":0,"max_players":24,"Bots":0,"server_type":"Dedicated","server_os":"Linux","password":true,"vac":true,"version":"7757534","steam_id":85568392924500087,"keywords":["cp","nocrits","nodmgspread","uncletopia"],"game_id":440,"stv_port":27016,"stv_name":"Uncletopia | Montréal | 1 | All Maps | STV","players":null},{"server_id":301,"name":"Uncletopia | Montréal | 2 | All Maps","name_short":"mtl-2","host":"mtl-1.ca.uncletopia.com","port":27025,"enabled":true,"region":"us-east","cc":"ca","latitude":45.50889,"longitude":-73.56167,"reserved":0,"last_update":"0001-01-01T00:00:00Z","name_a2s":"Uncletopia | Montréal | 2 | All Maps","protocol":17,"map":"pl_frontier_final","folder":"tf","game":"Team Fortress","app_id":440,"player_count":24,"max_players":24,"Bots":0,"server_type":"Dedicated","server_os":"Linux","password":true,"vac":true,"version":"7757534","steam_id":85568392924500088,"keywords":["nocrits","nodmgspread","payload","uncletopia"],"game_id":440,"stv_port":27026,"stv_name":"Uncletopia | Montréal | 2 | All Maps | STV","players":[{"user_id":425,"name":"Rose Chan01","steam_id":76561198867119878,"connected_time":1209000000000,"state":"active","ping":150},{"user_id":420,"name":"Poopie Babie","steam_id":76561198047500494,"connected_time":1610000000000,"state":"active","ping":91},{"user_id":432,"name":"Wiener Hole Paper Cut","steam_id":76561198000808203,"connected_time":931000000000,"state":"active","ping":72},{"user_id":441,"name":"jaqalope","steam_id":76561198152144009,"connected_time":455000000000,"state":"active","ping":100},{"user_id":296,"name":"Mall","steam_id":76561198436085386,"connected_time":10491000000000,"state":"active","ping":105},{"user_id":426,"name":"Jackie Bnuyy {{Trans Rights}}","steam_id":76561198804886675,"connected_time":1205000000000,"state":"active","ping":96},{"user_id":437,"name":"thetacoman","steam_id":76561198387755747,"connected_time":754000000000,"state":"active","ping":101},{"user_id":364,"name":"UNIT 220","steam_id":76561198042243497,"connected_time":5655000000000,"state":"active","ping":84},{"user_id":438,"name":"Smeller","steam_id":76561198041767882,"connected_time":715000000000,"state":"active","ping":60},{"user_id":422,"name":"DrakeFruit #savetf2","steam_id":76561198164411694,"connected_time":1503000000000,"state":"active","ping":99},{"user_id":442,"name":"orange porridge","steam_id":76561198044102244,"connected_time":87000000000,"state":"active","ping":60},{"user_id":436,"name":"crayonnipple","steam_id":76561198070253331,"connected_time":888000000000,"state":"active","ping":56},{"user_id":427,"name":"Air Ren","steam_id":76561198192519275,"connected_time":1099000000000,"state":"active","ping":84},{"user_id":439,"name":"FatManGaming11","steam_id":76561199059286827,"connected_time":710000000000,"state":"active","ping":88},{"user_id":396,"name":"begolds8","steam_id":76561198841069098,"connected_time":3184000000000,"state":"active","ping":111},{"user_id":412,"name":"Charlette Stone","steam_id":76561198069190175,"connected_time":1854000000000,"state":"active","ping":87},{"user_id":413,"name":"Importality","steam_id":76561198049943127,"connected_time":1831000000000,"state":"active","ping":105},{"user_id":418,"name":"your mom calls me princess too","steam_id":76561198020400899,"connected_time":1633000000000,"state":"active","ping":90},{"user_id":415,"name":"papa guacamole","steam_id":76561198167665608,"connected_time":1738000000000,"state":"active","ping":52},{"user_id":423,"name":"DUsty","steam_id":76561198814892127,"connected_time":1453000000000,"state":"active","ping":113},{"user_id":428,"name":"Dross","steam_id":76561198042172372,"connected_time":1075000000000,"state":"active","ping":60},{"user_id":402,"name":"Snoogs","steam_id":76561198444880931,"connected_time":2241000000000,"state":"active","ping":72},{"user_id":431,"name":"SuperCeleste❤️Trans Rights","steam_id":76561198167207053,"connected_time":986000000000,"state":"active","ping":82},{"user_id":443,"name":"bogus","steam_id":76561198377555279,"connected_time":51000000000,"state":"active","ping":99}]},{"server_id":302,"name":"Uncletopia | Montréal | 3 | All Maps","name_short":"mtl-3","host":"mtl-1.ca.uncletopia.com","port":27035,"enabled":true,"region":"us-east","cc":"ca","latitude":45.50889,"longitude":-73.56167,"reserved":0,"last_update":"0001-01-01T00:00:00Z","name_a2s":"Uncletopia | Montréal | 3 | All Maps","protocol":17,"map":"koth_lakeside_final","folder":"tf","game":"Team Fortress","app_id":440,"player_count":0,"max_players":24,"Bots":0,"server_type":"Dedicated","server_os":"Linux","password":true,"vac":true,"version":"7757534","steam_id":85568392924500089,"keywords":["cp","nocrits","nodmgspread","uncletopia"],"game_id":440,"stv_port":27036,"stv_name":"Uncletopia | Montréal | 3 | All Maps | STV","players":null},{"server_id":303,"name":"Uncletopia | Montréal | 4 | No Payload","name_short":"mtl-4","host":"mtl-1.ca.uncletopia.com","port":27045,"enabled":true,"region":"us-east","cc":"ca","latitude":45.50889,"longitude":-73.56167,"reserved":0,"last_update":"0001-01-01T00:00:00Z","name_a2s":"Uncletopia | Montréal | 4 | No Payload","protocol":17,"map":"cp_vanguard","folder":"tf","game":"Team Fortress","app_id":440,"player_count":0,"max_players":24,"Bots":0,"server_type":"Dedicated","server_os":"Linux","password":true,"vac":true,"version":"7757534","steam_id":85568392924500090,"keywords":["cp","nocrits","nodmgspread","uncletopia"],"game_id":440,"stv_port":27046,"stv_name":"Uncletopia | Montréal | 4 | No Payload | STV","players":null},{"server_id":13,"name":"Uncletopia | New York City | 1 | All Maps","name_short":"nyc-1","host":"nyc-1.us.uncletopia.com","port":27015,"enabled":true,"region":"us-east","cc":"us","latitude":40.73061,"longitude":-73.93524,"reserved":0,"last_update":"0001-01-01T00:00:00Z","name_a2s":"Uncletopia | New York City | 1 | All Maps","protocol":17,"map":"koth_viaduct","folder":"tf","game":"Team Fortress","app_id":440,"player_count":23,"max_players":24,"Bots":0,"server_type":"Dedicated","server_os":"Linux","password":true,"vac":true,"version":"7757534","steam_id":85568392924469993,"keywords":["cp","nocrits","nodmgspread","uncletopia"],"game_id":440,"stv_port":27016,"stv_name":"Uncletopia | New York City | 1 | All Maps | STV","players":[{"user_id":558,"name":"Vivid Hut 64","steam_id":76561198170050059,"connected_time":3695000000000,"state":"active","ping":57},{"user_id":561,"name":"dulg","steam_id":76561198127640309,"connected_time":3637000000000,"state":"active","ping":75},{"user_id":591,"name":"postgres","steam_id":76561198011204750,"connected_time":1337000000000,"state":"active","ping":101},{"user_id":496,"name":"sxl","steam_id":76561198150627999,"connected_time":7740000000000,"state":"active","ping":59},{"user_id":559,"name":"Notorious B.A.R.T hellcase.com","steam_id":76561198145092836,"connected_time":3679000000000,"state":"active","ping":66},{"user_id":582,"name":"Kago","steam_id":76561198122617301,"connected_time":1644000000000,"state":"active","ping":48},{"user_id":576,"name":"META.exe","steam_id":76561199067098696,"connected_time":2532000000000,"state":"active","ping":96},{"user_id":579,"name":"mashallah","steam_id":76561198075111427,"connected_time":2474000000000,"state":"active","ping":72},{"user_id":592,"name":"the grunch","steam_id":76561199013160273,"connected_time":1311000000000,"state":"active","ping":74},{"user_id":603,"name":"Pumpkin Spice","steam_id":76561199016285746,"connected_time":411000000000,"state":"active","ping":93},{"user_id":600,"name":"CreativeUsername","steam_id":76561198186045503,"connected_time":631000000000,"state":"active","ping":76},{"user_id":589,"name":"Rat_king","steam_id":76561199465689129,"connected_time":1476000000000,"state":"active","ping":77},{"user_id":577,"name":"TV","steam_id":76561198177326926,"connected_time":2498000000000,"state":"active","ping":82},{"user_id":596,"name":"HAT-WEARING™ Maggot Gamer Cat","steam_id":76561197973992705,"connected_time":756000000000,"state":"active","ping":123},{"user_id":595,"name":"l800","steam_id":76561198256543606,"connected_time":880000000000,"state":"active","ping":71},{"user_id":542,"name":"doublebubblr","steam_id":76561198214098028,"connected_time":4807000000000,"state":"active","ping":45},{"user_id":593,"name":"MontellWilliams","steam_id":76561198172143015,"connected_time":1225000000000,"state":"active","ping":54},{"user_id":588,"name":"The Drunk Clown","steam_id":76561197986850426,"connected_time":1553000000000,"state":"active","ping":75},{"user_id":598,"name":"noisetank","steam_id":76561199086731683,"connected_time":721000000000,"state":"active","ping":73},{"user_id":604,"name":"The Man With No Name","steam_id":76561198300601676,"connected_time":261000000000,"state":"active","ping":56},{"user_id":544,"name":"NoSignal","steam_id":76561198094723903,"connected_time":4769000000000,"state":"active","ping":68},{"user_id":500,"name":"megahello","steam_id":76561198254604438,"connected_time":7596000000000,"state":"active","ping":148},{"user_id":599,"name":"[PINGU™] Tiny Tuna","steam_id":76561198193611579,"connected_time":692000000000,"state":"active","ping":82}]},{"server_id":14,"name":"Uncletopia | New York City | 2 | All Maps","name_short":"nyc-2","host":"nyc-1.us.uncletopia.com","port":27025,"enabled":true,"region":"us-east","cc":"us","latitude":40.73061,"longitude":-73.93524,"reserved":0,"last_update":"0001-01-01T00:00:00Z","name_a2s":"Uncletopia | New York City | 2 | All Maps","protocol":17,"map":"pl_pier","folder":"tf","game":"Team Fortress","app_id":440,"player_count":19,"max_players":24,"Bots":0,"server_type":"Dedicated","server_os":"Linux","password":true,"vac":true,"version":"7757534","steam_id":85568392924469994,"keywords":["nocrits","nodmgspread","payload","uncletopia"],"game_id":440,"stv_port":27026,"stv_name":"Uncletopia | New York City | 2 | All Maps | STV","players":[{"user_id":740,"name":"god's drunkest driver","steam_id":76561198212115640,"connected_time":4000000000,"state":"spawning","ping":104},{"user_id":738,"name":"lunpunny","steam_id":76561199165658516,"connected_time":44000000000,"state":"active","ping":46},{"user_id":726,"name":"toho","steam_id":76561198117747254,"connected_time":619000000000,"state":"active","ping":74},{"user_id":714,"name":"wool","steam_id":76561198869689933,"connected_time":1339000000000,"state":"active","ping":57},{"user_id":739,"name":"ok","steam_id":76561198322519889,"connected_time":29000000000,"state":"active","ping":42},{"user_id":733,"name":"Summer ♥","steam_id":76561198047723907,"connected_time":476000000000,"state":"active","ping":117},{"user_id":659,"name":"adios.","steam_id":76561198091381384,"connected_time":7432000000000,"state":"active","ping":56},{"user_id":718,"name":"Ser Bong - Gentlemen Bandit","steam_id":76561197967964278,"connected_time":1211000000000,"state":"active","ping":68},{"user_id":697,"name":"Glass Joe","steam_id":76561198317365741,"connected_time":4035000000000,"state":"active","ping":61},{"user_id":629,"name":"Blue-Lobster-Gaming","steam_id":76561199220578772,"connected_time":10593000000000,"state":"active","ping":91},{"user_id":729,"name":"Jacknerik","steam_id":76561198041365662,"connected_time":552000000000,"state":"active","ping":57},{"user_id":720,"name":"Peanut Arbuckle","steam_id":76561198081689361,"connected_time":1088000000000,"state":"active","ping":49},{"user_id":730,"name":"a table","steam_id":76561198158461279,"connected_time":547000000000,"state":"active","ping":60},{"user_id":731,"name":"Two-Teste Tommy","steam_id":76561198064308936,"connected_time":531000000000,"state":"active","ping":57},{"user_id":732,"name":"Peepster","steam_id":76561198297854733,"connected_time":530000000000,"state":"active","ping":82},{"user_id":665,"name":"The Gamer Chicken","steam_id":76561198058256094,"connected_time":6352000000000,"state":"active","ping":32},{"user_id":735,"name":"FoodzAreGoodz","steam_id":76561198309262052,"connected_time":278000000000,"state":"active","ping":111},{"user_id":703,"name":"retinz","steam_id":76561198135563495,"connected_time":1756000000000,"state":"active","ping":46},{"user_id":705,"name":"Broadway Rose","steam_id":76561198046083342,"connected_time":1485000000000,"state":"active","ping":39}]},{"server_id":15,"name":"Uncletopia | New York City | 3 | Stopwatch Beta","name_short":"nyc-3","host":"nyc-1.us.uncletopia.com","port":27035,"enabled":true,"region":"us-east","cc":"us","latitude":40.73061,"longitude":-73.93524,"reserved":0,"last_update":"0001-01-01T00:00:00Z","name_a2s":"Uncletopia | New York City | 3 | Stopwatch Beta","protocol":17,"map":"cp_metalworks","folder":"tf","game":"Team Fortress","app_id":440,"player_count":0,"max_players":24,"Bots":0,"server_type":"Dedicated","server_os":"Linux","password":true,"vac":true,"version":"7757534","steam_id":85568392924742820,"keywords":["cp","nocrits","nodmgspread","uncletopia"],"game_id":440,"stv_port":27036,"stv_name":"Uncletopia | New York City | 3 | Stopwatch Beta | STV","players":null},{"server_id":16,"name":"Uncletopia | New York City | 4 | Community","name_short":"nyc-4","host":"nyc-1.us.uncletopia.com","port":27045,"enabled":true,"region":"us-east","cc":"us","latitude":40.73061,"longitude":-73.93524,"reserved":0,"last_update":"0001-01-01T00:00:00Z","name_a2s":"Uncletopia | New York City | 4 | Community","protocol":17,"map":"workshop/koth_ashville_final.ugc2130459942","folder":"tf","game":"Team Fortress","app_id":440,"player_count":0,"max_players":24,"Bots":0,"server_type":"Dedicated","server_os":"Linux","password":true,"vac":true,"version":"7757534","steam_id":85568392924742821,"keywords":["cp","nocrits","nodmgspread","uncletopia"],"game_id":440,"stv_port":27046,"stv_name":"Uncletopia | New York City | 4 | Community | STV","players":null},{"server_id":142,"name":"Uncletopia | São Paulo | 1 | All Maps","name_short":"sao-1","host":"sao-1.br.uncletopia.com","port":27015,"enabled":true,"region":"sa","cc":"br","latitude":-23.533773,"longitude":-46.62529,"reserved":0,"last_update":"0001-01-01T00:00:00Z","name_a2s":"Uncletopia | São Paulo | 1 | All Maps","protocol":17,"map":"cp_snakewater_final1","folder":"tf","game":"Team Fortress","app_id":440,"player_count":0,"max_players":24,"Bots":0,"server_type":"Dedicated","server_os":"Linux","password":true,"vac":true,"version":"7757534","steam_id":85568392924469996,"keywords":["cp","nocrits","nodmgspread","uncletopia"],"game_id":440,"stv_port":27016,"stv_name":"Uncletopia | São Paulo | 1 | All Maps | STV","players":null},{"server_id":143,"name":"Uncletopia | São Paulo | 2 | All Maps","name_short":"sao-2","host":"sao-2.br.uncletopia.com","port":27015,"enabled":true,"region":"sa","cc":"br","latitude":-23.533773,"longitude":-46.62529,"reserved":0,"last_update":"0001-01-01T00:00:00Z","name_a2s":"Uncletopia | São Paulo | 2 | All Maps","protocol":17,"map":"pl_snowycoast","folder":"tf","game":"Team Fortress","app_id":440,"player_count":0,"max_players":24,"Bots":0,"server_type":"Dedicated","server_os":"Linux","password":true,"vac":true,"version":"7757534","steam_id":85568392924485349,"keywords":["nocrits","nodmgspread","payload","uncletopia"],"game_id":440,"stv_port":27016,"stv_name":"Uncletopia | São Paulo | 2 | All Maps | STV","players":null},{"server_id":7,"name":"Uncletopia | Seattle | 1 | All Maps","name_short":"sea-1","host":"sea-1.us.uncletopia.com","port":27015,"enabled":true,"region":"us-west","cc":"us","latitude":47.608013,"longitude":-122.33517,"reserved":0,"last_update":"0001-01-01T00:00:00Z","name_a2s":"Uncletopia | Seattle | 1 | All Maps","protocol":17,"map":"pl_borneo","folder":"tf","game":"Team Fortress","app_id":440,"player_count":23,"max_players":24,"Bots":0,"server_type":"Dedicated","server_os":"Linux","password":true,"vac":true,"version":"7757534","steam_id":85568392924469997,"keywords":["nocrits","nodmgspread","payload","uncletopia"],"game_id":440,"stv_port":27016,"stv_name":"Uncletopia | Seattle | 1 | All Maps | STV","players":[{"user_id":686,"name":"Hassium","steam_id":76561198162541373,"connected_time":5054000000000,"state":"active","ping":57},{"user_id":745,"name":"samjrsc0505","steam_id":76561198834856533,"connected_time":475000000000,"state":"active","ping":174},{"user_id":724,"name":"Haydob13","steam_id":76561198110378191,"connected_time":1525000000000,"state":"active","ping":46},{"user_id":703,"name":"makeshift_burrito","steam_id":76561198042510825,"connected_time":3212000000000,"state":"active","ping":68},{"user_id":725,"name":"MisterManne","steam_id":76561198106598600,"connected_time":1510000000000,"state":"active","ping":56},{"user_id":746,"name":"OptiCxmShot","steam_id":76561198049019578,"connected_time":458000000000,"state":"active","ping":109},{"user_id":659,"name":"Luca","steam_id":76561198125087140,"connected_time":7008000000000,"state":"active","ping":47},{"user_id":738,"name":"Lord Krit","steam_id":76561198014819670,"connected_time":562000000000,"state":"active","ping":72},{"user_id":748,"name":"C U Next Tuesday","steam_id":76561198058493492,"connected_time":239000000000,"state":"active","ping":57},{"user_id":669,"name":"ScoutSecoTF2","steam_id":76561198366212156,"connected_time":6465000000000,"state":"active","ping":123},{"user_id":692,"name":"mooney","steam_id":76561199110622484,"connected_time":4637000000000,"state":"active","ping":67},{"user_id":706,"name":"robertJMP","steam_id":76561199066260919,"connected_time":3135000000000,"state":"active","ping":68},{"user_id":667,"name":"DemoLiberTF2","steam_id":76561198095378689,"connected_time":6803000000000,"state":"active","ping":117},{"user_id":728,"name":"shibaba bababool","steam_id":76561197972601902,"connected_time":1344000000000,"state":"active","ping":89},{"user_id":721,"name":"o o o o o o o o o","steam_id":76561197993757506,"connected_time":2109000000000,"state":"active","ping":77},{"user_id":518,"name":"TrixieHap","steam_id":76561198728548389,"connected_time":16273000000000,"state":"active","ping":58},{"user_id":708,"name":"lol4545","steam_id":76561198882059144,"connected_time":3064000000000,"state":"active","ping":125},{"user_id":740,"name":"Camperman64","steam_id":76561198803341933,"connected_time":530000000000,"state":"active","ping":170},{"user_id":744,"name":"you've been deuced on!","steam_id":76561198236028020,"connected_time":526000000000,"state":"active","ping":155},{"user_id":747,"name":"Hawf","steam_id":76561197998364880,"connected_time":451000000000,"state":"active","ping":133},{"user_id":714,"name":"William P. Ennis","steam_id":76561198073464877,"connected_time":2534000000000,"state":"active","ping":104},{"user_id":680,"name":"SadFapping","steam_id":76561198076651049,"connected_time":5618000000000,"state":"active","ping":58},{"user_id":716,"name":"shane","steam_id":76561198060491451,"connected_time":2503000000000,"state":"active","ping":100}]},{"server_id":119,"name":"Uncletopia | Seattle | 2 | All Maps","name_short":"sea-2","host":"sea-1.us.uncletopia.com","port":27025,"enabled":true,"region":"us-west","cc":"us","latitude":47.608013,"longitude":-122.33517,"reserved":0,"last_update":"0001-01-01T00:00:00Z","name_a2s":"Uncletopia | Seattle | 2 | All Maps","protocol":17,"map":"cp_steel","folder":"tf","game":"Team Fortress","app_id":440,"player_count":24,"max_players":24,"Bots":0,"server_type":"Dedicated","server_os":"Linux","password":true,"vac":true,"version":"7757534","steam_id":85568392924469998,"keywords":["cp","nocrits","nodmgspread","uncletopia"],"game_id":440,"stv_port":27026,"stv_name":"Uncletopia | Seattle | 2 | All Maps | STV","players":[{"user_id":449,"name":"Algibruh","steam_id":76561199221599415,"connected_time":406000000000,"state":"active","ping":45},{"user_id":414,"name":"Bobby Zimmeruski","steam_id":76561198171428589,"connected_time":4149000000000,"state":"active","ping":102},{"user_id":405,"name":"benji","steam_id":76561198084417967,"connected_time":4723000000000,"state":"active","ping":69},{"user_id":432,"name":"Rhymloh","steam_id":76561198056788413,"connected_time":1529000000000,"state":"active","ping":57},{"user_id":388,"name":"Navigatxr","steam_id":76561199185153789,"connected_time":5115000000000,"state":"active","ping":61},{"user_id":447,"name":"128gb sd card","steam_id":76561198043636749,"connected_time":918000000000,"state":"active","ping":76},{"user_id":439,"name":"loser","steam_id":76561198132182386,"connected_time":1479000000000,"state":"active","ping":85},{"user_id":438,"name":"Crazy Hungarian","steam_id":76561198025498172,"connected_time":1484000000000,"state":"active","ping":46},{"user_id":434,"name":"Chuggy Nuggy","steam_id":76561198056761273,"connected_time":1524000000000,"state":"active","ping":56},{"user_id":329,"name":"Kito","steam_id":76561198032401946,"connected_time":9746000000000,"state":"active","ping":84},{"user_id":450,"name":"Roloman11","steam_id":76561198308927283,"connected_time":333000000000,"state":"active","ping":115},{"user_id":441,"name":"SwordBreaker","steam_id":76561199135564076,"connected_time":1446000000000,"state":"active","ping":76},{"user_id":426,"name":"Greskrendtregk","steam_id":76561197969553142,"connected_time":2374000000000,"state":"active","ping":51},{"user_id":309,"name":"AlexLovesYou","steam_id":76561199163263543,"connected_time":11692000000000,"state":"active","ping":148},{"user_id":394,"name":"Talented","steam_id":76561198800259660,"connected_time":4872000000000,"state":"active","ping":119},{"user_id":410,"name":"NOT FRIENDLY","steam_id":76561198041327231,"connected_time":4525000000000,"state":"active","ping":55},{"user_id":431,"name":"HDI","steam_id":76561199062715724,"connected_time":1988000000000,"state":"active","ping":65},{"user_id":415,"name":"Theta Yeti","steam_id":76561198216780915,"connected_time":4135000000000,"state":"active","ping":146},{"user_id":424,"name":"der","steam_id":76561198060762287,"connected_time":2565000000000,"state":"active","ping":58},{"user_id":417,"name":"Daklog","steam_id":76561198136939558,"connected_time":3537000000000,"state":"active","ping":123},{"user_id":387,"name":"Furious George","steam_id":76561198405111646,"connected_time":5127000000000,"state":"active","ping":69},{"user_id":389,"name":"Spare(8)Ball","steam_id":76561197982432995,"connected_time":5112000000000,"state":"active","ping":74},{"user_id":425,"name":"Lompy","steam_id":76561198092237958,"connected_time":2476000000000,"state":"active","ping":57},{"user_id":428,"name":"GgDionne","steam_id":76561198079684772,"connected_time":2252000000000,"state":"active","ping":51}]},{"server_id":406,"name":"Uncletopia | Seattle | 3 | Stopwatch Beta","name_short":"sea-3","host":"sea-1.us.uncletopia.com","port":27035,"enabled":true,"region":"us-west","cc":"us","latitude":47.608013,"longitude":-122.33517,"reserved":0,"last_update":"0001-01-01T00:00:00Z","name_a2s":"Uncletopia | Seattle | 3 | Stopwatch Beta","protocol":17,"map":"workshop/koth_bagel_rc6.ugc2514036946","folder":"tf","game":"Team Fortress","app_id":440,"player_count":9,"max_players":24,"Bots":0,"server_type":"Dedicated","server_os":"Linux","password":true,"vac":true,"version":"7757534","steam_id":85568392924515217,"keywords":["cp","nocrits","nodmgspread","uncletopia"],"game_id":440,"stv_port":27036,"stv_name":"Uncletopia | Seattle | 3 | Stopwatch Beta | STV","players":[{"user_id":20,"name":"family guy funny moments #26","steam_id":76561198071710564,"connected_time":1585000000000,"state":"active","ping":71},{"user_id":21,"name":"Enjoy_Cleansoap","steam_id":76561198065049321,"connected_time":1559000000000,"state":"active","ping":85},{"user_id":22,"name":"Seehund Gott","steam_id":76561198008391427,"connected_time":1459000000000,"state":"active","ping":70},{"user_id":28,"name":"yeahmetoodude","steam_id":76561198295426286,"connected_time":641000000000,"state":"active","ping":86},{"user_id":30,"name":"ShiboTomoro","steam_id":76561198250154074,"connected_time":559000000000,"state":"active","ping":75},{"user_id":27,"name":"O","steam_id":76561198450073779,"connected_time":760000000000,"state":"active","ping":44},{"user_id":31,"name":"catrinaisahuman","steam_id":76561198281355729,"connected_time":424000000000,"state":"active","ping":71},{"user_id":33,"name":"PingableUsername","steam_id":76561198138760165,"connected_time":28000000000,"state":"active","ping":104},{"user_id":34,"name":"reiidaya","steam_id":76561198325306660,"connected_time":2000000000,"state":"spawning","ping":87}]},{"server_id":17,"name":"Uncletopia | San Francisco | 1 | All Maps","name_short":"sfo-1","host":"sfo-1.us.uncletopia.com","port":27015,"enabled":true,"region":"us-west","cc":"us","latitude":37.77397,"longitude":-122.4313,"reserved":0,"last_update":"0001-01-01T00:00:00Z","name_a2s":"Uncletopia | San Francisco | 1 | All Maps","protocol":17,"map":"pl_snowycoast","folder":"tf","game":"Team Fortress","app_id":440,"player_count":23,"max_players":24,"Bots":0,"server_type":"Dedicated","server_os":"Linux","password":true,"vac":true,"version":"7757534","steam_id":85568392924469999,"keywords":["nocrits","nodmgspread","payload","uncletopia"],"game_id":440,"stv_port":27016,"stv_name":"Uncletopia | San Francisco | 1 | All Maps | STV","players":[{"user_id":188,"name":"far1ne","steam_id":76561198418853168,"connected_time":118000000000,"state":"active","ping":59},{"user_id":179,"name":"tiny","steam_id":76561198010743348,"connected_time":726000000000,"state":"active","ping":74},{"user_id":168,"name":"Virkoni","steam_id":76561198127641406,"connected_time":1178000000000,"state":"active","ping":134},{"user_id":155,"name":"Praxis","steam_id":76561197960794303,"connected_time":1405000000000,"state":"active","ping":112},{"user_id":180,"name":"TheCrimsonAssassin","steam_id":76561198281332259,"connected_time":543000000000,"state":"active","ping":126},{"user_id":150,"name":"jonathan","steam_id":76561198386782115,"connected_time":1679000000000,"state":"active","ping":102},{"user_id":170,"name":"Chicago Ted","steam_id":76561198010484959,"connected_time":1139000000000,"state":"active","ping":120},{"user_id":157,"name":"Yuuka","steam_id":76561198074873916,"connected_time":1367000000000,"state":"active","ping":61},{"user_id":190,"name":"Thing","steam_id":76561199261081812,"connected_time":83000000000,"state":"active","ping":67},{"user_id":181,"name":"I've Been Drifting Away","steam_id":76561198109445099,"connected_time":521000000000,"state":"active","ping":65},{"user_id":158,"name":"RomerKromer","steam_id":76561198050499626,"connected_time":1354000000000,"state":"active","ping":110},{"user_id":185,"name":"nylapoot","steam_id":76561199273822633,"connected_time":376000000000,"state":"active","ping":63},{"user_id":182,"name":"clancy","steam_id":76561199294116951,"connected_time":505000000000,"state":"active","ping":85},{"user_id":127,"name":"Ellen Baker","steam_id":76561198065712435,"connected_time":2324000000000,"state":"active","ping":54},{"user_id":128,"name":"MEMOSonKEYS","steam_id":76561199087813741,"connected_time":2322000000000,"state":"active","ping":72},{"user_id":186,"name":"DAS SCHNITZELSTIEN","steam_id":76561198051137159,"connected_time":369000000000,"state":"active","ping":69},{"user_id":173,"name":"jaketropolis","steam_id":76561198044728812,"connected_time":936000000000,"state":"active","ping":101},{"user_id":184,"name":"SirArza","steam_id":76561198196214655,"connected_time":411000000000,"state":"active","ping":105},{"user_id":133,"name":"DAboidge","steam_id":76561199145174429,"connected_time":2275000000000,"state":"active","ping":63},{"user_id":176,"name":"Ghee Buttersnaps","steam_id":76561199225708271,"connected_time":852000000000,"state":"active","ping":76},{"user_id":146,"name":"Sorrow","steam_id":76561198050225563,"connected_time":2021000000000,"state":"active","ping":85},{"user_id":187,"name":"Florist","steam_id":76561198009121060,"connected_time":219000000000,"state":"active","ping":60},{"user_id":178,"name":"I Hump teddy bears","steam_id":76561198804657800,"connected_time":818000000000,"state":"active","ping":122}]},{"server_id":18,"name":"Uncletopia | San Francisco | 2 | All Maps","name_short":"sfo-2","host":"sfo-1.us.uncletopia.com","port":27025,"enabled":true,"region":"us-west","cc":"us","latitude":37.77397,"longitude":-122.4313,"reserved":0,"last_update":"0001-01-01T00:00:00Z","name_a2s":"Uncletopia | San Francisco | 2 | All Maps","protocol":17,"map":"pl_thundermountain","folder":"tf","game":"Team Fortress","app_id":440,"player_count":24,"max_players":24,"Bots":0,"server_type":"Dedicated","server_os":"Linux","password":true,"vac":true,"version":"7757534","steam_id":85568392924470000,"keywords":["nocrits","nodmgspread","payload","uncletopia"],"game_id":440,"stv_port":27026,"stv_name":"Uncletopia | San Francisco | 2 | All Maps | STV","players":[{"user_id":288,"name":"4 life","steam_id":76561198175961598,"connected_time":1020000000000,"state":"active","ping":74},{"user_id":228,"name":"Pallywinch","steam_id":76561198170253694,"connected_time":3242000000000,"state":"active","ping":85},{"user_id":217,"name":"Witchings","steam_id":76561198247431254,"connected_time":4261000000000,"state":"active","ping":114},{"user_id":229,"name":"lokm","steam_id":76561198030374238,"connected_time":3184000000000,"state":"active","ping":69},{"user_id":287,"name":"Kopenich","steam_id":76561198066205245,"connected_time":1034000000000,"state":"active","ping":59},{"user_id":256,"name":"grape","steam_id":76561198150447896,"connected_time":1994000000000,"state":"active","ping":57},{"user_id":294,"name":"Bottom feeder","steam_id":76561198181298169,"connected_time":349000000000,"state":"active","ping":106},{"user_id":293,"name":"Walter White Gaming","steam_id":76561198382234655,"connected_time":471000000000,"state":"active","ping":58},{"user_id":301,"name":"gaming","steam_id":76561199285058377,"connected_time":188000000000,"state":"active","ping":79},{"user_id":251,"name":"Soozy420","steam_id":76561198809074422,"connected_time":2208000000000,"state":"active","ping":70},{"user_id":241,"name":"SpinnerSpecial","steam_id":76561198065661869,"connected_time":2633000000000,"state":"active","ping":100},{"user_id":258,"name":"Adlai130s","steam_id":76561198571410221,"connected_time":1971000000000,"state":"active","ping":65},{"user_id":194,"name":"Loki!","steam_id":76561198089201861,"connected_time":5835000000000,"state":"active","ping":75},{"user_id":300,"name":"ninety9dragonfly","steam_id":76561198363406983,"connected_time":193000000000,"state":"active","ping":67},{"user_id":289,"name":"Leche","steam_id":76561198120196934,"connected_time":1020000000000,"state":"active","ping":128},{"user_id":304,"name":"C^a^L","steam_id":76561198241124222,"connected_time":88000000000,"state":"active","ping":46},{"user_id":296,"name":"The Bombinomicon","steam_id":76561198209881263,"connected_time":257000000000,"state":"active","ping":65},{"user_id":271,"name":"Simply Shady","steam_id":76561199104539772,"connected_time":1720000000000,"state":"active","ping":117},{"user_id":299,"name":"Engie Buddy©","steam_id":76561199026911063,"connected_time":211000000000,"state":"active","ping":63},{"user_id":264,"name":"DragonHunter994","steam_id":76561199076203907,"connected_time":1886000000000,"state":"active","ping":98},{"user_id":266,"name":"Super","steam_id":76561198280698793,"connected_time":1854000000000,"state":"active","ping":114},{"user_id":302,"name":"cyborgor","steam_id":76561198040782513,"connected_time":153000000000,"state":"active","ping":45},{"user_id":305,"name":"Fuulip","steam_id":76561199109275013,"connected_time":8000000000,"state":"spawning","ping":60},{"user_id":281,"name":"a copy of up on dvd","steam_id":76561198444021216,"connected_time":1336000000000,"state":"active","ping":139}]},{"server_id":19,"name":"Uncletopia | San Francisco | 3 | Stopwatch Beta","name_short":"sfo-3","host":"sfo-1.us.uncletopia.com","port":27035,"enabled":true,"region":"us-west","cc":"us","latitude":37.77397,"longitude":-122.4313,"reserved":0,"last_update":"0001-01-01T00:00:00Z","name_a2s":"Uncletopia | San Francisco | 3 | Stopwatch Beta","protocol":17,"map":"workshop/koth_product_final.ugc454272353","folder":"tf","game":"Team Fortress","app_id":440,"player_count":24,"max_players":24,"Bots":0,"server_type":"Dedicated","server_os":"Linux","password":true,"vac":true,"version":"7757534","steam_id":85568392924742824,"keywords":["cp","nocrits","nodmgspread","uncletopia"],"game_id":440,"stv_port":27036,"stv_name":"Uncletopia | San Francisco | 3 | Stopwatch Beta | STV","players":[{"user_id":113,"name":"Bones0010","steam_id":76561198096186958,"connected_time":238000000000,"state":"active","ping":101},{"user_id":92,"name":"Bodach J","steam_id":76561197970562873,"connected_time":1279000000000,"state":"active","ping":54},{"user_id":99,"name":"Seriously Bruh","steam_id":76561198070408485,"connected_time":986000000000,"state":"active","ping":64},{"user_id":77,"name":"SmallErection","steam_id":76561198071770147,"connected_time":2125000000000,"state":"active","ping":82},{"user_id":118,"name":"No_life gaming","steam_id":76561199412105422,"connected_time":120000000000,"state":"active","ping":67},{"user_id":105,"name":"marty","steam_id":76561199193121115,"connected_time":595000000000,"state":"active","ping":71},{"user_id":57,"name":"Vintage TV","steam_id":76561198800334545,"connected_time":2860000000000,"state":"active","ping":65},{"user_id":59,"name":"SDL","steam_id":76561198859719985,"connected_time":2799000000000,"state":"active","ping":119},{"user_id":43,"name":"Arrowthebest","steam_id":76561198183901409,"connected_time":3709000000000,"state":"active","ping":117},{"user_id":44,"name":"Ultra","steam_id":76561198257384980,"connected_time":3681000000000,"state":"active","ping":132},{"user_id":45,"name":"comicalbanana","steam_id":76561198296310522,"connected_time":3658000000000,"state":"active","ping":85},{"user_id":114,"name":"el muchacho","steam_id":76561198282632562,"connected_time":237000000000,"state":"active","ping":113},{"user_id":103,"name":"erizore","steam_id":76561198430649074,"connected_time":784000000000,"state":"active","ping":118},{"user_id":96,"name":"perc 10","steam_id":76561198116471653,"connected_time":1089000000000,"state":"active","ping":52},{"user_id":70,"name":"Akkawi","steam_id":76561198203159952,"connected_time":2249000000000,"state":"active","ping":61},{"user_id":115,"name":"Sir.TopHats","steam_id":76561198267326839,"connected_time":231000000000,"state":"active","ping":100},{"user_id":121,"name":"lewis.robinson2010","steam_id":76561199477467251,"connected_time":63000000000,"state":"active","ping":116},{"user_id":60,"name":"liftin'","steam_id":76561199089515791,"connected_time":2777000000000,"state":"active","ping":58},{"user_id":108,"name":"OOWA SEGS","steam_id":76561198280658614,"connected_time":445000000000,"state":"active","ping":106},{"user_id":79,"name":"Banjo","steam_id":76561198004652853,"connected_time":1866000000000,"state":"active","ping":61},{"user_id":116,"name":"The Invincible Winner","steam_id":76561198025809566,"connected_time":216000000000,"state":"active","ping":80},{"user_id":120,"name":"DaDevilsAdvocate","steam_id":76561198359505665,"connected_time":88000000000,"state":"active","ping":62},{"user_id":110,"name":"hexxer66","steam_id":76561198051673003,"connected_time":358000000000,"state":"active","ping":132},{"user_id":117,"name":"lana_del_Rei.com","steam_id":76561198172447621,"connected_time":195000000000,"state":"active","ping":65}]},{"server_id":20,"name":"Uncletopia | San Francisco | 4 | Community","name_short":"sfo-4","host":"sfo-1.us.uncletopia.com","port":27045,"enabled":true,"region":"us-west","cc":"us","latitude":37.77397,"longitude":-122.4313,"reserved":0,"last_update":"0001-01-01T00:00:00Z","name_a2s":"Uncletopia | San Francisco | 4 | Community","protocol":17,"map":"workshop/koth_synthetic_rc6a.ugc1549817316","folder":"tf","game":"Team Fortress","app_id":440,"player_count":0,"max_players":24,"Bots":0,"server_type":"Dedicated","server_os":"Linux","password":true,"vac":true,"version":"7757534","steam_id":85568392924742826,"keywords":["cp","nocrits","nodmgspread","uncletopia"],"game_id":440,"stv_port":27046,"stv_name":"Uncletopia | San Francisco | 4 | Community | STV","players":null},{"server_id":141,"name":"Uncletopia | Sydney | 1 | All Maps","name_short":"syd-1","host":"syd-1.au.uncletopia.com","port":27015,"enabled":true,"region":"au","cc":"au","latitude":-33.865143,"longitude":151.2099,"reserved":0,"last_update":"0001-01-01T00:00:00Z","name_a2s":"Uncletopia | Sydney | 1 | All Maps","protocol":17,"map":"pl_barnblitz","folder":"tf","game":"Team Fortress","app_id":440,"player_count":22,"max_players":24,"Bots":0,"server_type":"Dedicated","server_os":"Linux","password":true,"vac":true,"version":"7757534","steam_id":85568392924470001,"keywords":["nocrits","nodmgspread","payload","uncletopia"],"game_id":440,"stv_port":27016,"stv_name":"Uncletopia | Sydney | 1 | All Maps | STV","players":[{"user_id":158,"name":"pineapple pizza","steam_id":76561198446126519,"connected_time":23000000000,"state":"spawning","ping":44},{"user_id":144,"name":"reobn","steam_id":76561199444809470,"connected_time":1057000000000,"state":"active","ping":68},{"user_id":145,"name":"MrSnifma","steam_id":76561198128695488,"connected_time":957000000000,"state":"active","ping":52},{"user_id":156,"name":"soupy","steam_id":76561198073734936,"connected_time":168000000000,"state":"active","ping":83},{"user_id":159,"name":"Cv76","steam_id":76561198817942619,"connected_time":20000000000,"state":"spawning","ping":44},{"user_id":131,"name":"Cris.p bacon","steam_id":76561199230423491,"connected_time":2206000000000,"state":"active","ping":95},{"user_id":160,"name":"Dr. FlimFlam","steam_id":76561198049212986,"connected_time":14000000000,"state":"active","ping":295},{"user_id":60,"name":"Marzell","steam_id":76561198151276153,"connected_time":5767000000000,"state":"active","ping":89},{"user_id":135,"name":"blicky","steam_id":76561198029829077,"connected_time":1875000000000,"state":"active","ping":103},{"user_id":151,"name":"Standing Andy","steam_id":76561198107817085,"connected_time":558000000000,"state":"active","ping":72},{"user_id":123,"name":"table","steam_id":76561199218095319,"connected_time":2874000000000,"state":"active","ping":47},{"user_id":124,"name":"korn","steam_id":76561198022563294,"connected_time":2803000000000,"state":"active","ping":113},{"user_id":154,"name":"thrax","steam_id":76561197992385270,"connected_time":254000000000,"state":"active","ping":56},{"user_id":111,"name":"GoodoDarco","steam_id":76561198322623838,"connected_time":3230000000000,"state":"active","ping":63},{"user_id":153,"name":"beth.cubitt","steam_id":76561198454733447,"connected_time":267000000000,"state":"active","ping":88},{"user_id":148,"name":"zerk","steam_id":76561199031909793,"connected_time":824000000000,"state":"active","ping":45},{"user_id":113,"name":"Piklz","steam_id":76561198043384139,"connected_time":3217000000000,"state":"active","ping":54},{"user_id":101,"name":"Mail Bomb Victim","steam_id":76561198284533039,"connected_time":3534000000000,"state":"active","ping":54},{"user_id":149,"name":"G_XIII","steam_id":76561199177841277,"connected_time":697000000000,"state":"active","ping":172},{"user_id":147,"name":"Charm","steam_id":76561198028891054,"connected_time":884000000000,"state":"active","ping":74},{"user_id":161,"name":"★av28","steam_id":76561198060797100,"connected_time":9000000000,"state":"spawning","ping":45},{"user_id":134,"name":"Life","steam_id":76561198072217827,"connected_time":1971000000000,"state":"active","ping":95}]},{"server_id":123,"name":"Uncletopia | Sydney | 2 | All Maps","name_short":"syd-2","host":"syd-1.au.uncletopia.com","port":27025,"enabled":true,"region":"au","cc":"au","latitude":-33.865143,"longitude":151.2099,"reserved":0,"last_update":"0001-01-01T00:00:00Z","name_a2s":"Uncletopia | Sydney | 2 | All Maps","protocol":17,"map":"koth_viaduct","folder":"tf","game":"Team Fortress","app_id":440,"player_count":0,"max_players":24,"Bots":0,"server_type":"Dedicated","server_os":"Linux","password":true,"vac":true,"version":"7757534","steam_id":85568392924470002,"keywords":["cp","nocrits","nodmgspread","uncletopia"],"game_id":440,"stv_port":27026,"stv_name":"Uncletopia | Sydney | 2 | All Maps | STV","players":null},{"server_id":395,"name":"Uncletopia | Sydney | 3 | All Maps","name_short":"syd-3","host":"syd-1.au.uncletopia.com","port":27035,"enabled":true,"region":"au","cc":"au","latitude":-33.865143,"longitude":151.2099,"reserved":0,"last_update":"0001-01-01T00:00:00Z","name_a2s":"Uncletopia | Sydney | 3 | All Maps","protocol":17,"map":"pl_pier","folder":"tf","game":"Team Fortress","app_id":440,"player_count":12,"max_players":24,"Bots":0,"server_type":"Dedicated","server_os":"Linux","password":true,"vac":true,"version":"7757534","steam_id":85568392925194467,"keywords":["nocrits","nodmgspread","payload","uncletopia"],"game_id":440,"stv_port":27036,"stv_name":"Uncletopia | Sydney | 3 | All Maps | STV","players":[{"user_id":209,"name":"¯\\_(ツ)_/¯","steam_id":76561199206182584,"connected_time":772000000000,"state":"active","ping":57},{"user_id":211,"name":"likeclockwork","steam_id":76561198797219527,"connected_time":611000000000,"state":"active","ping":169},{"user_id":210,"name":"shucks","steam_id":76561198260357417,"connected_time":762000000000,"state":"active","ping":58},{"user_id":217,"name":"DJpocalypse","steam_id":76561199230125964,"connected_time":237000000000,"state":"active","ping":284},{"user_id":133,"name":"mushroom","steam_id":76561197992336470,"connected_time":8911000000000,"state":"active","ping":76},{"user_id":212,"name":"Crumpet","steam_id":76561199096381193,"connected_time":599000000000,"state":"active","ping":60},{"user_id":218,"name":"JGay36B","steam_id":76561198412937762,"connected_time":85000000000,"state":"active","ping":277},{"user_id":205,"name":"Bilbo Swaggins","steam_id":76561198984446872,"connected_time":1223000000000,"state":"active","ping":56},{"user_id":215,"name":"eekynetwo(F2P Piss Sniper)","steam_id":76561198990017441,"connected_time":373000000000,"state":"active","ping":145},{"user_id":213,"name":"Darkpuppy","steam_id":76561199054246630,"connected_time":561000000000,"state":"active","ping":288},{"user_id":216,"name":"Kremmen","steam_id":76561198051368641,"connected_time":357000000000,"state":"active","ping":69},{"user_id":168,"name":"SUSHIMAN","steam_id":76561199089989428,"connected_time":5476000000000,"state":"active","ping":89}]},{"server_id":396,"name":"Uncletopia | Sydney | 4 | All Maps","name_short":"syd-4","host":"syd-1.au.uncletopia.com","port":27045,"enabled":true,"region":"au","cc":"au","latitude":-33.865143,"longitude":151.2099,"reserved":0,"last_update":"0001-01-01T00:00:00Z","name_a2s":"Uncletopia | Sydney | 4 | All Maps","protocol":17,"map":"koth_cascade","folder":"tf","game":"Team Fortress","app_id":440,"player_count":0,"max_players":24,"Bots":0,"server_type":"Dedicated","server_os":"Linux","password":true,"vac":true,"version":"7757534","steam_id":85568392925397958,"keywords":["cp","nocrits","nodmgspread","uncletopia"],"game_id":440,"stv_port":27046,"stv_name":"Uncletopia | Sydney | 4 | All Maps | STV","players":null},{"server_id":58,"name":"Uncletopia | Sydney | 5 | Stopwatch Beta","name_short":"syd-5","host":"syd-1.au.uncletopia.com","port":27055,"enabled":true,"region":"au","cc":"au","latitude":-33.865143,"longitude":151.2099,"reserved":0,"last_update":"0001-01-01T00:00:00Z","name_a2s":"Uncletopia | Sydney | 5 | Stopwatch Beta","protocol":17,"map":"pl_borneo","folder":"tf","game":"Team Fortress","app_id":440,"player_count":0,"max_players":24,"Bots":0,"server_type":"Dedicated","server_os":"Linux","password":true,"vac":true,"version":"7757534","steam_id":85568392925397959,"keywords":["nocrits","nodmgspread","payload","uncletopia"],"game_id":440,"stv_port":27056,"stv_name":"Uncletopia | Sydney | 5 | Stopwatch Beta | STV","players":null},{"server_id":59,"name":"Uncletopia | Sydney | 6 | Community","name_short":"syd-6","host":"syd-1.au.uncletopia.com","port":27065,"enabled":true,"region":"au","cc":"au","latitude":-33.865143,"longitude":151.2099,"reserved":0,"last_update":"0001-01-01T00:00:00Z","name_a2s":"Uncletopia | Sydney | 6 | Community","protocol":17,"map":"workshop/pl_highwood_b13.ugc1769496557","folder":"tf","game":"Team Fortress","app_id":440,"player_count":0,"max_players":24,"Bots":0,"server_type":"Dedicated","server_os":"Linux","password":true,"vac":true,"version":"7757534","steam_id":85568392925397960,"keywords":["nocrits","nodmgspread","payload","uncletopia"],"game_id":440,"stv_port":27066,"stv_name":"Uncletopia | Sydney | 6 | Community | STV","players":null},{"server_id":49,"name":"Uncletopia | Warsaw | 1 | All Maps","name_short":"waw-1","host":"waw-1.pl.uncletopia.com","port":27015,"enabled":true,"region":"eu","cc":"pl","latitude":52.2297,"longitude":21.017532,"reserved":0,"last_update":"0001-01-01T00:00:00Z","name_a2s":"","protocol":0,"map":"","folder":"","game":"","app_id":0,"player_count":0,"max_players":0,"Bots":0,"server_type":"","server_os":"","password":false,"vac":false,"version":"","steam_id":0,"keywords":null,"game_id":0,"stv_port":0,"stv_name":"","players":null},{"server_id":50,"name":"Uncletopia | Warsaw | 2 | All Maps","name_short":"waw-2","host":"waw-1.pl.uncletopia.com","port":27025,"enabled":true,"region":"eu","cc":"pl","latitude":52.2297,"longitude":21.017532,"reserved":0,"last_update":"0001-01-01T00:00:00Z","name_a2s":"Uncletopia | Warsaw | 2 | All Maps","protocol":17,"map":"koth_viaduct","folder":"tf","game":"Team Fortress","app_id":440,"player_count":0,"max_players":24,"Bots":0,"server_type":"Dedicated","server_os":"Linux","password":true,"vac":true,"version":"7757534","steam_id":85568392925397851,"keywords":["cp","nocrits","nodmgspread","uncletopia"],"game_id":440,"stv_port":27026,"stv_name":"Uncletopia | Warsaw | 2 | All Maps | STV","players":null},{"server_id":51,"name":"Uncletopia | Warsaw | 3 | All Maps","name_short":"waw-3","host":"waw-1.pl.uncletopia.com","port":27035,"enabled":true,"region":"eu","cc":"pl","latitude":52.2297,"longitude":21.017532,"reserved":0,"last_update":"0001-01-01T00:00:00Z","name_a2s":"Uncletopia | Warsaw | 3 | All Maps","protocol":17,"map":"koth_cascade","folder":"tf","game":"Team Fortress","app_id":440,"player_count":0,"max_players":24,"Bots":0,"server_type":"Dedicated","server_os":"Linux","password":true,"vac":true,"version":"7757534","steam_id":85568392925397852,"keywords":["cp","nocrits","nodmgspread","uncletopia"],"game_id":440,"stv_port":27036,"stv_name":"Uncletopia | Warsaw | 3 | All Maps | STV","players":null},{"server_id":52,"name":"Uncletopia | Warsaw | 4 | All Maps","name_short":"waw-4","host":"waw-1.pl.uncletopia.com","port":27045,"enabled":true,"region":"eu","cc":"pl","latitude":52.2297,"longitude":21.017532,"reserved":0,"last_update":"0001-01-01T00:00:00Z","name_a2s":"Uncletopia | Warsaw | 4 | All Maps","protocol":17,"map":"koth_king","folder":"tf","game":"Team Fortress","app_id":440,"player_count":0,"max_players":24,"Bots":0,"server_type":"Dedicated","server_os":"Linux","password":true,"vac":true,"version":"7757534","steam_id":85568392925397853,"keywords":["cp","nocrits","nodmgspread","uncletopia"],"game_id":440,"stv_port":27046,"stv_name":"Uncletopia | Warsaw | 4 | All Maps | STV","players":null},{"server_id":53,"name":"Uncletopia | Warsaw | 5 | Stopwatch Beta","name_short":"waw-5","host":"waw-1.pl.uncletopia.com","port":27055,"enabled":true,"region":"eu","cc":"pl","latitude":52.2297,"longitude":21.017532,"reserved":0,"last_update":"0001-01-01T00:00:00Z","name_a2s":"Uncletopia | Warsaw | 5 | Stopwatch Beta","protocol":17,"map":"pl_borneo","folder":"tf","game":"Team Fortress","app_id":440,"player_count":0,"max_players":24,"Bots":0,"server_type":"Dedicated","server_os":"Linux","password":true,"vac":true,"version":"7757534","steam_id":85568392925397854,"keywords":["nocrits","nodmgspread","payload","uncletopia"],"game_id":440,"stv_port":27056,"stv_name":"Uncletopia | Warsaw | 5 | Stopwatch Beta | STV","players":null},{"server_id":54,"name":"Uncletopia | Warsaw | 6 | Community","name_short":"waw-6","host":"waw-1.pl.uncletopia.com","port":27065,"enabled":true,"region":"eu","cc":"pl","latitude":52.2297,"longitude":21.017532,"reserved":0,"last_update":"0001-01-01T00:00:00Z","name_a2s":"Uncletopia | Warsaw | 6 | Community","protocol":17,"map":"koth_lakeside_final","folder":"tf","game":"Team Fortress","app_id":440,"player_count":0,"max_players":24,"Bots":0,"server_type":"Dedicated","server_os":"Linux","password":true,"vac":true,"version":"7757534","steam_id":85568392925397856,"keywords":["cp","nocrits","nodmgspread","uncletopia"],"game_id":440,"stv_port":27066,"stv_name":"Uncletopia | Warsaw | 6 | Community | STV","players":null}]}