{"status":true,"message":"","result":[{"server_id":9,"name":"Uncletopia | Atlanta | 1 | All Maps","name_short":"atl-1","host":"atl-1.us.uncletopia.com","port":27015,"enabled":true,"region":"us-east","cc":"us","latitude":33.753746,"longitude":-84.38633,"reserved":0,"last_update":"0001-01-01T00:00:00Z","name_a2s":"Uncletopia | Atlanta | 1 | All Maps","protocol":17,"map":"koth_lakeside_final","folder":"tf","game":"Team Fortress","app_id":440,"player_count":0,"max_players":24,"Bots":0,"server_type":"Dedicated","server_os":"Linux","password":true,"vac":true,"version":"7708610","steam_id":85568392924469982,"keywords":["cp","nocrits","nodmgspread","uncletopia"],"game_id":440,"stv_port":27016,"stv_name":"Uncletopia | Atlanta | 1 | All Maps | STV","players":null},{"server_id":400,"name":"Uncletopia | Atlanta | 3 | All Maps","name_short":"atl-3","host":"atl-1.us.uncletopia.com","port":27035,"enabled":true,"region":"us-east","cc":"us","latitude":33.753746,"longitude":-84.38633,"reserved":0,"last_update":"0001-01-01T00:00:00Z","name_a2s":"Uncletopia | Atlanta | 3 | All Maps","protocol":17,"map":"cp_sunshine","folder":"tf","game":"Team Fortress","app_id":440,"player_count":5,"max_players":24,"Bots":0,"server_type":"Dedicated","server_os":"Linux","password":true,"vac":true,"version":"7708610","steam_id":85568392924515187,"keywords":["cp","nocrits","nodmgspread","uncletopia"],"game_id":440,"stv_port":27036,"stv_name":"Uncletopia | Atlanta | 3 | All Maps | STV","players":[{"user_id":650,"name":"Birch","steam_id":76561198316231704,"connected_time":531000000000,"state":"active","ping":45},{"user_id":656,"name":"PEE man","steam_id":76561199396452758,"connected_time":313000000000,"state":"active","ping":293},{"user_id":579,"name":"flappyflap2","steam_id":76561198285048973,"connected_time":7656000000000,"state":"active","ping":59},{"user_id":636,"name":"Kirbs","steam_id":76561198970654800,"connected_time":2591000000000,"state":"active","ping":59},{"user_id":616,"name":"yesterday once more","steam_id":76561198038486613,"connected_time":4102000000000,"state":"active","ping":60}]},{"server_id":401,"name":"Uncletopia | Atlanta | 4 | No Payload","name_short":"atl-4","host":"atl-1.us.uncletopia.com","port":27045,"enabled":true,"region":"us-east","cc":"us","latitude":33.753746,"longitude":-84.38633,"reserved":0,"last_update":"0001-01-01T00:00:00Z","name_a2s":"Uncletopia | Atlanta | 4 | No Payload","protocol":17,"map":"koth_nucleus","folder":"tf","game":"Team Fortress","app_id":440,"player_count":0,"max_players":24,"Bots":0,"server_type":"Dedicated","server_os":"Linux","password":true,"vac":true,"version":"7708610","steam_id":85568392924515188,"keywords":["cp","nocrits","nodmgspread","uncletopia"],"game_id":440,"stv_port":27046,"stv_name":"Uncletopia | Atlanta | 4 | No Payload | STV","players":null},{"server_id":2,"name":"Uncletopia | Chicago | 1 | All Maps","name_short":"chi-1","host":"chi-1.us.uncletopia.com","port":27015,"enabled":true,"region":"us-central","cc":"us","latitude":41.881832,"longitude":-87.62318,"reserved":0,"last_update":"0001-01-01T00:00:00Z","name_a2s":"Uncletopia | Chicago | 1 | All Maps","protocol":17,"map":"pl_upward","folder":"tf","game":"Team Fortress","app_id":440,"player_count":24,"max_players":24,"Bots":0,"server_type":"Dedicated","server_os":"Linux","password":true,"vac":true,"version":"7708610","steam_id":85568392924469984,"keywords":["nocrits","nodmgspread","payload","uncletopia"],"game_id":440,"stv_port":27016,"stv_name":"Uncletopia | Chicago | 1 | All Maps | STV","players":[{"user_id":812,"name":"Fantastic","steam_id":76561198079088978,"connected_time":4453000000000,"state":"active","ping":42},{"user_id":813,"name":"Yeshie the Dragon Layer","steam_id":76561198080214214,"connected_time":4449000000000,"state":"active","ping":42},{"user_id":863,"name":"BLOOD !","steam_id":76561198004400850,"connected_time":306000000000,"state":"active","ping":76},{"user_id":829,"name":"BobTheSpy","steam_id":76561197967473733,"connected_time":3462000000000,"state":"active","ping":63},{"user_id":856,"name":"culture","steam_id":76561198136156676,"connected_time":800000000000,"state":"active","ping":63},{"user_id":825,"name":"Gribbith","steam_id":76561198067836309,"connected_time":4090000000000,"state":"active","ping":63},{"user_id":852,"name":"Jaguar","steam_id":76561197971152439,"connected_time":839000000000,"state":"active","ping":73},{"user_id":857,"name":"Hose water","steam_id":76561198843651958,"connected_time":781000000000,"state":"active","ping":135},{"user_id":865,"name":"WinteR","steam_id":76561198042242154,"connected_time":8000000000,"state":"spawning","ping":119},{"user_id":823,"name":"Sirens","steam_id":76561198116224779,"connected_time":4181000000000,"state":"active","ping":79},{"user_id":830,"name":"TimTam Tom","steam_id":76561198045988062,"connected_time":3433000000000,"state":"active","ping":74},{"user_id":850,"name":"aeop","steam_id":76561198153671643,"connected_time":1395000000000,"state":"active","ping":61},{"user_id":769,"name":"firetruck","steam_id":76561198074188404,"connected_time":7209000000000,"state":"active","ping":65},{"user_id":855,"name":"Squiliam","steam_id":76561198025278006,"connected_time":832000000000,"state":"active","ping":68},{"user_id":831,"name":"Super Mighty G","steam_id":76561198020932806,"connected_time":3392000000000,"state":"active","ping":101},{"user_id":817,"name":"Antonio Molonio","steam_id":76561198038929334,"connected_time":4351000000000,"state":"active","ping":57},{"user_id":839,"name":"pie gaming","steam_id":76561198072592880,"connected_time":2071000000000,"state":"active","ping":37},{"user_id":841,"name":"the cake","steam_id":76561198405346572,"connected_time":1964000000000,"state":"active","ping":75},{"user_id":864,"name":"lyra","steam_id":76561198200002859,"connected_time":305000000000,"state":"active","ping":60},{"user_id":853,"name":"valtiel","steam_id":76561198165212575,"connected_time":836000000000,"state":"active","ping":75},{"user_id":836,"name":"Partaker of Sex","steam_id":76561198137880777,"connected_time":2511000000000,"state":"active","ping":65},{"user_id":860,"name":"NoShen","steam_id":76561198147434663,"connected_time":690000000000,"state":"active","ping":73},{"user_id":861,"name":"[Peanuts]A Rather Festive Linus","steam_id":76561197992887879,"connected_time":581000000000,"state":"active","ping":47}]},{"server_id":106,"name":"Uncletopia | Chicago | 2 | All Maps","name_short":"chi-2","host":"chi-1.us.uncletopia.com","port":27025,"enabled":true,"region":"us-central","cc":"us","latitude":41.881832,"longitude":-87.62318,"reserved":0,"last_update":"0001-01-01T00:00:00Z","name_a2s":"Uncletopia | Chicago | 2 | All Maps","protocol":17,"map":"koth_cascade","folder":"tf","game":"Team Fortress","app_id":440,"player_count":0,"max_players":24,"Bots":0,"server_type":"Dedicated","server_os":"Linux","password":true,"vac":true,"version":"7708610","steam_id":85568392924469985,"keywords":["cp","nocrits","nodmgspread","uncletopia"],"game_id":440,"stv_port":27026,"stv_name":"Uncletopia | Chicago | 2 | All Maps | STV","players":null},{"server_id":402,"name":"Uncletopia | Chicago | 3 | All Maps","name_short":"chi-3","host":"chi-1.us.uncletopia.com","port":27035,"enabled":true,"region":"us-central","cc":"us","latitude":41.881832,"longitude":-87.62318,"reserved":0,"last_update":"0001-01-01T00:00:00Z","name_a2s":"Uncletopia | Chicago | 3 | All Maps","protocol":17,"map":"koth_highpass","folder":"tf","game":"Team Fortress","app_id":440,"player_count":0,"max_players":24,"Bots":0,"server_type":"Dedicated","server_os":"Linux","password":true,"vac":true,"version":"7708610","steam_id":85568392924515191,"keywords":["cp","nocrits","nodmgspread","uncletopia"],"game_id":440,"stv_port":27036,"stv_name":"Uncletopia | Chicago | 3 | All Maps | STV","players":null},{"server_id":403,"name":"Uncletopia | Chicago | 4 | All Maps","name_short":"chi-4","host":"chi-1.us.uncletopia.com","port":27045,"enabled":true,"region":"us-central","cc":"us","latitude":41.881832,"longitude":-87.62318,"reserved":0,"last_update":"0001-01-01T00:00:00Z","name_a2s":"Uncletopia | Chicago | 4 | All Maps","protocol":17,"map":"pl_upward","folder":"tf","game":"Team Fortress","app_id":440,"player_count":0,"max_players":24,"Bots":0,"server_type":"Dedicated","server_os":"Linux","password":true,"vac":true,"version":"7708610","steam_id":85568392924515193,"keywords":["nocrits","nodmgspread","payload","uncletopia"],"game_id":440,"stv_port":27046,"stv_name":"Uncletopia | Chicago | 4 | All Maps | STV","players":null},{"server_id":36,"name":"Uncletopia | Chicago | 5 | All Maps","name_short":"chi-5","host":"chi-2.us.uncletopia.com","port":27015,"enabled":true,"region":"us-central","cc":"us","latitude":41.881832,"longitude":-87.62318,"reserved":0,"last_update":"0001-01-01T00:00:00Z","name_a2s":"Uncletopia | Chicago | 5 | All Maps","protocol":17,"map":"koth_lakeside_final","folder":"tf","game":"Team Fortress","app_id":440,"player_count":0,"max_players":24,"Bots":0,"server_type":"Dedicated","server_os":"Linux","password":true,"vac":true,"version":"7708610","steam_id":85568392924866362,"keywords":["cp","nocrits","nodmgspread","uncletopia"],"game_id":440,"stv_port":27016,"stv_name":"Uncletopia | Chicago | 5 | All Maps | STV","players":null},{"server_id":37,"name":"Uncletopia | Chicago | 6 | All Maps","name_short":"chi-6","host":"chi-2.us.uncletopia.com","port":27025,"enabled":true,"region":"us-central","cc":"us","latitude":41.881832,"longitude":-87.62318,"reserved":0,"last_update":"0001-01-01T00:00:00Z","name_a2s":"Uncletopia | Chicago | 6 | All Maps","protocol":17,"map":"pl_badwater","folder":"tf","game":"Team Fortress","app_id":440,"player_count":24,"max_players":24,"Bots":0,"server_type":"Dedicated","server_os":"Linux","password":true,"vac":true,"version":"7708610","steam_id":85568392924866363,"keywords":["nocrits","nodmgspread","payload","uncletopia"],"game_id":440,"stv_port":27026,"stv_name":"Uncletopia | Chicago | 6 | All Maps | STV","players":[{"user_id":254,"name":"walrus2","steam_id":76561199079614516,"connected_time":2977000000000,"state":"active","ping":51},{"user_id":242,"name":"Jon","steam_id":76561198024985046,"connected_time":3668000000000,"state":"active","ping":81},{"user_id":284,"name":"CheeseCake488","steam_id":76561199407617942,"connected_time":151000000000,"state":"active","ping":129},{"user_id":243,"name":"dignity","steam_id":76561198046417288,"connected_time":3531000000000,"state":"active","ping":95},{"user_id":281,"name":"terrible ancient weasel","steam_id":76561198067487745,"connected_time":715000000000,"state":"active","ping":67},{"user_id":263,"name":"Valavari バラバリ","steam_id":76561198027037197,"connected_time":1703000000000,"state":"active","ping":47},{"user_id":264,"name":"Doctor Bad Dragon","steam_id":76561198058773212,"connected_time":1459000000000,"state":"active","ping":62},{"user_id":285,"name":"Masotan","steam_id":76561199047187302,"connected_time":131000000000,"state":"active","ping":54},{"user_id":265,"name":"Funny Looking Dog","steam_id":76561198179014815,"connected_time":1450000000000,"state":"active","ping":79},{"user_id":283,"name":"cam","steam_id":76561198353950318,"connected_time":394000000000,"state":"active","ping":80},{"user_id":266,"name":"Dickgirl Ultra Marine","steam_id":76561198050582139,"connected_time":1438000000000,"state":"active","ping":92},{"user_id":282,"name":"Hernandez$","steam_id":76561198019324588,"connected_time":707000000000,"state":"active","ping":91},{"user_id":273,"name":"i will invert your dna sequence","steam_id":76561198067994868,"connected_time":1012000000000,"state":"active","ping":54},{"user_id":268,"name":"nut.","steam_id":76561198313363097,"connected_time":1173000000000,"state":"active","ping":74},{"user_id":269,"name":"The Janitor","steam_id":76561198370152780,"connected_time":1129000000000,"state":"active","ping":58},{"user_id":270,"name":"AshMan","steam_id":76561198095022150,"connected_time":1106000000000,"state":"active","ping":97},{"user_id":272,"name":"C∅RVUS","steam_id":76561198100640019,"connected_time":1051000000000,"state":"active","ping":115},{"user_id":274,"name":"Brendan","steam_id":76561198041079914,"connected_time":996000000000,"state":"active","ping":64},{"user_id":275,"name":"penis man","steam_id":76561198117718425,"connected_time":962000000000,"state":"active","ping":84},{"user_id":276,"name":"The New Bob","steam_id":76561199122072556,"connected_time":925000000000,"state":"active","ping":94},{"user_id":277,"name":"EagleEye2000","steam_id":76561198233776704,"connected_time":924000000000,"state":"active","ping":60},{"user_id":278,"name":"Laax","steam_id":76561198938409558,"connected_time":897000000000,"state":"active","ping":155},{"user_id":286,"name":"Candy Sparkles","steam_id":76561198126871264,"connected_time":95000000000,"state":"active","ping":80},{"user_id":280,"name":"Smuggs","steam_id":76561197999456003,"connected_time":883000000000,"state":"active","ping":150}]},{"server_id":38,"name":"Uncletopia | Chicago | 7 | No Payload","name_short":"chi-7","host":"chi-2.us.uncletopia.com","port":27035,"enabled":true,"region":"us-central","cc":"us","latitude":41.881832,"longitude":-87.62318,"reserved":0,"last_update":"0001-01-01T00:00:00Z","name_a2s":"Uncletopia | Chicago | 7 | No Payload","protocol":17,"map":"koth_badlands","folder":"tf","game":"Team Fortress","app_id":440,"player_count":0,"max_players":24,"Bots":0,"server_type":"Dedicated","server_os":"Linux","password":true,"vac":true,"version":"7708610","steam_id":85568392924866364,"keywords":["cp","nocrits","nodmgspread","uncletopia"],"game_id":440,"stv_port":27036,"stv_name":"Uncletopia | Chicago | 7 | No Payload | STV","players":null},{"server_id":39,"name":"Uncletopia | Chicago | 8 | Community","name_short":"chi-8","host":"chi-2.us.uncletopia.com","port":27045,"enabled":true,"region":"us-central","cc":"us","latitude":41.881832,"longitude":-87.62318,"reserved":0,"last_update":"0001-01-01T00:00:00Z","name_a2s":"Uncletopia | Chicago | 8 | Community","protocol":17,"map":"workshop/pl_fifthcurve_rc1.ugc648227046","folder":"tf","game":"Team Fortress","app_id":440,"player_count":0,"max_players":24,"Bots":0,"server_type":"Dedicated","server_os":"Linux","password":true,"vac":true,"version":"7708610","steam_id":85568392924866365,"keywords":["nocrits","nodmgspread","payload","uncletopia"],"game_id":440,"stv_port":27046,"stv_name":"Uncletopia | Chicago | 8 | Community | STV","players":null},{"server_id":8,"name":"Uncletopia | Dallas | 1 | All Maps","name_short":"dal-1","host":"dal-1.us.uncletopia.com","port":27015,"enabled":true,"region":"us-central","cc":"us","latitude":32.779167,"longitude":-96.80889,"reserved":0,"last_update":"0001-01-01T00:00:00Z","name_a2s":"Uncletopia | Dallas | 1 | All Maps","protocol":17,"map":"cp_snakewater_final1","folder":"tf","game":"Team Fortress","app_id":440,"player_count":0,"max_players":24,"Bots":0,"server_type":"Dedicated","server_os":"Linux","password":true,"vac":true,"version":"7708610","steam_id":85568392924469986,"keywords":["cp","nocrits","nodmgspread","uncletopia"],"game_id":440,"stv_port":27016,"stv_name":"Uncletopia | Dallas | 1 | All Maps | STV","players":null},{"server_id":108,"name":"Uncletopia | Dallas | 2 | All Maps","name_short":"dal-2","host":"dal-1.us.uncletopia.com","port":27025,"enabled":true,"region":"us-central","cc":"us","latitude":32.779167,"longitude":-96.80889,"reserved":0,"last_update":"0001-01-01T00:00:00Z","name_a2s":"Uncletopia | Dallas | 2 | All Maps","protocol":17,"map":"cp_sunshine","folder":"tf","game":"Team Fortress","app_id":440,"player_count":0,"max_players":24,"Bots":0,"server_type":"Dedicated","server_os":"Linux","password":true,"vac":true,"version":"7708610","steam_id":85568392924469988,"keywords":["cp","nocrits","nodmgspread","uncletopia"],"game_id":440,"stv_port":27026,"stv_name":"Uncletopia | Dallas | 2 | All Maps | STV","players":null},{"server_id":5,"name":"Uncletopia | Frankfurt | 1 | All Maps","name_short":"frk-1","host":"frk-1.de.uncletopia.com","port":27015,"enabled":true,"region":"eu","cc":"de","latitude":50.110924,"longitude":8.682127,"reserved":0,"last_update":"0001-01-01T00:00:00Z","name_a2s":"Uncletopia | Frankfurt | 1 | All Maps","protocol":17,"map":"koth_viaduct","folder":"tf","game":"Team Fortress","app_id":440,"player_count":23,"max_players":24,"Bots":0,"server_type":"Dedicated","server_os":"Linux","password":true,"vac":true,"version":"7708610","steam_id":85568392924469989,"keywords":["cp","nocrits","nodmgspread","uncletopia"],"game_id":440,"stv_port":27016,"stv_name":"Uncletopia | Frankfurt | 1 | All Maps | STV","players":[{"user_id":64,"name":"player","steam_id":76561198054474684,"connected_time":3235000000000,"state":"active","ping":71},{"user_id":65,"name":"Jeg","steam_id":76561198405291408,"connected_time":3148000000000,"state":"active","ping":65},{"user_id":101,"name":"hushhx","steam_id":76561198216200092,"connected_time":727000000000,"state":"active","ping":65},{"user_id":110,"name":"Meh","steam_id":76561198148030229,"connected_time":314000000000,"state":"active","ping":86},{"user_id":80,"name":"Zazou","steam_id":76561198028076362,"connected_time":2006000000000,"state":"active","ping":59},{"user_id":100,"name":"Capvin","steam_id":76561198989449047,"connected_time":969000000000,"state":"active","ping":124},{"user_id":87,"name":"racistkevin5","steam_id":76561198084174868,"connected_time":1521000000000,"state":"active","ping":57},{"user_id":88,"name":"RIFT","steam_id":76561198991622379,"connected_time":1486000000000,"state":"active","ping":57},{"user_id":82,"name":"Übercharged Jarate","steam_id":76561198195437328,"connected_time":1819000000000,"state":"active","ping":78},{"user_id":109,"name":"Pls.do.it!","steam_id":76561198211638119,"connected_time":430000000000,"state":"active","ping":62},{"user_id":111,"name":"drew","steam_id":76561198012304706,"connected_time":233000000000,"state":"active","ping":90},{"user_id":83,"name":"Kolmannen","steam_id":76561198288826376,"connected_time":1782000000000,"state":"active","ping":81},{"user_id":70,"name":"BigD","steam_id":76561198931375688,"connected_time":2645000000000,"state":"active","ping":105},{"user_id":97,"name":"Kora","steam_id":76561198343198306,"connected_time":1170000000000,"state":"active","ping":80},{"user_id":99,"name":"Deva Path","steam_id":76561198085763542,"connected_time":1020000000000,"state":"active","ping":71},{"user_id":103,"name":"Osmo","steam_id":76561199286764992,"connected_time":724000000000,"state":"active","ping":80},{"user_id":95,"name":"Sneaky boi","steam_id":76561199195985387,"connected_time":1259000000000,"state":"active","ping":93},{"user_id":112,"name":"seneca","steam_id":76561198189243221,"connected_time":68000000000,"state":"active","ping":109},{"user_id":96,"name":"Crow","steam_id":76561198904910888,"connected_time":1231000000000,"state":"active","ping":135},{"user_id":91,"name":"++","steam_id":76561198851072185,"connected_time":1461000000000,"state":"active","ping":73},{"user_id":102,"name":"Venus⚢","steam_id":76561198018602969,"connected_time":726000000000,"state":"active","ping":74},{"user_id":50,"name":"tarzan","steam_id":76561198050715408,"connected_time":4647000000000,"state":"active","ping":85},{"user_id":105,"name":"Gleshnarb","steam_id":76561198106581442,"connected_time":710000000000,"state":"active","ping":75}]},{"server_id":110,"name":"Uncletopia | Frankfurt | 2 | All Maps","name_short":"frk-2","host":"frk-1.de.uncletopia.com","port":27025,"enabled":true,"region":"eu","cc":"de","latitude":50.110924,"longitude":8.682127,"reserved":0,"last_update":"0001-01-01T00:00:00Z","name_a2s":"Uncletopia | Frankfurt | 2 | All Maps","protocol":17,"map":"pl_frontier_final","folder":"tf","game":"Team Fortress","app_id":440,"player_count":0,"max_players":24,"Bots":0,"server_type":"Dedicated","server_os":"Linux","password":true,"vac":true,"version":"7708610","steam_id":85568392924469990,"keywords":["nocrits","nodmgspread","payload","uncletopia"],"game_id":440,"stv_port":27026,"stv_name":"Uncletopia | Frankfurt | 2 | All Maps | STV","players":null},{"server_id":308,"name":"Uncletopia | Frankfurt | 3 | All Maps","name_short":"frk-3","host":"frk-1.de.uncletopia.com","port":27035,"enabled":true,"region":"eu","cc":"de","latitude":50.110924,"longitude":8.682127,"reserved":0,"last_update":"0001-01-01T00:00:00Z","name_a2s":"Uncletopia | Frankfurt | 3 | All Maps","protocol":17,"map":"cp_process_final","folder":"tf","game":"Team Fortress","app_id":440,"player_count":0,"max_players":24,"Bots":0,"server_type":"Dedicated","server_os":"Linux","password":true,"vac":true,"version":"7708610","steam_id":85568392924504274,"keywords":["cp","nocrits","nodmgspread","uncletopia"],"game_id":440,"stv_port":27036,"stv_name":"Uncletopia | Frankfurt | 3 | All Maps | STV","players":null},{"server_id":309,"name":"Uncletopia | Frankfurt | 4 | All Maps","name_short":"frk-4","host":"frk-1.de.uncletopia.com","port":27045,"enabled":true,"region":"eu","cc":"de","latitude":50.110924,"longitude":8.682127,"reserved":0,"last_update":"0001-01-01T00:00:00Z","name_a2s":"Uncletopia | Frankfurt | 4 | All Maps","protocol":17,"map":"cp_dustbowl","folder":"tf","game":"Team Fortress","app_id":440,"player_count":0,"max_players":24,"Bots":0,"server_type":"Dedicated","server_os":"Linux","password":true,"vac":true,"version":"7708610","steam_id":85568392924504275,"keywords":["cp","nocrits","nodmgspread","uncletopia"],"game_id":440,"stv_port":27046,"stv_name":"Uncletopia | Frankfurt | 4 | All Maps | STV","players":null},{"server_id":310,"name":"Uncletopia | Frankfurt | 5 | All Maps","name_short":"frk-5","host":"frk-1.de.uncletopia.com","port":27055,"enabled":true,"region":"eu","cc":"de","latitude":50.110924,"longitude":8.682127,"reserved":0,"last_update":"0001-01-01T00:00:00Z","name_a2s":"Uncletopia | Frankfurt | 5 | All Maps","protocol":17,"map":"cp_sunshine","folder":"tf","game":"Team Fortress","app_id":440,"player_count":0,"max_players":24,"Bots":0,"server_type":"Dedicated","server_os":"Linux","password":true,"vac":true,"version":"7708610","steam_id":85568392924504277,"keywords":["cp","nocrits","nodmgspread","uncletopia"],"game_id":440,"stv_port":27056,"stv_name":"Uncletopia | Frankfurt | 5 | All Maps | STV","players":null},{"server_id":311,"name":"Uncletopia | Frankfurt | 6 | All Maps","name_short":"frk-6","host":"frk-1.de.uncletopia.com","port":27065,"enabled":true,"region":"eu","cc":"de","latitude":50.110924,"longitude":8.682127,"reserved":0,"last_update":"0001-01-01T00:00:00Z","name_a2s":"Uncletopia | Frankfurt | 6 | All Maps","protocol":17,"map":"pl_frontier_final","folder":"tf","game":"Team Fortress","app_id":440,"player_count":0,"max_players":24,"Bots":0,"server_type":"Dedicated","server_os":"Linux","password":true,"vac":true,"version":"7708610","steam_id":85568392924504278,"keywords":["nocrits","nodmgspread","payload","uncletopia"],"game_id":440,"stv_port":27066,"stv_name":"Uncletopia | Frankfurt | 6 | All Maps | STV","players":null},{"server_id":23,"name":"Uncletopia | Frankfurt | 7 | No Payload","name_short":"frk-7","host":"frk-1.de.uncletopia.com","port":27075,"enabled":true,"region":"eu","cc":"de","latitude":50.110924,"longitude":8.682127,"reserved":0,"last_update":"0001-01-01T00:00:00Z","name_a2s":"Uncletopia | Frankfurt | 7 | No Payload","protocol":17,"map":"koth_viaduct","folder":"tf","game":"Team Fortress","app_id":440,"player_count":0,"max_players":24,"Bots":0,"server_type":"Dedicated","server_os":"Linux","password":true,"vac":true,"version":"7708610","steam_id":85568392924742827,"keywords":["cp","nocrits","nodmgspread","uncletopia"],"game_id":440,"stv_port":27076,"stv_name":"Uncletopia | Frankfurt | 7 | No Payload | STV","players":null},{"server_id":24,"name":"Uncletopia | Frankfurt | 8 | Community","name_short":"frk-8","host":"frk-1.de.uncletopia.com","port":27085,"enabled":true,"region":"eu","cc":"de","latitude":50.110924,"longitude":8.682127,"reserved":0,"last_update":"0001-01-01T00:00:00Z","name_a2s":"Uncletopia | Frankfurt | 8 | Community","protocol":17,"map":"pl_borneo","folder":"tf","game":"Team Fortress","app_id":440,"player_count":0,"max_players":24,"Bots":0,"server_type":"Dedicated","server_os":"Linux","password":true,"vac":true,"version":"7708610","steam_id":85568392924742828,"keywords":["nocrits","nodmgspread","payload","uncletopia"],"game_id":440,"stv_port":27086,"stv_name":"Uncletopia | Frankfurt | 8 | Community | STV","players":null},{"server_id":202,"name":"Uncletopia | Hong Kong | 1 | All Maps","name_short":"hgk-1","host":"hgk-1.hk.uncletopia.com","port":27015,"enabled":true,"region":"asia","cc":"hk","latitude":22.302711,"longitude":114.177216,"reserved":0,"last_update":"0001-01-01T00:00:00Z","name_a2s":"Uncletopia | Hong Kong | 1 | All Maps","protocol":17,"map":"koth_king","folder":"tf","game":"Team Fortress","app_id":440,"player_count":24,"max_players":24,"Bots":0,"server_type":"Dedicated","server_os":"Linux","password":true,"vac":true,"version":"7708610","steam_id":85568392924494504,"keywords":["cp","nocrits","nodmgspread","uncletopia"],"game_id":440,"stv_port":27016,"stv_name":"Uncletopia | Hong Kong | 1 | All Maps | STV","players":[{"user_id":166,"name":"Ian","steam_id":76561198159334435,"connected_time":242000000000,"state":"active","ping":109},{"user_id":132,"name":"piyoko no english","steam_id":76561198088403016,"connected_time":4716000000000,"state":"active","ping":99},{"user_id":111,"name":"煙海 | Enkai","steam_id":76561198050460825,"connected_time":6364000000000,"state":"active","ping":83},{"user_id":56,"name":"17","steam_id":76561198241530712,"connected_time":10290000000000,"state":"active","ping":58},{"user_id":64,"name":"雪ノ下雪乃のoppai","steam_id":76561198008307645,"connected_time":9760000000000,"state":"active","ping":77},{"user_id":148,"name":":D","steam_id":76561198009692495,"connected_time":2458000000000,"state":"active","ping":88},{"user_id":134,"name":"Lúd","steam_id":76561198828840546,"connected_time":4709000000000,"state":"active","ping":77},{"user_id":158,"name":"Licht","steam_id":76561198152588681,"connected_time":1649000000000,"state":"active","ping":81},{"user_id":149,"name":"Dr. Piss Rat","steam_id":76561199074809838,"connected_time":2448000000000,"state":"active","ping":67},{"user_id":131,"name":"cjp","steam_id":76561198081702190,"connected_time":4718000000000,"state":"active","ping":90},{"user_id":156,"name":"Puddin","steam_id":76561198140052918,"connected_time":1697000000000,"state":"active","ping":85},{"user_id":163,"name":"TomProPlayer","steam_id":76561199223292521,"connected_time":1037000000000,"state":"active","ping":69},{"user_id":104,"name":"ogey","steam_id":76561198074339034,"connected_time":7308000000000,"state":"active","ping":77},{"user_id":157,"name":"T.","steam_id":76561198337887896,"connected_time":1676000000000,"state":"active","ping":80},{"user_id":164,"name":"Crippling Depression","steam_id":76561199198723894,"connected_time":1036000000000,"state":"active","ping":85},{"user_id":97,"name":"Aiko Kanata Zhenco","steam_id":76561199262955185,"connected_time":7773000000000,"state":"active","ping":90},{"user_id":118,"name":"MS PowerPoint","steam_id":76561198369523192,"connected_time":5781000000000,"state":"active","ping":63},{"user_id":147,"name":"Noyour","steam_id":76561198323259830,"connected_time":2472000000000,"state":"active","ping":117},{"user_id":160,"name":"greeny","steam_id":76561198024666371,"connected_time":1525000000000,"state":"active","ping":93},{"user_id":155,"name":"Degenerate With Standards!!!!","steam_id":76561199174449723,"connected_time":1722000000000,"state":"active","ping":67},{"user_id":119,"name":"+","steam_id":76561198121311286,"connected_time":5632000000000,"state":"active","ping":75},{"user_id":143,"name":"ellz","steam_id":76561199216074568,"connected_time":2984000000000,"state":"active","ping":74},{"user_id":121,"name":"im_0ff","steam_id":76561198339346695,"connected_time":5614000000000,"state":"active","ping":122},{"user_id":130,"name":"♂-Bully Hairryton-♂","steam_id":76561198127131685,"connected_time":4732000000000,"state":"active","ping":76}]},{"server_id":1,"name":"Uncletopia | Los Angeles | 1 | All Maps","name_short":"lax-1","host":"lax-1.us.uncletopia.com","port":27015,"enabled":true,"region":"us-west","cc":"us","latitude":33.94279,"longitude":-118.41004,"reserved":0,"last_update":"0001-01-01T00:00:00Z","name_a2s":"Uncletopia | Los Angeles | 1 | All Maps","protocol":17,"map":"pl_snowycoast","folder":"tf","game":"Team Fortress","app_id":440,"player_count":0,"max_players":24,"Bots":0,"server_type":"Dedicated","server_os":"Linux","password":true,"vac":true,"version":"7708610","steam_id":85568392924469991,"keywords":["nocrits","nodmgspread","payload","uncletopia"],"game_id":440,"stv_port":27016,"stv_name":"Uncletopia | Los Angeles | 1 | All Maps | STV","players":null},{"server_id":112,"name":"Uncletopia | Los Angeles | 2 | All Maps","name_short":"lax-2","host":"lax-1.us.uncletopia.com","port":27025,"enabled":true,"region":"us-west","cc":"us","latitude":33.94279,"longitude":-118.41004,"reserved":0,"last_update":"0001-01-01T00:00:00Z","name_a2s":"Uncletopia | Los Angeles | 2 | All Maps","protocol":17,"map":"cp_snakewater_final1","folder":"tf","game":"Team Fortress","app_id":440,"player_count":3,"max_players":24,"Bots":0,"server_type":"Dedicated","server_os":"Linux","password":true,"vac":true,"version":"7708610","steam_id":85568392924469992,"keywords":["cp","nocrits","nodmgspread","uncletopia"],"game_id":440,"stv_port":27026,"stv_name":"Uncletopia | Los Angeles | 2 | All Maps | STV","players":[{"user_id":505,"name":"Twitch.tv/jokerloltwitch","steam_id":76561198105661443,"connected_time":277000000000,"state":"active","ping":44},{"user_id":461,"name":"gato","steam_id":76561198390330879,"connected_time":3849000000000,"state":"active","ping":56},{"user_id":474,"name":"Isaac","steam_id":76561198176559378,"connected_time":3212000000000,"state":"active","ping":45}]},{"server_id":324,"name":"Uncletopia | Los Angeles | 3 | All Maps","name_short":"lax-3","host":"lax-1.us.uncletopia.com","port":27035,"enabled":true,"region":"us-west","cc":"us","latitude":33.94279,"longitude":-118.41004,"reserved":0,"last_update":"0001-01-01T00:00:00Z","name_a2s":"Uncletopia | Los Angeles | 3 | All Maps","protocol":17,"map":"koth_viaduct","folder":"tf","game":"Team Fortress","app_id":440,"player_count":0,"max_players":24,"Bots":0,"server_type":"Dedicated","server_os":"Linux","password":true,"vac":true,"version":"7708610","steam_id":85568392924510198,"keywords":["cp","nocrits","nodmgspread","uncletopia"],"game_id":440,"stv_port":27036,"stv_name":"Uncletopia | Los Angeles | 3 | All Maps | STV","players":null},{"server_id":25,"name":"Uncletopia | Los Angeles | 4 | No Payload","name_short":"lax-4","host":"lax-1.us.uncletopia.com","port":27045,"enabled":true,"region":"us-west","cc":"us","latitude":33.94279,"longitude":-118.41004,"reserved":0,"last_update":"0001-01-01T00:00:00Z","name_a2s":"Uncletopia | Los Angeles | 4 | No Payload","protocol":17,"map":"koth_king","folder":"tf","game":"Team Fortress","app_id":440,"player_count":0,"max_players":24,"Bots":0,"server_type":"Dedicated","server_os":"Linux","password":true,"vac":true,"version":"7708610","steam_id":85568392924510199,"keywords":["cp","nocrits","nodmgspread","uncletopia"],"game_id":440,"stv_port":27046,"stv_name":"Uncletopia | Los Angeles | 4 | No Payload | STV","players":null},{"server_id":11,"name":"Uncletopia | London | 1 | All Maps","name_short":"lon-1","host":"lon-1.uk.uncletopia.com","port":27015,"enabled":true,"region":"eu","cc":"gb","latitude":51.509865,"longitude":-0.118092,"reserved":0,"last_update":"0001-01-01T00:00:00Z","name_a2s":"Uncletopia | London | 1 | All Maps","protocol":17,"map":"cp_snakewater_final1","folder":"tf","game":"Team Fortress","app_id":440,"player_count":0,"max_players":24,"Bots":0,"server_type":"Dedicated","server_os":"Linux","password":true,"vac":true,"version":"7708610","steam_id":85568392924367362,"keywords":["cp","nocrits","nodmgspread","uncletopia"],"game_id":440,"stv_port":27016,"stv_name":"Uncletopia | London | 1 | All Maps | STV","players":null},{"server_id":114,"name":"Uncletopia | London | 2 | All Maps","name_short":"lon-2","host":"lon-1.uk.uncletopia.com","port":27025,"enabled":true,"region":"eu","cc":"gb","latitude":51.509865,"longitude":-0.118092,"reserved":0,"last_update":"0001-01-01T00:00:00Z","name_a2s":"Uncletopia | London | 2 | All Maps","protocol":17,"map":"cp_sunshine","folder":"tf","game":"Team Fortress","app_id":440,"player_count":0,"max_players":24,"Bots":0,"server_type":"Dedicated","server_os":"Linux","password":true,"vac":true,"version":"7708610","steam_id":85568392924470941,"keywords":["cp","nocrits","nodmgspread","uncletopia"],"game_id":440,"stv_port":27026,"stv_name":"Uncletopia | London | 2 | All Maps | STV","players":null},{"server_id":320,"name":"Uncletopia | London | 3 | All Maps","name_short":"lon-3","host":"lon-1.uk.uncletopia.com","port":27035,"enabled":true,"region":"eu","cc":"gb","latitude":51.509865,"longitude":-0.118092,"reserved":0,"last_update":"0001-01-01T00:00:00Z","name_a2s":"Uncletopia | London | 3 | All Maps","protocol":17,"map":"koth_cascade","folder":"tf","game":"Team Fortress","app_id":440,"player_count":0,"max_players":24,"Bots":0,"server_type":"Dedicated","server_os":"Linux","password":true,"vac":true,"version":"7708610","steam_id":85568392924510192,"keywords":["cp","nocrits","nodmgspread","uncletopia"],"game_id":440,"stv_port":27036,"stv_name":"Uncletopia | London | 3 | All Maps | STV","players":null},{"server_id":321,"name":"Uncletopia | London | 4 | All Maps","name_short":"lon-4","host":"lon-1.uk.uncletopia.com","port":27045,"enabled":true,"region":"eu","cc":"gb","latitude":51.509865,"longitude":-0.118092,"reserved":0,"last_update":"0001-01-01T00:00:00Z","name_a2s":"Uncletopia | London | 4 | All Maps","protocol":17,"map":"pl_snowycoast","folder":"tf","game":"Team Fortress","app_id":440,"player_count":0,"max_players":24,"Bots":0,"server_type":"Dedicated","server_os":"Linux","password":true,"vac":true,"version":"7708610","steam_id":85568392924510193,"keywords":["nocrits","nodmgspread","payload","uncletopia"],"game_id":440,"stv_port":27046,"stv_name":"Uncletopia | London | 4 | All Maps | STV","players":null},{"server_id":21,"name":"Uncletopia | London | 5 | All Maps","name_short":"lon-5","host":"lon-1.uk.uncletopia.com","port":27055,"enabled":true,"region":"eu","cc":"gb","latitude":51.509865,"longitude":-0.118092,"reserved":0,"last_update":"0001-01-01T00:00:00Z","name_a2s":"Uncletopia | London | 5 | All Maps","protocol":17,"map":"pl_badwater","folder":"tf","game":"Team Fortress","app_id":440,"player_count":0,"max_players":24,"Bots":0,"server_type":"Dedicated","server_os":"Linux","password":true,"vac":true,"version":"7708610","steam_id":85568392924742829,"keywords":["nocrits","nodmgspread","payload","uncletopia"],"game_id":440,"stv_port":27056,"stv_name":"Uncletopia | London | 5 | All Maps | STV","players":null},{"server_id":22,"name":"Uncletopia | London | 6 | All Maps","name_short":"lon-6","host":"lon-1.uk.uncletopia.com","port":27065,"enabled":true,"region":"eu","cc":"gb","latitude":51.509865,"longitude":-0.118092,"reserved":0,"last_update":"0001-01-01T00:00:00Z","name_a2s":"Uncletopia | London | 6 | All Maps","protocol":17,"map":"pl_frontier_final","folder":"tf","game":"Team Fortress","app_id":440,"player_count":0,"max_players":24,"Bots":0,"server_type":"Dedicated","server_os":"Linux","password":true,"vac":true,"version":"7708610","steam_id":85568392924742830,"keywords":["nocrits","nodmgspread","payload","uncletopia"],"game_id":440,"stv_port":27066,"stv_name":"Uncletopia | London | 6 | All Maps | STV","players":null},{"server_id":40,"name":"Uncletopia | London | 7 | No Payload","name_short":"lon-7","host":"lon-1.uk.uncletopia.com","port":27075,"enabled":true,"region":"eu","cc":"gb","latitude":51.509865,"longitude":-0.118092,"reserved":0,"last_update":"0001-01-01T00:00:00Z","name_a2s":"Uncletopia | London | 7 | No Payload","protocol":17,"map":"pl_barnblitz","folder":"tf","game":"Team Fortress","app_id":440,"player_count":0,"max_players":24,"Bots":0,"server_type":"Dedicated","server_os":"Linux","password":true,"vac":true,"version":"7708610","steam_id":85568392924964314,"keywords":["nocrits","nodmgspread","payload","uncletopia"],"game_id":440,"stv_port":27076,"stv_name":"Uncletopia | London | 7 | No Payload | STV","players":null},{"server_id":41,"name":"Uncletopia | London | 8 | Community","name_short":"lon-8","host":"lon-1.uk.uncletopia.com","port":27085,"enabled":true,"region":"eu","cc":"gb","latitude":51.509865,"longitude":-0.118092,"reserved":0,"last_update":"0001-01-01T00:00:00Z","name_a2s":"Uncletopia | London | 8 | Community","protocol":17,"map":"pl_pier","folder":"tf","game":"Team Fortress","app_id":440,"player_count":0,"max_players":24,"Bots":0,"server_type":"Dedicated","server_os":"Linux","password":true,"vac":true,"version":"7708610","steam_id":85568392924964315,"keywords":["nocrits","nodmgspread","payload","uncletopia"],"game_id":440,"stv_port":27086,"stv_name":"Uncletopia | London | 8 | Community | STV","players":null},{"server_id":300,"name":"Uncletopia | Montréal | 1 | All Maps","name_short":"mtl-1","host":"mtl-1.ca.uncletopia.com","port":27015,"enabled":true,"region":"us-east","cc":"ca","latitude":45.50889,"longitude":-73.56167,"reserved":0,"last_update":"0001-01-01T00:00:00Z","name_a2s":"Uncletopia | Montréal | 1 | All Maps","protocol":17,"map":"pl_barnblitz","folder":"tf","game":"Team Fortress","app_id":440,"player_count":0,"max_players":24,"Bots":0,"server_type":"Dedicated","server_os":"Linux","password":true,"vac":true,"version":"7708610","steam_id":85568392924500087,"keywords":["nocrits","nodmgspread","payload","uncletopia"],"game_id":440,"stv_port":27016,"stv_name":"Uncletopia | Montréal | 1 | All Maps | STV","players":null},{"server_id":301,"name":"Uncletopia | Montréal | 2 | All Maps","name_short":"mtl-2","host":"mtl-1.ca.uncletopia.com","port":27025,"enabled":true,"region":"us-east","cc":"ca","latitude":45.50889,"longitude":-73.56167,"reserved":0,"last_update":"0001-01-01T00:00:00Z","name_a2s":"Uncletopia | Montréal | 2 | All Maps","protocol":17,"map":"pl_swiftwater_final1","folder":"tf","game":"Team Fortress","app_id":440,"player_count":0,"max_players":24,"Bots":0,"server_type":"Dedicated","server_os":"Linux","password":true,"vac":true,"version":"7708610","steam_id":85568392924500088,"keywords":["nocrits","nodmgspread","payload","uncletopia"],"game_id":440,"stv_port":27026,"stv_name":"Uncletopia | Montréal | 2 | All Maps | STV","players":null},{"server_id":302,"name":"Uncletopia | Montréal | 3 | All Maps","name_short":"mtl-3","host":"mtl-1.ca.uncletopia.com","port":27035,"enabled":true,"region":"us-east","cc":"ca","latitude":45.50889,"longitude":-73.56167,"reserved":0,"last_update":"0001-01-01T00:00:00Z","name_a2s":"Uncletopia | Montréal | 3 | All Maps","protocol":17,"map":"cp_mountainlab","folder":"tf","game":"Team Fortress","app_id":440,"player_count":0,"max_players":24,"Bots":0,"server_type":"Dedicated","server_os":"Linux","password":true,"vac":true,"version":"7708610","steam_id":85568392924500089,"keywords":["cp","nocrits","nodmgspread","uncletopia"],"game_id":440,"stv_port":27036,"stv_name":"Uncletopia | Montréal | 3 | All Maps | STV","players":null},{"server_id":303,"name":"Uncletopia | Montréal | 4 | No Payload","name_short":"mtl-4","host":"mtl-1.ca.uncletopia.com","port":27045,"enabled":true,"region":"us-east","cc":"ca","latitude":45.50889,"longitude":-73.56167,"reserved":0,"last_update":"0001-01-01T00:00:00Z","name_a2s":"Uncletopia | Montréal | 4 | No Payload","protocol":17,"map":"koth_cascade","folder":"tf","game":"Team Fortress","app_id":440,"player_count":0,"max_players":24,"Bots":0,"server_type":"Dedicated","server_os":"Linux","password":true,"vac":true,"version":"7708610","steam_id":85568392924500090,"keywords":["cp","nocrits","nodmgspread","uncletopia"],"game_id":440,"stv_port":27046,"stv_name":"Uncletopia | Montréal | 4 | No Payload | STV","players":null},{"server_id":13,"name":"Uncletopia | New York City | 1 | All Maps","name_short":"nyc-1","host":"nyc-1.us.uncletopia.com","port":27015,"enabled":true,"region":"us-east","cc":"us","latitude":40.73061,"longitude":-73.93524,"reserved":0,"last_update":"0001-01-01T00:00:00Z","name_a2s":"Uncletopia | New York City | 1 | All Maps","protocol":17,"map":"koth_lakeside_final","folder":"tf","game":"Team Fortress","app_id":440,"player_count":0,"max_players":24,"Bots":0,"server_type":"Dedicated","server_os":"Linux","password":true,"vac":true,"version":"7708610","steam_id":85568392924469993,"keywords":["cp","nocrits","nodmgspread","uncletopia"],"game_id":440,"stv_port":27016,"stv_name":"Uncletopia | New York City | 1 | All Maps | STV","players":null},{"server_id":14,"name":"Uncletopia | New York City | 2 | All Maps","name_short":"nyc-2","host":"nyc-1.us.uncletopia.com","port":27025,"enabled":true,"region":"us-east","cc":"us","latitude":40.73061,"longitude":-73.93524,"reserved":0,"last_update":"0001-01-01T00:00:00Z","name_a2s":"Uncletopia | New York City | 2 | All Maps","protocol":17,"map":"pl_snowycoast","folder":"tf","game":"Team Fortress","app_id":440,"player_count":0,"max_players":24,"Bots":0,"server_type":"Dedicated","server_os":"Linux","password":true,"vac":true,"version":"7708610","steam_id":85568392924469994,"keywords":["nocrits","nodmgspread","payload","uncletopia"],"game_id":440,"stv_port":27026,"stv_name":"Uncletopia | New York City | 2 | All Maps | STV","players":null},{"server_id":15,"name":"Uncletopia | New York City | 3 | All Maps","name_short":"nyc-3","host":"nyc-1.us.uncletopia.com","port":27035,"enabled":true,"region":"us-east","cc":"us","latitude":40.73061,"longitude":-73.93524,"reserved":0,"last_update":"0001-01-01T00:00:00Z","name_a2s":"Uncletopia | New York City | 3 | All Maps","protocol":17,"map":"koth_lakeside_final","folder":"tf","game":"Team Fortress","app_id":440,"player_count":0,"max_players":24,"Bots":0,"server_type":"Dedicated","server_os":"Linux","password":true,"vac":true,"version":"7708610","steam_id":85568392924742820,"keywords":["cp","nocrits","nodmgspread","uncletopia"],"game_id":440,"stv_port":27036,"stv_name":"Uncletopia | New York City | 3 | All Maps | STV","players":null},{"server_id":16,"name":"Uncletopia | New York City | 4 | Community","name_short":"nyc-4","host":"nyc-1.us.uncletopia.com","port":27045,"enabled":true,"region":"us-east","cc":"us","latitude":40.73061,"longitude":-73.93524,"reserved":0,"last_update":"0001-01-01T00:00:00Z","name_a2s":"Uncletopia | New York City | 4 | Community","protocol":17,"map":"workshop/cp_logjam_rc12.ugc454812035","folder":"tf","game":"Team Fortress","app_id":440,"player_count":0,"max_players":24,"Bots":0,"server_type":"Dedicated","server_os":"Linux","password":true,"vac":true,"version":"7708610","steam_id":85568392924742821,"keywords":["cp","nocrits","nodmgspread","uncletopia"],"game_id":440,"stv_port":27046,"stv_name":"Uncletopia | New York City | 4 | Community | STV","players":null},{"server_id":142,"name":"Uncletopia | São Paulo | 1 | All Maps","name_short":"sao-1","host":"sao-1.br.uncletopia.com","port":27015,"enabled":true,"region":"sa","cc":"br","latitude":-23.533773,"longitude":-46.62529,"reserved":0,"last_update":"0001-01-01T00:00:00Z","name_a2s":"Uncletopia | São Paulo | 1 | All Maps","protocol":17,"map":"pl_barnblitz","folder":"tf","game":"Team Fortress","app_id":440,"player_count":0,"max_players":24,"Bots":0,"server_type":"Dedicated","server_os":"Linux","password":true,"vac":true,"version":"7708610","steam_id":85568392924469996,"keywords":["nocrits","nodmgspread","payload","uncletopia"],"game_id":440,"stv_port":27016,"stv_name":"Uncletopia | São Paulo | 1 | All Maps | STV","players":null},{"server_id":143,"name":"Uncletopia | São Paulo | 2 | All Maps","name_short":"sao-2","host":"sao-2.br.uncletopia.com","port":27015,"enabled":true,"region":"sa","cc":"br","latitude":-23.533773,"longitude":-46.62529,"reserved":0,"last_update":"0001-01-01T00:00:00Z","name_a2s":"Uncletopia | São Paulo | 2 | All Maps","protocol":17,"map":"pl_frontier_final","folder":"tf","game":"Team Fortress","app_id":440,"player_count":0,"max_players":24,"Bots":0,"server_type":"Dedicated","server_os":"Linux","password":true,"vac":true,"version":"7708610","steam_id":85568392924485349,"keywords":["nocrits","nodmgspread","payload","uncletopia"],"game_id":440,"stv_port":27016,"stv_name":"Uncletopia | São Paulo | 2 | All Maps | STV","players":null},{"server_id":7,"name":"Uncletopia | Seattle | 1 | All Maps","name_short":"sea-1","host":"sea-1.us.uncletopia.com","port":27015,"enabled":true,"region":"us-west","cc":"us","latitude":47.608013,"longitude":-122.33517,"reserved":0,"last_update":"0001-01-01T00:00:00Z","name_a2s":"Uncletopia | Seattle | 1 | All Maps","protocol":17,"map":"pl_pier","folder":"tf","game":"Team Fortress","app_id":440,"player_count":24,"max_players":24,"Bots":0,"server_type":"Dedicated","server_os":"Linux","password":true,"vac":true,"version":"7708610","steam_id":85568392924469997,"keywords":["nocrits","nodmgspread","payload","uncletopia"],"game_id":440,"stv_port":27016,"stv_name":"Uncletopia | Seattle | 1 | All Maps | STV","players":[{"user_id":480,"name":"rat gets the cheese","steam_id":76561198031234032,"connected_time":5981000000000,"state":"active","ping":98},{"user_id":542,"name":"reiidaya☭","steam_id":76561198325306660,"connected_time":1039000000000,"state":"active","ping":53},{"user_id":548,"name":"best of worm related discussion","steam_id":76561198128164970,"connected_time":794000000000,"state":"active","ping":75},{"user_id":524,"name":"delight","steam_id":76561197980280272,"connected_time":2032000000000,"state":"active","ping":47},{"user_id":541,"name":"superpwn23","steam_id":76561198839267395,"connected_time":1047000000000,"state":"active","ping":129},{"user_id":500,"name":"WikiThis","steam_id":76561198103209713,"connected_time":4638000000000,"state":"active","ping":130},{"user_id":527,"name":"AceSea","steam_id":76561198851176490,"connected_time":1655000000000,"state":"active","ping":50},{"user_id":461,"name":"FCKGW-RHQQ2-YXRKT-8TG6W-2B7Q8","steam_id":76561197993138592,"connected_time":8569000000000,"state":"active","ping":38},{"user_id":549,"name":"best of gaslighting","steam_id":76561198410957728,"connected_time":788000000000,"state":"active","ping":101},{"user_id":463,"name":"The Engie","steam_id":76561198049418537,"connected_time":8491000000000,"state":"active","ping":117},{"user_id":551,"name":"amogus babies infected w rabies","steam_id":76561198204169516,"connected_time":536000000000,"state":"active","ping":58},{"user_id":538,"name":"elon musk bathwater","steam_id":76561198881665250,"connected_time":1083000000000,"state":"active","ping":54},{"user_id":518,"name":"shane","steam_id":76561198060491451,"connected_time":2459000000000,"state":"active","ping":98},{"user_id":543,"name":"borzier","steam_id":76561198069190432,"connected_time":997000000000,"state":"active","ping":128},{"user_id":545,"name":"Zippy","steam_id":76561198279229422,"connected_time":963000000000,"state":"active","ping":107},{"user_id":536,"name":"PROD CHAMPION","steam_id":76561199245670274,"connected_time":1120000000000,"state":"active","ping":76},{"user_id":550,"name":"twitch.tv/kegaman_","steam_id":76561198043632775,"connected_time":759000000000,"state":"active","ping":85},{"user_id":433,"name":"2 Point Tom","steam_id":76561198087617008,"connected_time":10734000000000,"state":"active","ping":59},{"user_id":539,"name":"sweaterfan","steam_id":76561199389567214,"connected_time":1063000000000,"state":"active","ping":114},{"user_id":546,"name":"_DrunkenGibberish_","steam_id":76561199123070071,"connected_time":921000000000,"state":"active","ping":119},{"user_id":531,"name":"Dogg wader","steam_id":76561199090314340,"connected_time":1463000000000,"state":"active","ping":116},{"user_id":532,"name":"Franz","steam_id":76561198041929745,"connected_time":1325000000000,"state":"active","ping":82},{"user_id":533,"name":"Korey","steam_id":76561198210734407,"connected_time":1319000000000,"state":"active","ping":122},{"user_id":553,"name":"R3dskillz","steam_id":76561198196879605,"connected_time":65000000000,"state":"active","ping":69}]},{"server_id":119,"name":"Uncletopia | Seattle | 2 | All Maps","name_short":"sea-2","host":"sea-1.us.uncletopia.com","port":27025,"enabled":true,"region":"us-west","cc":"us","latitude":47.608013,"longitude":-122.33517,"reserved":0,"last_update":"0001-01-01T00:00:00Z","name_a2s":"Uncletopia | Seattle | 2 | All Maps","protocol":17,"map":"cp_mountainlab","folder":"tf","game":"Team Fortress","app_id":440,"player_count":24,"max_players":24,"Bots":0,"server_type":"Dedicated","server_os":"Linux","password":true,"vac":true,"version":"7708610","steam_id":85568392924469998,"keywords":["cp","nocrits","nodmgspread","uncletopia"],"game_id":440,"stv_port":27026,"stv_name":"Uncletopia | Seattle | 2 | All Maps | STV","players":[{"user_id":410,"name":"Minerkid2004","steam_id":76561198044262827,"connected_time":285000000000,"state":"active","ping":61},{"user_id":409,"name":"wild animal racer","steam_id":76561198063862967,"connected_time":332000000000,"state":"active","ping":96},{"user_id":411,"name":"About That Gift I Owed Ya","steam_id":76561198071506287,"connected_time":271000000000,"state":"active","ping":68},{"user_id":412,"name":"stump","steam_id":76561198012653832,"connected_time":269000000000,"state":"active","ping":109},{"user_id":375,"name":"Quietsharp","steam_id":76561198277968438,"connected_time":2070000000000,"state":"active","ping":83},{"user_id":384,"name":"HUGE HOG","steam_id":76561198079923652,"connected_time":1435000000000,"state":"active","ping":105},{"user_id":361,"name":"no vc no c","steam_id":76561197989503095,"connected_time":2997000000000,"state":"active","ping":147},{"user_id":403,"name":"bananafishbones","steam_id":76561198036116417,"connected_time":645000000000,"state":"active","ping":81},{"user_id":377,"name":"The Beast of the East","steam_id":76561198209881263,"connected_time":1979000000000,"state":"active","ping":89},{"user_id":321,"name":"Doctor Dick","steam_id":76561198001913735,"connected_time":7311000000000,"state":"active","ping":50},{"user_id":371,"name":"VerseG","steam_id":76561198059246919,"connected_time":2455000000000,"state":"active","ping":42},{"user_id":392,"name":"Pescado","steam_id":76561198122437426,"connected_time":1048000000000,"state":"active","ping":85},{"user_id":358,"name":"incineratedbread","steam_id":76561198133619079,"connected_time":3188000000000,"state":"active","ping":46},{"user_id":385,"name":"mommy grinch","steam_id":76561199230929836,"connected_time":1291000000000,"state":"active","ping":111},{"user_id":393,"name":"SkyLark","steam_id":76561198303618132,"connected_time":1026000000000,"state":"active","ping":53},{"user_id":401,"name":"0xFUL","steam_id":76561198081684676,"connected_time":689000000000,"state":"active","ping":73},{"user_id":395,"name":"Boop","steam_id":76561198376703875,"connected_time":924000000000,"state":"active","ping":104},{"user_id":402,"name":"PopcornNinja101","steam_id":76561198330680181,"connected_time":688000000000,"state":"active","ping":50},{"user_id":414,"name":"tato","steam_id":76561199220296932,"connected_time":19000000000,"state":"spawning","ping":46},{"user_id":405,"name":"Crunchy","steam_id":76561198240523882,"connected_time":570000000000,"state":"active","ping":80},{"user_id":380,"name":"Bill Clinton, Orthodox Rabbi","steam_id":76561198301774048,"connected_time":1753000000000,"state":"active","ping":92},{"user_id":400,"name":"zoiboi","steam_id":76561198069598590,"connected_time":735000000000,"state":"active","ping":82},{"user_id":353,"name":"Phoenix","steam_id":76561197971265992,"connected_time":4284000000000,"state":"active","ping":50},{"user_id":387,"name":"(Not) Storyteller","steam_id":76561198338997704,"connected_time":1254000000000,"state":"active","ping":69}]},{"server_id":17,"name":"Uncletopia | San Francisco | 1 | All Maps","name_short":"sfo-1","host":"sfo-1.us.uncletopia.com","port":27015,"enabled":true,"region":"us-west","cc":"us","latitude":37.77397,"longitude":-122.4313,"reserved":0,"last_update":"0001-01-01T00:00:00Z","name_a2s":"Uncletopia | San Francisco | 1 | All Maps","protocol":17,"map":"cp_process_final","folder":"tf","game":"Team Fortress","app_id":440,"player_count":0,"max_players":24,"Bots":0,"server_type":"Dedicated","server_os":"Linux","password":true,"vac":true,"version":"7708610","steam_id":85568392924469999,"keywords":["cp","nocrits","nodmgspread","uncletopia"],"game_id":440,"stv_port":27016,"stv_name":"Uncletopia | San Francisco | 1 | All Maps | STV","players":null},{"server_id":18,"name":"Uncletopia | San Francisco | 2 | All Maps","name_short":"sfo-2","host":"sfo-1.us.uncletopia.com","port":27025,"enabled":true,"region":"us-west","cc":"us","latitude":37.77397,"longitude":-122.4313,"reserved":0,"last_update":"0001-01-01T00:00:00Z","name_a2s":"Uncletopia | San Francisco | 2 | All Maps","protocol":17,"map":"cp_dustbowl","folder":"tf","game":"Team Fortress","app_id":440,"player_count":0,"max_players":24,"Bots":0,"server_type":"Dedicated","server_os":"Linux","password":true,"vac":true,"version":"7708610","steam_id":85568392924470000,"keywords":["cp","nocrits","nodmgspread","uncletopia"],"game_id":440,"stv_port":27026,"stv_name":"Uncletopia | San Francisco | 2 | All Maps | STV","players":null},{"server_id":19,"name":"Uncletopia | San Francisco | 3 | No Payload","name_short":"sfo-3","host":"sfo-1.us.uncletopia.com","port":27035,"enabled":true,"region":"us-west","cc":"us","latitude":37.77397,"longitude":-122.4313,"reserved":0,"last_update":"0001-01-01T00:00:00Z","name_a2s":"Uncletopia | San Francisco | 3 | No Payload","protocol":17,"map":"plr_nightfall_final","folder":"tf","game":"Team Fortress","app_id":440,"player_count":0,"max_players":24,"Bots":0,"server_type":"Dedicated","server_os":"Linux","password":true,"vac":true,"version":"7708610","steam_id":85568392924742824,"keywords":["nocrits","nodmgspread","payload","uncletopia"],"game_id":440,"stv_port":27036,"stv_name":"Uncletopia | San Francisco | 3 | No Payload | STV","players":null},{"server_id":20,"name":"Uncletopia | San Francisco | 4 | Community","name_short":"sfo-4","host":"sfo-1.us.uncletopia.com","port":27045,"enabled":true,"region":"us-west","cc":"us","latitude":37.77397,"longitude":-122.4313,"reserved":0,"last_update":"0001-01-01T00:00:00Z","name_a2s":"Uncletopia | San Francisco | 4 | Community","protocol":17,"map":"workshop/koth_ramjam_v2_b2.ugc2865676487","folder":"tf","game":"Team Fortress","app_id":440,"player_count":0,"max_players":24,"Bots":0,"server_type":"Dedicated","server_os":"Linux","password":true,"vac":true,"version":"7708610","steam_id":85568392924742826,"keywords":["cp","nocrits","nodmgspread","uncletopia"],"game_id":440,"stv_port":27046,"stv_name":"Uncletopia | San Francisco | 4 | Community | STV","players":null},{"server_id":141,"name":"Uncletopia | Sydney | 1 | All Maps","name_short":"syd-1","host":"syd-1.au.uncletopia.com","port":27015,"enabled":true,"region":"au","cc":"au","latitude":-33.865143,"longitude":151.2099,"reserved":0,"last_update":"0001-01-01T00:00:00Z","name_a2s":"Uncletopia | Sydney | 1 | All Maps","protocol":17,"map":"plr_hightower","folder":"tf","game":"Team Fortress","app_id":440,"player_count":21,"max_players":24,"Bots":0,"server_type":"Dedicated","server_os":"Linux","password":true,"vac":true,"version":"7708610","steam_id":85568392924470001,"keywords":["nocrits","nodmgspread","payload","uncletopia"],"game_id":440,"stv_port":27016,"stv_name":"Uncletopia | Sydney | 1 | All Maps | STV","players":[{"user_id":379,"name":"speed bomb","steam_id":76561198277363788,"connected_time":2864000000000,"state":"active","ping":71},{"user_id":410,"name":"CurryEnthusiast69","steam_id":76561198001960707,"connected_time":332000000000,"state":"active","ping":45},{"user_id":364,"name":"Catalyst is life","steam_id":76561199026240631,"connected_time":3848000000000,"state":"active","ping":52},{"user_id":403,"name":"Green Damage","steam_id":76561198362552166,"connected_time":803000000000,"state":"active","ping":96},{"user_id":399,"name":"need a cone after that stab","steam_id":76561199165244415,"connected_time":966000000000,"state":"active","ping":79},{"user_id":420,"name":"ttv/svettf (Controller)","steam_id":76561198152210509,"connected_time":20000000000,"state":"active","ping":41},{"user_id":391,"name":"Lancer","steam_id":76561198122813810,"connected_time":1669000000000,"state":"active","ping":82},{"user_id":341,"name":"AmethystDragon10","steam_id":76561198412979983,"connected_time":5825000000000,"state":"active","ping":77},{"user_id":396,"name":"las","steam_id":76561198039162155,"connected_time":1496000000000,"state":"active","ping":60},{"user_id":411,"name":"twitch.tv/xtswagg","steam_id":76561199009912335,"connected_time":317000000000,"state":"active","ping":60},{"user_id":408,"name":"ljpaters","steam_id":76561198094354484,"connected_time":424000000000,"state":"active","ping":60},{"user_id":402,"name":"moresonicgaming (ttv.)","steam_id":76561198350668580,"connected_time":836000000000,"state":"active","ping":30},{"user_id":417,"name":"covenofbats","steam_id":76561198152117315,"connected_time":199000000000,"state":"active","ping":44},{"user_id":413,"name":"Marzell","steam_id":76561198151276153,"connected_time":311000000000,"state":"active","ping":84},{"user_id":363,"name":"cimpact","steam_id":76561198452258917,"connected_time":3860000000000,"state":"active","ping":173},{"user_id":414,"name":"skidmark2000","steam_id":76561198446126519,"connected_time":284000000000,"state":"active","ping":43},{"user_id":415,"name":"Captain Underpants","steam_id":76561199219366711,"connected_time":277000000000,"state":"active","ping":106},{"user_id":381,"name":"Winky","steam_id":76561199059450243,"connected_time":2591000000000,"state":"active","ping":140},{"user_id":372,"name":"invidia","steam_id":76561198096251579,"connected_time":3464000000000,"state":"active","ping":53},{"user_id":374,"name":"Mail Bomb Victim","steam_id":76561198284533039,"connected_time":3217000000000,"state":"active","ping":50},{"user_id":394,"name":"ghosted.","steam_id":76561198886430963,"connected_time":1553000000000,"state":"active","ping":86}]},{"server_id":123,"name":"Uncletopia | Sydney | 2 | All Maps","name_short":"syd-2","host":"syd-1.au.uncletopia.com","port":27025,"enabled":true,"region":"au","cc":"au","latitude":-33.865143,"longitude":151.2099,"reserved":0,"last_update":"0001-01-01T00:00:00Z","name_a2s":"Uncletopia | Sydney | 2 | All Maps","protocol":17,"map":"plr_bananabay","folder":"tf","game":"Team Fortress","app_id":440,"player_count":0,"max_players":24,"Bots":0,"server_type":"Dedicated","server_os":"Linux","password":true,"vac":true,"version":"7708610","steam_id":85568392924470002,"keywords":["nocrits","nodmgspread","payload","uncletopia"],"game_id":440,"stv_port":27026,"stv_name":"Uncletopia | Sydney | 2 | All Maps | STV","players":null},{"server_id":395,"name":"Uncletopia | Sydney | 3 | All Maps","name_short":"syd-3","host":"syd-1.au.uncletopia.com","port":27035,"enabled":true,"region":"au","cc":"au","latitude":-33.865143,"longitude":151.2099,"reserved":0,"last_update":"0001-01-01T00:00:00Z","name_a2s":"Uncletopia | Sydney | 3 | All Maps","protocol":17,"map":"cp_snakewater_final1","folder":"tf","game":"Team Fortress","app_id":440,"player_count":19,"max_players":24,"Bots":0,"server_type":"Dedicated","server_os":"Linux","password":true,"vac":true,"version":"7708610","steam_id":85568392925194467,"keywords":["cp","nocrits","nodmgspread","uncletopia"],"game_id":440,"stv_port":27036,"stv_name":"Uncletopia | Sydney | 3 | All Maps | STV","players":[{"user_id":130,"name":"hawk","steam_id":76561198135164277,"connected_time":2567000000000,"state":"active","ping":58},{"user_id":158,"name":"bigdaddykane","steam_id":76561198867224434,"connected_time":669000000000,"state":"active","ping":40},{"user_id":112,"name":"Chooka","steam_id":76561197992307814,"connected_time":3942000000000,"state":"active","ping":78},{"user_id":111,"name":"Gavin.","steam_id":76561198405783348,"connected_time":4025000000000,"state":"active","ping":62},{"user_id":155,"name":"floop flub","steam_id":76561198418968979,"connected_time":741000000000,"state":"active","ping":105},{"user_id":144,"name":"gongaga","steam_id":76561198072382387,"connected_time":1467000000000,"state":"active","ping":58},{"user_id":145,"name":"Regrozenah","steam_id":76561197982531456,"connected_time":1438000000000,"state":"active","ping":52},{"user_id":154,"name":"OverTasked ッ","steam_id":76561198829465540,"connected_time":992000000000,"state":"active","ping":54},{"user_id":163,"name":"yons","steam_id":76561198083920784,"connected_time":427000000000,"state":"active","ping":61},{"user_id":150,"name":"ziah","steam_id":76561198159375596,"connected_time":1168000000000,"state":"active","ping":59},{"user_id":67,"name":"The Inked Rabbit","steam_id":76561199158680285,"connected_time":6015000000000,"state":"active","ping":45},{"user_id":165,"name":"Lovres","steam_id":76561198058740774,"connected_time":102000000000,"state":"active","ping":76},{"user_id":160,"name":"Professor of Rizzonmics","steam_id":76561198054804209,"connected_time":590000000000,"state":"active","ping":91},{"user_id":138,"name":"Mann Co. Gaming","steam_id":76561198237719242,"connected_time":1774000000000,"state":"active","ping":57},{"user_id":161,"name":"krandlez` (Any/All)","steam_id":76561198044839726,"connected_time":546000000000,"state":"active","ping":43},{"user_id":142,"name":"Professional Model Railroader","steam_id":76561199249059042,"connected_time":1539000000000,"state":"active","ping":92},{"user_id":118,"name":"Dupiter","steam_id":76561198108820767,"connected_time":3536000000000,"state":"active","ping":59},{"user_id":149,"name":"A threat unbeknownst","steam_id":76561198293776102,"connected_time":1314000000000,"state":"active","ping":48},{"user_id":110,"name":"EpicGuy4227","steam_id":76561198094132328,"connected_time":4048000000000,"state":"active","ping":55}]},{"server_id":396,"name":"Uncletopia | Sydney | 4 | All Maps","name_short":"syd-4","host":"syd-1.au.uncletopia.com","port":27045,"enabled":true,"region":"au","cc":"au","latitude":-33.865143,"longitude":151.2099,"reserved":0,"last_update":"0001-01-01T00:00:00Z","name_a2s":"Uncletopia | Sydney | 4 | All Maps","protocol":17,"map":"koth_cascade","folder":"tf","game":"Team Fortress","app_id":440,"player_count":2,"max_players":24,"Bots":0,"server_type":"Dedicated","server_os":"Linux","password":true,"vac":true,"version":"7708610","steam_id":85568392925397958,"keywords":["cp","nocrits","nodmgspread","uncletopia"],"game_id":440,"stv_port":27046,"stv_name":"Uncletopia | Sydney | 4 | All Maps | STV","players":[{"user_id":6,"name":"Yeeter Skeetrr","steam_id":76561199075903388,"connected_time":729000000000,"state":"active","ping":79},{"user_id":7,"name":"MayoMan","steam_id":76561199140828165,"connected_time":391000000000,"state":"active","ping":47}]},{"server_id":58,"name":"Uncletopia | Sydney | 5 | No Payload","name_short":"syd-5","host":"syd-1.au.uncletopia.com","port":27055,"enabled":true,"region":"au","cc":"au","latitude":-33.865143,"longitude":151.2099,"reserved":0,"last_update":"0001-01-01T00:00:00Z","name_a2s":"Uncletopia | Sydney | 5 | No Payload","protocol":17,"map":"cp_snakewater_final1","folder":"tf","game":"Team Fortress","app_id":440,"player_count":0,"max_players":24,"Bots":0,"server_type":"Dedicated","server_os":"Linux","password":true,"vac":true,"version":"7708610","steam_id":85568392925397959,"keywords":["cp","nocrits","nodmgspread","uncletopia"],"game_id":440,"stv_port":27056,"stv_name":"Uncletopia | Sydney | 5 | No Payload | STV","players":null},{"server_id":59,"name":"Uncletopia | Sydney | 6 | Community","name_short":"syd-6","host":"syd-1.au.uncletopia.com","port":27065,"enabled":true,"region":"au","cc":"au","latitude":-33.865143,"longitude":151.2099,"reserved":0,"last_update":"0001-01-01T00:00:00Z","name_a2s":"Uncletopia | Sydney | 6 | Community","protocol":17,"map":"workshop/koth_ramjam_v2_b2.ugc2865676487","folder":"tf","game":"Team Fortress","app_id":440,"player_count":4,"max_players":24,"Bots":0,"server_type":"Dedicated","server_os":"Linux","password":true,"vac":true,"version":"7708610","steam_id":85568392925397960,"keywords":["cp","nocrits","nodmgspread","uncletopia"],"game_id":440,"stv_port":27066,"stv_name":"Uncletopia | Sydney | 6 | Community | STV","players":[{"user_id":22,"name":"Demoman T-posing","steam_id":76561199221851578,"connected_time":11000000000,"state":"spawning","ping":81},{"user_id":12,"name":"Stinke","steam_id":76561198973797001,"connected_time":3727000000000,"state":"active","ping":56},{"user_id":11,"name":"Dark Knight","steam_id":76561198250889884,"connected_time":3774000000000,"state":"active","ping":46},{"user_id":21,"name":"Rajab","steam_id":76561198236077918,"connected_time":109000000000,"state":"active","ping":49}]},{"server_id":49,"name":"Uncletopia | Warsaw | 1 | All Maps","name_short":"waw-1","host":"waw-1.pl.uncletopia.com","port":27015,"enabled":true,"region":"eu","cc":"pl","latitude":52.2297,"longitude":21.017532,"reserved":0,"last_update":"0001-01-01T00:00:00Z","name_a2s":"Uncletopia | Warsaw | 1 | All Maps","protocol":17,"map":"pl_snowycoast","folder":"tf","game":"Team Fortress","app_id":440,"player_count":0,"max_players":24,"Bots":0,"server_type":"Dedicated","server_os":"Linux","password":true,"vac":true,"version":"7708610","steam_id":85568392925397850,"keywords":["nocrits","nodmgspread","payload","uncletopia"],"game_id":440,"stv_port":27016,"stv_name":"Uncletopia | Warsaw | 1 | All Maps | STV","players":null},{"server_id":50,"name":"Uncletopia | Warsaw | 2 | All Maps","name_short":"waw-2","host":"waw-1.pl.uncletopia.com","port":27025,"enabled":true,"region":"eu","cc":"pl","latitude":52.2297,"longitude":21.017532,"reserved":0,"last_update":"0001-01-01T00:00:00Z","name_a2s":"Uncletopia | Warsaw | 2 | All Maps","protocol":17,"map":"pl_barnblitz","folder":"tf","game":"Team Fortress","app_id":440,"player_count":0,"max_players":24,"Bots":0,"server_type":"Dedicated","server_os":"Linux","password":true,"vac":true,"version":"7708610","steam_id":85568392925397851,"keywords":["nocrits","nodmgspread","payload","uncletopia"],"game_id":440,"stv_port":27026,"stv_name":"Uncletopia | Warsaw | 2 | All Maps | STV","players":null},{"server_id":51,"name":"Uncletopia | Warsaw | 3 | All Maps","name_short":"waw-3","host":"waw-1.pl.uncletopia.com","port":27035,"enabled":true,"region":"eu","cc":"pl","latitude":52.2297,"longitude":21.017532,"reserved":0,"last_update":"0001-01-01T00:00:00Z","name_a2s":"Uncletopia | Warsaw | 3 | All Maps","protocol":17,"map":"pl_badwater","folder":"tf","game":"Team Fortress","app_id":440,"player_count":0,"max_players":24,"Bots":0,"server_type":"Dedicated","server_os":"Linux","password":true,"vac":true,"version":"7708610","steam_id":85568392925397852,"keywords":["nocrits","nodmgspread","payload","uncletopia"],"game_id":440,"stv_port":27036,"stv_name":"Uncletopia | Warsaw | 3 | All Maps | STV","players":null},{"server_id":52,"name":"Uncletopia | Warsaw | 4 | All Maps","name_short":"waw-4","host":"waw-1.pl.uncletopia.com","port":27045,"enabled":true,"region":"eu","cc":"pl","latitude":52.2297,"longitude":21.017532,"reserved":0,"last_update":"0001-01-01T00:00:00Z","name_a2s":"Uncletopia | Warsaw | 4 | All Maps","protocol":17,"map":"pl_pier","folder":"tf","game":"Team Fortress","app_id":440,"player_count":0,"max_players":24,"Bots":0,"server_type":"Dedicated","server_os":"Linux","password":true,"vac":true,"version":"7708610","steam_id":85568392925397853,"keywords":["nocrits","nodmgspread","payload","uncletopia"],"game_id":440,"stv_port":27046,"stv_name":"Uncletopia | Warsaw | 4 | All Maps | STV","players":null},{"server_id":53,"name":"Uncletopia | Warsaw | 5 | No Payload","name_short":"waw-5","host":"waw-1.pl.uncletopia.com","port":27055,"enabled":true,"region":"eu","cc":"pl","latitude":52.2297,"longitude":21.017532,"reserved":0,"last_update":"0001-01-01T00:00:00Z","name_a2s":"Uncletopia | Warsaw | 5 | No Payload","protocol":17,"map":"pl_borneo","folder":"tf","game":"Team Fortress","app_id":440,"player_count":0,"max_players":24,"Bots":0,"server_type":"Dedicated","server_os":"Linux","password":true,"vac":true,"version":"7708610","steam_id":85568392925397854,"keywords":["nocrits","nodmgspread","payload","uncletopia"],"game_id":440,"stv_port":27056,"stv_name":"Uncletopia | Warsaw | 5 | No Payload | STV","players":null},{"server_id":54,"name":"Uncletopia | Warsaw | 6 | Community","name_short":"waw-6","host":"waw-1.pl.uncletopia.com","port":27065,"enabled":true,"region":"eu","cc":"pl","latitude":52.2297,"longitude":21.017532,"reserved":0,"last_update":"0001-01-01T00:00:00Z","name_a2s":"Uncletopia | Warsaw | 6 | Community","protocol":17,"map":"pl_swiftwater_final1","folder":"tf","game":"Team Fortress","app_id":440,"player_count":0,"max_players":24,"Bots":0,"server_type":"Dedicated","server_os":"Linux","password":true,"vac":true,"version":"7708610","steam_id":85568392925397856,"keywords":["nocrits","nodmgspread","payload","uncletopia"],"game_id":440,"stv_port":27066,"stv_name":"Uncletopia | Warsaw | 6 | Community | STV","players":null}]}