{"status":true,"message":"","result":[{"server_id":9,"name":"Uncletopia | Atlanta | 1 | All Maps","name_short":"atl-1","host":"atl-1.us.uncletopia.com","port":27015,"enabled":true,"region":"us-east","cc":"us","latitude":33.753746,"longitude":-84.38633,"reserved":0,"last_update":"0001-01-01T00:00:00Z","name_a2s":"Uncletopia | Atlanta | 1 | All Maps","protocol":17,"map":"pl_goldrush","folder":"tf","game":"Team Fortress","app_id":440,"player_count":23,"max_players":24,"Bots":0,"server_type":"Dedicated","server_os":"Linux","password":true,"vac":true,"version":"7961495","steam_id":85568392924469982,"keywords":["nocrits","nodmgspread","payload","uncletopia"],"game_id":440,"stv_port":27016,"stv_name":"Uncletopia | Atlanta | 1 | All Maps | STV","players":[{"user_id":673,"name":"Disco Fever","steam_id":76561198069532215,"connected_time":730000000000,"state":"active","ping":56},{"user_id":663,"name":"chexo4","steam_id":76561198150532531,"connected_time":1239000000000,"state":"active","ping":48},{"user_id":685,"name":"ArchdukeofSuno","steam_id":76561198068577739,"connected_time":5000000000,"state":"spawning","ping":59},{"user_id":664,"name":"River","steam_id":76561198053962431,"connected_time":1235000000000,"state":"active","ping":71},{"user_id":677,"name":"Vlad","steam_id":76561198150626637,"connected_time":457000000000,"state":"active","ping":57},{"user_id":678,"name":"Cottoneyes","steam_id":76561197994730627,"connected_time":445000000000,"state":"active","ping":60},{"user_id":665,"name":"crunchy obama","steam_id":76561198044485217,"connected_time":1235000000000,"state":"active","ping":114},{"user_id":674,"name":"AmC","steam_id":76561198109731140,"connected_time":643000000000,"state":"active","ping":114},{"user_id":671,"name":"Intro Bonito","steam_id":76561198119478838,"connected_time":984000000000,"state":"active","ping":45},{"user_id":684,"name":"Grimprr","steam_id":76561198275816797,"connected_time":29000000000,"state":"active","ping":65},{"user_id":679,"name":"marguerite","steam_id":76561198170873495,"connected_time":255000000000,"state":"active","ping":49},{"user_id":659,"name":"Û†Ä°Û†Ä°","steam_id":76561198348035053,"connected_time":1587000000000,"state":"active","ping":131},{"user_id":658,"name":"lil hog","steam_id":76561199230929836,"connected_time":1738000000000,"state":"active","ping":90},{"user_id":632,"name":"Chernov","steam_id":76561198014463424,"connected_time":5285000000000,"state":"active","ping":58},{"user_id":669,"name":"mangokip","steam_id":76561198156471516,"connected_time":1138000000000,"state":"active","ping":49},{"user_id":647,"name":"ash","steam_id":76561198127890645,"connected_time":4100000000000,"state":"active","ping":74},{"user_id":676,"name":"Bag","steam_id":76561198012395490,"connected_time":575000000000,"state":"active","ping":61},{"user_id":680,"name":"BIG HOG","steam_id":76561198079923652,"connected_time":50000000000,"state":"active","ping":63},{"user_id":653,"name":"LadyAnon","steam_id":76561198014709418,"connected_time":2938000000000,"state":"active","ping":49},{"user_id":670,"name":"Evelynn the Fox","steam_id":76561198050946208,"connected_time":1051000000000,"state":"active","ping":66},{"user_id":682,"name":"Just washed","steam_id":76561199030160932,"connected_time":46000000000,"state":"active","ping":75},{"user_id":646,"name":"18 cowboys at ram ranch","steam_id":76561198040440984,"connected_time":4124000000000,"state":"active","ping":85},{"user_id":630,"name":"Rat","steam_id":76561198137925582,"connected_time":5355000000000,"state":"active","ping":62}]},{"server_id":104,"name":"Uncletopia | Atlanta | 2 | All Maps","name_short":"atl-2","host":"atl-1.us.uncletopia.com","port":27025,"enabled":true,"region":"us-east","cc":"us","latitude":33.753746,"longitude":-84.38633,"reserved":0,"last_update":"0001-01-01T00:00:00Z","name_a2s":"Uncletopia | Atlanta | 2 | All Maps","protocol":17,"map":"pl_borneo","folder":"tf","game":"Team Fortress","app_id":440,"player_count":19,"max_players":24,"Bots":0,"server_type":"Dedicated","server_os":"Linux","password":true,"vac":true,"version":"7961495","steam_id":85568392924469983,"keywords":["nocrits","nodmgspread","payload","uncletopia"],"game_id":440,"stv_port":27026,"stv_name":"Uncletopia | Atlanta | 2 | All Maps | STV","players":[{"user_id":339,"name":"C4K3","steam_id":76561197996963285,"connected_time":14000000000,"state":"spawning","ping":86},{"user_id":322,"name":"Spare(8)Ball","steam_id":76561197982432995,"connected_time":1162000000000,"state":"spawning","ping":144},{"user_id":332,"name":"Draco6257","steam_id":76561199147322448,"connected_time":715000000000,"state":"spawning","ping":93},{"user_id":303,"name":"Rat God","steam_id":76561198066161598,"connected_time":2691000000000,"state":"spawning","ping":85},{"user_id":301,"name":"summerlis","steam_id":76561198165324438,"connected_time":2907000000000,"state":"spawning","ping":131},{"user_id":337,"name":"jandajanda","steam_id":76561198235722476,"connected_time":42000000000,"state":"spawning","ping":86},{"user_id":309,"name":"Luna","steam_id":76561198023352750,"connected_time":2423000000000,"state":"spawning","ping":81},{"user_id":288,"name":"duBstep","steam_id":76561198353928965,"connected_time":3345000000000,"state":"spawning","ping":95},{"user_id":311,"name":"UltimateZwarrior","steam_id":76561199471317715,"connected_time":2293000000000,"state":"spawning","ping":122},{"user_id":307,"name":"BOOMER DOOMER","steam_id":76561198262318826,"connected_time":2613000000000,"state":"spawning","ping":76},{"user_id":299,"name":"Kantamoe","steam_id":76561198046661611,"connected_time":2912000000000,"state":"spawning","ping":100},{"user_id":330,"name":"Big Ol Critties","steam_id":76561198054269834,"connected_time":795000000000,"state":"spawning","ping":104},{"user_id":331,"name":"holyblade12","steam_id":76561198090842572,"connected_time":740000000000,"state":"spawning","ping":77},{"user_id":338,"name":"tunaa","steam_id":76561198362763159,"connected_time":30000000000,"state":"spawning","ping":117},{"user_id":333,"name":"Lord Shmeck","steam_id":76561198023851456,"connected_time":701000000000,"state":"spawning","ping":139},{"user_id":326,"name":"Sl√∂th ‚ù¶","steam_id":76561197998378462,"connected_time":1040000000000,"state":"spawning","ping":156},{"user_id":318,"name":"Espresso_Depresso","steam_id":76561198396290407,"connected_time":1520000000000,"state":"spawning","ping":127},{"user_id":300,"name":"Spiffyputt","steam_id":76561198439345687,"connected_time":2911000000000,"state":"spawning","ping":99},{"user_id":334,"name":"Dukino","steam_id":76561198008455368,"connected_time":680000000000,"state":"spawning","ping":87}]},{"server_id":400,"name":"Uncletopia | Atlanta | 3 | Stopwatch","name_short":"atl-3","host":"atl-1.us.uncletopia.com","port":27035,"enabled":true,"region":"us-east","cc":"us","latitude":33.753746,"longitude":-84.38633,"reserved":0,"last_update":"0001-01-01T00:00:00Z","name_a2s":"Uncletopia | Atlanta | 3 | Stopwatch","protocol":17,"map":"workshop/koth_ashville_final.ugc2130459942","folder":"tf","game":"Team Fortress","app_id":440,"player_count":16,"max_players":24,"Bots":0,"server_type":"Dedicated","server_os":"Linux","password":true,"vac":true,"version":"7961495","steam_id":85568392924515187,"keywords":["cp","nocrits","nodmgspread","uncletopia"],"game_id":440,"stv_port":27036,"stv_name":"Uncletopia | Atlanta | 3 | Stopwatch | STV","players":[{"user_id":103,"name":"LunchTrae","steam_id":76561198041578886,"connected_time":608000000000,"state":"active","ping":70},{"user_id":106,"name":"currytofu10","steam_id":76561198856278322,"connected_time":502000000000,"state":"active","ping":103},{"user_id":109,"name":"‚ú®11Rufix","steam_id":76561198394962127,"connected_time":236000000000,"state":"active","ping":92},{"user_id":108,"name":"MARIOPARTYDSFAN","steam_id":76561198872122117,"connected_time":301000000000,"state":"active","ping":69},{"user_id":110,"name":"seulruker","steam_id":76561198200519882,"connected_time":155000000000,"state":"active","ping":112},{"user_id":111,"name":"the.land.of.avalon","steam_id":76561198245431668,"connected_time":94000000000,"state":"active","ping":75},{"user_id":100,"name":"Nut Bustray","steam_id":76561198092403883,"connected_time":692000000000,"state":"active","ping":97},{"user_id":98,"name":"bobbymcbobington","steam_id":76561199089411172,"connected_time":786000000000,"state":"active","ping":96},{"user_id":42,"name":"Winona","steam_id":76561198072482289,"connected_time":4462000000000,"state":"active","ping":69},{"user_id":43,"name":"Ninjapick","steam_id":76561198055512710,"connected_time":4441000000000,"state":"active","ping":65},{"user_id":87,"name":"kaputon","steam_id":76561198146299782,"connected_time":1312000000000,"state":"active","ping":71},{"user_id":113,"name":"De_Bones","steam_id":76561198064459088,"connected_time":22000000000,"state":"active","ping":64},{"user_id":114,"name":"Zalban","steam_id":76561198149731182,"connected_time":21000000000,"state":"spawning","ping":238},{"user_id":101,"name":"evdoke","steam_id":76561198044555219,"connected_time":677000000000,"state":"active","ping":49},{"user_id":91,"name":"Quick-Fix Fan","steam_id":76561198872845740,"connected_time":1166000000000,"state":"active","ping":71},{"user_id":81,"name":"Kastila","steam_id":76561198023068473,"connected_time":2146000000000,"state":"active","ping":72}]},{"server_id":401,"name":"Uncletopia | Atlanta | 4 | Community","name_short":"atl-4","host":"atl-1.us.uncletopia.com","port":27045,"enabled":true,"region":"us-east","cc":"us","latitude":33.753746,"longitude":-84.38633,"reserved":0,"last_update":"0001-01-01T00:00:00Z","name_a2s":"Uncletopia | Atlanta | 4 | Community","protocol":17,"map":"workshop/pl_phoenix_b4a.ugc2969509359","folder":"tf","game":"Team Fortress","app_id":440,"player_count":7,"max_players":24,"Bots":0,"server_type":"Dedicated","server_os":"Linux","password":true,"vac":true,"version":"7961495","steam_id":85568392924515188,"keywords":["nocrits","nodmgspread","payload","uncletopia"],"game_id":440,"stv_port":27046,"stv_name":"Uncletopia | Atlanta | 4 | Community | STV","players":[{"user_id":3,"name":"Avo","steam_id":76561197993340494,"connected_time":609000000000,"state":"active","ping":53},{"user_id":4,"name":"‚ô°Alyx‚ô°","steam_id":76561198024303978,"connected_time":605000000000,"state":"active","ping":60},{"user_id":5,"name":"Decolour","steam_id":76561199045608372,"connected_time":605000000000,"state":"active","ping":75},{"user_id":6,"name":"Vee (very cool)","steam_id":76561198330432889,"connected_time":604000000000,"state":"active","ping":60},{"user_id":7,"name":"(Mage) damn I must be a genius","steam_id":76561198285026879,"connected_time":580000000000,"state":"active","ping":67},{"user_id":8,"name":"Albino Jellyfish","steam_id":76561198208561097,"connected_time":539000000000,"state":"active","ping":49},{"user_id":9,"name":"‡∏∏","steam_id":76561198084134025,"connected_time":116000000000,"state":"active","ping":120}]},{"server_id":2,"name":"Uncletopia | Chicago | 1 | All Maps","name_short":"chi-1","host":"chi-1.us.uncletopia.com","port":27015,"enabled":true,"region":"us-central","cc":"us","latitude":41.881832,"longitude":-87.62318,"reserved":0,"last_update":"0001-01-01T00:00:00Z","name_a2s":"Uncletopia | Chicago | 1 | All Maps","protocol":17,"map":"koth_highpass","folder":"tf","game":"Team Fortress","app_id":440,"player_count":24,"max_players":24,"Bots":0,"server_type":"Dedicated","server_os":"Linux","password":true,"vac":true,"version":"7961495","steam_id":85568392924469984,"keywords":["cp","nocrits","nodmgspread","uncletopia"],"game_id":440,"stv_port":27016,"stv_name":"Uncletopia | Chicago | 1 | All Maps | STV","players":[{"user_id":627,"name":"yick","steam_id":76561198974623886,"connected_time":779000000000,"state":"active","ping":45},{"user_id":640,"name":"Mimt1111","steam_id":76561198392370897,"connected_time":460000000000,"state":"active","ping":121},{"user_id":629,"name":"Satchamo","steam_id":76561198012968239,"connected_time":760000000000,"state":"active","ping":71},{"user_id":642,"name":"Pizza","steam_id":76561198118748364,"connected_time":401000000000,"state":"active","ping":78},{"user_id":644,"name":"Autogyro","steam_id":76561198047943679,"connected_time":377000000000,"state":"active","ping":58},{"user_id":630,"name":"Mr.Raze","steam_id":76561199130782617,"connected_time":748000000000,"state":"active","ping":48},{"user_id":566,"name":"Zelereth","steam_id":76561198114250656,"connected_time":5280000000000,"state":"active","ping":80},{"user_id":631,"name":"fapasaurusrex","steam_id":76561197994951255,"connected_time":741000000000,"state":"active","ping":43},{"user_id":641,"name":"Amoogie_Baloogie","steam_id":76561198335887809,"connected_time":456000000000,"state":"active","ping":49},{"user_id":637,"name":"toucan","steam_id":76561198016562343,"connected_time":616000000000,"state":"active","ping":60},{"user_id":574,"name":"The Nikocado Enjoyer","steam_id":76561198263154374,"connected_time":4871000000000,"state":"active","ping":65},{"user_id":611,"name":"PickleHater13","steam_id":76561198259380127,"connected_time":2754000000000,"state":"active","ping":57},{"user_id":587,"name":"Government Plates","steam_id":76561198140866252,"connected_time":4344000000000,"state":"active","ping":73},{"user_id":570,"name":"man of the hour","steam_id":76561198264601809,"connected_time":4957000000000,"state":"active","ping":69},{"user_id":643,"name":"hatsune mitski","steam_id":76561198012510968,"connected_time":399000000000,"state":"active","ping":58},{"user_id":633,"name":"NE–ØO","steam_id":76561197965450216,"connected_time":718000000000,"state":"active","ping":99},{"user_id":603,"name":"Richard","steam_id":76561198044115685,"connected_time":3363000000000,"state":"active","ping":61},{"user_id":635,"name":"Funky Buttlovin","steam_id":76561198002807702,"connected_time":656000000000,"state":"active","ping":50},{"user_id":636,"name":"Leeous","steam_id":76561198081083248,"connected_time":656000000000,"state":"active","ping":100},{"user_id":618,"name":"Spy Gaming","steam_id":76561198453295613,"connected_time":2116000000000,"state":"active","ping":116},{"user_id":565,"name":"Maj","steam_id":76561198154203415,"connected_time":5382000000000,"state":"active","ping":64},{"user_id":620,"name":"Cat Liker ‚Ñ¢ Trans thing :3c","steam_id":76561198964321336,"connected_time":1901000000000,"state":"active","ping":78},{"user_id":621,"name":"Parallel_LCD","steam_id":76561198006941089,"connected_time":1889000000000,"state":"active","ping":100},{"user_id":645,"name":"Petrivus","steam_id":76561198202152453,"connected_time":258000000000,"state":"active","ping":90}]},{"server_id":106,"name":"Uncletopia | Chicago | 2 | All Maps","name_short":"chi-2","host":"chi-1.us.uncletopia.com","port":27025,"enabled":true,"region":"us-central","cc":"us","latitude":41.881832,"longitude":-87.62318,"reserved":0,"last_update":"0001-01-01T00:00:00Z","name_a2s":"Uncletopia | Chicago | 2 | All Maps","protocol":17,"map":"pl_snowycoast","folder":"tf","game":"Team Fortress","app_id":440,"player_count":24,"max_players":24,"Bots":0,"server_type":"Dedicated","server_os":"Linux","password":true,"vac":true,"version":"7961495","steam_id":85568392924469985,"keywords":["nocrits","nodmgspread","payload","uncletopia"],"game_id":440,"stv_port":27026,"stv_name":"Uncletopia | Chicago | 2 | All Maps | STV","players":[{"user_id":816,"name":"Frog Impersonator Kermit","steam_id":76561198022316913,"connected_time":1364000000000,"state":"active","ping":84},{"user_id":790,"name":"Frontier Psychiatrist","steam_id":76561198038689088,"connected_time":2902000000000,"state":"active","ping":85},{"user_id":737,"name":"Bunni","steam_id":76561198065169997,"connected_time":6622000000000,"state":"active","ping":83},{"user_id":821,"name":"t","steam_id":76561198175988929,"connected_time":517000000000,"state":"active","ping":76},{"user_id":775,"name":"Blade Racer","steam_id":76561198155896703,"connected_time":4204000000000,"state":"active","ping":69},{"user_id":782,"name":"meh","steam_id":76561198136808129,"connected_time":3811000000000,"state":"active","ping":61},{"user_id":799,"name":"Queen Frau the Round","steam_id":76561197999942134,"connected_time":2620000000000,"state":"active","ping":46},{"user_id":806,"name":"JayRutt","steam_id":76561198820997646,"connected_time":2003000000000,"state":"active","ping":100},{"user_id":819,"name":"the juicer","steam_id":76561198307845869,"connected_time":1031000000000,"state":"active","ping":66},{"user_id":822,"name":"‚úø PoutyBun ‚úø","steam_id":76561197965762847,"connected_time":152000000000,"state":"active","ping":89},{"user_id":758,"name":"subdromeda","steam_id":76561198884351860,"connected_time":5548000000000,"state":"active","ping":62},{"user_id":803,"name":"lennyfallem31","steam_id":76561198813574552,"connected_time":2278000000000,"state":"active","ping":73},{"user_id":804,"name":"Winzinf","steam_id":76561198026152232,"connected_time":2021000000000,"state":"active","ping":74},{"user_id":783,"name":"gio","steam_id":76561198139781520,"connected_time":3718000000000,"state":"active","ping":106},{"user_id":764,"name":"kicks","steam_id":76561199228854923,"connected_time":5183000000000,"state":"active","ping":54},{"user_id":809,"name":"crowQu","steam_id":76561198006099295,"connected_time":1905000000000,"state":"active","ping":70},{"user_id":820,"name":"Mr. Tickle","steam_id":76561198126684647,"connected_time":639000000000,"state":"active","ping":60},{"user_id":780,"name":"what the freak","steam_id":76561198080754727,"connected_time":4098000000000,"state":"active","ping":84},{"user_id":817,"name":"Shrebbie","steam_id":76561198875230824,"connected_time":1320000000000,"state":"active","ping":60},{"user_id":778,"name":"like a g6","steam_id":76561199161322235,"connected_time":4169000000000,"state":"active","ping":65},{"user_id":814,"name":"Goldwalker","steam_id":76561198279461590,"connected_time":1641000000000,"state":"active","ping":88},{"user_id":760,"name":"777","steam_id":76561198277163301,"connected_time":5250000000000,"state":"active","ping":68},{"user_id":779,"name":"bear","steam_id":76561198313696546,"connected_time":4157000000000,"state":"active","ping":84},{"user_id":815,"name":"Aztea","steam_id":76561198982089893,"connected_time":1414000000000,"state":"active","ping":82}]},{"server_id":402,"name":"Uncletopia | Chicago | 3 | All Maps","name_short":"chi-3","host":"chi-1.us.uncletopia.com","port":27035,"enabled":true,"region":"us-central","cc":"us","latitude":41.881832,"longitude":-87.62318,"reserved":0,"last_update":"0001-01-01T00:00:00Z","name_a2s":"Uncletopia | Chicago | 3 | All Maps","protocol":17,"map":"koth_highpass","folder":"tf","game":"Team Fortress","app_id":440,"player_count":23,"max_players":24,"Bots":0,"server_type":"Dedicated","server_os":"Linux","password":true,"vac":true,"version":"7961495","steam_id":85568392924515191,"keywords":["cp","nocrits","nodmgspread","uncletopia"],"game_id":440,"stv_port":27036,"stv_name":"Uncletopia | Chicago | 3 | All Maps | STV","players":[{"user_id":584,"name":"ReubenSalsa","steam_id":76561198110060815,"connected_time":2991000000000,"state":"active","ping":54},{"user_id":586,"name":"LaChancla","steam_id":76561198971528917,"connected_time":2868000000000,"state":"active","ping":75},{"user_id":620,"name":"chunger","steam_id":76561198107931997,"connected_time":236000000000,"state":"active","ping":70},{"user_id":590,"name":"Jazzy","steam_id":76561198012786647,"connected_time":1534000000000,"state":"active","ping":82},{"user_id":614,"name":"gretchling","steam_id":76561198046111695,"connected_time":613000000000,"state":"active","ping":64},{"user_id":529,"name":"Jacky","steam_id":76561198097043127,"connected_time":7116000000000,"state":"active","ping":92},{"user_id":608,"name":"Uncle Boobs","steam_id":76561198821297512,"connected_time":951000000000,"state":"active","ping":104},{"user_id":615,"name":"Psychosis","steam_id":76561198078659070,"connected_time":608000000000,"state":"active","ping":77},{"user_id":577,"name":"Maffy","steam_id":76561198014673082,"connected_time":3826000000000,"state":"active","ping":100},{"user_id":567,"name":"Vulpi","steam_id":76561198049730525,"connected_time":4322000000000,"state":"active","ping":81},{"user_id":607,"name":"Paul_Mc","steam_id":76561199031955413,"connected_time":969000000000,"state":"active","ping":65},{"user_id":596,"name":"A Rope, for big pits","steam_id":76561198068044782,"connected_time":1328000000000,"state":"active","ping":67},{"user_id":604,"name":"cotton candy pill bug","steam_id":76561198058998371,"connected_time":1095000000000,"state":"active","ping":70},{"user_id":552,"name":"Colossal Falafel","steam_id":76561198108086245,"connected_time":5122000000000,"state":"active","ping":52},{"user_id":587,"name":"Œøbaba","steam_id":76561198092633845,"connected_time":2620000000000,"state":"active","ping":111},{"user_id":533,"name":"Robo","steam_id":76561198045579138,"connected_time":6946000000000,"state":"active","ping":60},{"user_id":619,"name":"dunk","steam_id":76561198132476501,"connected_time":326000000000,"state":"active","ping":49},{"user_id":612,"name":"JOOOOOOOOOOOOO!!!!!!","steam_id":76561199101638460,"connected_time":622000000000,"state":"active","ping":88},{"user_id":610,"name":"Opie","steam_id":76561198058704365,"connected_time":830000000000,"state":"active","ping":67},{"user_id":589,"name":"MChamp12","steam_id":76561198027609603,"connected_time":1560000000000,"state":"active","ping":98},{"user_id":605,"name":"ìÜèCayenne Pepper ìÜè","steam_id":76561198124881810,"connected_time":997000000000,"state":"active","ping":107},{"user_id":616,"name":"incredirocks","steam_id":76561198061079993,"connected_time":607000000000,"state":"active","ping":51},{"user_id":609,"name":"d00ie","steam_id":76561198151032242,"connected_time":946000000000,"state":"active","ping":74}]},{"server_id":403,"name":"Uncletopia | Chicago | 4 | All Maps","name_short":"chi-4","host":"chi-1.us.uncletopia.com","port":27045,"enabled":true,"region":"us-central","cc":"us","latitude":41.881832,"longitude":-87.62318,"reserved":0,"last_update":"0001-01-01T00:00:00Z","name_a2s":"Uncletopia | Chicago | 4 | All Maps","protocol":17,"map":"pl_frontier_final","folder":"tf","game":"Team Fortress","app_id":440,"player_count":24,"max_players":24,"Bots":0,"server_type":"Dedicated","server_os":"Linux","password":true,"vac":true,"version":"7961495","steam_id":85568392924515193,"keywords":["nocrits","nodmgspread","payload","uncletopia"],"game_id":440,"stv_port":27046,"stv_name":"Uncletopia | Chicago | 4 | All Maps | STV","players":[{"user_id":574,"name":"Fungus Amongus","steam_id":76561198061507741,"connected_time":4487000000000,"state":"active","ping":72},{"user_id":532,"name":"√úberBurst inVinci","steam_id":76561198044470684,"connected_time":7120000000000,"state":"active","ping":60},{"user_id":646,"name":"doghouse","steam_id":76561198000319035,"connected_time":669000000000,"state":"active","ping":95},{"user_id":602,"name":"TickTock|Mink","steam_id":76561198069809794,"connected_time":2718000000000,"state":"active","ping":59},{"user_id":628,"name":"redwarden","steam_id":76561198052483205,"connected_time":1605000000000,"state":"active","ping":69},{"user_id":604,"name":"KunveX","steam_id":76561197978022896,"connected_time":2691000000000,"state":"active","ping":56},{"user_id":627,"name":"losing","steam_id":76561198003206947,"connected_time":1615000000000,"state":"active","ping":63},{"user_id":652,"name":"Scorpianswag","steam_id":76561198260651036,"connected_time":79000000000,"state":"active","ping":96},{"user_id":650,"name":"Cabbage","steam_id":76561198405573530,"connected_time":469000000000,"state":"active","ping":68},{"user_id":629,"name":"Chanter","steam_id":76561198246701796,"connected_time":1601000000000,"state":"active","ping":83},{"user_id":614,"name":"Six Piece Chicken McNobody","steam_id":76561198129848222,"connected_time":2289000000000,"state":"active","ping":71},{"user_id":606,"name":"rin","steam_id":76561198155841915,"connected_time":2671000000000,"state":"active","ping":68},{"user_id":621,"name":"George","steam_id":76561199376462977,"connected_time":1880000000000,"state":"active","ping":97},{"user_id":600,"name":"ImTallOk","steam_id":76561198405915670,"connected_time":3210000000000,"state":"active","ping":103},{"user_id":647,"name":"Mr.Tickles","steam_id":76561198053917342,"connected_time":507000000000,"state":"active","ping":64},{"user_id":651,"name":"Harpua","steam_id":76561197988020228,"connected_time":153000000000,"state":"active","ping":73},{"user_id":649,"name":"Captain Malarkey","steam_id":76561198869924281,"connected_time":490000000000,"state":"active","ping":83},{"user_id":617,"name":"FLUiDiTY","steam_id":76561198109084485,"connected_time":2130000000000,"state":"active","ping":61},{"user_id":601,"name":"Ina'Nis feet fiend","steam_id":76561198260451626,"connected_time":2805000000000,"state":"active","ping":63},{"user_id":644,"name":"zzzz","steam_id":76561198310495200,"connected_time":823000000000,"state":"active","ping":56},{"user_id":587,"name":"Lennu","steam_id":76561198060730154,"connected_time":4295000000000,"state":"active","ping":73},{"user_id":633,"name":"Olitude","steam_id":76561199238964574,"connected_time":1543000000000,"state":"active","ping":70},{"user_id":634,"name":"Muselk, but mexican","steam_id":76561199289676387,"connected_time":1508000000000,"state":"active","ping":89},{"user_id":648,"name":"Drapph","steam_id":76561199384213314,"connected_time":506000000000,"state":"active","ping":60}]},{"server_id":36,"name":"Uncletopia | Chicago | 5 | All Maps","name_short":"chi-5","host":"chi-2.us.uncletopia.com","port":27015,"enabled":true,"region":"us-central","cc":"us","latitude":41.881832,"longitude":-87.62318,"reserved":0,"last_update":"0001-01-01T00:00:00Z","name_a2s":"Uncletopia | Chicago | 5 | All Maps","protocol":17,"map":"pl_badwater","folder":"tf","game":"Team Fortress","app_id":440,"player_count":24,"max_players":24,"Bots":0,"server_type":"Dedicated","server_os":"Linux","password":true,"vac":true,"version":"7961495","steam_id":85568392924866362,"keywords":["nocrits","nodmgspread","payload","uncletopia"],"game_id":440,"stv_port":27016,"stv_name":"Uncletopia | Chicago | 5 | All Maps | STV","players":[{"user_id":564,"name":"think before you believe","steam_id":76561198857358730,"connected_time":879000000000,"state":"active","ping":70},{"user_id":516,"name":"Amtyk","steam_id":76561197979130554,"connected_time":3537000000000,"state":"active","ping":61},{"user_id":565,"name":"CabezaGrande","steam_id":76561197972555502,"connected_time":824000000000,"state":"active","ping":66},{"user_id":579,"name":"CF-TF2","steam_id":76561198145893044,"connected_time":75000000000,"state":"active","ping":85},{"user_id":570,"name":"Seskova","steam_id":76561198090207032,"connected_time":655000000000,"state":"active","ping":114},{"user_id":554,"name":"TheSmolPopato","steam_id":76561199076606348,"connected_time":1070000000000,"state":"active","ping":58},{"user_id":566,"name":"Invictus","steam_id":76561198079517075,"connected_time":822000000000,"state":"active","ping":65},{"user_id":539,"name":"Bearegard","steam_id":76561198061926542,"connected_time":2070000000000,"state":"active","ping":61},{"user_id":575,"name":"Chi-Chia","steam_id":76561198067955987,"connected_time":340000000000,"state":"active","ping":88},{"user_id":542,"name":"TwitchyEyes","steam_id":76561199087750592,"connected_time":1898000000000,"state":"active","ping":67},{"user_id":525,"name":"Natsuki the Scunt","steam_id":76561199175922684,"connected_time":2806000000000,"state":"active","ping":120},{"user_id":534,"name":"oppenheimer style","steam_id":76561198026664629,"connected_time":2297000000000,"state":"active","ping":60},{"user_id":555,"name":"üçíbutaüçí","steam_id":76561198135538212,"connected_time":1010000000000,"state":"active","ping":56},{"user_id":556,"name":"KYLE KYLESON","steam_id":76561198021920887,"connected_time":1005000000000,"state":"active","ping":39},{"user_id":567,"name":"Peak","steam_id":76561198118772175,"connected_time":733000000000,"state":"active","ping":80},{"user_id":543,"name":"BurritoCat","steam_id":76561198059822805,"connected_time":1830000000000,"state":"active","ping":97},{"user_id":578,"name":"urine trouble","steam_id":76561199013266640,"connected_time":144000000000,"state":"active","ping":46},{"user_id":577,"name":"zach.moore11","steam_id":76561199248933027,"connected_time":179000000000,"state":"active","ping":96},{"user_id":544,"name":"REspecWizard","steam_id":76561198097950624,"connected_time":1823000000000,"state":"active","ping":101},{"user_id":518,"name":"Table021","steam_id":76561198430167803,"connected_time":3440000000000,"state":"active","ping":95},{"user_id":515,"name":"Crombun","steam_id":76561198031559642,"connected_time":3542000000000,"state":"active","ping":80},{"user_id":559,"name":"Untermensch","steam_id":76561198149634242,"connected_time":991000000000,"state":"active","ping":97},{"user_id":573,"name":"mkwfreak","steam_id":76561198049000779,"connected_time":383000000000,"state":"active","ping":106},{"user_id":562,"name":"Pancakedestroyer","steam_id":76561199188609622,"connected_time":924000000000,"state":"active","ping":77}]},{"server_id":37,"name":"Uncletopia | Chicago | 6 | All Maps","name_short":"chi-6","host":"chi-2.us.uncletopia.com","port":27025,"enabled":true,"region":"us-central","cc":"us","latitude":41.881832,"longitude":-87.62318,"reserved":0,"last_update":"0001-01-01T00:00:00Z","name_a2s":"Uncletopia | Chicago | 6 | All Maps","protocol":17,"map":"pl_badwater","folder":"tf","game":"Team Fortress","app_id":440,"player_count":24,"max_players":24,"Bots":0,"server_type":"Dedicated","server_os":"Linux","password":true,"vac":true,"version":"7961495","steam_id":85568392924866363,"keywords":["nocrits","nodmgspread","payload","uncletopia"],"game_id":440,"stv_port":27026,"stv_name":"Uncletopia | Chicago | 6 | All Maps | STV","players":[{"user_id":496,"name":"yesoko","steam_id":76561198072917024,"connected_time":1698000000000,"state":"active","ping":52},{"user_id":493,"name":"Tony Hawk Underground 2 for PSP","steam_id":76561197999901620,"connected_time":1768000000000,"state":"active","ping":52},{"user_id":510,"name":"iNTEGRATED MATHMATICS BOOK 1","steam_id":76561199192565219,"connected_time":105000000000,"state":"active","ping":101},{"user_id":494,"name":"kratomSnorter.1quarter","steam_id":76561198946987511,"connected_time":1761000000000,"state":"active","ping":79},{"user_id":507,"name":"Dubbs","steam_id":76561197960945604,"connected_time":496000000000,"state":"active","ping":45},{"user_id":513,"name":"Bring Me Pictures of Spider-Cum","steam_id":76561197999753555,"connected_time":2000000000,"state":"spawning","ping":39},{"user_id":489,"name":"Marsk","steam_id":76561198417568196,"connected_time":1941000000000,"state":"active","ping":88},{"user_id":473,"name":"BlueSceptile","steam_id":76561198303151606,"connected_time":2576000000000,"state":"active","ping":81},{"user_id":511,"name":"Enron Hubbard","steam_id":76561198012951411,"connected_time":90000000000,"state":"active","ping":54},{"user_id":474,"name":"Miss Star","steam_id":76561199106587693,"connected_time":2495000000000,"state":"active","ping":67},{"user_id":463,"name":"Ninjoth","steam_id":76561198038611753,"connected_time":3371000000000,"state":"active","ping":79},{"user_id":472,"name":"JalcËÉÉÊµÅ","steam_id":76561199090228026,"connected_time":2628000000000,"state":"active","ping":101},{"user_id":508,"name":"Firedust19","steam_id":76561198153238631,"connected_time":347000000000,"state":"active","ping":113},{"user_id":495,"name":"substance","steam_id":76561198050103868,"connected_time":1755000000000,"state":"active","ping":97},{"user_id":504,"name":"ShofaX","steam_id":76561198199768014,"connected_time":1046000000000,"state":"active","ping":69},{"user_id":505,"name":"living in mushroom park","steam_id":76561198097588802,"connected_time":1022000000000,"state":"active","ping":45},{"user_id":479,"name":"Alphatass","steam_id":76561197992442602,"connected_time":2322000000000,"state":"active","ping":77},{"user_id":483,"name":"roker12","steam_id":76561198065775916,"connected_time":2200000000000,"state":"active","ping":71},{"user_id":488,"name":"Dress up doll","steam_id":76561198085813708,"connected_time":2064000000000,"state":"active","ping":72},{"user_id":436,"name":"Jack H.","steam_id":76561198945302993,"connected_time":6209000000000,"state":"active","ping":99},{"user_id":484,"name":"OrangeSodaMachine","steam_id":76561198079230156,"connected_time":2198000000000,"state":"active","ping":145},{"user_id":485,"name":"SK54","steam_id":76561198262038276,"connected_time":2184000000000,"state":"active","ping":64},{"user_id":509,"name":"bon!","steam_id":76561198061966425,"connected_time":318000000000,"state":"active","ping":89},{"user_id":437,"name":"calamity","steam_id":76561199090755824,"connected_time":6204000000000,"state":"active","ping":94}]},{"server_id":38,"name":"Uncletopia | Chicago | 7 | Stopwatch","name_short":"chi-7","host":"chi-2.us.uncletopia.com","port":27035,"enabled":true,"region":"us-central","cc":"us","latitude":41.881832,"longitude":-87.62318,"reserved":0,"last_update":"0001-01-01T00:00:00Z","name_a2s":"Uncletopia | Chicago | 7 | Stopwatch","protocol":17,"map":"workshop/koth_product_final.ugc454272353","folder":"tf","game":"Team Fortress","app_id":440,"player_count":0,"max_players":24,"Bots":0,"server_type":"Dedicated","server_os":"Linux","password":true,"vac":true,"version":"7961495","steam_id":85568392924866364,"keywords":["cp","nocrits","nodmgspread","uncletopia"],"game_id":440,"stv_port":27036,"stv_name":"Uncletopia | Chicago | 7 | Stopwatch | STV","players":null},{"server_id":39,"name":"Uncletopia | Chicago | 8 | Community","name_short":"chi-8","host":"chi-2.us.uncletopia.com","port":27045,"enabled":true,"region":"us-central","cc":"us","latitude":41.881832,"longitude":-87.62318,"reserved":0,"last_update":"0001-01-01T00:00:00Z","name_a2s":"Uncletopia | Chicago | 8 | Community","protocol":17,"map":"workshop/cp_caldera_rc3.ugc2834196889","folder":"tf","game":"Team Fortress","app_id":440,"player_count":0,"max_players":24,"Bots":0,"server_type":"Dedicated","server_os":"Linux","password":true,"vac":true,"version":"7961495","steam_id":85568392924866365,"keywords":["cp","nocrits","nodmgspread","uncletopia"],"game_id":440,"stv_port":27046,"stv_name":"Uncletopia | Chicago | 8 | Community | STV","players":null},{"server_id":8,"name":"Uncletopia | Dallas | 1 | All Maps","name_short":"dal-1","host":"dal-1.us.uncletopia.com","port":27015,"enabled":true,"region":"us-central","cc":"us","latitude":32.779167,"longitude":-96.80889,"reserved":0,"last_update":"0001-01-01T00:00:00Z","name_a2s":"Uncletopia | Dallas | 1 | All Maps","protocol":17,"map":"cp_process_final","folder":"tf","game":"Team Fortress","app_id":440,"player_count":24,"max_players":24,"Bots":0,"server_type":"Dedicated","server_os":"Linux","password":true,"vac":true,"version":"7961495","steam_id":85568392924469986,"keywords":["cp","nocrits","nodmgspread","uncletopia"],"game_id":440,"stv_port":27016,"stv_name":"Uncletopia | Dallas | 1 | All Maps | STV","players":[{"user_id":633,"name":"tsz","steam_id":76561199246231090,"connected_time":4640000000000,"state":"active","ping":78},{"user_id":700,"name":"SAGE(‡§∏‡§ó‡•á*)","steam_id":76561198811114074,"connected_time":599000000000,"state":"active","ping":59},{"user_id":671,"name":"GibyGoby","steam_id":76561198238155164,"connected_time":2147000000000,"state":"active","ping":47},{"user_id":680,"name":"Imrgrim","steam_id":76561198135866481,"connected_time":1912000000000,"state":"active","ping":74},{"user_id":621,"name":"No, this is Patrick","steam_id":76561198058776774,"connected_time":5432000000000,"state":"active","ping":61},{"user_id":685,"name":"spot","steam_id":76561198151135298,"connected_time":1444000000000,"state":"active","ping":60},{"user_id":709,"name":"bladees realest, saddest verse","steam_id":76561198098099826,"connected_time":91000000000,"state":"active","ping":70},{"user_id":672,"name":"ShyGuy","steam_id":76561199017448465,"connected_time":2144000000000,"state":"active","ping":130},{"user_id":698,"name":"Zen Tuna","steam_id":76561198032445362,"connected_time":753000000000,"state":"active","ping":71},{"user_id":684,"name":"ayaya?","steam_id":76561199000188109,"connected_time":1511000000000,"state":"active","ping":84},{"user_id":683,"name":"Force Nature","steam_id":76561198390522839,"connected_time":1638000000000,"state":"active","ping":107},{"user_id":710,"name":"Bond","steam_id":76561198089262776,"connected_time":60000000000,"state":"spawning","ping":73},{"user_id":665,"name":"‡®π‡©Å‡©±‡®° ‡®ï‡®æ‡®â‡®¨‡©å‡®è","steam_id":76561198021308963,"connected_time":2722000000000,"state":"active","ping":61},{"user_id":687,"name":"Marc Antony","steam_id":76561198011366517,"connected_time":1395000000000,"state":"active","ping":73},{"user_id":691,"name":"rhsiegetank","steam_id":76561198359829118,"connected_time":1369000000000,"state":"active","ping":90},{"user_id":711,"name":"flyin to the crack money realm","steam_id":76561198040675606,"connected_time":54000000000,"state":"active","ping":46},{"user_id":697,"name":"ZILICON","steam_id":76561199044705592,"connected_time":806000000000,"state":"active","ping":107},{"user_id":663,"name":"leftynumber5","steam_id":76561199141270055,"connected_time":2794000000000,"state":"active","ping":104},{"user_id":627,"name":"Gl√ºhbirne","steam_id":76561198189278869,"connected_time":4957000000000,"state":"active","ping":72},{"user_id":703,"name":"Eblizard","steam_id":76561198111481965,"connected_time":548000000000,"state":"active","ping":91},{"user_id":708,"name":"Food delivery guy","steam_id":76561199015752110,"connected_time":216000000000,"state":"active","ping":87},{"user_id":704,"name":"Hankel Tom (The Hankeler)","steam_id":76561199446367874,"connected_time":547000000000,"state":"active","ping":50},{"user_id":682,"name":"Zeelidox","steam_id":76561198110613375,"connected_time":1740000000000,"state":"active","ping":60},{"user_id":706,"name":"effy","steam_id":76561198087137066,"connected_time":508000000000,"state":"active","ping":70}]},{"server_id":108,"name":"Uncletopia | Dallas | 2 | All Maps","name_short":"dal-2","host":"dal-1.us.uncletopia.com","port":27025,"enabled":true,"region":"us-central","cc":"us","latitude":32.779167,"longitude":-96.80889,"reserved":0,"last_update":"0001-01-01T00:00:00Z","name_a2s":"Uncletopia | Dallas | 2 | All Maps","protocol":17,"map":"pl_frontier_final","folder":"tf","game":"Team Fortress","app_id":440,"player_count":24,"max_players":24,"Bots":0,"server_type":"Dedicated","server_os":"Linux","password":true,"vac":true,"version":"7961495","steam_id":85568392924469988,"keywords":["nocrits","nodmgspread","payload","uncletopia"],"game_id":440,"stv_port":27026,"stv_name":"Uncletopia | Dallas | 2 | All Maps | STV","players":[{"user_id":431,"name":"Certified Hood Classic","steam_id":76561199086159354,"connected_time":4770000000000,"state":"active","ping":55},{"user_id":471,"name":"HalfDead","steam_id":76561198049700226,"connected_time":319000000000,"state":"active","ping":100},{"user_id":472,"name":"Moshi Man","steam_id":76561198038249762,"connected_time":299000000000,"state":"active","ping":65},{"user_id":415,"name":"RiceFarmer","steam_id":76561198869180993,"connected_time":5338000000000,"state":"active","ping":102},{"user_id":453,"name":"Zorlovo","steam_id":76561198006443283,"connected_time":2482000000000,"state":"active","ping":79},{"user_id":470,"name":"fatmagic","steam_id":76561199509493760,"connected_time":349000000000,"state":"active","ping":83},{"user_id":480,"name":"ArumiKaze","steam_id":76561198026814729,"connected_time":177000000000,"state":"active","ping":96},{"user_id":426,"name":"Willy the Wonderdog","steam_id":76561198067089970,"connected_time":5143000000000,"state":"active","ping":44},{"user_id":451,"name":"CheeseLikeSubstance","steam_id":76561197977170646,"connected_time":2633000000000,"state":"active","ping":76},{"user_id":474,"name":"Remix.SMG","steam_id":76561198052895933,"connected_time":290000000000,"state":"active","ping":94},{"user_id":468,"name":"Starzzyy","steam_id":76561198892836895,"connected_time":851000000000,"state":"active","ping":108},{"user_id":405,"name":"JUICEBOX","steam_id":76561198011424005,"connected_time":6004000000000,"state":"active","ping":77},{"user_id":475,"name":"THIRDPIERCE","steam_id":76561198405366314,"connected_time":282000000000,"state":"active","ping":66},{"user_id":452,"name":"Decobus","steam_id":76561197961014979,"connected_time":2602000000000,"state":"active","ping":86},{"user_id":465,"name":"plink","steam_id":76561198057829889,"connected_time":1364000000000,"state":"active","ping":60},{"user_id":463,"name":"Emberdened","steam_id":76561199163688421,"connected_time":1966000000000,"state":"active","ping":76},{"user_id":476,"name":"Thank you Mr. Sun","steam_id":76561197998434936,"connected_time":282000000000,"state":"active","ping":62},{"user_id":481,"name":"I want Quack Shotgun","steam_id":76561198381463568,"connected_time":145000000000,"state":"active","ping":104},{"user_id":457,"name":"GoGo is a Drunk Slut","steam_id":76561198023080645,"connected_time":2429000000000,"state":"active","ping":130},{"user_id":467,"name":"supcupman","steam_id":76561198051513866,"connected_time":1124000000000,"state":"active","ping":98},{"user_id":460,"name":"Reyloko","steam_id":76561198172480913,"connected_time":2318000000000,"state":"active","ping":73},{"user_id":483,"name":"moopmop","steam_id":76561198065224965,"connected_time":23000000000,"state":"active","ping":90},{"user_id":482,"name":"Tritium","steam_id":76561198043305626,"connected_time":136000000000,"state":"active","ping":103},{"user_id":479,"name":"CaseyK420","steam_id":76561198312677076,"connected_time":242000000000,"state":"active","ping":94}]},{"server_id":404,"name":"Uncletopia | Dallas | 3 | All Maps","name_short":"dal-3","host":"dal-1.us.uncletopia.com","port":27035,"enabled":true,"region":"us-central","cc":"us","latitude":32.779167,"longitude":-96.80889,"reserved":0,"last_update":"0001-01-01T00:00:00Z","name_a2s":"Uncletopia | Dallas | 3 | All Maps","protocol":17,"map":"pl_snowycoast","folder":"tf","game":"Team Fortress","app_id":440,"player_count":23,"max_players":24,"Bots":0,"server_type":"Dedicated","server_os":"Linux","password":true,"vac":true,"version":"7961495","steam_id":85568392924515219,"keywords":["nocrits","nodmgspread","payload","uncletopia"],"game_id":440,"stv_port":27036,"stv_name":"Uncletopia | Dallas | 3 | All Maps | STV","players":[{"user_id":541,"name":"Pixeled","steam_id":76561198088917077,"connected_time":2088000000000,"state":"active","ping":88},{"user_id":542,"name":"Blue","steam_id":76561199093604072,"connected_time":2086000000000,"state":"active","ping":79},{"user_id":475,"name":"Junk","steam_id":76561198024382753,"connected_time":8226000000000,"state":"active","ping":63},{"user_id":552,"name":"Rohi Mig","steam_id":76561198113623627,"connected_time":492000000000,"state":"active","ping":91},{"user_id":453,"name":"Angelo","steam_id":76561198319281487,"connected_time":10272000000000,"state":"active","ping":130},{"user_id":556,"name":"Skarp129","steam_id":76561198108679057,"connected_time":349000000000,"state":"active","ping":81},{"user_id":557,"name":"selvhat","steam_id":76561198114225509,"connected_time":40000000000,"state":"active","ping":118},{"user_id":532,"name":"Wiggs is the Shrek 2 Soundtrack","steam_id":76561198078379719,"connected_time":2585000000000,"state":"active","ping":86},{"user_id":504,"name":"Engineer2650","steam_id":76561198121410799,"connected_time":6167000000000,"state":"active","ping":54},{"user_id":550,"name":"humeJam*","steam_id":76561198412711458,"connected_time":632000000000,"state":"active","ping":46},{"user_id":540,"name":"TGD","steam_id":76561198197582594,"connected_time":2114000000000,"state":"active","ping":48},{"user_id":530,"name":"Big Chad","steam_id":76561198015304658,"connected_time":2701000000000,"state":"active","ping":83},{"user_id":558,"name":"under dale","steam_id":76561198081711979,"connected_time":8000000000,"state":"spawning","ping":123},{"user_id":505,"name":"salami baby","steam_id":76561198131946028,"connected_time":6166000000000,"state":"active","ping":56},{"user_id":546,"name":"Sunny","steam_id":76561198125892600,"connected_time":1800000000000,"state":"active","ping":56},{"user_id":523,"name":"AwesomeLilBuddy","steam_id":76561199104972720,"connected_time":4371000000000,"state":"active","ping":95},{"user_id":544,"name":"chrisd149","steam_id":76561198018710480,"connected_time":2053000000000,"state":"active","ping":91},{"user_id":548,"name":"sans undertale","steam_id":76561199128903858,"connected_time":1443000000000,"state":"active","ping":93},{"user_id":539,"name":"navi","steam_id":76561198398831092,"connected_time":2250000000000,"state":"active","ping":81},{"user_id":524,"name":"MajorSatan","steam_id":76561198363814803,"connected_time":3776000000000,"state":"active","ping":112},{"user_id":554,"name":"DA GOOFY MENACE ^_^ \u003c3","steam_id":76561198832230598,"connected_time":478000000000,"state":"active","ping":90},{"user_id":490,"name":"Jamrag","steam_id":76561199031241776,"connected_time":7253000000000,"state":"active","ping":49},{"user_id":559,"name":"disaa","steam_id":76561198152640961,"connected_time":2000000000,"state":"connecting","ping":0}]},{"server_id":405,"name":"Uncletopia | Dallas | 4 | Community","name_short":"dal-4","host":"dal-1.us.uncletopia.com","port":27045,"enabled":true,"region":"us-central","cc":"us","latitude":32.779167,"longitude":-96.80889,"reserved":0,"last_update":"0001-01-01T00:00:00Z","name_a2s":"Uncletopia | Dallas | 4 | Community","protocol":17,"map":"workshop/cp_croissant_final.ugc458840209","folder":"tf","game":"Team Fortress","app_id":440,"player_count":0,"max_players":24,"Bots":0,"server_type":"Dedicated","server_os":"Linux","password":true,"vac":true,"version":"7961495","steam_id":85568392924515220,"keywords":["cp","nocrits","nodmgspread","uncletopia"],"game_id":440,"stv_port":27046,"stv_name":"Uncletopia | Dallas | 4 | Community | STV","players":null},{"server_id":5,"name":"Uncletopia | Frankfurt | 1 | All Maps","name_short":"frk-1","host":"frk-1.de.uncletopia.com","port":27015,"enabled":true,"region":"eu","cc":"de","latitude":50.110924,"longitude":8.682127,"reserved":0,"last_update":"0001-01-01T00:00:00Z","name_a2s":"Uncletopia | Frankfurt | 1 | All Maps","protocol":17,"map":"cp_gorge","folder":"tf","game":"Team Fortress","app_id":440,"player_count":0,"max_players":24,"Bots":0,"server_type":"Dedicated","server_os":"Linux","password":true,"vac":true,"version":"7961495","steam_id":85568392924469989,"keywords":["cp","nocrits","nodmgspread","uncletopia"],"game_id":440,"stv_port":27016,"stv_name":"Uncletopia | Frankfurt | 1 | All Maps | STV","players":null},{"server_id":110,"name":"Uncletopia | Frankfurt | 2 | All Maps","name_short":"frk-2","host":"frk-1.de.uncletopia.com","port":27025,"enabled":true,"region":"eu","cc":"de","latitude":50.110924,"longitude":8.682127,"reserved":0,"last_update":"0001-01-01T00:00:00Z","name_a2s":"Uncletopia | Frankfurt | 2 | All Maps","protocol":17,"map":"koth_highpass","folder":"tf","game":"Team Fortress","app_id":440,"player_count":0,"max_players":24,"Bots":0,"server_type":"Dedicated","server_os":"Linux","password":true,"vac":true,"version":"7961495","steam_id":85568392924469990,"keywords":["cp","nocrits","nodmgspread","uncletopia"],"game_id":440,"stv_port":27026,"stv_name":"Uncletopia | Frankfurt | 2 | All Maps | STV","players":null},{"server_id":308,"name":"Uncletopia | Frankfurt | 3 | All Maps","name_short":"frk-3","host":"frk-1.de.uncletopia.com","port":27035,"enabled":true,"region":"eu","cc":"de","latitude":50.110924,"longitude":8.682127,"reserved":0,"last_update":"0001-01-01T00:00:00Z","name_a2s":"Uncletopia | Frankfurt | 3 | All Maps","protocol":17,"map":"koth_highpass","folder":"tf","game":"Team Fortress","app_id":440,"player_count":0,"max_players":24,"Bots":0,"server_type":"Dedicated","server_os":"Linux","password":true,"vac":true,"version":"7961495","steam_id":85568392924504274,"keywords":["cp","nocrits","nodmgspread","uncletopia"],"game_id":440,"stv_port":27036,"stv_name":"Uncletopia | Frankfurt | 3 | All Maps | STV","players":null},{"server_id":309,"name":"Uncletopia | Frankfurt | 4 | All Maps","name_short":"frk-4","host":"frk-1.de.uncletopia.com","port":27045,"enabled":true,"region":"eu","cc":"de","latitude":50.110924,"longitude":8.682127,"reserved":0,"last_update":"0001-01-01T00:00:00Z","name_a2s":"Uncletopia | Frankfurt | 4 | All Maps","protocol":17,"map":"koth_lakeside_final","folder":"tf","game":"Team Fortress","app_id":440,"player_count":0,"max_players":24,"Bots":0,"server_type":"Dedicated","server_os":"Linux","password":true,"vac":true,"version":"7961495","steam_id":85568392924504275,"keywords":["cp","nocrits","nodmgspread","uncletopia"],"game_id":440,"stv_port":27046,"stv_name":"Uncletopia | Frankfurt | 4 | All Maps | STV","players":null},{"server_id":310,"name":"Uncletopia | Frankfurt | 5 | All Maps","name_short":"frk-5","host":"frk-1.de.uncletopia.com","port":27055,"enabled":true,"region":"eu","cc":"de","latitude":50.110924,"longitude":8.682127,"reserved":0,"last_update":"0001-01-01T00:00:00Z","name_a2s":"Uncletopia | Frankfurt | 5 | All Maps","protocol":17,"map":"pl_snowycoast","folder":"tf","game":"Team Fortress","app_id":440,"player_count":0,"max_players":24,"Bots":0,"server_type":"Dedicated","server_os":"Linux","password":true,"vac":true,"version":"7961495","steam_id":85568392924504277,"keywords":["nocrits","nodmgspread","payload","uncletopia"],"game_id":440,"stv_port":27056,"stv_name":"Uncletopia | Frankfurt | 5 | All Maps | STV","players":null},{"server_id":311,"name":"Uncletopia | Frankfurt | 6 | All Maps","name_short":"frk-6","host":"frk-1.de.uncletopia.com","port":27065,"enabled":true,"region":"eu","cc":"de","latitude":50.110924,"longitude":8.682127,"reserved":0,"last_update":"0001-01-01T00:00:00Z","name_a2s":"Uncletopia | Frankfurt | 6 | All Maps","protocol":17,"map":"koth_lakeside_final","folder":"tf","game":"Team Fortress","app_id":440,"player_count":0,"max_players":24,"Bots":0,"server_type":"Dedicated","server_os":"Linux","password":true,"vac":true,"version":"7961495","steam_id":85568392924504278,"keywords":["cp","nocrits","nodmgspread","uncletopia"],"game_id":440,"stv_port":27066,"stv_name":"Uncletopia | Frankfurt | 6 | All Maps | STV","players":null},{"server_id":23,"name":"Uncletopia | Frankfurt | 7 | Stopwatch","name_short":"frk-7","host":"frk-1.de.uncletopia.com","port":27075,"enabled":true,"region":"eu","cc":"de","latitude":50.110924,"longitude":8.682127,"reserved":0,"last_update":"0001-01-01T00:00:00Z","name_a2s":"Uncletopia | Frankfurt | 7 | Stopwatch","protocol":17,"map":"workshop/koth_clearcut_b15.ugc2107050255","folder":"tf","game":"Team Fortress","app_id":440,"player_count":0,"max_players":24,"Bots":0,"server_type":"Dedicated","server_os":"Linux","password":true,"vac":true,"version":"7961495","steam_id":85568392924742827,"keywords":["cp","nocrits","nodmgspread","uncletopia"],"game_id":440,"stv_port":27076,"stv_name":"Uncletopia | Frankfurt | 7 | Stopwatch | STV","players":null},{"server_id":24,"name":"Uncletopia | Frankfurt | 8 | Community","name_short":"frk-8","host":"frk-1.de.uncletopia.com","port":27085,"enabled":true,"region":"eu","cc":"de","latitude":50.110924,"longitude":8.682127,"reserved":0,"last_update":"0001-01-01T00:00:00Z","name_a2s":"Uncletopia | Frankfurt | 8 | Community","protocol":17,"map":"workshop/pl_stallberg_rc3.ugc1849111469","folder":"tf","game":"Team Fortress","app_id":440,"player_count":0,"max_players":24,"Bots":0,"server_type":"Dedicated","server_os":"Linux","password":true,"vac":true,"version":"7961495","steam_id":85568392924742828,"keywords":["nocrits","nodmgspread","payload","uncletopia"],"game_id":440,"stv_port":27086,"stv_name":"Uncletopia | Frankfurt | 8 | Community | STV","players":null},{"server_id":202,"name":"Uncletopia | Hong Kong | 1 | All Maps","name_short":"hgk-1","host":"hgk-1.hk.uncletopia.com","port":27015,"enabled":true,"region":"asia","cc":"hk","latitude":22.302711,"longitude":114.177216,"reserved":0,"last_update":"0001-01-01T00:00:00Z","name_a2s":"Uncletopia | Hong Kong | 1 | All Maps","protocol":17,"map":"pl_swiftwater_final1","folder":"tf","game":"Team Fortress","app_id":440,"player_count":0,"max_players":24,"Bots":0,"server_type":"Dedicated","server_os":"Linux","password":true,"vac":true,"version":"7961495","steam_id":85568392924494504,"keywords":["nocrits","nodmgspread","payload","uncletopia"],"game_id":440,"stv_port":27016,"stv_name":"Uncletopia | Hong Kong | 1 | All Maps | STV","players":null},{"server_id":1,"name":"Uncletopia | Los Angeles | 1 | All Maps","name_short":"lax-1","host":"lax-1.us.uncletopia.com","port":27015,"enabled":true,"region":"us-west","cc":"us","latitude":33.94279,"longitude":-118.41004,"reserved":0,"last_update":"0001-01-01T00:00:00Z","name_a2s":"Uncletopia | Los Angeles | 1 | All Maps","protocol":17,"map":"cp_dustbowl","folder":"tf","game":"Team Fortress","app_id":440,"player_count":19,"max_players":24,"Bots":0,"server_type":"Dedicated","server_os":"Linux","password":true,"vac":true,"version":"7961495","steam_id":85568392924469991,"keywords":["cp","nocrits","nodmgspread","uncletopia"],"game_id":440,"stv_port":27016,"stv_name":"Uncletopia | Los Angeles | 1 | All Maps | STV","players":[{"user_id":284,"name":"Eden","steam_id":76561198081284664,"connected_time":6954000000000,"state":"active","ping":58},{"user_id":372,"name":"livesy Jumpscare","steam_id":76561198153908250,"connected_time":1598000000000,"state":"active","ping":66},{"user_id":334,"name":"TheGrassMan (He/Him)","steam_id":76561198118984048,"connected_time":4400000000000,"state":"active","ping":121},{"user_id":371,"name":"moewa","steam_id":76561198338739253,"connected_time":1716000000000,"state":"active","ping":59},{"user_id":373,"name":"coolbust carti","steam_id":76561198065384345,"connected_time":1434000000000,"state":"active","ping":94},{"user_id":377,"name":"SQbuilder","steam_id":76561198076473375,"connected_time":1332000000000,"state":"active","ping":33},{"user_id":389,"name":"Bobbeh","steam_id":76561198131601160,"connected_time":566000000000,"state":"active","ping":62},{"user_id":393,"name":"HOG RIDER","steam_id":76561198298589502,"connected_time":194000000000,"state":"active","ping":51},{"user_id":364,"name":"life","steam_id":76561198227112556,"connected_time":2099000000000,"state":"active","ping":60},{"user_id":361,"name":"Ok then","steam_id":76561198891914787,"connected_time":2119000000000,"state":"active","ping":60},{"user_id":384,"name":"groovetomanny","steam_id":76561198371660675,"connected_time":826000000000,"state":"active","ping":54},{"user_id":374,"name":"M-M-MEDIC","steam_id":76561199127408846,"connected_time":1377000000000,"state":"active","ping":58},{"user_id":390,"name":"HeroOfTime","steam_id":76561199096218001,"connected_time":445000000000,"state":"active","ping":107},{"user_id":342,"name":"‚ò≠Borris‚ò≠","steam_id":76561198011136886,"connected_time":3826000000000,"state":"active","ping":69},{"user_id":391,"name":"Sammy!","steam_id":76561198184171743,"connected_time":305000000000,"state":"active","ping":61},{"user_id":341,"name":"Lucky","steam_id":76561198124910662,"connected_time":4243000000000,"state":"active","ping":69},{"user_id":379,"name":"Dr Gregory House, MD","steam_id":76561198986281248,"connected_time":1298000000000,"state":"active","ping":114},{"user_id":387,"name":"plutonium","steam_id":76561198319442494,"connected_time":655000000000,"state":"active","ping":55},{"user_id":386,"name":"heck","steam_id":76561198315694520,"connected_time":794000000000,"state":"active","ping":47}]},{"server_id":112,"name":"Uncletopia | Los Angeles | 2 | All Maps","name_short":"lax-2","host":"lax-1.us.uncletopia.com","port":27025,"enabled":true,"region":"us-west","cc":"us","latitude":33.94279,"longitude":-118.41004,"reserved":0,"last_update":"0001-01-01T00:00:00Z","name_a2s":"Uncletopia | Los Angeles | 2 | All Maps","protocol":17,"map":"koth_lakeside_final","folder":"tf","game":"Team Fortress","app_id":440,"player_count":0,"max_players":24,"Bots":0,"server_type":"Dedicated","server_os":"Linux","password":true,"vac":true,"version":"7961495","steam_id":85568392924469992,"keywords":["cp","nocrits","nodmgspread","uncletopia"],"game_id":440,"stv_port":27026,"stv_name":"Uncletopia | Los Angeles | 2 | All Maps | STV","players":null},{"server_id":324,"name":"Uncletopia | Los Angeles | 3 | All Maps","name_short":"lax-3","host":"lax-1.us.uncletopia.com","port":27035,"enabled":true,"region":"us-west","cc":"us","latitude":33.94279,"longitude":-118.41004,"reserved":0,"last_update":"0001-01-01T00:00:00Z","name_a2s":"Uncletopia | Los Angeles | 3 | All Maps","protocol":17,"map":"pl_barnblitz","folder":"tf","game":"Team Fortress","app_id":440,"player_count":24,"max_players":24,"Bots":0,"server_type":"Dedicated","server_os":"Linux","password":true,"vac":true,"version":"7961495","steam_id":85568392924510198,"keywords":["nocrits","nodmgspread","payload","uncletopia"],"game_id":440,"stv_port":27036,"stv_name":"Uncletopia | Los Angeles | 3 | All Maps | STV","players":[{"user_id":479,"name":"APOTATO","steam_id":76561198118199858,"connected_time":4183000000000,"state":"active","ping":45},{"user_id":504,"name":"Kung fu MUNGUS","steam_id":76561198069281556,"connected_time":209000000000,"state":"active","ping":84},{"user_id":481,"name":"bubba (real)","steam_id":76561198131168487,"connected_time":4123000000000,"state":"active","ping":72},{"user_id":466,"name":"innocent spider (caleb)","steam_id":76561199013762986,"connected_time":4772000000000,"state":"active","ping":64},{"user_id":499,"name":"Commander Shrekard","steam_id":76561198124066405,"connected_time":1504000000000,"state":"active","ping":50},{"user_id":448,"name":"SO RETRO","steam_id":76561198846344452,"connected_time":5397000000000,"state":"active","ping":62},{"user_id":498,"name":"Mr. Muffin Man","steam_id":76561198124525513,"connected_time":1766000000000,"state":"active","ping":58},{"user_id":496,"name":"phon","steam_id":76561198140659236,"connected_time":1778000000000,"state":"active","ping":32},{"user_id":451,"name":"times table","steam_id":76561198341452558,"connected_time":5270000000000,"state":"active","ping":105},{"user_id":483,"name":"RyCeBread","steam_id":76561198152822390,"connected_time":4074000000000,"state":"active","ping":104},{"user_id":490,"name":"Giorno Giovanna","steam_id":76561198044106874,"connected_time":3211000000000,"state":"active","ping":64},{"user_id":454,"name":"Reisen Udongein Inaba","steam_id":76561198051082314,"connected_time":5141000000000,"state":"active","ping":60},{"user_id":456,"name":"dubious little creature","steam_id":76561198113251746,"connected_time":5099000000000,"state":"active","ping":54},{"user_id":458,"name":"RedWireFTW","steam_id":76561198139267825,"connected_time":5066000000000,"state":"active","ping":67},{"user_id":501,"name":"Sexy Kitten (toxic)","steam_id":76561197979056451,"connected_time":1256000000000,"state":"active","ping":75},{"user_id":500,"name":"Junko","steam_id":76561198146089003,"connected_time":1300000000000,"state":"active","ping":47},{"user_id":486,"name":"Dreamy Sweat from 2hu","steam_id":76561198094602446,"connected_time":4004000000000,"state":"active","ping":60},{"user_id":497,"name":"keiki haniyasussy","steam_id":76561198418992185,"connected_time":1777000000000,"state":"active","ping":124},{"user_id":502,"name":"celestia ludenberg","steam_id":76561199196437823,"connected_time":1246000000000,"state":"active","ping":124},{"user_id":491,"name":"UltShuip","steam_id":76561198074339262,"connected_time":3179000000000,"state":"active","ping":61},{"user_id":503,"name":"Waesel","steam_id":76561198069188177,"connected_time":389000000000,"state":"active","ping":82},{"user_id":487,"name":"Spider Snake","steam_id":76561198049422729,"connected_time":3595000000000,"state":"active","ping":65},{"user_id":477,"name":"Lickity Split","steam_id":76561198132051047,"connected_time":4461000000000,"state":"active","ping":75},{"user_id":493,"name":"DEAD OR ALIVE","steam_id":76561198265633146,"connected_time":2894000000000,"state":"active","ping":55}]},{"server_id":25,"name":"Uncletopia | Los Angeles | 4 | Stopwatch","name_short":"lax-4","host":"lax-1.us.uncletopia.com","port":27045,"enabled":true,"region":"us-west","cc":"us","latitude":33.94279,"longitude":-118.41004,"reserved":0,"last_update":"0001-01-01T00:00:00Z","name_a2s":"Uncletopia | Los Angeles | 4 | Stopwatch","protocol":17,"map":"workshop/koth_product_final.ugc454272353","folder":"tf","game":"Team Fortress","app_id":440,"player_count":0,"max_players":24,"Bots":0,"server_type":"Dedicated","server_os":"Linux","password":true,"vac":true,"version":"7961495","steam_id":85568392924510199,"keywords":["cp","nocrits","nodmgspread","uncletopia"],"game_id":440,"stv_port":27046,"stv_name":"Uncletopia | Los Angeles | 4 | Stopwatch | STV","players":null},{"server_id":11,"name":"Uncletopia | London | 1 | All Maps","name_short":"lon-1","host":"lon-1.uk.uncletopia.com","port":27015,"enabled":true,"region":"eu","cc":"gb","latitude":51.509865,"longitude":-0.118092,"reserved":0,"last_update":"0001-01-01T00:00:00Z","name_a2s":"Uncletopia | London | 1 | All Maps","protocol":17,"map":"cp_process_final","folder":"tf","game":"Team Fortress","app_id":440,"player_count":22,"max_players":24,"Bots":0,"server_type":"Dedicated","server_os":"Linux","password":true,"vac":true,"version":"7961495","steam_id":85568392924367362,"keywords":["cp","nocrits","nodmgspread","uncletopia"],"game_id":440,"stv_port":27016,"stv_name":"Uncletopia | London | 1 | All Maps | STV","players":[{"user_id":931,"name":"chloe","steam_id":76561198301188412,"connected_time":2749000000000,"state":"active","ping":114},{"user_id":957,"name":"Amin","steam_id":76561199212272501,"connected_time":846000000000,"state":"active","ping":146},{"user_id":958,"name":"ORTEGA","steam_id":76561198105721091,"connected_time":784000000000,"state":"active","ping":44},{"user_id":962,"name":"Toni","steam_id":76561198342821250,"connected_time":70000000000,"state":"active","ping":61},{"user_id":950,"name":"gitlitwitit","steam_id":76561197980019054,"connected_time":1277000000000,"state":"active","ping":61},{"user_id":932,"name":"Psyche","steam_id":76561198091662001,"connected_time":2710000000000,"state":"active","ping":28},{"user_id":945,"name":"hoe","steam_id":76561198078902326,"connected_time":1521000000000,"state":"active","ping":43},{"user_id":961,"name":"Nyhde","steam_id":76561198012771416,"connected_time":196000000000,"state":"active","ping":101},{"user_id":963,"name":"The Gambler","steam_id":76561198149779201,"connected_time":21000000000,"state":"spawning","ping":55},{"user_id":940,"name":"Brozy","steam_id":76561199014951849,"connected_time":2384000000000,"state":"active","ping":89},{"user_id":933,"name":"whore","steam_id":76561199018882830,"connected_time":2670000000000,"state":"active","ping":106},{"user_id":934,"name":"hbag","steam_id":76561198047393376,"connected_time":2642000000000,"state":"active","ping":69},{"user_id":935,"name":"Volodya","steam_id":76561198124484658,"connected_time":2641000000000,"state":"active","ping":111},{"user_id":936,"name":"Brandon","steam_id":76561198182108621,"connected_time":2465000000000,"state":"active","ping":146},{"user_id":937,"name":"Lewylow","steam_id":76561198005425686,"connected_time":2460000000000,"state":"active","ping":48},{"user_id":956,"name":"Hamst123","steam_id":76561198957312452,"connected_time":959000000000,"state":"active","ping":55},{"user_id":893,"name":"Not Jessie","steam_id":76561198025129721,"connected_time":5995000000000,"state":"active","ping":33},{"user_id":952,"name":"eat sewage","steam_id":76561198110198881,"connected_time":1134000000000,"state":"active","ping":78},{"user_id":942,"name":"RIBS GROW BACK","steam_id":76561198123659806,"connected_time":2287000000000,"state":"active","ping":91},{"user_id":922,"name":"heuji","steam_id":76561197971067828,"connected_time":3549000000000,"state":"active","ping":47},{"user_id":943,"name":"El Gran Dovich","steam_id":76561199155718202,"connected_time":2278000000000,"state":"active","ping":90},{"user_id":953,"name":"Jotun","steam_id":76561199015161498,"connected_time":1068000000000,"state":"active","ping":82}]},{"server_id":114,"name":"Uncletopia | London | 2 | All Maps","name_short":"lon-2","host":"lon-1.uk.uncletopia.com","port":27025,"enabled":true,"region":"eu","cc":"gb","latitude":51.509865,"longitude":-0.118092,"reserved":0,"last_update":"0001-01-01T00:00:00Z","name_a2s":"Uncletopia | London | 2 | All Maps","protocol":17,"map":"cp_dustbowl","folder":"tf","game":"Team Fortress","app_id":440,"player_count":0,"max_players":24,"Bots":0,"server_type":"Dedicated","server_os":"Linux","password":true,"vac":true,"version":"7961495","steam_id":85568392924470941,"keywords":["cp","nocrits","nodmgspread","uncletopia"],"game_id":440,"stv_port":27026,"stv_name":"Uncletopia | London | 2 | All Maps | STV","players":null},{"server_id":320,"name":"Uncletopia | London | 3 | All Maps","name_short":"lon-3","host":"lon-1.uk.uncletopia.com","port":27035,"enabled":true,"region":"eu","cc":"gb","latitude":51.509865,"longitude":-0.118092,"reserved":0,"last_update":"0001-01-01T00:00:00Z","name_a2s":"Uncletopia | London | 3 | All Maps","protocol":17,"map":"cp_mountainlab","folder":"tf","game":"Team Fortress","app_id":440,"player_count":0,"max_players":24,"Bots":0,"server_type":"Dedicated","server_os":"Linux","password":true,"vac":true,"version":"7961495","steam_id":85568392924510192,"keywords":["cp","nocrits","nodmgspread","uncletopia"],"game_id":440,"stv_port":27036,"stv_name":"Uncletopia | London | 3 | All Maps | STV","players":null},{"server_id":321,"name":"Uncletopia | London | 4 | All Maps","name_short":"lon-4","host":"lon-1.uk.uncletopia.com","port":27045,"enabled":true,"region":"eu","cc":"gb","latitude":51.509865,"longitude":-0.118092,"reserved":0,"last_update":"0001-01-01T00:00:00Z","name_a2s":"Uncletopia | London | 4 | All Maps","protocol":17,"map":"pl_barnblitz","folder":"tf","game":"Team Fortress","app_id":440,"player_count":0,"max_players":24,"Bots":0,"server_type":"Dedicated","server_os":"Linux","password":true,"vac":true,"version":"7961495","steam_id":85568392924510193,"keywords":["nocrits","nodmgspread","payload","uncletopia"],"game_id":440,"stv_port":27046,"stv_name":"Uncletopia | London | 4 | All Maps | STV","players":null},{"server_id":21,"name":"Uncletopia | London | 5 | All Maps","name_short":"lon-5","host":"lon-1.uk.uncletopia.com","port":27055,"enabled":true,"region":"eu","cc":"gb","latitude":51.509865,"longitude":-0.118092,"reserved":0,"last_update":"0001-01-01T00:00:00Z","name_a2s":"Uncletopia | London | 5 | All Maps","protocol":17,"map":"cp_mountainlab","folder":"tf","game":"Team Fortress","app_id":440,"player_count":0,"max_players":24,"Bots":0,"server_type":"Dedicated","server_os":"Linux","password":true,"vac":true,"version":"7961495","steam_id":85568392924742829,"keywords":["cp","nocrits","nodmgspread","uncletopia"],"game_id":440,"stv_port":27056,"stv_name":"Uncletopia | London | 5 | All Maps | STV","players":null},{"server_id":22,"name":"Uncletopia | London | 6 | All Maps","name_short":"lon-6","host":"lon-1.uk.uncletopia.com","port":27065,"enabled":true,"region":"eu","cc":"gb","latitude":51.509865,"longitude":-0.118092,"reserved":0,"last_update":"0001-01-01T00:00:00Z","name_a2s":"Uncletopia | London | 6 | All Maps","protocol":17,"map":"pl_pier","folder":"tf","game":"Team Fortress","app_id":440,"player_count":0,"max_players":24,"Bots":0,"server_type":"Dedicated","server_os":"Linux","password":true,"vac":true,"version":"7961495","steam_id":85568392924742830,"keywords":["nocrits","nodmgspread","payload","uncletopia"],"game_id":440,"stv_port":27066,"stv_name":"Uncletopia | London | 6 | All Maps | STV","players":null},{"server_id":40,"name":"Uncletopia | London | 7 | Stopwatch","name_short":"lon-7","host":"lon-1.uk.uncletopia.com","port":27075,"enabled":true,"region":"eu","cc":"gb","latitude":51.509865,"longitude":-0.118092,"reserved":0,"last_update":"0001-01-01T00:00:00Z","name_a2s":"Uncletopia | London | 7 | Stopwatch","protocol":17,"map":"workshop/koth_clearcut_b15.ugc2107050255","folder":"tf","game":"Team Fortress","app_id":440,"player_count":0,"max_players":24,"Bots":0,"server_type":"Dedicated","server_os":"Linux","password":true,"vac":true,"version":"7961495","steam_id":85568392924964314,"keywords":["cp","nocrits","nodmgspread","uncletopia"],"game_id":440,"stv_port":27076,"stv_name":"Uncletopia | London | 7 | Stopwatch | STV","players":null},{"server_id":41,"name":"Uncletopia | London | 8 | Community","name_short":"lon-8","host":"lon-1.uk.uncletopia.com","port":27085,"enabled":true,"region":"eu","cc":"gb","latitude":51.509865,"longitude":-0.118092,"reserved":0,"last_update":"0001-01-01T00:00:00Z","name_a2s":"Uncletopia | London | 8 | Community","protocol":17,"map":"workshop/cp_propaganda_b18.ugc1603743849","folder":"tf","game":"Team Fortress","app_id":440,"player_count":0,"max_players":24,"Bots":0,"server_type":"Dedicated","server_os":"Linux","password":true,"vac":true,"version":"7961495","steam_id":85568392924964315,"keywords":["cp","nocrits","nodmgspread","uncletopia"],"game_id":440,"stv_port":27086,"stv_name":"Uncletopia | London | 8 | Community | STV","players":null},{"server_id":300,"name":"Uncletopia | Montr√©al | 1 | One Thousand Uncles","name_short":"mtl-1","host":"mtl-1.ca.uncletopia.com","port":27015,"enabled":true,"region":"us-east","cc":"ca","latitude":45.50889,"longitude":-73.56167,"reserved":0,"last_update":"0001-01-01T00:00:00Z","name_a2s":"Uncletopia | Montr√©al | 1 | One Thousand Uncles","protocol":17,"map":"cp_dustbowl","folder":"tf","game":"Team Fortress","app_id":440,"player_count":9,"max_players":32,"Bots":0,"server_type":"Dedicated","server_os":"Linux","password":true,"vac":true,"version":"7961495","steam_id":85568392924500087,"keywords":["alltalk","cp","danepve","increased_maxplayers","norespawntime","uncletopia"],"game_id":440,"stv_port":0,"stv_name":"","players":[{"user_id":425,"name":"1-800-GHOST-DANCE","steam_id":76561198835430429,"connected_time":2679000000000,"state":"connecting","ping":116},{"user_id":418,"name":"catgirl w/ fat ass","steam_id":76561199040286026,"connected_time":4456000000000,"state":"connecting","ping":82},{"user_id":410,"name":"Infinity","steam_id":76561199134919099,"connected_time":6113000000000,"state":"connecting","ping":96},{"user_id":472,"name":"hazel","steam_id":76561198879911815,"connected_time":984000000000,"state":"connecting","ping":70},{"user_id":420,"name":"aura40","steam_id":76561198077707267,"connected_time":3648000000000,"state":"connecting","ping":60},{"user_id":413,"name":"Lots0","steam_id":76561198043143145,"connected_time":5807000000000,"state":"connecting","ping":119},{"user_id":415,"name":"RacoonGamer","steam_id":76561198100907657,"connected_time":5025000000000,"state":"connecting","ping":67},{"user_id":471,"name":"only a spoonful","steam_id":76561198113180616,"connected_time":1545000000000,"state":"connecting","ping":73},{"user_id":495,"name":"democraticgoverment","steam_id":76561199502469452,"connected_time":265000000000,"state":"connecting","ping":362}]},{"server_id":301,"name":"Uncletopia | Montr√©al | 2 | One Thousand Uncles","name_short":"mtl-2","host":"mtl-1.ca.uncletopia.com","port":27025,"enabled":true,"region":"us-east","cc":"ca","latitude":45.50889,"longitude":-73.56167,"reserved":0,"last_update":"0001-01-01T00:00:00Z","name_a2s":"Uncletopia | Montr√©al | 2 | One Thousand Uncles","protocol":17,"map":"cp_mossrock","folder":"tf","game":"Team Fortress","app_id":440,"player_count":0,"max_players":32,"Bots":0,"server_type":"Dedicated","server_os":"Linux","password":true,"vac":true,"version":"7961495","steam_id":85568392924500088,"keywords":["alltalk","cp","danepve","increased_maxplayers","norespawntime","uncletopia"],"game_id":440,"stv_port":0,"stv_name":"","players":null},{"server_id":302,"name":"Uncletopia | Montr√©al | 3 | One Thousand Uncles","name_short":"mtl-3","host":"mtl-1.ca.uncletopia.com","port":27035,"enabled":true,"region":"us-east","cc":"ca","latitude":45.50889,"longitude":-73.56167,"reserved":0,"last_update":"0001-01-01T00:00:00Z","name_a2s":"Uncletopia | Montr√©al | 3 | One Thousand Uncles","protocol":17,"map":"pl_upward","folder":"tf","game":"Team Fortress","app_id":440,"player_count":23,"max_players":32,"Bots":20,"server_type":"Dedicated","server_os":"Linux","password":true,"vac":true,"version":"7961495","steam_id":85568392924500089,"keywords":["alltalk","bots","danepve","increased_maxplayers","norespawntime","payload","uncletopia"],"game_id":440,"stv_port":0,"stv_name":"","players":[{"user_id":295,"name":"so cool","steam_id":76561199017346312,"connected_time":3128000000000,"state":"active","ping":54},{"user_id":291,"name":"Witicka Dot Com","steam_id":76561198050361870,"connected_time":4668000000000,"state":"active","ping":45},{"user_id":297,"name":"Poyo Boyo","steam_id":76561198010201227,"connected_time":3056000000000,"state":"active","ping":63}]},{"server_id":13,"name":"Uncletopia | New York City | 1 | All Maps","name_short":"nyc-1","host":"nyc-1.us.uncletopia.com","port":27015,"enabled":true,"region":"us-east","cc":"us","latitude":40.73061,"longitude":-73.93524,"reserved":0,"last_update":"0001-01-01T00:00:00Z","name_a2s":"Uncletopia | New York City | 1 | All Maps","protocol":17,"map":"pl_goldrush","folder":"tf","game":"Team Fortress","app_id":440,"player_count":24,"max_players":24,"Bots":0,"server_type":"Dedicated","server_os":"Linux","password":true,"vac":true,"version":"7961495","steam_id":85568392924469993,"keywords":["nocrits","nodmgspread","payload","uncletopia"],"game_id":440,"stv_port":27016,"stv_name":"Uncletopia | New York City | 1 | All Maps | STV","players":[{"user_id":777,"name":"rose","steam_id":76561198048882285,"connected_time":1158000000000,"state":"active","ping":45},{"user_id":758,"name":"Nerrrd_","steam_id":76561198870129960,"connected_time":2335000000000,"state":"active","ping":44},{"user_id":726,"name":"googa","steam_id":76561198133130452,"connected_time":6199000000000,"state":"active","ping":44},{"user_id":778,"name":"space man","steam_id":76561198066333670,"connected_time":976000000000,"state":"active","ping":60},{"user_id":793,"name":"lilscot","steam_id":76561198099212453,"connected_time":129000000000,"state":"active","ping":86},{"user_id":782,"name":"Cellus","steam_id":76561198067204847,"connected_time":755000000000,"state":"active","ping":54},{"user_id":751,"name":"The Notorious RBG","steam_id":76561198014275148,"connected_time":3172000000000,"state":"active","ping":57},{"user_id":783,"name":"badasscoolboy57","steam_id":76561198795412055,"connected_time":747000000000,"state":"active","ping":78},{"user_id":761,"name":"Burner Brent","steam_id":76561198957996236,"connected_time":2244000000000,"state":"active","ping":67},{"user_id":771,"name":"GooBer","steam_id":76561198402241505,"connected_time":1885000000000,"state":"active","ping":75},{"user_id":796,"name":"there is cum in my ramen","steam_id":76561198059815894,"connected_time":5000000000,"state":"spawning","ping":54},{"user_id":780,"name":"pootispogger69","steam_id":76561198249206656,"connected_time":768000000000,"state":"active","ping":71},{"user_id":784,"name":"Buck","steam_id":76561198064244796,"connected_time":747000000000,"state":"active","ping":50},{"user_id":766,"name":"Butters495","steam_id":76561197998689042,"connected_time":2171000000000,"state":"active","ping":71},{"user_id":790,"name":"ndvr (femboy (REAL))","steam_id":76561199379200102,"connected_time":259000000000,"state":"active","ping":49},{"user_id":748,"name":"vv","steam_id":76561198134813102,"connected_time":3487000000000,"state":"active","ping":62},{"user_id":762,"name":"Tokyo_Timeshift_","steam_id":76561198048677523,"connected_time":2244000000000,"state":"active","ping":64},{"user_id":773,"name":"MoomyBoomy","steam_id":76561198150787961,"connected_time":1692000000000,"state":"active","ping":93},{"user_id":792,"name":"Punkin","steam_id":76561198334301755,"connected_time":218000000000,"state":"active","ping":64},{"user_id":776,"name":"MAXIMUS","steam_id":76561198085809453,"connected_time":1446000000000,"state":"active","ping":80},{"user_id":787,"name":"RedBatman","steam_id":76561198064252016,"connected_time":668000000000,"state":"active","ping":66},{"user_id":788,"name":"Maniac Hat","steam_id":76561199082942851,"connected_time":662000000000,"state":"active","ping":77},{"user_id":680,"name":"Fumohuxi Viriphyto","steam_id":76561198369395636,"connected_time":9638000000000,"state":"active","ping":72},{"user_id":789,"name":"boy burger from mcodands","steam_id":76561198184900753,"connected_time":436000000000,"state":"active","ping":48}]},{"server_id":14,"name":"Uncletopia | New York City | 2 | All Maps","name_short":"nyc-2","host":"nyc-1.us.uncletopia.com","port":27025,"enabled":true,"region":"us-east","cc":"us","latitude":40.73061,"longitude":-73.93524,"reserved":0,"last_update":"0001-01-01T00:00:00Z","name_a2s":"Uncletopia | New York City | 2 | All Maps","protocol":17,"map":"cp_sunshine","folder":"tf","game":"Team Fortress","app_id":440,"player_count":24,"max_players":24,"Bots":0,"server_type":"Dedicated","server_os":"Linux","password":true,"vac":true,"version":"7961495","steam_id":85568392924469994,"keywords":["cp","nocrits","nodmgspread","uncletopia"],"game_id":440,"stv_port":27026,"stv_name":"Uncletopia | New York City | 2 | All Maps | STV","players":[{"user_id":658,"name":"cia agent","steam_id":76561198074213978,"connected_time":3146000000000,"state":"active","ping":54},{"user_id":680,"name":"Voids","steam_id":76561198128386726,"connected_time":1523000000000,"state":"active","ping":81},{"user_id":686,"name":"java","steam_id":76561198030276792,"connected_time":993000000000,"state":"active","ping":60},{"user_id":651,"name":"Justinbk","steam_id":76561198076047549,"connected_time":4048000000000,"state":"active","ping":58},{"user_id":677,"name":"AlecTheNefarious","steam_id":76561198035291230,"connected_time":1955000000000,"state":"active","ping":84},{"user_id":687,"name":"I Have Huge Guts","steam_id":76561198103496593,"connected_time":976000000000,"state":"active","ping":65},{"user_id":688,"name":"gerge","steam_id":76561198092238353,"connected_time":976000000000,"state":"active","ping":89},{"user_id":695,"name":"Vibrantword3732","steam_id":76561198916638641,"connected_time":635000000000,"state":"active","ping":136},{"user_id":616,"name":"Big Yoshi","steam_id":76561199160576376,"connected_time":7642000000000,"state":"active","ping":133},{"user_id":698,"name":"Big_Beans888","steam_id":76561198100822287,"connected_time":122000000000,"state":"active","ping":93},{"user_id":700,"name":"bonk","steam_id":76561198004823930,"connected_time":20000000000,"state":"spawning","ping":44},{"user_id":689,"name":"Skit","steam_id":76561198032675272,"connected_time":967000000000,"state":"active","ping":86},{"user_id":683,"name":"closer","steam_id":76561198042848500,"connected_time":1343000000000,"state":"active","ping":74},{"user_id":685,"name":"JOE BIDEN","steam_id":76561198065650507,"connected_time":1046000000000,"state":"active","ping":48},{"user_id":657,"name":"Wefflez","steam_id":76561198049110443,"connected_time":3330000000000,"state":"active","ping":69},{"user_id":663,"name":"sithreis","steam_id":76561198000564263,"connected_time":3075000000000,"state":"active","ping":74},{"user_id":647,"name":"*hydraulic presses ur balls*","steam_id":76561198043907258,"connected_time":4170000000000,"state":"active","ping":57},{"user_id":699,"name":"Hidden Phantom","steam_id":76561198115531799,"connected_time":94000000000,"state":"active","ping":87},{"user_id":666,"name":"King","steam_id":76561198010019214,"connected_time":3024000000000,"state":"active","ping":54},{"user_id":692,"name":"ya ya breathe","steam_id":76561198075858067,"connected_time":821000000000,"state":"active","ping":51},{"user_id":696,"name":"twitch.tv/Yoshi21 | TF2Pugs.com","steam_id":76561198002516729,"connected_time":370000000000,"state":"active","ping":68},{"user_id":694,"name":"WEEZEE","steam_id":76561198018233136,"connected_time":808000000000,"state":"active","ping":73},{"user_id":652,"name":"œÅŒ±—ï—Ç—î‚Ñì Œπ–∏–∫","steam_id":76561199151508585,"connected_time":4028000000000,"state":"active","ping":69},{"user_id":669,"name":"lanoc","steam_id":76561198055415367,"connected_time":2874000000000,"state":"active","ping":74}]},{"server_id":15,"name":"Uncletopia | New York City | 3 | Stopwatch","name_short":"nyc-3","host":"nyc-1.us.uncletopia.com","port":27035,"enabled":true,"region":"us-east","cc":"us","latitude":40.73061,"longitude":-73.93524,"reserved":0,"last_update":"0001-01-01T00:00:00Z","name_a2s":"Uncletopia | New York City | 3 | Stopwatch","protocol":17,"map":"pl_swiftwater_final1","folder":"tf","game":"Team Fortress","app_id":440,"player_count":4,"max_players":24,"Bots":0,"server_type":"Dedicated","server_os":"Linux","password":true,"vac":true,"version":"7961495","steam_id":85568392924742820,"keywords":["nocrits","nodmgspread","payload","uncletopia"],"game_id":440,"stv_port":27036,"stv_name":"Uncletopia | New York City | 3 | Stopwatch | STV","players":[{"user_id":195,"name":"nixcamic - W+M1 Engie","steam_id":76561198021230723,"connected_time":719000000000,"state":"active","ping":106},{"user_id":152,"name":"Acid trip through time","steam_id":76561198322448472,"connected_time":2579000000000,"state":"active","ping":44},{"user_id":196,"name":"Scung","steam_id":76561198073299967,"connected_time":701000000000,"state":"active","ping":39},{"user_id":58,"name":"chrischrischris3018@yahoo.com","steam_id":76561198137316053,"connected_time":7769000000000,"state":"active","ping":60}]},{"server_id":16,"name":"Uncletopia | New York City | 4 | Community","name_short":"nyc-4","host":"nyc-1.us.uncletopia.com","port":27045,"enabled":true,"region":"us-east","cc":"us","latitude":40.73061,"longitude":-73.93524,"reserved":0,"last_update":"0001-01-01T00:00:00Z","name_a2s":"Uncletopia | New York City | 4 | Community","protocol":17,"map":"workshop/cp_propaganda_b18.ugc1603743849","folder":"tf","game":"Team Fortress","app_id":440,"player_count":0,"max_players":24,"Bots":0,"server_type":"Dedicated","server_os":"Linux","password":true,"vac":true,"version":"7961495","steam_id":85568392924742821,"keywords":["cp","nocrits","nodmgspread","uncletopia"],"game_id":440,"stv_port":27046,"stv_name":"Uncletopia | New York City | 4 | Community | STV","players":null},{"server_id":142,"name":"Uncletopia | S√£o Paulo | 1 | All Maps","name_short":"sao-1","host":"sao-1.br.uncletopia.com","port":27015,"enabled":true,"region":"sa","cc":"br","latitude":-23.533773,"longitude":-46.62529,"reserved":0,"last_update":"0001-01-01T00:00:00Z","name_a2s":"Uncletopia | S√£o Paulo | 1 | All Maps","protocol":17,"map":"pl_barnblitz","folder":"tf","game":"Team Fortress","app_id":440,"player_count":0,"max_players":24,"Bots":0,"server_type":"Dedicated","server_os":"Linux","password":true,"vac":true,"version":"7961495","steam_id":85568392924469996,"keywords":["nocrits","nodmgspread","payload","uncletopia"],"game_id":440,"stv_port":27016,"stv_name":"Uncletopia | S√£o Paulo | 1 | All Maps | STV","players":null},{"server_id":143,"name":"Uncletopia | S√£o Paulo | 2 | Community","name_short":"sao-2","host":"sao-2.br.uncletopia.com","port":27015,"enabled":true,"region":"sa","cc":"br","latitude":-23.533773,"longitude":-46.62529,"reserved":0,"last_update":"0001-01-01T00:00:00Z","name_a2s":"Uncletopia | S√£o Paulo | 2 | Community","protocol":17,"map":"workshop/pl_phoenix_b4a.ugc2969509359","folder":"tf","game":"Team Fortress","app_id":440,"player_count":0,"max_players":24,"Bots":0,"server_type":"Dedicated","server_os":"Linux","password":true,"vac":true,"version":"7961495","steam_id":85568392924485349,"keywords":["nocrits","nodmgspread","payload","uncletopia"],"game_id":440,"stv_port":27016,"stv_name":"Uncletopia | S√£o Paulo | 2 | Community | STV","players":null},{"server_id":7,"name":"Uncletopia | Seattle | 1 | All Maps","name_short":"sea-1","host":"sea-1.us.uncletopia.com","port":27015,"enabled":true,"region":"us-west","cc":"us","latitude":47.608013,"longitude":-122.33517,"reserved":0,"last_update":"0001-01-01T00:00:00Z","name_a2s":"Uncletopia | Seattle | 1 | All Maps","protocol":17,"map":"cp_gorge","folder":"tf","game":"Team Fortress","app_id":440,"player_count":24,"max_players":24,"Bots":0,"server_type":"Dedicated","server_os":"Linux","password":true,"vac":true,"version":"7961495","steam_id":85568392924469997,"keywords":["cp","nocrits","nodmgspread","uncletopia"],"game_id":440,"stv_port":27016,"stv_name":"Uncletopia | Seattle | 1 | All Maps | STV","players":[{"user_id":411,"name":"Greskrendtregk","steam_id":76561197969553142,"connected_time":1344000000000,"state":"active","ping":48},{"user_id":406,"name":"Sweeeeee","steam_id":76561198998446307,"connected_time":1834000000000,"state":"active","ping":65},{"user_id":417,"name":"Statewide ballistic booty bandi","steam_id":76561199016837140,"connected_time":1213000000000,"state":"active","ping":62},{"user_id":421,"name":"Tockbird","steam_id":76561199437964594,"connected_time":1004000000000,"state":"active","ping":87},{"user_id":423,"name":"Kot","steam_id":76561198380050451,"connected_time":605000000000,"state":"active","ping":61},{"user_id":404,"name":"Shah","steam_id":76561198047508851,"connected_time":2221000000000,"state":"active","ping":55},{"user_id":391,"name":"Hydroxianchaos","steam_id":76561198043786828,"connected_time":3126000000000,"state":"active","ping":117},{"user_id":386,"name":"troller","steam_id":76561198395740686,"connected_time":3478000000000,"state":"active","ping":60},{"user_id":380,"name":"Turban Grease","steam_id":76561198072052434,"connected_time":4146000000000,"state":"active","ping":48},{"user_id":416,"name":"goofy goober","steam_id":76561199024079388,"connected_time":1251000000000,"state":"active","ping":43},{"user_id":413,"name":"Krit","steam_id":76561198821603556,"connected_time":1333000000000,"state":"active","ping":56},{"user_id":418,"name":"Barack Obama Gaming","steam_id":76561198129242016,"connected_time":1212000000000,"state":"active","ping":87},{"user_id":422,"name":"Sierra Foxtrot","steam_id":76561197996667382,"connected_time":613000000000,"state":"active","ping":92},{"user_id":387,"name":"Hazel (Fake)","steam_id":76561199247095754,"connected_time":3475000000000,"state":"active","ping":65},{"user_id":395,"name":"Zincian","steam_id":76561198055484259,"connected_time":2518000000000,"state":"active","ping":51},{"user_id":407,"name":"pipi","steam_id":76561198450073779,"connected_time":1834000000000,"state":"active","ping":44},{"user_id":403,"name":"The Businessman","steam_id":76561198352531234,"connected_time":2284000000000,"state":"active","ping":102},{"user_id":414,"name":"2 Point Tom","steam_id":76561198087617008,"connected_time":1329000000000,"state":"active","ping":54},{"user_id":408,"name":"ronald","steam_id":76561197960691622,"connected_time":1828000000000,"state":"active","ping":82},{"user_id":424,"name":"mega","steam_id":76561198089520959,"connected_time":407000000000,"state":"active","ping":84},{"user_id":393,"name":"Snakesuna","steam_id":76561198063949642,"connected_time":2570000000000,"state":"active","ping":41},{"user_id":394,"name":"Thexx [she/they]","steam_id":76561198113823050,"connected_time":2560000000000,"state":"active","ping":52},{"user_id":364,"name":"PopcornBucketGames","steam_id":76561199089562026,"connected_time":6235000000000,"state":"active","ping":45},{"user_id":412,"name":"Peppy","steam_id":76561198866629645,"connected_time":1340000000000,"state":"active","ping":62}]},{"server_id":119,"name":"Uncletopia | Seattle | 2 | All Maps","name_short":"sea-2","host":"sea-1.us.uncletopia.com","port":27025,"enabled":true,"region":"us-west","cc":"us","latitude":47.608013,"longitude":-122.33517,"reserved":0,"last_update":"0001-01-01T00:00:00Z","name_a2s":"Uncletopia | Seattle | 2 | All Maps","protocol":17,"map":"pl_upward","folder":"tf","game":"Team Fortress","app_id":440,"player_count":22,"max_players":24,"Bots":0,"server_type":"Dedicated","server_os":"Linux","password":true,"vac":true,"version":"7961495","steam_id":85568392924469998,"keywords":["nocrits","nodmgspread","payload","uncletopia"],"game_id":440,"stv_port":27026,"stv_name":"Uncletopia | Seattle | 2 | All Maps | STV","players":[{"user_id":270,"name":"Copy","steam_id":76561198025031590,"connected_time":84000000000,"state":"active","ping":50},{"user_id":246,"name":"Preston","steam_id":76561198255721392,"connected_time":1976000000000,"state":"active","ping":115},{"user_id":238,"name":"reiidaya","steam_id":76561198325306660,"connected_time":3208000000000,"state":"active","ping":49},{"user_id":199,"name":"Roomsky","steam_id":76561198012827494,"connected_time":6076000000000,"state":"active","ping":43},{"user_id":237,"name":"-_-","steam_id":76561199190800520,"connected_time":3368000000000,"state":"active","ping":39},{"user_id":268,"name":"doobie the hutt","steam_id":76561198088873640,"connected_time":373000000000,"state":"active","ping":49},{"user_id":267,"name":"Drunk Heroism","steam_id":76561198053788253,"connected_time":389000000000,"state":"active","ping":68},{"user_id":272,"name":"Caramel_Chalice","steam_id":76561198307609692,"connected_time":46000000000,"state":"active","ping":52},{"user_id":273,"name":"Akira (they/them)","steam_id":76561198294601519,"connected_time":13000000000,"state":"spawning","ping":44},{"user_id":263,"name":"WillowWisp","steam_id":76561198049104842,"connected_time":848000000000,"state":"active","ping":52},{"user_id":265,"name":"Amateur Glaswegian","steam_id":76561198030851956,"connected_time":692000000000,"state":"active","ping":48},{"user_id":249,"name":"Rusty","steam_id":76561198178868626,"connected_time":1590000000000,"state":"active","ping":57},{"user_id":250,"name":"Fireproof Scout","steam_id":76561198329600136,"connected_time":1588000000000,"state":"active","ping":67},{"user_id":271,"name":"SecondCarpet","steam_id":76561199008323078,"connected_time":60000000000,"state":"active","ping":111},{"user_id":216,"name":"\"Goblin\" deez nuts","steam_id":76561199101714413,"connected_time":4844000000000,"state":"active","ping":73},{"user_id":186,"name":"udon","steam_id":76561198165872348,"connected_time":7167000000000,"state":"active","ping":47},{"user_id":262,"name":"Elias","steam_id":76561198031295139,"connected_time":1131000000000,"state":"active","ping":45},{"user_id":269,"name":"kronk","steam_id":76561198054623686,"connected_time":370000000000,"state":"active","ping":82},{"user_id":252,"name":"Nyx","steam_id":76561198100929724,"connected_time":1484000000000,"state":"active","ping":49},{"user_id":253,"name":"TheBrocklobster","steam_id":76561198039682984,"connected_time":1470000000000,"state":"active","ping":97},{"user_id":197,"name":"NASA PEEPO","steam_id":76561198024982267,"connected_time":6204000000000,"state":"active","ping":68},{"user_id":244,"name":"Dr. Bodacious","steam_id":76561199122205825,"connected_time":2564000000000,"state":"active","ping":59}]},{"server_id":406,"name":"Uncletopia | Seattle | 3 | Stopwatch","name_short":"sea-3","host":"sea-1.us.uncletopia.com","port":27035,"enabled":true,"region":"us-west","cc":"us","latitude":47.608013,"longitude":-122.33517,"reserved":0,"last_update":"0001-01-01T00:00:00Z","name_a2s":"Uncletopia | Seattle | 3 | Stopwatch","protocol":17,"map":"workshop/koth_ashville_final.ugc2130459942","folder":"tf","game":"Team Fortress","app_id":440,"player_count":0,"max_players":24,"Bots":0,"server_type":"Dedicated","server_os":"Linux","password":true,"vac":true,"version":"7961495","steam_id":85568392924515217,"keywords":["cp","nocrits","nodmgspread","uncletopia"],"game_id":440,"stv_port":27036,"stv_name":"Uncletopia | Seattle | 3 | Stopwatch | STV","players":null},{"server_id":17,"name":"Uncletopia | San Francisco | 1 | All Maps","name_short":"sfo-1","host":"sfo-1.us.uncletopia.com","port":27015,"enabled":true,"region":"us-west","cc":"us","latitude":37.77397,"longitude":-122.4313,"reserved":0,"last_update":"0001-01-01T00:00:00Z","name_a2s":"Uncletopia | San Francisco | 1 | All Maps","protocol":17,"map":"cp_snakewater_final1","folder":"tf","game":"Team Fortress","app_id":440,"player_count":0,"max_players":24,"Bots":0,"server_type":"Dedicated","server_os":"Linux","password":true,"vac":true,"version":"7961495","steam_id":85568392924469999,"keywords":["cp","nocrits","nodmgspread","uncletopia"],"game_id":440,"stv_port":27016,"stv_name":"Uncletopia | San Francisco | 1 | All Maps | STV","players":null},{"server_id":18,"name":"Uncletopia | San Francisco | 2 | All Maps","name_short":"sfo-2","host":"sfo-1.us.uncletopia.com","port":27025,"enabled":true,"region":"us-west","cc":"us","latitude":37.77397,"longitude":-122.4313,"reserved":0,"last_update":"0001-01-01T00:00:00Z","name_a2s":"Uncletopia | San Francisco | 2 | All Maps","protocol":17,"map":"pl_badwater","folder":"tf","game":"Team Fortress","app_id":440,"player_count":23,"max_players":24,"Bots":0,"server_type":"Dedicated","server_os":"Linux","password":true,"vac":true,"version":"7961495","steam_id":85568392924470000,"keywords":["nocrits","nodmgspread","payload","uncletopia"],"game_id":440,"stv_port":27026,"stv_name":"Uncletopia | San Francisco | 2 | All Maps | STV","players":[{"user_id":50,"name":"miguelrodriguez2013","steam_id":76561198269253587,"connected_time":364000000000,"state":"active","ping":47},{"user_id":24,"name":"Crustacean Daddy","steam_id":76561198993807061,"connected_time":1173000000000,"state":"active","ping":50},{"user_id":41,"name":"vuldrin","steam_id":76561198383695069,"connected_time":606000000000,"state":"active","ping":73},{"user_id":18,"name":"Meowth","steam_id":76561198959392976,"connected_time":2178000000000,"state":"active","ping":98},{"user_id":19,"name":"the lazy gamer","steam_id":76561199070127039,"connected_time":2175000000000,"state":"active","ping":95},{"user_id":20,"name":"EightySix","steam_id":76561198186678831,"connected_time":1703000000000,"state":"active","ping":73},{"user_id":25,"name":"Ice cream sandwich","steam_id":76561198172748357,"connected_time":1170000000000,"state":"active","ping":61},{"user_id":26,"name":"Risky","steam_id":76561198231029328,"connected_time":1076000000000,"state":"active","ping":52},{"user_id":47,"name":"wunga","steam_id":76561198062074001,"connected_time":456000000000,"state":"active","ping":115},{"user_id":32,"name":"Zenire","steam_id":76561199087298510,"connected_time":687000000000,"state":"active","ping":100},{"user_id":29,"name":"Siopao","steam_id":76561198254089497,"connected_time":735000000000,"state":"active","ping":59},{"user_id":30,"name":"Hunter","steam_id":76561198071823667,"connected_time":717000000000,"state":"active","ping":70},{"user_id":31,"name":"Payneinthebutt","steam_id":76561198276265207,"connected_time":714000000000,"state":"active","ping":68},{"user_id":33,"name":"Humble Learner","steam_id":76561198066091050,"connected_time":661000000000,"state":"active","ping":60},{"user_id":34,"name":"lol","steam_id":76561198026491738,"connected_time":648000000000,"state":"active","ping":68},{"user_id":35,"name":"Cheezbeargur","steam_id":76561198164702899,"connected_time":644000000000,"state":"active","ping":46},{"user_id":36,"name":"johnny","steam_id":76561198050225055,"connected_time":637000000000,"state":"active","ping":57},{"user_id":37,"name":"GreenApples","steam_id":76561198120559543,"connected_time":621000000000,"state":"active","ping":54},{"user_id":48,"name":"Soft copper wings","steam_id":76561198092317849,"connected_time":441000000000,"state":"active","ping":49},{"user_id":39,"name":"UnusualTofu","steam_id":76561198060103750,"connected_time":613000000000,"state":"active","ping":64},{"user_id":49,"name":"bengineer","steam_id":76561198171912174,"connected_time":404000000000,"state":"active","ping":81},{"user_id":43,"name":"Camohno","steam_id":76561198283519918,"connected_time":575000000000,"state":"active","ping":63},{"user_id":45,"name":"Bounty","steam_id":76561198041325937,"connected_time":498000000000,"state":"active","ping":88}]},{"server_id":19,"name":"Uncletopia | San Francisco | 3 | Stopwatch","name_short":"sfo-3","host":"sfo-1.us.uncletopia.com","port":27035,"enabled":true,"region":"us-west","cc":"us","latitude":37.77397,"longitude":-122.4313,"reserved":0,"last_update":"0001-01-01T00:00:00Z","name_a2s":"Uncletopia | San Francisco | 3 | Stopwatch","protocol":17,"map":"workshop/pl_vigil_rc10.ugc1266210012","folder":"tf","game":"Team Fortress","app_id":440,"player_count":0,"max_players":24,"Bots":0,"server_type":"Dedicated","server_os":"Linux","password":true,"vac":true,"version":"7961495","steam_id":85568392924742824,"keywords":["nocrits","nodmgspread","payload","uncletopia"],"game_id":440,"stv_port":27036,"stv_name":"Uncletopia | San Francisco | 3 | Stopwatch | STV","players":null},{"server_id":20,"name":"Uncletopia | San Francisco | 4 | Community","name_short":"sfo-4","host":"sfo-1.us.uncletopia.com","port":27045,"enabled":true,"region":"us-west","cc":"us","latitude":37.77397,"longitude":-122.4313,"reserved":0,"last_update":"0001-01-01T00:00:00Z","name_a2s":"Uncletopia | San Francisco | 4 | Community","protocol":17,"map":"workshop/cp_reckoner_rc6.ugc674719999","folder":"tf","game":"Team Fortress","app_id":440,"player_count":0,"max_players":24,"Bots":0,"server_type":"Dedicated","server_os":"Linux","password":true,"vac":true,"version":"7961495","steam_id":85568392924742826,"keywords":["cp","nocrits","nodmgspread","uncletopia"],"game_id":440,"stv_port":27046,"stv_name":"Uncletopia | San Francisco | 4 | Community | STV","players":null},{"server_id":141,"name":"Uncletopia | Sydney | 1 | All Maps","name_short":"syd-1","host":"syd-1.au.uncletopia.com","port":27015,"enabled":true,"region":"au","cc":"au","latitude":-33.865143,"longitude":151.2099,"reserved":0,"last_update":"0001-01-01T00:00:00Z","name_a2s":"Uncletopia | Sydney | 1 | All Maps","protocol":17,"map":"koth_cascade","folder":"tf","game":"Team Fortress","app_id":440,"player_count":0,"max_players":24,"Bots":0,"server_type":"Dedicated","server_os":"Linux","password":true,"vac":true,"version":"7961495","steam_id":85568392924470001,"keywords":["cp","nocrits","nodmgspread","uncletopia"],"game_id":440,"stv_port":27016,"stv_name":"Uncletopia | Sydney | 1 | All Maps | STV","players":null},{"server_id":123,"name":"Uncletopia | Sydney | 2 | All Maps","name_short":"syd-2","host":"syd-1.au.uncletopia.com","port":27025,"enabled":true,"region":"au","cc":"au","latitude":-33.865143,"longitude":151.2099,"reserved":0,"last_update":"0001-01-01T00:00:00Z","name_a2s":"Uncletopia | Sydney | 2 | All Maps","protocol":17,"map":"cp_snakewater_final1","folder":"tf","game":"Team Fortress","app_id":440,"player_count":0,"max_players":24,"Bots":0,"server_type":"Dedicated","server_os":"Linux","password":true,"vac":true,"version":"7961495","steam_id":85568392924470002,"keywords":["cp","nocrits","nodmgspread","uncletopia"],"game_id":440,"stv_port":27026,"stv_name":"Uncletopia | Sydney | 2 | All Maps | STV","players":null},{"server_id":395,"name":"Uncletopia | Sydney | 3 | All Maps","name_short":"syd-3","host":"syd-1.au.uncletopia.com","port":27035,"enabled":true,"region":"au","cc":"au","latitude":-33.865143,"longitude":151.2099,"reserved":0,"last_update":"0001-01-01T00:00:00Z","name_a2s":"Uncletopia | Sydney | 3 | All Maps","protocol":17,"map":"koth_brazil","folder":"tf","game":"Team Fortress","app_id":440,"player_count":0,"max_players":24,"Bots":0,"server_type":"Dedicated","server_os":"Linux","password":true,"vac":true,"version":"7961495","steam_id":85568392925194467,"keywords":["cp","nocrits","nodmgspread","uncletopia"],"game_id":440,"stv_port":27036,"stv_name":"Uncletopia | Sydney | 3 | All Maps | STV","players":null},{"server_id":396,"name":"Uncletopia | Sydney | 4 | All Maps","name_short":"syd-4","host":"syd-1.au.uncletopia.com","port":27045,"enabled":true,"region":"au","cc":"au","latitude":-33.865143,"longitude":151.2099,"reserved":0,"last_update":"0001-01-01T00:00:00Z","name_a2s":"Uncletopia | Sydney | 4 | All Maps","protocol":17,"map":"cp_standin_final","folder":"tf","game":"Team Fortress","app_id":440,"player_count":0,"max_players":24,"Bots":0,"server_type":"Dedicated","server_os":"Linux","password":true,"vac":true,"version":"7961495","steam_id":85568392925397958,"keywords":["cp","nocrits","nodmgspread","uncletopia"],"game_id":440,"stv_port":27046,"stv_name":"Uncletopia | Sydney | 4 | All Maps | STV","players":null},{"server_id":58,"name":"Uncletopia | Sydney | 5 | Stopwatch","name_short":"syd-5","host":"syd-1.au.uncletopia.com","port":27055,"enabled":true,"region":"au","cc":"au","latitude":-33.865143,"longitude":151.2099,"reserved":0,"last_update":"0001-01-01T00:00:00Z","name_a2s":"Uncletopia | Sydney | 5 | Stopwatch","protocol":17,"map":"koth_highpass","folder":"tf","game":"Team Fortress","app_id":440,"player_count":0,"max_players":24,"Bots":0,"server_type":"Dedicated","server_os":"Linux","password":true,"vac":true,"version":"7961495","steam_id":85568392925397959,"keywords":["cp","nocrits","nodmgspread","uncletopia"],"game_id":440,"stv_port":27056,"stv_name":"Uncletopia | Sydney | 5 | Stopwatch | STV","players":null},{"server_id":59,"name":"Uncletopia | Sydney | 6 | Community","name_short":"syd-6","host":"syd-1.au.uncletopia.com","port":27065,"enabled":true,"region":"au","cc":"au","latitude":-33.865143,"longitude":151.2099,"reserved":0,"last_update":"0001-01-01T00:00:00Z","name_a2s":"Uncletopia | Sydney | 6 | Community","protocol":17,"map":"workshop/koth_soot_final1.ugc2969540689","folder":"tf","game":"Team Fortress","app_id":440,"player_count":0,"max_players":24,"Bots":0,"server_type":"Dedicated","server_os":"Linux","password":true,"vac":true,"version":"7961495","steam_id":85568392925397960,"keywords":["cp","nocrits","nodmgspread","uncletopia"],"game_id":440,"stv_port":27066,"stv_name":"Uncletopia | Sydney | 6 | Community | STV","players":null},{"server_id":49,"name":"Uncletopia | Warsaw | 1 | One Thousand Uncles","name_short":"waw-1","host":"waw-1.pl.uncletopia.com","port":27015,"enabled":true,"region":"eu","cc":"pl","latitude":52.2297,"longitude":21.017532,"reserved":0,"last_update":"0001-01-01T00:00:00Z","name_a2s":"Uncletopia | Warsaw | 1 | One Thousand Uncles","protocol":17,"map":"cp_mercenarypark","folder":"tf","game":"Team Fortress","app_id":440,"player_count":0,"max_players":32,"Bots":0,"server_type":"Dedicated","server_os":"Linux","password":true,"vac":true,"version":"7961495","steam_id":85568392925397850,"keywords":["alltalk","cp","danepve","increased_maxplayers","norespawntime","uncletopia"],"game_id":440,"stv_port":0,"stv_name":"","players":null},{"server_id":50,"name":"Uncletopia | Warsaw | 2 | One Thousand Uncles","name_short":"waw-2","host":"waw-1.pl.uncletopia.com","port":27025,"enabled":true,"region":"eu","cc":"pl","latitude":52.2297,"longitude":21.017532,"reserved":0,"last_update":"0001-01-01T00:00:00Z","name_a2s":"Uncletopia | Warsaw | 2 | One Thousand Uncles","protocol":17,"map":"pl_barnblitz","folder":"tf","game":"Team Fortress","app_id":440,"player_count":23,"max_players":32,"Bots":20,"server_type":"Dedicated","server_os":"Linux","password":true,"vac":true,"version":"7961495","steam_id":85568392925397851,"keywords":["alltalk","bots","danepve","increased_maxplayers","norespawntime","payload","uncletopia"],"game_id":440,"stv_port":0,"stv_name":"","players":[{"user_id":763,"name":"man","steam_id":76561199065090344,"connected_time":5428000000000,"state":"active","ping":179},{"user_id":784,"name":"slimcake07","steam_id":76561198826766828,"connected_time":5114000000000,"state":"active","ping":72},{"user_id":786,"name":"Not Good","steam_id":76561199024295865,"connected_time":32000000000,"state":"active","ping":106}]},{"server_id":51,"name":"Uncletopia | Warsaw | 3 | All Maps","name_short":"waw-3","host":"waw-1.pl.uncletopia.com","port":27035,"enabled":true,"region":"eu","cc":"pl","latitude":52.2297,"longitude":21.017532,"reserved":0,"last_update":"0001-01-01T00:00:00Z","name_a2s":"Uncletopia | Warsaw | 3 | All Maps","protocol":17,"map":"koth_viaduct","folder":"tf","game":"Team Fortress","app_id":440,"player_count":0,"max_players":24,"Bots":0,"server_type":"Dedicated","server_os":"Linux","password":true,"vac":true,"version":"7961495","steam_id":85568392925397852,"keywords":["cp","nocrits","nodmgspread","uncletopia"],"game_id":440,"stv_port":27036,"stv_name":"Uncletopia | Warsaw | 3 | All Maps | STV","players":null},{"server_id":52,"name":"Uncletopia | Warsaw | 4 | All Maps","name_short":"waw-4","host":"waw-1.pl.uncletopia.com","port":27045,"enabled":true,"region":"eu","cc":"pl","latitude":52.2297,"longitude":21.017532,"reserved":0,"last_update":"0001-01-01T00:00:00Z","name_a2s":"Uncletopia | Warsaw | 4 | All Maps","protocol":17,"map":"pl_upward","folder":"tf","game":"Team Fortress","app_id":440,"player_count":0,"max_players":24,"Bots":0,"server_type":"Dedicated","server_os":"Linux","password":true,"vac":true,"version":"7961495","steam_id":85568392925397853,"keywords":["nocrits","nodmgspread","payload","uncletopia"],"game_id":440,"stv_port":27046,"stv_name":"Uncletopia | Warsaw | 4 | All Maps | STV","players":null},{"server_id":53,"name":"Uncletopia | Warsaw | 5 | Stopwatch","name_short":"waw-5","host":"waw-1.pl.uncletopia.com","port":27055,"enabled":true,"region":"eu","cc":"pl","latitude":52.2297,"longitude":21.017532,"reserved":0,"last_update":"0001-01-01T00:00:00Z","name_a2s":"Uncletopia | Warsaw | 5 | Stopwatch","protocol":17,"map":"workshop/koth_product_final.ugc454272353","folder":"tf","game":"Team Fortress","app_id":440,"player_count":0,"max_players":24,"Bots":0,"server_type":"Dedicated","server_os":"Linux","password":true,"vac":true,"version":"7961495","steam_id":85568392925397854,"keywords":["cp","nocrits","nodmgspread","uncletopia"],"game_id":440,"stv_port":27056,"stv_name":"Uncletopia | Warsaw | 5 | Stopwatch | STV","players":null},{"server_id":54,"name":"Uncletopia | Warsaw | 6 | Community","name_short":"waw-6","host":"waw-1.pl.uncletopia.com","port":27065,"enabled":true,"region":"eu","cc":"pl","latitude":52.2297,"longitude":21.017532,"reserved":0,"last_update":"0001-01-01T00:00:00Z","name_a2s":"Uncletopia | Warsaw | 6 | Community","protocol":17,"map":"workshop/cp_fulgur_rc2a.ugc2068252300","folder":"tf","game":"Team Fortress","app_id":440,"player_count":0,"max_players":24,"Bots":0,"server_type":"Dedicated","server_os":"Linux","password":true,"vac":true,"version":"7961495","steam_id":85568392925397856,"keywords":["cp","nocrits","nodmgspread","uncletopia"],"game_id":440,"stv_port":27066,"stv_name":"Uncletopia | Warsaw | 6 | Community | STV","players":null}]}