{"status":true,"message":"","result":[{"server_id":9,"name":"Uncletopia | Atlanta | 1 | All Maps","name_short":"atl-1","host":"atl-1.us.uncletopia.com","port":27015,"enabled":true,"region":"us-east","cc":"us","latitude":33.753746,"longitude":-84.38633,"reserved":0,"last_update":"0001-01-01T00:00:00Z","name_a2s":"Uncletopia | Atlanta | 1 | All Maps","protocol":17,"map":"koth_highpass","folder":"tf","game":"Team Fortress","app_id":440,"player_count":0,"max_players":24,"Bots":0,"server_type":"Dedicated","server_os":"Linux","password":true,"vac":true,"version":"7961495","steam_id":85568392924469982,"keywords":["cp","nocrits","nodmgspread","uncletopia"],"game_id":440,"stv_port":27016,"stv_name":"Uncletopia | Atlanta | 1 | All Maps | STV","players":null},{"server_id":104,"name":"Uncletopia | Atlanta | 2 | All Maps","name_short":"atl-2","host":"atl-1.us.uncletopia.com","port":27025,"enabled":true,"region":"us-east","cc":"us","latitude":33.753746,"longitude":-84.38633,"reserved":0,"last_update":"0001-01-01T00:00:00Z","name_a2s":"Uncletopia | Atlanta | 2 | All Maps","protocol":17,"map":"cp_badlands","folder":"tf","game":"Team Fortress","app_id":440,"player_count":0,"max_players":24,"Bots":0,"server_type":"Dedicated","server_os":"Linux","password":true,"vac":true,"version":"7961495","steam_id":85568392924469983,"keywords":["cp","nocrits","nodmgspread","uncletopia"],"game_id":440,"stv_port":27026,"stv_name":"Uncletopia | Atlanta | 2 | All Maps | STV","players":null},{"server_id":400,"name":"Uncletopia | Atlanta | 3 | Stopwatch","name_short":"atl-3","host":"atl-1.us.uncletopia.com","port":27035,"enabled":true,"region":"us-east","cc":"us","latitude":33.753746,"longitude":-84.38633,"reserved":0,"last_update":"0001-01-01T00:00:00Z","name_a2s":"Uncletopia | Atlanta | 3 | Stopwatch","protocol":17,"map":"workshop/koth_ashville_final.ugc2130459942","folder":"tf","game":"Team Fortress","app_id":440,"player_count":0,"max_players":24,"Bots":0,"server_type":"Dedicated","server_os":"Linux","password":true,"vac":true,"version":"7961495","steam_id":85568392924515187,"keywords":["cp","nocrits","nodmgspread","uncletopia"],"game_id":440,"stv_port":27036,"stv_name":"Uncletopia | Atlanta | 3 | Stopwatch | STV","players":null},{"server_id":401,"name":"Uncletopia | Atlanta | 4 | Community","name_short":"atl-4","host":"atl-1.us.uncletopia.com","port":27045,"enabled":true,"region":"us-east","cc":"us","latitude":33.753746,"longitude":-84.38633,"reserved":0,"last_update":"0001-01-01T00:00:00Z","name_a2s":"Uncletopia | Atlanta | 4 | Community","protocol":17,"map":"workshop/pl_badwater_pro_v12.ugc2142942074","folder":"tf","game":"Team Fortress","app_id":440,"player_count":0,"max_players":24,"Bots":0,"server_type":"Dedicated","server_os":"Linux","password":true,"vac":true,"version":"7961495","steam_id":85568392924515188,"keywords":["nocrits","nodmgspread","payload","uncletopia"],"game_id":440,"stv_port":27046,"stv_name":"Uncletopia | Atlanta | 4 | Community | STV","players":null},{"server_id":2,"name":"Uncletopia | Chicago | 1 | All Maps","name_short":"chi-1","host":"chi-1.us.uncletopia.com","port":27015,"enabled":true,"region":"us-central","cc":"us","latitude":41.881832,"longitude":-87.62318,"reserved":0,"last_update":"0001-01-01T00:00:00Z","name_a2s":"Uncletopia | Chicago | 1 | All Maps","protocol":17,"map":"pl_thundermountain","folder":"tf","game":"Team Fortress","app_id":440,"player_count":24,"max_players":24,"Bots":0,"server_type":"Dedicated","server_os":"Linux","password":true,"vac":true,"version":"7961495","steam_id":85568392924469984,"keywords":["nocrits","nodmgspread","payload","uncletopia"],"game_id":440,"stv_port":27016,"stv_name":"Uncletopia | Chicago | 1 | All Maps | STV","players":[{"user_id":227,"name":"[TGP] T-Virus","steam_id":76561198001963208,"connected_time":1904000000000,"state":"active","ping":80},{"user_id":226,"name":"Shady Businessman","steam_id":76561198143855968,"connected_time":1955000000000,"state":"active","ping":80},{"user_id":248,"name":"denzell05","steam_id":76561198086987061,"connected_time":723000000000,"state":"active","ping":101},{"user_id":243,"name":"cactus thief","steam_id":76561199099658153,"connected_time":815000000000,"state":"active","ping":129},{"user_id":254,"name":"Very Small Giant","steam_id":76561199187337967,"connected_time":275000000000,"state":"active","ping":61},{"user_id":250,"name":"Uh Oh!","steam_id":76561197981137624,"connected_time":616000000000,"state":"active","ping":85},{"user_id":239,"name":"StudioMania (#SAVETF2)","steam_id":76561198211315795,"connected_time":958000000000,"state":"active","ping":54},{"user_id":240,"name":"Rummy the Blargh-gineer","steam_id":76561197997192800,"connected_time":955000000000,"state":"active","ping":69},{"user_id":235,"name":"Esteban Delsin","steam_id":76561198433519639,"connected_time":1389000000000,"state":"active","ping":134},{"user_id":241,"name":"Sappho of Lesbos","steam_id":76561198115931381,"connected_time":847000000000,"state":"active","ping":66},{"user_id":252,"name":"Charlie","steam_id":76561198798127908,"connected_time":488000000000,"state":"active","ping":66},{"user_id":242,"name":"Lennu","steam_id":76561198060730154,"connected_time":836000000000,"state":"active","ping":71},{"user_id":217,"name":"Sunflower","steam_id":76561198081223793,"connected_time":2609000000000,"state":"active","ping":47},{"user_id":249,"name":"Xavibite","steam_id":76561198209380493,"connected_time":645000000000,"state":"active","ping":60},{"user_id":245,"name":"The Nikocado Enjoyer","steam_id":76561198263154374,"connected_time":779000000000,"state":"active","ping":74},{"user_id":253,"name":"AB","steam_id":76561199487899460,"connected_time":339000000000,"state":"active","ping":303},{"user_id":255,"name":"DethSQRL","steam_id":76561199149628610,"connected_time":210000000000,"state":"active","ping":76},{"user_id":233,"name":"ting ting johnson","steam_id":76561198063099828,"connected_time":1789000000000,"state":"active","ping":55},{"user_id":211,"name":"HarryjusttHarry","steam_id":76561198982810452,"connected_time":3338000000000,"state":"active","ping":83},{"user_id":223,"name":"Furlong","steam_id":76561198249206656,"connected_time":2284000000000,"state":"active","ping":80},{"user_id":208,"name":"Topaz Tom","steam_id":76561199214479904,"connected_time":3436000000000,"state":"active","ping":105},{"user_id":215,"name":"SleepiestCrow","steam_id":76561198042018679,"connected_time":2782000000000,"state":"active","ping":51},{"user_id":214,"name":"Do Online Now Guys","steam_id":76561198120551862,"connected_time":3110000000000,"state":"active","ping":59},{"user_id":130,"name":"yeehaw88","steam_id":76561198337308198,"connected_time":10724000000000,"state":"active","ping":71}]},{"server_id":106,"name":"Uncletopia | Chicago | 2 | All Maps","name_short":"chi-2","host":"chi-1.us.uncletopia.com","port":27025,"enabled":true,"region":"us-central","cc":"us","latitude":41.881832,"longitude":-87.62318,"reserved":0,"last_update":"0001-01-01T00:00:00Z","name_a2s":"Uncletopia | Chicago | 2 | All Maps","protocol":17,"map":"cp_altitude","folder":"tf","game":"Team Fortress","app_id":440,"player_count":0,"max_players":24,"Bots":0,"server_type":"Dedicated","server_os":"Linux","password":true,"vac":true,"version":"7961495","steam_id":85568392924469985,"keywords":["cp","nocrits","nodmgspread","uncletopia"],"game_id":440,"stv_port":27026,"stv_name":"Uncletopia | Chicago | 2 | All Maps | STV","players":null},{"server_id":402,"name":"Uncletopia | Chicago | 3 | All Maps","name_short":"chi-3","host":"chi-1.us.uncletopia.com","port":27035,"enabled":true,"region":"us-central","cc":"us","latitude":41.881832,"longitude":-87.62318,"reserved":0,"last_update":"0001-01-01T00:00:00Z","name_a2s":"Uncletopia | Chicago | 3 | All Maps","protocol":17,"map":"koth_viaduct","folder":"tf","game":"Team Fortress","app_id":440,"player_count":0,"max_players":24,"Bots":0,"server_type":"Dedicated","server_os":"Linux","password":true,"vac":true,"version":"7961495","steam_id":85568392924515191,"keywords":["cp","nocrits","nodmgspread","uncletopia"],"game_id":440,"stv_port":27036,"stv_name":"Uncletopia | Chicago | 3 | All Maps | STV","players":null},{"server_id":403,"name":"Uncletopia | Chicago | 4 | All Maps","name_short":"chi-4","host":"chi-1.us.uncletopia.com","port":27045,"enabled":true,"region":"us-central","cc":"us","latitude":41.881832,"longitude":-87.62318,"reserved":0,"last_update":"0001-01-01T00:00:00Z","name_a2s":"Uncletopia | Chicago | 4 | All Maps","protocol":17,"map":"pl_barnblitz","folder":"tf","game":"Team Fortress","app_id":440,"player_count":24,"max_players":24,"Bots":0,"server_type":"Dedicated","server_os":"Linux","password":true,"vac":true,"version":"7961495","steam_id":85568392924515193,"keywords":["nocrits","nodmgspread","payload","uncletopia"],"game_id":440,"stv_port":27046,"stv_name":"Uncletopia | Chicago | 4 | All Maps | STV","players":[{"user_id":108,"name":"ya ya breathe","steam_id":76561198075858067,"connected_time":1322000000000,"state":"active","ping":63},{"user_id":101,"name":"Lé Mon","steam_id":76561198078626283,"connected_time":2100000000000,"state":"active","ping":77},{"user_id":115,"name":"Ulrich Stern","steam_id":76561198101739682,"connected_time":240000000000,"state":"active","ping":77},{"user_id":113,"name":"Window Licker #pride","steam_id":76561198386717007,"connected_time":429000000000,"state":"active","ping":48},{"user_id":56,"name":"yum","steam_id":76561199103766971,"connected_time":4730000000000,"state":"active","ping":64},{"user_id":121,"name":"bagel bite that fell earlier","steam_id":76561198036032168,"connected_time":33000000000,"state":"active","ping":60},{"user_id":63,"name":"Nostic","steam_id":76561199508767541,"connected_time":4307000000000,"state":"active","ping":60},{"user_id":119,"name":"MONKEY | videogamer1002","steam_id":76561198157110599,"connected_time":79000000000,"state":"active","ping":92},{"user_id":16,"name":"gerry0107","steam_id":76561198277578620,"connected_time":6199000000000,"state":"active","ping":69},{"user_id":110,"name":"Srg-Waffle","steam_id":76561198204555116,"connected_time":1312000000000,"state":"active","ping":72},{"user_id":93,"name":"Slab civilnetworks.net","steam_id":76561198968032452,"connected_time":2375000000000,"state":"active","ping":69},{"user_id":112,"name":"Grimprr","steam_id":76561198275816797,"connected_time":447000000000,"state":"active","ping":63},{"user_id":98,"name":"opossum","steam_id":76561198148905570,"connected_time":2161000000000,"state":"active","ping":73},{"user_id":94,"name":"Load","steam_id":76561198135643594,"connected_time":2366000000000,"state":"active","ping":69},{"user_id":107,"name":"Tomm","steam_id":76561198798158647,"connected_time":1338000000000,"state":"active","ping":56},{"user_id":87,"name":"Dog Hands Phone","steam_id":76561198090419068,"connected_time":2738000000000,"state":"active","ping":119},{"user_id":111,"name":"e doctor","steam_id":76561198081851446,"connected_time":1216000000000,"state":"active","ping":45},{"user_id":103,"name":"mrpineapple070","steam_id":76561199088278757,"connected_time":1947000000000,"state":"active","ping":88},{"user_id":118,"name":"The Heart","steam_id":76561198271979288,"connected_time":94000000000,"state":"spawning","ping":48},{"user_id":120,"name":"Squope","steam_id":76561198983129293,"connected_time":52000000000,"state":"active","ping":58},{"user_id":96,"name":"Lv3 Kobold Shadow Sorcerer","steam_id":76561198042068995,"connected_time":2246000000000,"state":"active","ping":75},{"user_id":81,"name":"inshallah","steam_id":76561198165212575,"connected_time":3068000000000,"state":"active","ping":75},{"user_id":99,"name":"Eh?","steam_id":76561198330179786,"connected_time":2154000000000,"state":"active","ping":61},{"user_id":122,"name":"Bookmark","steam_id":76561198210918443,"connected_time":29000000000,"state":"spawning","ping":174}]},{"server_id":36,"name":"Uncletopia | Chicago | 5 | All Maps","name_short":"chi-5","host":"chi-2.us.uncletopia.com","port":27015,"enabled":true,"region":"us-central","cc":"us","latitude":41.881832,"longitude":-87.62318,"reserved":0,"last_update":"0001-01-01T00:00:00Z","name_a2s":"Uncletopia | Chicago | 5 | All Maps","protocol":17,"map":"pl_borneo","folder":"tf","game":"Team Fortress","app_id":440,"player_count":0,"max_players":24,"Bots":0,"server_type":"Dedicated","server_os":"Linux","password":true,"vac":true,"version":"7961495","steam_id":85568392924866362,"keywords":["nocrits","nodmgspread","payload","uncletopia"],"game_id":440,"stv_port":27016,"stv_name":"Uncletopia | Chicago | 5 | All Maps | STV","players":null},{"server_id":37,"name":"Uncletopia | Chicago | 6 | All Maps","name_short":"chi-6","host":"chi-2.us.uncletopia.com","port":27025,"enabled":true,"region":"us-central","cc":"us","latitude":41.881832,"longitude":-87.62318,"reserved":0,"last_update":"0001-01-01T00:00:00Z","name_a2s":"Uncletopia | Chicago | 6 | All Maps","protocol":17,"map":"ctf_turbine","folder":"tf","game":"Team Fortress","app_id":440,"player_count":0,"max_players":24,"Bots":0,"server_type":"Dedicated","server_os":"Linux","password":true,"vac":true,"version":"7961495","steam_id":85568392924866363,"keywords":["ctf","nocrits","nodmgspread","uncletopia"],"game_id":440,"stv_port":27026,"stv_name":"Uncletopia | Chicago | 6 | All Maps | STV","players":null},{"server_id":38,"name":"Uncletopia | Chicago | 7 | Stopwatch","name_short":"chi-7","host":"chi-2.us.uncletopia.com","port":27035,"enabled":true,"region":"us-central","cc":"us","latitude":41.881832,"longitude":-87.62318,"reserved":0,"last_update":"0001-01-01T00:00:00Z","name_a2s":"Uncletopia | Chicago | 7 | Stopwatch","protocol":17,"map":"workshop/koth_clearcut_b15.ugc2107050255","folder":"tf","game":"Team Fortress","app_id":440,"player_count":2,"max_players":24,"Bots":0,"server_type":"Dedicated","server_os":"Linux","password":true,"vac":true,"version":"7961495","steam_id":85568392924866364,"keywords":["cp","nocrits","nodmgspread","uncletopia"],"game_id":440,"stv_port":27036,"stv_name":"Uncletopia | Chicago | 7 | Stopwatch | STV","players":[{"user_id":6,"name":"Thisguy07","steam_id":76561199245933458,"connected_time":1269000000000,"state":"active","ping":81},{"user_id":9,"name":"Blaze","steam_id":76561198043797702,"connected_time":480000000000,"state":"active","ping":40}]},{"server_id":39,"name":"Uncletopia | Chicago | 8 | Community","name_short":"chi-8","host":"chi-2.us.uncletopia.com","port":27045,"enabled":true,"region":"us-central","cc":"us","latitude":41.881832,"longitude":-87.62318,"reserved":0,"last_update":"0001-01-01T00:00:00Z","name_a2s":"Uncletopia | Chicago | 8 | Community","protocol":17,"map":"workshop/koth_slaughter_rc1.ugc1712845210","folder":"tf","game":"Team Fortress","app_id":440,"player_count":0,"max_players":24,"Bots":0,"server_type":"Dedicated","server_os":"Linux","password":true,"vac":true,"version":"7961495","steam_id":85568392924866365,"keywords":["cp","nocrits","nodmgspread","uncletopia"],"game_id":440,"stv_port":27046,"stv_name":"Uncletopia | Chicago | 8 | Community | STV","players":null},{"server_id":8,"name":"Uncletopia | Dallas | 1 | All Maps","name_short":"dal-1","host":"dal-1.us.uncletopia.com","port":27015,"enabled":true,"region":"us-central","cc":"us","latitude":32.779167,"longitude":-96.80889,"reserved":0,"last_update":"0001-01-01T00:00:00Z","name_a2s":"Uncletopia | Dallas | 1 | All Maps","protocol":17,"map":"pl_badwater","folder":"tf","game":"Team Fortress","app_id":440,"player_count":24,"max_players":24,"Bots":0,"server_type":"Dedicated","server_os":"Linux","password":true,"vac":true,"version":"7961495","steam_id":85568392924469986,"keywords":["nocrits","nodmgspread","payload","uncletopia"],"game_id":440,"stv_port":27016,"stv_name":"Uncletopia | Dallas | 1 | All Maps | STV","players":[{"user_id":141,"name":"Jeremiah Finch","steam_id":76561198046899113,"connected_time":1228000000000,"state":"active","ping":102},{"user_id":138,"name":"Boring","steam_id":76561198827219701,"connected_time":1599000000000,"state":"active","ping":181},{"user_id":125,"name":"Burnt Toast","steam_id":76561198174761155,"connected_time":2972000000000,"state":"active","ping":60},{"user_id":114,"name":"Disco Inferno","steam_id":76561198063398791,"connected_time":3707000000000,"state":"active","ping":158},{"user_id":118,"name":"BlueBoi2006","steam_id":76561199150475057,"connected_time":3529000000000,"state":"active","ping":61},{"user_id":115,"name":"the keebler","steam_id":76561199486326945,"connected_time":3671000000000,"state":"active","ping":75},{"user_id":29,"name":"BOTH | Sunshine","steam_id":76561198885528098,"connected_time":10138000000000,"state":"active","ping":102},{"user_id":128,"name":"The Sydney Sleeper Itself","steam_id":76561198180251763,"connected_time":2310000000000,"state":"active","ping":46},{"user_id":140,"name":"Floppa \u003c3","steam_id":76561199023889538,"connected_time":1295000000000,"state":"active","ping":64},{"user_id":145,"name":"Wengatang","steam_id":76561198021747059,"connected_time":356000000000,"state":"active","ping":62},{"user_id":111,"name":"Megatron G","steam_id":76561198168864083,"connected_time":3957000000000,"state":"active","ping":108},{"user_id":98,"name":"BLØRG","steam_id":76561198036126673,"connected_time":5355000000000,"state":"active","ping":79},{"user_id":130,"name":"Anyar","steam_id":76561198160174097,"connected_time":2281000000000,"state":"active","ping":50},{"user_id":139,"name":"Insert Edgy Name","steam_id":76561197971948876,"connected_time":1332000000000,"state":"active","ping":87},{"user_id":54,"name":"BOTH | BERSERKER","steam_id":76561198303464488,"connected_time":8213000000000,"state":"active","ping":74},{"user_id":144,"name":"schmuck","steam_id":76561198143789773,"connected_time":492000000000,"state":"active","ping":49},{"user_id":131,"name":"meo ♥","steam_id":76561197992719272,"connected_time":2255000000000,"state":"active","ping":74},{"user_id":112,"name":"Giblius Fragbottom","steam_id":76561197962639541,"connected_time":3940000000000,"state":"active","ping":96},{"user_id":143,"name":"Certified Hood Classic","steam_id":76561199086159354,"connected_time":628000000000,"state":"active","ping":54},{"user_id":104,"name":"BOTH | Kiso","steam_id":76561198141026844,"connected_time":4900000000000,"state":"active","ping":135},{"user_id":119,"name":"5-MeO-DMT","steam_id":76561198089527768,"connected_time":3527000000000,"state":"active","ping":56},{"user_id":142,"name":"TheSaltRobot","steam_id":76561198839739497,"connected_time":1109000000000,"state":"active","ping":49},{"user_id":116,"name":"Jeramosa","steam_id":76561198811000094,"connected_time":3663000000000,"state":"active","ping":78},{"user_id":132,"name":"Fuk, I miss","steam_id":76561198297223309,"connected_time":2018000000000,"state":"active","ping":99}]},{"server_id":108,"name":"Uncletopia | Dallas | 2 | All Maps","name_short":"dal-2","host":"dal-1.us.uncletopia.com","port":27025,"enabled":true,"region":"us-central","cc":"us","latitude":32.779167,"longitude":-96.80889,"reserved":0,"last_update":"0001-01-01T00:00:00Z","name_a2s":"Uncletopia | Dallas | 2 | All Maps","protocol":17,"map":"cp_dustbowl","folder":"tf","game":"Team Fortress","app_id":440,"player_count":0,"max_players":24,"Bots":0,"server_type":"Dedicated","server_os":"Linux","password":true,"vac":true,"version":"7961495","steam_id":85568392924469988,"keywords":["cp","nocrits","nodmgspread","uncletopia"],"game_id":440,"stv_port":27026,"stv_name":"Uncletopia | Dallas | 2 | All Maps | STV","players":null},{"server_id":404,"name":"Uncletopia | Dallas | 3 | All Maps","name_short":"dal-3","host":"dal-1.us.uncletopia.com","port":27035,"enabled":true,"region":"us-central","cc":"us","latitude":32.779167,"longitude":-96.80889,"reserved":0,"last_update":"0001-01-01T00:00:00Z","name_a2s":"Uncletopia | Dallas | 3 | All Maps","protocol":17,"map":"pl_barnblitz","folder":"tf","game":"Team Fortress","app_id":440,"player_count":0,"max_players":24,"Bots":0,"server_type":"Dedicated","server_os":"Linux","password":true,"vac":true,"version":"7961495","steam_id":85568392924515219,"keywords":["nocrits","nodmgspread","payload","uncletopia"],"game_id":440,"stv_port":27036,"stv_name":"Uncletopia | Dallas | 3 | All Maps | STV","players":null},{"server_id":405,"name":"Uncletopia | Dallas | 4 | Community","name_short":"dal-4","host":"dal-1.us.uncletopia.com","port":27045,"enabled":true,"region":"us-central","cc":"us","latitude":32.779167,"longitude":-96.80889,"reserved":0,"last_update":"0001-01-01T00:00:00Z","name_a2s":"Uncletopia | Dallas | 4 | Community","protocol":17,"map":"workshop/koth_synthetic_rc6a.ugc1549817316","folder":"tf","game":"Team Fortress","app_id":440,"player_count":0,"max_players":24,"Bots":0,"server_type":"Dedicated","server_os":"Linux","password":true,"vac":true,"version":"7961495","steam_id":85568392924515220,"keywords":["cp","nocrits","nodmgspread","uncletopia"],"game_id":440,"stv_port":27046,"stv_name":"Uncletopia | Dallas | 4 | Community | STV","players":null},{"server_id":5,"name":"Uncletopia | Frankfurt | 1 | All Maps","name_short":"frk-1","host":"frk-1.de.uncletopia.com","port":27015,"enabled":true,"region":"eu","cc":"de","latitude":50.110924,"longitude":8.682127,"reserved":0,"last_update":"0001-01-01T00:00:00Z","name_a2s":"Uncletopia | Frankfurt | 1 | All Maps","protocol":17,"map":"pl_pier","folder":"tf","game":"Team Fortress","app_id":440,"player_count":24,"max_players":24,"Bots":0,"server_type":"Dedicated","server_os":"Linux","password":true,"vac":true,"version":"7961495","steam_id":85568392924469989,"keywords":["nocrits","nodmgspread","payload","uncletopia"],"game_id":440,"stv_port":27016,"stv_name":"Uncletopia | Frankfurt | 1 | All Maps | STV","players":[{"user_id":322,"name":"Michael","steam_id":76561198003146906,"connected_time":215000000000,"state":"active","ping":57},{"user_id":231,"name":"Gaxkang","steam_id":76561198125768571,"connected_time":6881000000000,"state":"active","ping":51},{"user_id":310,"name":"CHARLIE","steam_id":76561198113009514,"connected_time":837000000000,"state":"active","ping":76},{"user_id":324,"name":"cheriberry","steam_id":76561198093577036,"connected_time":110000000000,"state":"active","ping":56},{"user_id":326,"name":"JohnTraveltime","steam_id":76561199244281754,"connected_time":47000000000,"state":"active","ping":51},{"user_id":261,"name":"willus212","steam_id":76561199182615246,"connected_time":4606000000000,"state":"active","ping":72},{"user_id":251,"name":"yush","steam_id":76561198121688934,"connected_time":5229000000000,"state":"active","ping":75},{"user_id":325,"name":"You slumber","steam_id":76561198344639692,"connected_time":91000000000,"state":"active","ping":76},{"user_id":299,"name":"Uganda Warrior","steam_id":76561198120502313,"connected_time":1538000000000,"state":"active","ping":53},{"user_id":300,"name":"The Nutcracker of Tf2","steam_id":76561199391107813,"connected_time":1525000000000,"state":"active","ping":72},{"user_id":314,"name":"Struix","steam_id":76561199413463591,"connected_time":603000000000,"state":"active","ping":66},{"user_id":276,"name":"Hurans","steam_id":76561198064853199,"connected_time":3493000000000,"state":"active","ping":58},{"user_id":321,"name":"DB841","steam_id":76561198328063504,"connected_time":295000000000,"state":"active","ping":59},{"user_id":315,"name":"Roman","steam_id":76561198138140596,"connected_time":574000000000,"state":"active","ping":149},{"user_id":316,"name":"Rae","steam_id":76561198171461153,"connected_time":568000000000,"state":"active","ping":147},{"user_id":282,"name":"Dr. House","steam_id":76561198255128489,"connected_time":3266000000000,"state":"active","ping":69},{"user_id":308,"name":"=[o.W.n]= prokopec","steam_id":76561198373933625,"connected_time":1156000000000,"state":"active","ping":93},{"user_id":317,"name":"Doriian","steam_id":76561198071438810,"connected_time":547000000000,"state":"active","ping":80},{"user_id":318,"name":"JAILBAIT LOLA BUNNY","steam_id":76561198302432828,"connected_time":426000000000,"state":"active","ping":55},{"user_id":279,"name":"KayfromCzechia","steam_id":76561198925899810,"connected_time":3473000000000,"state":"active","ping":61},{"user_id":306,"name":"This soldier is a SPY","steam_id":76561199093029374,"connected_time":1219000000000,"state":"active","ping":75},{"user_id":319,"name":"haha_yes07","steam_id":76561199237904287,"connected_time":393000000000,"state":"active","ping":139},{"user_id":327,"name":"Mébh Óg MacTíre","steam_id":76561198346399624,"connected_time":45000000000,"state":"active","ping":63},{"user_id":323,"name":"Sicronici","steam_id":76561199054534566,"connected_time":172000000000,"state":"active","ping":63}]},{"server_id":110,"name":"Uncletopia | Frankfurt | 2 | All Maps","name_short":"frk-2","host":"frk-1.de.uncletopia.com","port":27025,"enabled":true,"region":"eu","cc":"de","latitude":50.110924,"longitude":8.682127,"reserved":0,"last_update":"0001-01-01T00:00:00Z","name_a2s":"Uncletopia | Frankfurt | 2 | All Maps","protocol":17,"map":"cp_snakewater_final1","folder":"tf","game":"Team Fortress","app_id":440,"player_count":24,"max_players":24,"Bots":0,"server_type":"Dedicated","server_os":"Linux","password":true,"vac":true,"version":"7961495","steam_id":85568392924469990,"keywords":["cp","nocrits","nodmgspread","uncletopia"],"game_id":440,"stv_port":27026,"stv_name":"Uncletopia | Frankfurt | 2 | All Maps | STV","players":[{"user_id":504,"name":"Molty","steam_id":76561198004360335,"connected_time":796000000000,"state":"active","ping":48},{"user_id":484,"name":"spillr-.-","steam_id":76561198031330889,"connected_time":2216000000000,"state":"active","ping":45},{"user_id":453,"name":"Schmidt","steam_id":76561198001058733,"connected_time":3492000000000,"state":"active","ping":102},{"user_id":467,"name":"Chopperson_","steam_id":76561198873728497,"connected_time":3116000000000,"state":"active","ping":106},{"user_id":476,"name":"Joe Mc JoeDeGoe","steam_id":76561198049577191,"connected_time":2770000000000,"state":"active","ping":77},{"user_id":511,"name":"noticed","steam_id":76561198205976029,"connected_time":510000000000,"state":"active","ping":74},{"user_id":507,"name":"\u003e\u003c\u003e","steam_id":76561198152392309,"connected_time":645000000000,"state":"active","ping":48},{"user_id":487,"name":"Dan","steam_id":76561198438672658,"connected_time":2124000000000,"state":"active","ping":66},{"user_id":516,"name":"Mael-chan\u003c3","steam_id":76561197996852498,"connected_time":141000000000,"state":"active","ping":44},{"user_id":512,"name":"ztrs6","steam_id":76561198314853803,"connected_time":321000000000,"state":"active","ping":90},{"user_id":458,"name":"indie","steam_id":76561197998255855,"connected_time":3373000000000,"state":"active","ping":104},{"user_id":506,"name":"Lag","steam_id":76561198159360376,"connected_time":690000000000,"state":"active","ping":48},{"user_id":495,"name":"rubicus","steam_id":76561198823847982,"connected_time":1653000000000,"state":"active","ping":75},{"user_id":485,"name":"Fat Pigeon","steam_id":76561198817940142,"connected_time":2204000000000,"state":"active","ping":52},{"user_id":447,"name":"Vibrátor (418 122 locomotive)","steam_id":76561198097789669,"connected_time":3890000000000,"state":"active","ping":60},{"user_id":509,"name":"A Pigeon","steam_id":76561198114090555,"connected_time":601000000000,"state":"active","ping":61},{"user_id":513,"name":"QuantumFox","steam_id":76561198125912648,"connected_time":217000000000,"state":"active","ping":62},{"user_id":505,"name":"Yonio","steam_id":76561198408428132,"connected_time":778000000000,"state":"active","ping":75},{"user_id":514,"name":"..","steam_id":76561198380752444,"connected_time":159000000000,"state":"active","ping":46},{"user_id":492,"name":"ST4F","steam_id":76561198262924022,"connected_time":2005000000000,"state":"active","ping":59},{"user_id":482,"name":"hagrididude","steam_id":76561199126255153,"connected_time":2359000000000,"state":"active","ping":70},{"user_id":496,"name":"Spongie","steam_id":76561198031719013,"connected_time":1629000000000,"state":"active","ping":48},{"user_id":503,"name":"✪Beer☭","steam_id":76561198129884760,"connected_time":1037000000000,"state":"active","ping":62},{"user_id":515,"name":"godmodule","steam_id":76561198165995444,"connected_time":156000000000,"state":"active","ping":64}]},{"server_id":308,"name":"Uncletopia | Frankfurt | 3 | All Maps","name_short":"frk-3","host":"frk-1.de.uncletopia.com","port":27035,"enabled":true,"region":"eu","cc":"de","latitude":50.110924,"longitude":8.682127,"reserved":0,"last_update":"0001-01-01T00:00:00Z","name_a2s":"Uncletopia | Frankfurt | 3 | All Maps","protocol":17,"map":"pl_borneo","folder":"tf","game":"Team Fortress","app_id":440,"player_count":0,"max_players":24,"Bots":0,"server_type":"Dedicated","server_os":"Linux","password":true,"vac":true,"version":"7961495","steam_id":85568392924504274,"keywords":["nocrits","nodmgspread","payload","uncletopia"],"game_id":440,"stv_port":27036,"stv_name":"Uncletopia | Frankfurt | 3 | All Maps | STV","players":null},{"server_id":309,"name":"Uncletopia | Frankfurt | 4 | All Maps","name_short":"frk-4","host":"frk-1.de.uncletopia.com","port":27045,"enabled":true,"region":"eu","cc":"de","latitude":50.110924,"longitude":8.682127,"reserved":0,"last_update":"0001-01-01T00:00:00Z","name_a2s":"Uncletopia | Frankfurt | 4 | All Maps","protocol":17,"map":"pl_borneo","folder":"tf","game":"Team Fortress","app_id":440,"player_count":24,"max_players":24,"Bots":0,"server_type":"Dedicated","server_os":"Linux","password":true,"vac":true,"version":"7961495","steam_id":85568392924504275,"keywords":["nocrits","nodmgspread","payload","uncletopia"],"game_id":440,"stv_port":27046,"stv_name":"Uncletopia | Frankfurt | 4 | All Maps | STV","players":[{"user_id":251,"name":"[UM-monster","steam_id":76561198085098243,"connected_time":3567000000000,"state":"active","ping":94},{"user_id":319,"name":"MARKO","steam_id":76561198065127504,"connected_time":4000000000,"state":"spawning","ping":59},{"user_id":255,"name":"COOL PEPE","steam_id":76561198848805153,"connected_time":3440000000000,"state":"active","ping":88},{"user_id":299,"name":"Xander","steam_id":76561198994815903,"connected_time":897000000000,"state":"active","ping":89},{"user_id":311,"name":"SoaCrow","steam_id":76561198069420717,"connected_time":336000000000,"state":"active","ping":46},{"user_id":306,"name":"hammertime","steam_id":76561199097714393,"connected_time":679000000000,"state":"active","ping":132},{"user_id":303,"name":"WHUSSKEY","steam_id":76561198137827441,"connected_time":829000000000,"state":"active","ping":58},{"user_id":300,"name":"Woad Raider","steam_id":76561198215485788,"connected_time":886000000000,"state":"active","ping":67},{"user_id":312,"name":"kenzou","steam_id":76561199180054996,"connected_time":335000000000,"state":"active","ping":52},{"user_id":315,"name":"snayke","steam_id":76561198077822932,"connected_time":218000000000,"state":"active","ping":60},{"user_id":307,"name":"Marchioly","steam_id":76561198335079215,"connected_time":598000000000,"state":"active","ping":90},{"user_id":202,"name":"Garolt_Knight","steam_id":76561198957445537,"connected_time":6980000000000,"state":"active","ping":82},{"user_id":287,"name":"Tails8521","steam_id":76561198051747164,"connected_time":1772000000000,"state":"active","ping":60},{"user_id":298,"name":"Angry Team Fortress 2 Nerd","steam_id":76561198970762992,"connected_time":1068000000000,"state":"active","ping":69},{"user_id":220,"name":"RAT BASTARD","steam_id":76561199195985387,"connected_time":5985000000000,"state":"active","ping":80},{"user_id":313,"name":"Fedm","steam_id":76561199020090514,"connected_time":253000000000,"state":"active","ping":74},{"user_id":269,"name":"❤Speedbump❤","steam_id":76561198388690313,"connected_time":2780000000000,"state":"active","ping":51},{"user_id":265,"name":"SuntanPikachu","steam_id":76561198121242476,"connected_time":3171000000000,"state":"active","ping":52},{"user_id":314,"name":"hide","steam_id":76561198918282467,"connected_time":232000000000,"state":"active","ping":45},{"user_id":292,"name":"Piros","steam_id":76561198193785653,"connected_time":1350000000000,"state":"active","ping":61},{"user_id":308,"name":"Larry Cañonga","steam_id":76561198081053203,"connected_time":592000000000,"state":"active","ping":186},{"user_id":318,"name":"wtabs","steam_id":76561198831766743,"connected_time":7000000000,"state":"active","ping":96},{"user_id":317,"name":"silicon based life form","steam_id":76561199127121346,"connected_time":178000000000,"state":"active","ping":54},{"user_id":238,"name":"Ween :0","steam_id":76561198073607799,"connected_time":4997000000000,"state":"active","ping":75}]},{"server_id":310,"name":"Uncletopia | Frankfurt | 5 | All Maps","name_short":"frk-5","host":"frk-1.de.uncletopia.com","port":27055,"enabled":true,"region":"eu","cc":"de","latitude":50.110924,"longitude":8.682127,"reserved":0,"last_update":"0001-01-01T00:00:00Z","name_a2s":"Uncletopia | Frankfurt | 5 | All Maps","protocol":17,"map":"pl_hoodoo_final","folder":"tf","game":"Team Fortress","app_id":440,"player_count":23,"max_players":24,"Bots":0,"server_type":"Dedicated","server_os":"Linux","password":true,"vac":true,"version":"7961495","steam_id":85568392924504277,"keywords":["nocrits","nodmgspread","payload","uncletopia"],"game_id":440,"stv_port":27056,"stv_name":"Uncletopia | Frankfurt | 5 | All Maps | STV","players":[{"user_id":561,"name":"-rikeOo-","steam_id":76561198303995379,"connected_time":1335000000000,"state":"active","ping":69},{"user_id":580,"name":"Alfred Shroom","steam_id":76561198117990411,"connected_time":279000000000,"state":"active","ping":55},{"user_id":579,"name":"papa Sloath","steam_id":76561198046382160,"connected_time":448000000000,"state":"active","ping":58},{"user_id":511,"name":"KALACH","steam_id":76561198028664460,"connected_time":4901000000000,"state":"active","ping":102},{"user_id":578,"name":"Yassine","steam_id":76561198140565712,"connected_time":550000000000,"state":"active","ping":58},{"user_id":572,"name":"Meladoom2","steam_id":76561198086845387,"connected_time":867000000000,"state":"active","ping":84},{"user_id":585,"name":"Ardello","steam_id":76561198864484125,"connected_time":6000000000,"state":"connecting","ping":0},{"user_id":571,"name":"Ve1zei1","steam_id":76561199418028100,"connected_time":955000000000,"state":"active","ping":67},{"user_id":541,"name":"Caliban","steam_id":76561197999696839,"connected_time":2924000000000,"state":"active","ping":98},{"user_id":570,"name":"realness","steam_id":76561199129226935,"connected_time":1122000000000,"state":"active","ping":91},{"user_id":558,"name":"Ixsus\u003c3","steam_id":76561198094756869,"connected_time":1547000000000,"state":"active","ping":56},{"user_id":559,"name":"Adamkarz","steam_id":76561198796428403,"connected_time":1515000000000,"state":"active","ping":79},{"user_id":584,"name":"BOBRV","steam_id":76561198156514651,"connected_time":54000000000,"state":"active","ping":77},{"user_id":537,"name":"blurry","steam_id":76561198884908952,"connected_time":3089000000000,"state":"active","ping":60},{"user_id":563,"name":"robsan","steam_id":76561198137375391,"connected_time":1302000000000,"state":"active","ping":85},{"user_id":482,"name":"Sham!","steam_id":76561198050434275,"connected_time":7433000000000,"state":"active","ping":45},{"user_id":564,"name":"The Dutiful Dasein","steam_id":76561198003269215,"connected_time":1285000000000,"state":"active","ping":73},{"user_id":544,"name":"cacsm","steam_id":76561199175492954,"connected_time":2673000000000,"state":"active","ping":77},{"user_id":515,"name":"Sunduchek","steam_id":76561198067934157,"connected_time":4374000000000,"state":"active","ping":123},{"user_id":565,"name":"Jughead","steam_id":76561198000355410,"connected_time":1284000000000,"state":"active","ping":52},{"user_id":581,"name":"John Noob","steam_id":76561197999170026,"connected_time":224000000000,"state":"active","ping":77},{"user_id":576,"name":"BORGETENNISCLUB","steam_id":76561198049343723,"connected_time":626000000000,"state":"active","ping":64},{"user_id":518,"name":"Marukuso","steam_id":76561198154229845,"connected_time":4311000000000,"state":"active","ping":56}]},{"server_id":311,"name":"Uncletopia | Frankfurt | 6 | All Maps","name_short":"frk-6","host":"frk-1.de.uncletopia.com","port":27065,"enabled":true,"region":"eu","cc":"de","latitude":50.110924,"longitude":8.682127,"reserved":0,"last_update":"0001-01-01T00:00:00Z","name_a2s":"Uncletopia | Frankfurt | 6 | All Maps","protocol":17,"map":"cp_dustbowl","folder":"tf","game":"Team Fortress","app_id":440,"player_count":24,"max_players":24,"Bots":0,"server_type":"Dedicated","server_os":"Linux","password":true,"vac":true,"version":"7961495","steam_id":85568392924504278,"keywords":["cp","nocrits","nodmgspread","uncletopia"],"game_id":440,"stv_port":27066,"stv_name":"Uncletopia | Frankfurt | 6 | All Maps | STV","players":[{"user_id":185,"name":"MGE MONSTER228","steam_id":76561198796600155,"connected_time":3232000000000,"state":"active","ping":76},{"user_id":235,"name":"Waffel","steam_id":76561198113552009,"connected_time":466000000000,"state":"active","ping":90},{"user_id":229,"name":"GrosFumiste","steam_id":76561198850134909,"connected_time":751000000000,"state":"active","ping":60},{"user_id":230,"name":"dfcv rftgvb ghtb","steam_id":76561198397764042,"connected_time":699000000000,"state":"active","ping":74},{"user_id":186,"name":"Purrplehaze","steam_id":76561198297604298,"connected_time":3218000000000,"state":"active","ping":59},{"user_id":220,"name":"frog","steam_id":76561198983650763,"connected_time":1022000000000,"state":"active","ping":62},{"user_id":141,"name":"else1","steam_id":76561197996558319,"connected_time":6603000000000,"state":"active","ping":75},{"user_id":240,"name":"aleksandrigrut","steam_id":76561198438008479,"connected_time":17000000000,"state":"active","ping":130},{"user_id":222,"name":"zero2nine1","steam_id":76561199181821179,"connected_time":1005000000000,"state":"active","ping":59},{"user_id":210,"name":"British Rage","steam_id":76561198009585209,"connected_time":1984000000000,"state":"active","ping":47},{"user_id":237,"name":"chadbradereno","steam_id":76561198987220745,"connected_time":316000000000,"state":"active","ping":105},{"user_id":146,"name":"[UiF] BafTac r/f*ckcars","steam_id":76561198060547050,"connected_time":6515000000000,"state":"active","ping":59},{"user_id":231,"name":"gabe oy","steam_id":76561199169259751,"connected_time":644000000000,"state":"active","ping":60},{"user_id":189,"name":"comic_sans","steam_id":76561198845309519,"connected_time":3146000000000,"state":"active","ping":84},{"user_id":204,"name":"Ephix","steam_id":76561197977164055,"connected_time":2342000000000,"state":"active","ping":45},{"user_id":232,"name":"BritishBeef","steam_id":76561197971054321,"connected_time":618000000000,"state":"active","ping":66},{"user_id":239,"name":"Aetheryeon","steam_id":76561198059741485,"connected_time":71000000000,"state":"active","ping":57},{"user_id":217,"name":"bean","steam_id":76561198161013815,"connected_time":1270000000000,"state":"active","ping":65},{"user_id":223,"name":"NicatsCage","steam_id":76561198067271076,"connected_time":965000000000,"state":"active","ping":80},{"user_id":233,"name":"God is serb","steam_id":76561198966246028,"connected_time":613000000000,"state":"active","ping":78},{"user_id":238,"name":"warforge3","steam_id":76561199276024310,"connected_time":166000000000,"state":"active","ping":79},{"user_id":128,"name":"Greasy","steam_id":76561198868180366,"connected_time":7394000000000,"state":"active","ping":59},{"user_id":171,"name":"Snowy","steam_id":76561198169992461,"connected_time":4653000000000,"state":"active","ping":47},{"user_id":198,"name":"BD[PL]","steam_id":76561198115995871,"connected_time":2883000000000,"state":"active","ping":56}]},{"server_id":23,"name":"Uncletopia | Frankfurt | 7 | Stopwatch","name_short":"frk-7","host":"frk-1.de.uncletopia.com","port":27075,"enabled":true,"region":"eu","cc":"de","latitude":50.110924,"longitude":8.682127,"reserved":0,"last_update":"0001-01-01T00:00:00Z","name_a2s":"Uncletopia | Frankfurt | 7 | Stopwatch","protocol":17,"map":"workshop/koth_bagel_rc6.ugc2514036946","folder":"tf","game":"Team Fortress","app_id":440,"player_count":0,"max_players":24,"Bots":0,"server_type":"Dedicated","server_os":"Linux","password":true,"vac":true,"version":"7961495","steam_id":85568392924742827,"keywords":["cp","nocrits","nodmgspread","uncletopia"],"game_id":440,"stv_port":27076,"stv_name":"Uncletopia | Frankfurt | 7 | Stopwatch | STV","players":null},{"server_id":24,"name":"Uncletopia | Frankfurt | 8 | Community","name_short":"frk-8","host":"frk-1.de.uncletopia.com","port":27085,"enabled":true,"region":"eu","cc":"de","latitude":50.110924,"longitude":8.682127,"reserved":0,"last_update":"0001-01-01T00:00:00Z","name_a2s":"Uncletopia | Frankfurt | 8 | Community","protocol":17,"map":"workshop/pl_boundary_final1.ugc456799153","folder":"tf","game":"Team Fortress","app_id":440,"player_count":3,"max_players":24,"Bots":0,"server_type":"Dedicated","server_os":"Linux","password":true,"vac":true,"version":"7961495","steam_id":85568392924742828,"keywords":["nocrits","nodmgspread","payload","uncletopia"],"game_id":440,"stv_port":27086,"stv_name":"Uncletopia | Frankfurt | 8 | Community | STV","players":[{"user_id":4,"name":"CheezusOfNazareth","steam_id":76561199093893813,"connected_time":951000000000,"state":"active","ping":64},{"user_id":5,"name":"Dragonknight","steam_id":76561198080527208,"connected_time":931000000000,"state":"active","ping":61},{"user_id":6,"name":"ProSlayer77","steam_id":76561199435273618,"connected_time":929000000000,"state":"active","ping":65}]},{"server_id":202,"name":"Uncletopia | Hong Kong | 1 | All Maps","name_short":"hgk-1","host":"hgk-1.hk.uncletopia.com","port":27015,"enabled":true,"region":"asia","cc":"hk","latitude":22.302711,"longitude":114.177216,"reserved":0,"last_update":"0001-01-01T00:00:00Z","name_a2s":"Uncletopia | Hong Kong | 1 | All Maps","protocol":17,"map":"cp_sunshine","folder":"tf","game":"Team Fortress","app_id":440,"player_count":17,"max_players":24,"Bots":0,"server_type":"Dedicated","server_os":"Linux","password":true,"vac":true,"version":"7961495","steam_id":85568392924494504,"keywords":["cp","nocrits","nodmgspread","uncletopia"],"game_id":440,"stv_port":27016,"stv_name":"Uncletopia | Hong Kong | 1 | All Maps | STV","players":[{"user_id":343,"name":"BRING BACK ***** -no-browser !!","steam_id":76561198865984950,"connected_time":5321000000000,"state":"active","ping":78},{"user_id":372,"name":"CarlJo","steam_id":76561198384135605,"connected_time":3038000000000,"state":"active","ping":91},{"user_id":390,"name":"beepis","steam_id":76561198965473654,"connected_time":2003000000000,"state":"active","ping":72},{"user_id":371,"name":"screamer","steam_id":76561198147950041,"connected_time":3093000000000,"state":"active","ping":83},{"user_id":359,"name":"Cloud","steam_id":76561198272454184,"connected_time":3918000000000,"state":"active","ping":78},{"user_id":397,"name":"calm","steam_id":76561198360026912,"connected_time":1367000000000,"state":"active","ping":89},{"user_id":410,"name":"Jun-char","steam_id":76561198126774704,"connected_time":44000000000,"state":"active","ping":76},{"user_id":393,"name":"3:20 kd rifler","steam_id":76561198286261614,"connected_time":1565000000000,"state":"active","ping":87},{"user_id":394,"name":"no vc no c","steam_id":76561197989503095,"connected_time":1544000000000,"state":"active","ping":88},{"user_id":388,"name":"Kendrick Llama","steam_id":76561198322706309,"connected_time":2138000000000,"state":"active","ping":48},{"user_id":379,"name":"Momoxhien","steam_id":76561198414997429,"connected_time":2608000000000,"state":"active","ping":61},{"user_id":404,"name":"MmHD 1080p","steam_id":76561198827805451,"connected_time":648000000000,"state":"active","ping":54},{"user_id":406,"name":"brizzard","steam_id":76561198048438653,"connected_time":518000000000,"state":"active","ping":35},{"user_id":405,"name":"wert0f","steam_id":76561199293855753,"connected_time":630000000000,"state":"active","ping":57},{"user_id":398,"name":"kira","steam_id":76561199085845007,"connected_time":1345000000000,"state":"active","ping":54},{"user_id":399,"name":"IZreal","steam_id":76561198376149177,"connected_time":1319000000000,"state":"active","ping":69},{"user_id":400,"name":"Yoshiiimitsuu","steam_id":76561199214154763,"connected_time":1261000000000,"state":"active","ping":62}]},{"server_id":1,"name":"Uncletopia | Los Angeles | 1 | All Maps","name_short":"lax-1","host":"lax-1.us.uncletopia.com","port":27015,"enabled":true,"region":"us-west","cc":"us","latitude":33.94279,"longitude":-118.41004,"reserved":0,"last_update":"0001-01-01T00:00:00Z","name_a2s":"Uncletopia | Los Angeles | 1 | All Maps","protocol":17,"map":"cp_gorge","folder":"tf","game":"Team Fortress","app_id":440,"player_count":0,"max_players":24,"Bots":0,"server_type":"Dedicated","server_os":"Linux","password":true,"vac":true,"version":"7961495","steam_id":85568392924469991,"keywords":["cp","nocrits","nodmgspread","uncletopia"],"game_id":440,"stv_port":27016,"stv_name":"Uncletopia | Los Angeles | 1 | All Maps | STV","players":null},{"server_id":112,"name":"Uncletopia | Los Angeles | 2 | All Maps","name_short":"lax-2","host":"lax-1.us.uncletopia.com","port":27025,"enabled":true,"region":"us-west","cc":"us","latitude":33.94279,"longitude":-118.41004,"reserved":0,"last_update":"0001-01-01T00:00:00Z","name_a2s":"Uncletopia | Los Angeles | 2 | All Maps","protocol":17,"map":"koth_cascade","folder":"tf","game":"Team Fortress","app_id":440,"player_count":0,"max_players":24,"Bots":0,"server_type":"Dedicated","server_os":"Linux","password":true,"vac":true,"version":"7961495","steam_id":85568392924469992,"keywords":["cp","nocrits","nodmgspread","uncletopia"],"game_id":440,"stv_port":27026,"stv_name":"Uncletopia | Los Angeles | 2 | All Maps | STV","players":null},{"server_id":324,"name":"Uncletopia | Los Angeles | 3 | All Maps","name_short":"lax-3","host":"lax-1.us.uncletopia.com","port":27035,"enabled":true,"region":"us-west","cc":"us","latitude":33.94279,"longitude":-118.41004,"reserved":0,"last_update":"0001-01-01T00:00:00Z","name_a2s":"Uncletopia | Los Angeles | 3 | All Maps","protocol":17,"map":"koth_viaduct","folder":"tf","game":"Team Fortress","app_id":440,"player_count":5,"max_players":24,"Bots":0,"server_type":"Dedicated","server_os":"Linux","password":true,"vac":true,"version":"7961495","steam_id":85568392924510198,"keywords":["cp","nocrits","nodmgspread","uncletopia"],"game_id":440,"stv_port":27036,"stv_name":"Uncletopia | Los Angeles | 3 | All Maps | STV","players":[{"user_id":3,"name":"◍Gremlin◍","steam_id":76561199062136263,"connected_time":3991000000000,"state":"active","ping":60},{"user_id":8,"name":"EXP64","steam_id":76561198414530310,"connected_time":2436000000000,"state":"active","ping":101},{"user_id":9,"name":"WeIsAwesome_156","steam_id":76561199471673921,"connected_time":2118000000000,"state":"active","ping":117},{"user_id":13,"name":"Unwavering Flavor","steam_id":76561198053306065,"connected_time":182000000000,"state":"active","ping":67},{"user_id":12,"name":"◖Dell Pickle◗","steam_id":76561198988431242,"connected_time":366000000000,"state":"active","ping":105}]},{"server_id":25,"name":"Uncletopia | Los Angeles | 4 | Stopwatch","name_short":"lax-4","host":"lax-1.us.uncletopia.com","port":27045,"enabled":true,"region":"us-west","cc":"us","latitude":33.94279,"longitude":-118.41004,"reserved":0,"last_update":"0001-01-01T00:00:00Z","name_a2s":"Uncletopia | Los Angeles | 4 | Stopwatch","protocol":17,"map":"workshop/koth_product_final.ugc454272353","folder":"tf","game":"Team Fortress","app_id":440,"player_count":0,"max_players":24,"Bots":0,"server_type":"Dedicated","server_os":"Linux","password":true,"vac":true,"version":"7961495","steam_id":85568392924510199,"keywords":["cp","nocrits","nodmgspread","uncletopia"],"game_id":440,"stv_port":27046,"stv_name":"Uncletopia | Los Angeles | 4 | Stopwatch | STV","players":null},{"server_id":11,"name":"Uncletopia | London | 1 | All Maps","name_short":"lon-1","host":"lon-1.uk.uncletopia.com","port":27015,"enabled":true,"region":"eu","cc":"gb","latitude":51.509865,"longitude":-0.118092,"reserved":0,"last_update":"0001-01-01T00:00:00Z","name_a2s":"Uncletopia | London | 1 | All Maps","protocol":17,"map":"pl_frontier_final","folder":"tf","game":"Team Fortress","app_id":440,"player_count":24,"max_players":24,"Bots":0,"server_type":"Dedicated","server_os":"Linux","password":true,"vac":true,"version":"7961495","steam_id":85568392924367362,"keywords":["nocrits","nodmgspread","payload","uncletopia"],"game_id":440,"stv_port":27016,"stv_name":"Uncletopia | London | 1 | All Maps | STV","players":[{"user_id":315,"name":"nappo","steam_id":76561198060105180,"connected_time":2957000000000,"state":"active","ping":60},{"user_id":343,"name":"shlongy bongy","steam_id":76561198015876799,"connected_time":1212000000000,"state":"active","ping":66},{"user_id":361,"name":"Gugu gaga","steam_id":76561198161822358,"connected_time":22000000000,"state":"active","ping":68},{"user_id":331,"name":"Dan Dan the Furious","steam_id":76561198091032527,"connected_time":2127000000000,"state":"active","ping":36},{"user_id":352,"name":"Meatsleep","steam_id":76561198048314729,"connected_time":968000000000,"state":"active","ping":87},{"user_id":362,"name":"HIGHER THE KING OF THE SKY","steam_id":76561198173218318,"connected_time":6000000000,"state":"spawning","ping":45},{"user_id":345,"name":"Agnolotti","steam_id":76561198038827937,"connected_time":1185000000000,"state":"active","ping":46},{"user_id":307,"name":"yipieeee :DDD","steam_id":76561198076219289,"connected_time":4113000000000,"state":"active","ping":56},{"user_id":292,"name":"sword machine","steam_id":76561198895235231,"connected_time":5810000000000,"state":"active","ping":59},{"user_id":338,"name":"yeahyeahyeahhh","steam_id":76561198010662796,"connected_time":1940000000000,"state":"active","ping":45},{"user_id":176,"name":"Laru","steam_id":76561197998838438,"connected_time":15312000000000,"state":"active","ping":74},{"user_id":310,"name":"ZANNABLUKE","steam_id":76561198013534336,"connected_time":3933000000000,"state":"active","ping":57},{"user_id":348,"name":"AidenQG","steam_id":76561198864678536,"connected_time":1141000000000,"state":"active","ping":49},{"user_id":359,"name":"Well","steam_id":76561198411337640,"connected_time":58000000000,"state":"active","ping":91},{"user_id":276,"name":"Falafel","steam_id":76561198043344845,"connected_time":6837000000000,"state":"active","ping":45},{"user_id":360,"name":"dog?","steam_id":76561199232839385,"connected_time":52000000000,"state":"active","ping":113},{"user_id":323,"name":"finbar","steam_id":76561198056812396,"connected_time":2590000000000,"state":"active","ping":76},{"user_id":357,"name":"john chipper  the sipper","steam_id":76561198999028594,"connected_time":148000000000,"state":"active","ping":105},{"user_id":356,"name":"A Person","steam_id":76561198842670241,"connected_time":501000000000,"state":"active","ping":60},{"user_id":335,"name":"HazelForest","steam_id":76561198171827033,"connected_time":2004000000000,"state":"active","ping":41},{"user_id":339,"name":"почему?не знаю.","steam_id":76561198413275515,"connected_time":1792000000000,"state":"active","ping":80},{"user_id":336,"name":"fwareshmoney","steam_id":76561198101292843,"connected_time":2004000000000,"state":"active","ping":53},{"user_id":351,"name":"Umbro","steam_id":76561198087930438,"connected_time":1015000000000,"state":"active","ping":74},{"user_id":302,"name":"tim","steam_id":76561198801490317,"connected_time":4617000000000,"state":"active","ping":106}]},{"server_id":114,"name":"Uncletopia | London | 2 | All Maps","name_short":"lon-2","host":"lon-1.uk.uncletopia.com","port":27025,"enabled":true,"region":"eu","cc":"gb","latitude":51.509865,"longitude":-0.118092,"reserved":0,"last_update":"0001-01-01T00:00:00Z","name_a2s":"Uncletopia | London | 2 | All Maps","protocol":17,"map":"pl_upward","folder":"tf","game":"Team Fortress","app_id":440,"player_count":24,"max_players":24,"Bots":0,"server_type":"Dedicated","server_os":"Linux","password":true,"vac":true,"version":"7961495","steam_id":85568392924470941,"keywords":["nocrits","nodmgspread","payload","uncletopia"],"game_id":440,"stv_port":27026,"stv_name":"Uncletopia | London | 2 | All Maps | STV","players":[{"user_id":68,"name":"doomer","steam_id":76561198977420882,"connected_time":397000000000,"state":"active","ping":39},{"user_id":18,"name":"sniper's kangaroo ex","steam_id":76561198334042273,"connected_time":4192000000000,"state":"active","ping":42},{"user_id":45,"name":"r06u3","steam_id":76561198254099253,"connected_time":2124000000000,"state":"active","ping":167},{"user_id":61,"name":"Saken","steam_id":76561198049075295,"connected_time":1358000000000,"state":"active","ping":71},{"user_id":65,"name":"lol","steam_id":76561198072115209,"connected_time":960000000000,"state":"active","ping":121},{"user_id":21,"name":"Lwyz016","steam_id":76561199164626058,"connected_time":3427000000000,"state":"active","ping":71},{"user_id":64,"name":"Surrealistic_Ganerson","steam_id":76561198029591931,"connected_time":1025000000000,"state":"active","ping":89},{"user_id":63,"name":"veltek","steam_id":76561198112681438,"connected_time":1205000000000,"state":"active","ping":83},{"user_id":60,"name":"Cum consumer","steam_id":76561199172356488,"connected_time":1465000000000,"state":"active","ping":99},{"user_id":28,"name":"Olu","steam_id":76561198057135574,"connected_time":2470000000000,"state":"active","ping":85},{"user_id":29,"name":"Jrock","steam_id":76561198045715996,"connected_time":2444000000000,"state":"active","ping":143},{"user_id":38,"name":"Ferrariracer5f1","steam_id":76561199229815098,"connected_time":2293000000000,"state":"active","ping":45},{"user_id":49,"name":"paułó","steam_id":76561198286747891,"connected_time":1953000000000,"state":"active","ping":79},{"user_id":32,"name":"hyvakii705","steam_id":76561198086630552,"connected_time":2428000000000,"state":"active","ping":105},{"user_id":33,"name":"thog","steam_id":76561198219901556,"connected_time":2396000000000,"state":"active","ping":106},{"user_id":34,"name":"rockstar yeah yeah yeah","steam_id":76561199215373837,"connected_time":2376000000000,"state":"active","ping":58},{"user_id":50,"name":"Akuma's Balls","steam_id":76561198030612444,"connected_time":1918000000000,"state":"active","ping":53},{"user_id":59,"name":"lark","steam_id":76561198091724522,"connected_time":1522000000000,"state":"active","ping":55},{"user_id":52,"name":"Švarcas","steam_id":76561198841646694,"connected_time":1907000000000,"state":"active","ping":78},{"user_id":40,"name":"I.AM.THE.BOOP.WHICH.IS.APROACHI","steam_id":76561198049342507,"connected_time":2238000000000,"state":"active","ping":78},{"user_id":66,"name":"Charm","steam_id":76561198904910888,"connected_time":793000000000,"state":"active","ping":142},{"user_id":69,"name":"Bulyto","steam_id":76561198043205202,"connected_time":222000000000,"state":"active","ping":77},{"user_id":56,"name":"cropping","steam_id":76561198026586456,"connected_time":1815000000000,"state":"active","ping":61},{"user_id":57,"name":"Bags.","steam_id":76561198045708372,"connected_time":1765000000000,"state":"active","ping":51}]},{"server_id":320,"name":"Uncletopia | London | 3 | All Maps","name_short":"lon-3","host":"lon-1.uk.uncletopia.com","port":27035,"enabled":true,"region":"eu","cc":"gb","latitude":51.509865,"longitude":-0.118092,"reserved":0,"last_update":"0001-01-01T00:00:00Z","name_a2s":"Uncletopia | London | 3 | All Maps","protocol":17,"map":"koth_lakeside_final","folder":"tf","game":"Team Fortress","app_id":440,"player_count":0,"max_players":24,"Bots":0,"server_type":"Dedicated","server_os":"Linux","password":true,"vac":true,"version":"7961495","steam_id":85568392924510192,"keywords":["cp","nocrits","nodmgspread","uncletopia"],"game_id":440,"stv_port":27036,"stv_name":"Uncletopia | London | 3 | All Maps | STV","players":null},{"server_id":321,"name":"Uncletopia | London | 4 | All Maps","name_short":"lon-4","host":"lon-1.uk.uncletopia.com","port":27045,"enabled":true,"region":"eu","cc":"gb","latitude":51.509865,"longitude":-0.118092,"reserved":0,"last_update":"0001-01-01T00:00:00Z","name_a2s":"Uncletopia | London | 4 | All Maps","protocol":17,"map":"pl_snowycoast","folder":"tf","game":"Team Fortress","app_id":440,"player_count":24,"max_players":24,"Bots":0,"server_type":"Dedicated","server_os":"Linux","password":true,"vac":true,"version":"7961495","steam_id":85568392924510193,"keywords":["nocrits","nodmgspread","payload","uncletopia"],"game_id":440,"stv_port":27046,"stv_name":"Uncletopia | London | 4 | All Maps | STV","players":[{"user_id":80,"name":"(9)cum","steam_id":76561198052898368,"connected_time":8117000000000,"state":"active","ping":81},{"user_id":179,"name":"Na'vi Misato (by popular demand","steam_id":76561198130860698,"connected_time":621000000000,"state":"active","ping":45},{"user_id":173,"name":"joni","steam_id":76561198413766717,"connected_time":1258000000000,"state":"active","ping":65},{"user_id":176,"name":"thundermuffin","steam_id":76561198067770965,"connected_time":1079000000000,"state":"active","ping":121},{"user_id":178,"name":"dopamine overdose","steam_id":76561199032511302,"connected_time":704000000000,"state":"active","ping":106},{"user_id":170,"name":"katana on the trains","steam_id":76561198202464032,"connected_time":1456000000000,"state":"active","ping":55},{"user_id":167,"name":"co","steam_id":76561198188225497,"connected_time":1636000000000,"state":"active","ping":49},{"user_id":180,"name":"ThornDrayton","steam_id":76561198141985675,"connected_time":578000000000,"state":"active","ping":31},{"user_id":181,"name":"NOBODY","steam_id":76561198094578887,"connected_time":545000000000,"state":"active","ping":107},{"user_id":177,"name":"cl_skinnyboi 1","steam_id":76561198042864708,"connected_time":816000000000,"state":"active","ping":36},{"user_id":136,"name":"Sex Man TF2","steam_id":76561198798657045,"connected_time":3943000000000,"state":"active","ping":72},{"user_id":187,"name":"Crimson","steam_id":76561197987552332,"connected_time":92000000000,"state":"active","ping":54},{"user_id":188,"name":"Amandus","steam_id":76561198036281079,"connected_time":89000000000,"state":"active","ping":74},{"user_id":183,"name":"Grillem Dafoe","steam_id":76561198306874574,"connected_time":451000000000,"state":"active","ping":50},{"user_id":184,"name":"Fallen","steam_id":76561199445283186,"connected_time":440000000000,"state":"active","ping":167},{"user_id":118,"name":"Dirty goblin","steam_id":76561198153207632,"connected_time":5066000000000,"state":"active","ping":63},{"user_id":186,"name":"Aeinzalot","steam_id":76561198195288449,"connected_time":141000000000,"state":"active","ping":48},{"user_id":175,"name":"Adam","steam_id":76561198083655265,"connected_time":1122000000000,"state":"active","ping":48},{"user_id":146,"name":"Personano","steam_id":76561198994355577,"connected_time":3013000000000,"state":"active","ping":51},{"user_id":185,"name":"Zamorocian","steam_id":76561198076604017,"connected_time":367000000000,"state":"active","ping":44},{"user_id":163,"name":"garfield gaming","steam_id":76561199060384919,"connected_time":1761000000000,"state":"active","ping":38},{"user_id":164,"name":"MoomyBoomy","steam_id":76561198150787961,"connected_time":1734000000000,"state":"active","ping":144},{"user_id":93,"name":"..!","steam_id":76561198882483441,"connected_time":7228000000000,"state":"active","ping":144},{"user_id":171,"name":"1 toke 4 mars bars","steam_id":76561198056460000,"connected_time":1450000000000,"state":"active","ping":51}]},{"server_id":21,"name":"Uncletopia | London | 5 | All Maps","name_short":"lon-5","host":"lon-1.uk.uncletopia.com","port":27055,"enabled":true,"region":"eu","cc":"gb","latitude":51.509865,"longitude":-0.118092,"reserved":0,"last_update":"0001-01-01T00:00:00Z","name_a2s":"Uncletopia | London | 5 | All Maps","protocol":17,"map":"koth_lazarus","folder":"tf","game":"Team Fortress","app_id":440,"player_count":5,"max_players":24,"Bots":0,"server_type":"Dedicated","server_os":"Linux","password":true,"vac":true,"version":"7961495","steam_id":85568392924742829,"keywords":["cp","nocrits","nodmgspread","uncletopia"],"game_id":440,"stv_port":27056,"stv_name":"Uncletopia | London | 5 | All Maps | STV","players":[{"user_id":5,"name":"Wexer15","steam_id":76561199083941163,"connected_time":1613000000000,"state":"active","ping":51},{"user_id":6,"name":"ThatAveregeGamingEnjoyer","steam_id":76561199130142624,"connected_time":1447000000000,"state":"active","ping":60},{"user_id":7,"name":"Guido Crosetto","steam_id":76561199105755048,"connected_time":933000000000,"state":"active","ping":65},{"user_id":8,"name":"bingo","steam_id":76561199244545846,"connected_time":704000000000,"state":"active","ping":61},{"user_id":9,"name":"Jeffrey Harpen","steam_id":76561199073314677,"connected_time":524000000000,"state":"active","ping":65}]},{"server_id":22,"name":"Uncletopia | London | 6 | All Maps","name_short":"lon-6","host":"lon-1.uk.uncletopia.com","port":27065,"enabled":true,"region":"eu","cc":"gb","latitude":51.509865,"longitude":-0.118092,"reserved":0,"last_update":"0001-01-01T00:00:00Z","name_a2s":"Uncletopia | London | 6 | All Maps","protocol":17,"map":"koth_viaduct","folder":"tf","game":"Team Fortress","app_id":440,"player_count":0,"max_players":24,"Bots":0,"server_type":"Dedicated","server_os":"Linux","password":true,"vac":true,"version":"7961495","steam_id":85568392924742830,"keywords":["cp","nocrits","nodmgspread","uncletopia"],"game_id":440,"stv_port":27066,"stv_name":"Uncletopia | London | 6 | All Maps | STV","players":null},{"server_id":40,"name":"Uncletopia | London | 7 | Stopwatch","name_short":"lon-7","host":"lon-1.uk.uncletopia.com","port":27075,"enabled":true,"region":"eu","cc":"gb","latitude":51.509865,"longitude":-0.118092,"reserved":0,"last_update":"0001-01-01T00:00:00Z","name_a2s":"Uncletopia | London | 7 | Stopwatch","protocol":17,"map":"workshop/koth_ashville_final.ugc2130459942","folder":"tf","game":"Team Fortress","app_id":440,"player_count":0,"max_players":24,"Bots":0,"server_type":"Dedicated","server_os":"Linux","password":true,"vac":true,"version":"7961495","steam_id":85568392924964314,"keywords":["cp","nocrits","nodmgspread","uncletopia"],"game_id":440,"stv_port":27076,"stv_name":"Uncletopia | London | 7 | Stopwatch | STV","players":null},{"server_id":41,"name":"Uncletopia | London | 8 | Community","name_short":"lon-8","host":"lon-1.uk.uncletopia.com","port":27085,"enabled":true,"region":"eu","cc":"gb","latitude":51.509865,"longitude":-0.118092,"reserved":0,"last_update":"0001-01-01T00:00:00Z","name_a2s":"Uncletopia | London | 8 | Community","protocol":17,"map":"workshop/cp_croissant_final.ugc458840209","folder":"tf","game":"Team Fortress","app_id":440,"player_count":1,"max_players":24,"Bots":0,"server_type":"Dedicated","server_os":"Linux","password":true,"vac":true,"version":"7961495","steam_id":85568392924964315,"keywords":["cp","nocrits","nodmgspread","uncletopia"],"game_id":440,"stv_port":27086,"stv_name":"Uncletopia | London | 8 | Community | STV","players":[{"user_id":4,"name":"ECB","steam_id":76561197993401580,"connected_time":69000000000,"state":"active","ping":30}]},{"server_id":300,"name":"Uncletopia | Montréal | 1 | One Thousand Uncles","name_short":"mtl-1","host":"mtl-1.ca.uncletopia.com","port":27015,"enabled":true,"region":"us-east","cc":"ca","latitude":45.50889,"longitude":-73.56167,"reserved":0,"last_update":"0001-01-01T00:00:00Z","name_a2s":"Uncletopia | Montréal | 1 | One Thousand Uncles","protocol":17,"map":"pl_chilly","folder":"tf","game":"Team Fortress","app_id":440,"player_count":0,"max_players":32,"Bots":0,"server_type":"Dedicated","server_os":"Linux","password":true,"vac":true,"version":"7961495","steam_id":85568392924500087,"keywords":["alltalk","danepve","increased_maxplayers","norespawntime","payload","uncletopia"],"game_id":440,"stv_port":0,"stv_name":"","players":null},{"server_id":301,"name":"Uncletopia | Montréal | 2 | One Thousand Uncles","name_short":"mtl-2","host":"mtl-1.ca.uncletopia.com","port":27025,"enabled":true,"region":"us-east","cc":"ca","latitude":45.50889,"longitude":-73.56167,"reserved":0,"last_update":"0001-01-01T00:00:00Z","name_a2s":"Uncletopia | Montréal | 2 | One Thousand Uncles","protocol":17,"map":"pl_snowycoast","folder":"tf","game":"Team Fortress","app_id":440,"player_count":0,"max_players":32,"Bots":0,"server_type":"Dedicated","server_os":"Linux","password":true,"vac":true,"version":"7961495","steam_id":85568392924500088,"keywords":["alltalk","danepve","increased_maxplayers","norespawntime","payload","uncletopia"],"game_id":440,"stv_port":0,"stv_name":"","players":null},{"server_id":302,"name":"Uncletopia | Montréal | 3 | One Thousand Uncles","name_short":"mtl-3","host":"mtl-1.ca.uncletopia.com","port":27035,"enabled":true,"region":"us-east","cc":"ca","latitude":45.50889,"longitude":-73.56167,"reserved":0,"last_update":"0001-01-01T00:00:00Z","name_a2s":"Uncletopia | Montréal | 3 | One Thousand Uncles","protocol":17,"map":"pl_upward","folder":"tf","game":"Team Fortress","app_id":440,"player_count":20,"max_players":32,"Bots":16,"server_type":"Dedicated","server_os":"Linux","password":true,"vac":true,"version":"7961495","steam_id":85568392924500089,"keywords":["alltalk","bots","danepve","increased_maxplayers","norespawntime","payload","uncletopia"],"game_id":440,"stv_port":0,"stv_name":"","players":[{"user_id":2,"name":"DoingBooing","steam_id":76561199503942745,"connected_time":839000000000,"state":"active","ping":73},{"user_id":19,"name":"A Beer and Wing Combo","steam_id":76561198108400585,"connected_time":503000000000,"state":"active","ping":50},{"user_id":22,"name":"Why not Zoidberg?","steam_id":76561197982207556,"connected_time":109000000000,"state":"active","ping":78},{"user_id":21,"name":"TheRamenYouAteYesterday","steam_id":76561199474398508,"connected_time":124000000000,"state":"active","ping":60}]},{"server_id":13,"name":"Uncletopia | New York City | 1 | All Maps","name_short":"nyc-1","host":"nyc-1.us.uncletopia.com","port":27015,"enabled":true,"region":"us-east","cc":"us","latitude":40.73061,"longitude":-73.93524,"reserved":0,"last_update":"0001-01-01T00:00:00Z","name_a2s":"Uncletopia | New York City | 1 | All Maps","protocol":17,"map":"koth_brazil","folder":"tf","game":"Team Fortress","app_id":440,"player_count":0,"max_players":24,"Bots":0,"server_type":"Dedicated","server_os":"Linux","password":true,"vac":true,"version":"7961495","steam_id":85568392924469993,"keywords":["cp","nocrits","nodmgspread","uncletopia"],"game_id":440,"stv_port":27016,"stv_name":"Uncletopia | New York City | 1 | All Maps | STV","players":null},{"server_id":14,"name":"Uncletopia | New York City | 2 | All Maps","name_short":"nyc-2","host":"nyc-1.us.uncletopia.com","port":27025,"enabled":true,"region":"us-east","cc":"us","latitude":40.73061,"longitude":-73.93524,"reserved":0,"last_update":"0001-01-01T00:00:00Z","name_a2s":"Uncletopia | New York City | 2 | All Maps","protocol":17,"map":"cp_dustbowl","folder":"tf","game":"Team Fortress","app_id":440,"player_count":24,"max_players":24,"Bots":0,"server_type":"Dedicated","server_os":"Linux","password":true,"vac":true,"version":"7961495","steam_id":85568392924469994,"keywords":["cp","nocrits","nodmgspread","uncletopia"],"game_id":440,"stv_port":27026,"stv_name":"Uncletopia | New York City | 2 | All Maps | STV","players":[{"user_id":48,"name":"He rolls his own","steam_id":76561198058162684,"connected_time":3087000000000,"state":"active","ping":57},{"user_id":77,"name":"badabing badaboom","steam_id":76561198850358863,"connected_time":985000000000,"state":"active","ping":152},{"user_id":87,"name":"yeayea","steam_id":76561198118498882,"connected_time":792000000000,"state":"active","ping":54},{"user_id":68,"name":"Wawa","steam_id":76561198077716836,"connected_time":1890000000000,"state":"active","ping":50},{"user_id":70,"name":"AXELORDX","steam_id":76561198136639581,"connected_time":1600000000000,"state":"active","ping":76},{"user_id":79,"name":"MCwopsi","steam_id":76561198318263376,"connected_time":972000000000,"state":"active","ping":61},{"user_id":73,"name":"ToyBox","steam_id":76561199074735423,"connected_time":1424000000000,"state":"active","ping":49},{"user_id":78,"name":"↑Slimbro","steam_id":76561198088926489,"connected_time":980000000000,"state":"active","ping":51},{"user_id":88,"name":"IdkProlly","steam_id":76561198269212968,"connected_time":723000000000,"state":"active","ping":43},{"user_id":91,"name":"Sammich","steam_id":76561198010543087,"connected_time":209000000000,"state":"active","ping":75},{"user_id":62,"name":"FaZe Flanders","steam_id":76561198029821707,"connected_time":2100000000000,"state":"active","ping":64},{"user_id":69,"name":"AlmightyLoaf","steam_id":76561197986466977,"connected_time":1688000000000,"state":"active","ping":50},{"user_id":82,"name":"blurst of times","steam_id":76561197972325640,"connected_time":903000000000,"state":"active","ping":112},{"user_id":93,"name":"loscemo","steam_id":76561197994884609,"connected_time":3000000000,"state":"spawning","ping":107},{"user_id":84,"name":"Deltaco","steam_id":76561198094572694,"connected_time":867000000000,"state":"active","ping":118},{"user_id":85,"name":"Rornir","steam_id":76561198081829615,"connected_time":847000000000,"state":"active","ping":55},{"user_id":71,"name":"you forgot the sauce","steam_id":76561198387016713,"connected_time":1596000000000,"state":"active","ping":46},{"user_id":86,"name":"joachym","steam_id":76561198428579761,"connected_time":797000000000,"state":"active","ping":147},{"user_id":27,"name":"RedBread | Not mad, just Bo3","steam_id":76561197999362370,"connected_time":3995000000000,"state":"active","ping":73},{"user_id":65,"name":"airy","steam_id":76561198174632198,"connected_time":2057000000000,"state":"active","ping":81},{"user_id":92,"name":"PK","steam_id":76561198368722500,"connected_time":20000000000,"state":"spawning","ping":76},{"user_id":66,"name":"Big Yoshi","steam_id":76561199160576376,"connected_time":2057000000000,"state":"active","ping":128},{"user_id":74,"name":"Franston","steam_id":76561198253365247,"connected_time":1417000000000,"state":"active","ping":154},{"user_id":90,"name":"dan","steam_id":76561197984998426,"connected_time":607000000000,"state":"active","ping":86}]},{"server_id":15,"name":"Uncletopia | New York City | 3 | Stopwatch","name_short":"nyc-3","host":"nyc-1.us.uncletopia.com","port":27035,"enabled":true,"region":"us-east","cc":"us","latitude":40.73061,"longitude":-73.93524,"reserved":0,"last_update":"0001-01-01T00:00:00Z","name_a2s":"Uncletopia | New York City | 3 | Stopwatch","protocol":17,"map":"workshop/cp_reckoner_rc6.ugc674719999","folder":"tf","game":"Team Fortress","app_id":440,"player_count":0,"max_players":24,"Bots":0,"server_type":"Dedicated","server_os":"Linux","password":true,"vac":true,"version":"7961495","steam_id":85568392924742820,"keywords":["cp","nocrits","nodmgspread","uncletopia"],"game_id":440,"stv_port":27036,"stv_name":"Uncletopia | New York City | 3 | Stopwatch | STV","players":null},{"server_id":16,"name":"Uncletopia | New York City | 4 | Community","name_short":"nyc-4","host":"nyc-1.us.uncletopia.com","port":27045,"enabled":true,"region":"us-east","cc":"us","latitude":40.73061,"longitude":-73.93524,"reserved":0,"last_update":"0001-01-01T00:00:00Z","name_a2s":"Uncletopia | New York City | 4 | Community","protocol":17,"map":"workshop/cp_indulge.ugc528106646","folder":"tf","game":"Team Fortress","app_id":440,"player_count":0,"max_players":24,"Bots":0,"server_type":"Dedicated","server_os":"Linux","password":true,"vac":true,"version":"7961495","steam_id":85568392924742821,"keywords":["cp","nocrits","nodmgspread","uncletopia"],"game_id":440,"stv_port":27046,"stv_name":"Uncletopia | New York City | 4 | Community | STV","players":null},{"server_id":142,"name":"Uncletopia | São Paulo | 1 | All Maps","name_short":"sao-1","host":"sao-1.br.uncletopia.com","port":27015,"enabled":true,"region":"sa","cc":"br","latitude":-23.533773,"longitude":-46.62529,"reserved":0,"last_update":"0001-01-01T00:00:00Z","name_a2s":"Uncletopia | São Paulo | 1 | All Maps","protocol":17,"map":"cp_granary","folder":"tf","game":"Team Fortress","app_id":440,"player_count":0,"max_players":24,"Bots":0,"server_type":"Dedicated","server_os":"Linux","password":true,"vac":true,"version":"7961495","steam_id":85568392924469996,"keywords":["cp","nocrits","nodmgspread","uncletopia"],"game_id":440,"stv_port":27016,"stv_name":"Uncletopia | São Paulo | 1 | All Maps | STV","players":null},{"server_id":143,"name":"Uncletopia | São Paulo | 2 | Community","name_short":"sao-2","host":"sao-2.br.uncletopia.com","port":27015,"enabled":true,"region":"sa","cc":"br","latitude":-23.533773,"longitude":-46.62529,"reserved":0,"last_update":"0001-01-01T00:00:00Z","name_a2s":"Uncletopia | São Paulo | 2 | Community","protocol":17,"map":"workshop/koth_jamram_rc1a.ugc2964065613","folder":"tf","game":"Team Fortress","app_id":440,"player_count":0,"max_players":24,"Bots":0,"server_type":"Dedicated","server_os":"Linux","password":true,"vac":true,"version":"7961495","steam_id":85568392924485349,"keywords":["cp","nocrits","nodmgspread","uncletopia"],"game_id":440,"stv_port":27016,"stv_name":"Uncletopia | São Paulo | 2 | Community | STV","players":null},{"server_id":7,"name":"Uncletopia | Seattle | 1 | All Maps","name_short":"sea-1","host":"sea-1.us.uncletopia.com","port":27015,"enabled":true,"region":"us-west","cc":"us","latitude":47.608013,"longitude":-122.33517,"reserved":0,"last_update":"0001-01-01T00:00:00Z","name_a2s":"Uncletopia | Seattle | 1 | All Maps","protocol":17,"map":"koth_viaduct","folder":"tf","game":"Team Fortress","app_id":440,"player_count":0,"max_players":24,"Bots":0,"server_type":"Dedicated","server_os":"Linux","password":true,"vac":true,"version":"7961495","steam_id":85568392924469997,"keywords":["cp","nocrits","nodmgspread","uncletopia"],"game_id":440,"stv_port":27016,"stv_name":"Uncletopia | Seattle | 1 | All Maps | STV","players":null},{"server_id":119,"name":"Uncletopia | Seattle | 2 | All Maps","name_short":"sea-2","host":"sea-1.us.uncletopia.com","port":27025,"enabled":true,"region":"us-west","cc":"us","latitude":47.608013,"longitude":-122.33517,"reserved":0,"last_update":"0001-01-01T00:00:00Z","name_a2s":"Uncletopia | Seattle | 2 | All Maps","protocol":17,"map":"koth_lakeside_final","folder":"tf","game":"Team Fortress","app_id":440,"player_count":0,"max_players":24,"Bots":0,"server_type":"Dedicated","server_os":"Linux","password":true,"vac":true,"version":"7961495","steam_id":85568392924469998,"keywords":["cp","nocrits","nodmgspread","uncletopia"],"game_id":440,"stv_port":27026,"stv_name":"Uncletopia | Seattle | 2 | All Maps | STV","players":null},{"server_id":406,"name":"Uncletopia | Seattle | 3 | Stopwatch","name_short":"sea-3","host":"sea-1.us.uncletopia.com","port":27035,"enabled":true,"region":"us-west","cc":"us","latitude":47.608013,"longitude":-122.33517,"reserved":0,"last_update":"0001-01-01T00:00:00Z","name_a2s":"Uncletopia | Seattle | 3 | Stopwatch","protocol":17,"map":"cp_gullywash_final1","folder":"tf","game":"Team Fortress","app_id":440,"player_count":0,"max_players":24,"Bots":0,"server_type":"Dedicated","server_os":"Linux","password":true,"vac":true,"version":"7961495","steam_id":85568392924515217,"keywords":["cp","nocrits","nodmgspread","uncletopia"],"game_id":440,"stv_port":27036,"stv_name":"Uncletopia | Seattle | 3 | Stopwatch | STV","players":null},{"server_id":17,"name":"Uncletopia | San Francisco | 1 | All Maps","name_short":"sfo-1","host":"sfo-1.us.uncletopia.com","port":27015,"enabled":true,"region":"us-west","cc":"us","latitude":37.77397,"longitude":-122.4313,"reserved":0,"last_update":"0001-01-01T00:00:00Z","name_a2s":"Uncletopia | San Francisco | 1 | All Maps","protocol":17,"map":"pl_frontier_final","folder":"tf","game":"Team Fortress","app_id":440,"player_count":19,"max_players":24,"Bots":0,"server_type":"Dedicated","server_os":"Linux","password":true,"vac":true,"version":"7961495","steam_id":85568392924469999,"keywords":["nocrits","nodmgspread","payload","uncletopia"],"game_id":440,"stv_port":27016,"stv_name":"Uncletopia | San Francisco | 1 | All Maps | STV","players":[{"user_id":94,"name":"The Grungler","steam_id":76561198126561438,"connected_time":37000000000,"state":"active","ping":48},{"user_id":57,"name":"Reverie","steam_id":76561198987005784,"connected_time":2385000000000,"state":"active","ping":105},{"user_id":60,"name":"Oktayey","steam_id":76561198143213426,"connected_time":2246000000000,"state":"active","ping":46},{"user_id":95,"name":"Zombieslayer","steam_id":76561198407877826,"connected_time":18000000000,"state":"active","ping":96},{"user_id":37,"name":"LeFunnyMan","steam_id":76561199081645289,"connected_time":4947000000000,"state":"active","ping":88},{"user_id":38,"name":"FI LO","steam_id":76561198976530881,"connected_time":4701000000000,"state":"active","ping":39},{"user_id":65,"name":"Dim","steam_id":76561198061411324,"connected_time":1639000000000,"state":"active","ping":137},{"user_id":74,"name":"Comrade","steam_id":76561199056721863,"connected_time":1126000000000,"state":"active","ping":60},{"user_id":69,"name":"Sudsen","steam_id":76561198370603787,"connected_time":1304000000000,"state":"active","ping":78},{"user_id":90,"name":"slosh","steam_id":76561198060546760,"connected_time":495000000000,"state":"active","ping":139},{"user_id":79,"name":"Ranger","steam_id":76561198064096654,"connected_time":959000000000,"state":"active","ping":105},{"user_id":78,"name":"felon","steam_id":76561199100342013,"connected_time":1044000000000,"state":"active","ping":57},{"user_id":87,"name":"Sylvain","steam_id":76561198113385271,"connected_time":545000000000,"state":"active","ping":115},{"user_id":72,"name":"carly","steam_id":76561198094118479,"connected_time":1189000000000,"state":"active","ping":48},{"user_id":73,"name":"bloody fruit shop owner","steam_id":76561198017228729,"connected_time":1152000000000,"state":"active","ping":92},{"user_id":86,"name":"Tideflat","steam_id":76561198179850851,"connected_time":555000000000,"state":"active","ping":99},{"user_id":76,"name":"slafflow","steam_id":76561199381012350,"connected_time":1101000000000,"state":"active","ping":61},{"user_id":81,"name":"mcdoogie","steam_id":76561198099275334,"connected_time":704000000000,"state":"active","ping":106},{"user_id":82,"name":"DeepLarkem","steam_id":76561198823247730,"connected_time":686000000000,"state":"active","ping":63}]},{"server_id":18,"name":"Uncletopia | San Francisco | 2 | All Maps","name_short":"sfo-2","host":"sfo-1.us.uncletopia.com","port":27025,"enabled":true,"region":"us-west","cc":"us","latitude":37.77397,"longitude":-122.4313,"reserved":0,"last_update":"0001-01-01T00:00:00Z","name_a2s":"Uncletopia | San Francisco | 2 | All Maps","protocol":17,"map":"cp_freight_final1","folder":"tf","game":"Team Fortress","app_id":440,"player_count":0,"max_players":24,"Bots":0,"server_type":"Dedicated","server_os":"Linux","password":true,"vac":true,"version":"7961495","steam_id":85568392924470000,"keywords":["cp","nocrits","nodmgspread","uncletopia"],"game_id":440,"stv_port":27026,"stv_name":"Uncletopia | San Francisco | 2 | All Maps | STV","players":null},{"server_id":19,"name":"Uncletopia | San Francisco | 3 | Stopwatch","name_short":"sfo-3","host":"sfo-1.us.uncletopia.com","port":27035,"enabled":true,"region":"us-west","cc":"us","latitude":37.77397,"longitude":-122.4313,"reserved":0,"last_update":"0001-01-01T00:00:00Z","name_a2s":"Uncletopia | San Francisco | 3 | Stopwatch","protocol":17,"map":"workshop/koth_product_final.ugc454272353","folder":"tf","game":"Team Fortress","app_id":440,"player_count":0,"max_players":24,"Bots":0,"server_type":"Dedicated","server_os":"Linux","password":true,"vac":true,"version":"7961495","steam_id":85568392924742824,"keywords":["cp","nocrits","nodmgspread","uncletopia"],"game_id":440,"stv_port":27036,"stv_name":"Uncletopia | San Francisco | 3 | Stopwatch | STV","players":null},{"server_id":20,"name":"Uncletopia | San Francisco | 4 | Community","name_short":"sfo-4","host":"sfo-1.us.uncletopia.com","port":27045,"enabled":true,"region":"us-west","cc":"us","latitude":37.77397,"longitude":-122.4313,"reserved":0,"last_update":"0001-01-01T00:00:00Z","name_a2s":"Uncletopia | San Francisco | 4 | Community","protocol":17,"map":"workshop/pl_cactuscanyon_redux_final2.ugc2579644293","folder":"tf","game":"Team Fortress","app_id":440,"player_count":0,"max_players":24,"Bots":0,"server_type":"Dedicated","server_os":"Linux","password":true,"vac":true,"version":"7961495","steam_id":85568392924742826,"keywords":["nocrits","nodmgspread","payload","uncletopia"],"game_id":440,"stv_port":27046,"stv_name":"Uncletopia | San Francisco | 4 | Community | STV","players":null},{"server_id":141,"name":"Uncletopia | Sydney | 1 | All Maps","name_short":"syd-1","host":"syd-1.au.uncletopia.com","port":27015,"enabled":true,"region":"au","cc":"au","latitude":-33.865143,"longitude":151.2099,"reserved":0,"last_update":"0001-01-01T00:00:00Z","name_a2s":"Uncletopia | Sydney | 1 | All Maps","protocol":17,"map":"pl_frontier_final","folder":"tf","game":"Team Fortress","app_id":440,"player_count":0,"max_players":24,"Bots":0,"server_type":"Dedicated","server_os":"Linux","password":true,"vac":true,"version":"7961495","steam_id":85568392924470001,"keywords":["nocrits","nodmgspread","payload","uncletopia"],"game_id":440,"stv_port":27016,"stv_name":"Uncletopia | Sydney | 1 | All Maps | STV","players":null},{"server_id":123,"name":"Uncletopia | Sydney | 2 | All Maps","name_short":"syd-2","host":"syd-1.au.uncletopia.com","port":27025,"enabled":true,"region":"au","cc":"au","latitude":-33.865143,"longitude":151.2099,"reserved":0,"last_update":"0001-01-01T00:00:00Z","name_a2s":"Uncletopia | Sydney | 2 | All Maps","protocol":17,"map":"koth_cascade","folder":"tf","game":"Team Fortress","app_id":440,"player_count":0,"max_players":24,"Bots":0,"server_type":"Dedicated","server_os":"Linux","password":true,"vac":true,"version":"7961495","steam_id":85568392924470002,"keywords":["cp","nocrits","nodmgspread","uncletopia"],"game_id":440,"stv_port":27026,"stv_name":"Uncletopia | Sydney | 2 | All Maps | STV","players":null},{"server_id":395,"name":"Uncletopia | Sydney | 3 | All Maps","name_short":"syd-3","host":"syd-1.au.uncletopia.com","port":27035,"enabled":true,"region":"au","cc":"au","latitude":-33.865143,"longitude":151.2099,"reserved":0,"last_update":"0001-01-01T00:00:00Z","name_a2s":"Uncletopia | Sydney | 3 | All Maps","protocol":17,"map":"cp_mountainlab","folder":"tf","game":"Team Fortress","app_id":440,"player_count":0,"max_players":24,"Bots":0,"server_type":"Dedicated","server_os":"Linux","password":true,"vac":true,"version":"7961495","steam_id":85568392925194467,"keywords":["cp","nocrits","nodmgspread","uncletopia"],"game_id":440,"stv_port":27036,"stv_name":"Uncletopia | Sydney | 3 | All Maps | STV","players":null},{"server_id":396,"name":"Uncletopia | Sydney | 4 | All Maps","name_short":"syd-4","host":"syd-1.au.uncletopia.com","port":27045,"enabled":true,"region":"au","cc":"au","latitude":-33.865143,"longitude":151.2099,"reserved":0,"last_update":"0001-01-01T00:00:00Z","name_a2s":"Uncletopia | Sydney | 4 | All Maps","protocol":17,"map":"koth_lakeside_final","folder":"tf","game":"Team Fortress","app_id":440,"player_count":0,"max_players":24,"Bots":0,"server_type":"Dedicated","server_os":"Linux","password":true,"vac":true,"version":"7961495","steam_id":85568392925397958,"keywords":["cp","nocrits","nodmgspread","uncletopia"],"game_id":440,"stv_port":27046,"stv_name":"Uncletopia | Sydney | 4 | All Maps | STV","players":null},{"server_id":58,"name":"Uncletopia | Sydney | 5 | Stopwatch","name_short":"syd-5","host":"syd-1.au.uncletopia.com","port":27055,"enabled":true,"region":"au","cc":"au","latitude":-33.865143,"longitude":151.2099,"reserved":0,"last_update":"0001-01-01T00:00:00Z","name_a2s":"Uncletopia | Sydney | 5 | Stopwatch","protocol":17,"map":"workshop/pl_summercoast_rc8e.ugc1761528829","folder":"tf","game":"Team Fortress","app_id":440,"player_count":0,"max_players":24,"Bots":0,"server_type":"Dedicated","server_os":"Linux","password":true,"vac":true,"version":"7961495","steam_id":85568392925397959,"keywords":["nocrits","nodmgspread","payload","uncletopia"],"game_id":440,"stv_port":27056,"stv_name":"Uncletopia | Sydney | 5 | Stopwatch | STV","players":null},{"server_id":59,"name":"Uncletopia | Sydney | 6 | Community","name_short":"syd-6","host":"syd-1.au.uncletopia.com","port":27065,"enabled":true,"region":"au","cc":"au","latitude":-33.865143,"longitude":151.2099,"reserved":0,"last_update":"0001-01-01T00:00:00Z","name_a2s":"Uncletopia | Sydney | 6 | Community","protocol":17,"map":"workshop/koth_trenchfoot_ab1.ugc731436616","folder":"tf","game":"Team Fortress","app_id":440,"player_count":0,"max_players":24,"Bots":0,"server_type":"Dedicated","server_os":"Linux","password":true,"vac":true,"version":"7961495","steam_id":85568392925397960,"keywords":["cp","nocrits","nodmgspread","uncletopia"],"game_id":440,"stv_port":27066,"stv_name":"Uncletopia | Sydney | 6 | Community | STV","players":null},{"server_id":49,"name":"Uncletopia | Warsaw | 1 | One Thousand Uncles","name_short":"waw-1","host":"waw-1.pl.uncletopia.com","port":27015,"enabled":true,"region":"eu","cc":"pl","latitude":52.2297,"longitude":21.017532,"reserved":0,"last_update":"0001-01-01T00:00:00Z","name_a2s":"Uncletopia | Warsaw | 1 | One Thousand Uncles","protocol":17,"map":"pl_goldrush","folder":"tf","game":"Team Fortress","app_id":440,"player_count":30,"max_players":32,"Bots":16,"server_type":"Dedicated","server_os":"Linux","password":true,"vac":true,"version":"7961495","steam_id":85568392925397850,"keywords":["alltalk","bots","danepve","increased_maxplayers","norespawntime","payload","uncletopia"],"game_id":440,"stv_port":0,"stv_name":"","players":[{"user_id":504,"name":"der zauberer","steam_id":76561198249832770,"connected_time":2412000000000,"state":"active","ping":74},{"user_id":523,"name":"DemPh","steam_id":76561199176198351,"connected_time":20000000000,"state":"spawning","ping":104},{"user_id":462,"name":"d u k k i","steam_id":76561198071807437,"connected_time":5760000000000,"state":"active","ping":57},{"user_id":488,"name":"Max","steam_id":76561198080956366,"connected_time":4629000000000,"state":"active","ping":51},{"user_id":502,"name":"Rusk","steam_id":76561198982057397,"connected_time":2880000000000,"state":"active","ping":60},{"user_id":512,"name":"Sun Cooch","steam_id":76561198404802096,"connected_time":1532000000000,"state":"active","ping":152},{"user_id":513,"name":"Мистер пенис","steam_id":76561198208035376,"connected_time":1341000000000,"state":"active","ping":51},{"user_id":508,"name":"Pimpin' \u0026 Blimpin'","steam_id":76561198326776107,"connected_time":1984000000000,"state":"active","ping":77},{"user_id":521,"name":"denzed417","steam_id":76561199487958740,"connected_time":173000000000,"state":"active","ping":324},{"user_id":522,"name":"G.L.O.R.I.","steam_id":76561198134414380,"connected_time":111000000000,"state":"active","ping":73},{"user_id":498,"name":"CryptoSV","steam_id":76561197995784509,"connected_time":3565000000000,"state":"active","ping":82},{"user_id":499,"name":"luckyastroman","steam_id":76561199027500574,"connected_time":3418000000000,"state":"active","ping":35},{"user_id":520,"name":"chundora","steam_id":76561199406659713,"connected_time":537000000000,"state":"active","ping":46},{"user_id":524,"name":"Goth.","steam_id":76561199470880485,"connected_time":15000000000,"state":"spawning","ping":138}]},{"server_id":50,"name":"Uncletopia | Warsaw | 2 | One Thousand Uncles","name_short":"waw-2","host":"waw-1.pl.uncletopia.com","port":27025,"enabled":true,"region":"eu","cc":"pl","latitude":52.2297,"longitude":21.017532,"reserved":0,"last_update":"0001-01-01T00:00:00Z","name_a2s":"Uncletopia | Warsaw | 2 | One Thousand Uncles","protocol":17,"map":"pl_goldrush","folder":"tf","game":"Team Fortress","app_id":440,"player_count":0,"max_players":32,"Bots":0,"server_type":"Dedicated","server_os":"Linux","password":true,"vac":true,"version":"7961495","steam_id":85568392925397851,"keywords":["alltalk","danepve","increased_maxplayers","norespawntime","payload","uncletopia"],"game_id":440,"stv_port":0,"stv_name":"","players":null},{"server_id":51,"name":"Uncletopia | Warsaw | 3 | All Maps","name_short":"waw-3","host":"waw-1.pl.uncletopia.com","port":27035,"enabled":true,"region":"eu","cc":"pl","latitude":52.2297,"longitude":21.017532,"reserved":0,"last_update":"0001-01-01T00:00:00Z","name_a2s":"Uncletopia | Warsaw | 3 | All Maps","protocol":17,"map":"koth_lakeside_final","folder":"tf","game":"Team Fortress","app_id":440,"player_count":0,"max_players":24,"Bots":0,"server_type":"Dedicated","server_os":"Linux","password":true,"vac":true,"version":"7961495","steam_id":85568392925397852,"keywords":["cp","nocrits","nodmgspread","uncletopia"],"game_id":440,"stv_port":27036,"stv_name":"Uncletopia | Warsaw | 3 | All Maps | STV","players":null},{"server_id":52,"name":"Uncletopia | Warsaw | 4 | All Maps","name_short":"waw-4","host":"waw-1.pl.uncletopia.com","port":27045,"enabled":true,"region":"eu","cc":"pl","latitude":52.2297,"longitude":21.017532,"reserved":0,"last_update":"0001-01-01T00:00:00Z","name_a2s":"Uncletopia | Warsaw | 4 | All Maps","protocol":17,"map":"koth_lakeside_final","folder":"tf","game":"Team Fortress","app_id":440,"player_count":0,"max_players":24,"Bots":0,"server_type":"Dedicated","server_os":"Linux","password":true,"vac":true,"version":"7961495","steam_id":85568392925397853,"keywords":["cp","nocrits","nodmgspread","uncletopia"],"game_id":440,"stv_port":27046,"stv_name":"Uncletopia | Warsaw | 4 | All Maps | STV","players":null},{"server_id":53,"name":"Uncletopia | Warsaw | 5 | Stopwatch","name_short":"waw-5","host":"waw-1.pl.uncletopia.com","port":27055,"enabled":true,"region":"eu","cc":"pl","latitude":52.2297,"longitude":21.017532,"reserved":0,"last_update":"0001-01-01T00:00:00Z","name_a2s":"Uncletopia | Warsaw | 5 | Stopwatch","protocol":17,"map":"workshop/koth_bagel_rc6.ugc2514036946","folder":"tf","game":"Team Fortress","app_id":440,"player_count":1,"max_players":24,"Bots":0,"server_type":"Dedicated","server_os":"Linux","password":true,"vac":true,"version":"7961495","steam_id":85568392925397854,"keywords":["cp","nocrits","nodmgspread","uncletopia"],"game_id":440,"stv_port":27056,"stv_name":"Uncletopia | Warsaw | 5 | Stopwatch | STV","players":[{"user_id":7,"name":"New York Rat","steam_id":76561198436817109,"connected_time":34000000000,"state":"active","ping":78}]},{"server_id":54,"name":"Uncletopia | Warsaw | 6 | Community","name_short":"waw-6","host":"waw-1.pl.uncletopia.com","port":27065,"enabled":true,"region":"eu","cc":"pl","latitude":52.2297,"longitude":21.017532,"reserved":0,"last_update":"0001-01-01T00:00:00Z","name_a2s":"Uncletopia | Warsaw | 6 | Community","protocol":17,"map":"workshop/cp_fulgur_rc2a.ugc2068252300","folder":"tf","game":"Team Fortress","app_id":440,"player_count":2,"max_players":24,"Bots":0,"server_type":"Dedicated","server_os":"Linux","password":true,"vac":true,"version":"7961495","steam_id":85568392925397856,"keywords":["cp","nocrits","nodmgspread","uncletopia"],"game_id":440,"stv_port":27066,"stv_name":"Uncletopia | Warsaw | 6 | Community | STV","players":[{"user_id":5,"name":"PoZITIVcHIK","steam_id":76561199160585977,"connected_time":1329000000000,"state":"active","ping":53},{"user_id":6,"name":"asustufgaminga98","steam_id":76561199398169732,"connected_time":1161000000000,"state":"active","ping":49}]}]}