{"status":true,"message":"","result":[{"server_id":9,"name":"Uncletopia | Atlanta | 1 | All Maps","name_short":"atl-1","host":"atl-1.us.uncletopia.com","port":27015,"enabled":true,"region":"us-east","cc":"us","latitude":33.753746,"longitude":-84.38633,"reserved":0,"last_update":"0001-01-01T00:00:00Z","name_a2s":"Uncletopia | Atlanta | 1 | All Maps","protocol":17,"map":"cp_sunshine","folder":"tf","game":"Team Fortress","app_id":440,"player_count":0,"max_players":24,"Bots":0,"server_type":"Dedicated","server_os":"Linux","password":true,"vac":true,"version":"7742253","steam_id":85568392924469982,"keywords":["cp","nocrits","nodmgspread","uncletopia"],"game_id":440,"stv_port":27016,"stv_name":"Uncletopia | Atlanta | 1 | All Maps | STV","players":null},{"server_id":400,"name":"Uncletopia | Atlanta | 3 | Stopwatch Beta","name_short":"atl-3","host":"atl-1.us.uncletopia.com","port":27035,"enabled":true,"region":"us-east","cc":"us","latitude":33.753746,"longitude":-84.38633,"reserved":0,"last_update":"0001-01-01T00:00:00Z","name_a2s":"Uncletopia | Atlanta | 3 | Stopwatch Beta","protocol":17,"map":"pl_upward","folder":"tf","game":"Team Fortress","app_id":440,"player_count":0,"max_players":24,"Bots":0,"server_type":"Dedicated","server_os":"Linux","password":true,"vac":true,"version":"7742253","steam_id":85568392924515187,"keywords":["nocrits","nodmgspread","payload","uncletopia"],"game_id":440,"stv_port":27036,"stv_name":"Uncletopia | Atlanta | 3 | Stopwatch Beta | STV","players":null},{"server_id":401,"name":"Uncletopia | Atlanta | 4 | No Payload","name_short":"atl-4","host":"atl-1.us.uncletopia.com","port":27045,"enabled":true,"region":"us-east","cc":"us","latitude":33.753746,"longitude":-84.38633,"reserved":0,"last_update":"0001-01-01T00:00:00Z","name_a2s":"Uncletopia | Atlanta | 4 | No Payload","protocol":17,"map":"pl_pier","folder":"tf","game":"Team Fortress","app_id":440,"player_count":0,"max_players":24,"Bots":0,"server_type":"Dedicated","server_os":"Linux","password":true,"vac":true,"version":"7723704","steam_id":85568392924515188,"keywords":["nocrits","nodmgspread","payload","uncletopia"],"game_id":440,"stv_port":27046,"stv_name":"Uncletopia | Atlanta | 4 | No Payload | STV","players":null},{"server_id":2,"name":"Uncletopia | Chicago | 1 | All Maps","name_short":"chi-1","host":"chi-1.us.uncletopia.com","port":27015,"enabled":true,"region":"us-central","cc":"us","latitude":41.881832,"longitude":-87.62318,"reserved":0,"last_update":"0001-01-01T00:00:00Z","name_a2s":"Uncletopia | Chicago | 1 | All Maps","protocol":17,"map":"cp_snakewater_final1","folder":"tf","game":"Team Fortress","app_id":440,"player_count":0,"max_players":24,"Bots":0,"server_type":"Dedicated","server_os":"Linux","password":true,"vac":true,"version":"7742253","steam_id":85568392924469984,"keywords":["cp","nocrits","nodmgspread","uncletopia"],"game_id":440,"stv_port":27016,"stv_name":"Uncletopia | Chicago | 1 | All Maps | STV","players":null},{"server_id":106,"name":"Uncletopia | Chicago | 2 | All Maps","name_short":"chi-2","host":"chi-1.us.uncletopia.com","port":27025,"enabled":true,"region":"us-central","cc":"us","latitude":41.881832,"longitude":-87.62318,"reserved":0,"last_update":"0001-01-01T00:00:00Z","name_a2s":"Uncletopia | Chicago | 2 | All Maps","protocol":17,"map":"cp_altitude","folder":"tf","game":"Team Fortress","app_id":440,"player_count":0,"max_players":24,"Bots":0,"server_type":"Dedicated","server_os":"Linux","password":true,"vac":true,"version":"7742253","steam_id":85568392924469985,"keywords":["cp","nocrits","nodmgspread","uncletopia"],"game_id":440,"stv_port":27026,"stv_name":"Uncletopia | Chicago | 2 | All Maps | STV","players":null},{"server_id":402,"name":"Uncletopia | Chicago | 3 | All Maps","name_short":"chi-3","host":"chi-1.us.uncletopia.com","port":27035,"enabled":true,"region":"us-central","cc":"us","latitude":41.881832,"longitude":-87.62318,"reserved":0,"last_update":"0001-01-01T00:00:00Z","name_a2s":"Uncletopia | Chicago | 3 | All Maps","protocol":17,"map":"pl_upward","folder":"tf","game":"Team Fortress","app_id":440,"player_count":22,"max_players":24,"Bots":0,"server_type":"Dedicated","server_os":"Linux","password":true,"vac":true,"version":"7742253","steam_id":85568392924515191,"keywords":["nocrits","nodmgspread","payload","uncletopia"],"game_id":440,"stv_port":27036,"stv_name":"Uncletopia | Chicago | 3 | All Maps | STV","players":[{"user_id":3,"name":"Dude Named Bob","steam_id":76561198310448093,"connected_time":1506000000000,"state":"active","ping":45},{"user_id":23,"name":"holmes6007","steam_id":76561198200075734,"connected_time":443000000000,"state":"active","ping":158},{"user_id":5,"name":"Super Pooper","steam_id":76561199376015852,"connected_time":1329000000000,"state":"active","ping":67},{"user_id":6,"name":"puppy","steam_id":76561197964635660,"connected_time":1308000000000,"state":"active","ping":90},{"user_id":24,"name":"Lord Scrubling","steam_id":76561198263744445,"connected_time":423000000000,"state":"active","ping":75},{"user_id":8,"name":"Michiru Kagemori","steam_id":76561198257241799,"connected_time":1244000000000,"state":"active","ping":60},{"user_id":21,"name":"Jeff","steam_id":76561198094572694,"connected_time":569000000000,"state":"active","ping":111},{"user_id":25,"name":"Roz257","steam_id":76561198842844532,"connected_time":333000000000,"state":"active","ping":68},{"user_id":11,"name":"YekkuUwU","steam_id":76561199349215012,"connected_time":1076000000000,"state":"active","ping":169},{"user_id":26,"name":"noraneko","steam_id":76561198025418738,"connected_time":322000000000,"state":"active","ping":90},{"user_id":14,"name":"skidzz","steam_id":76561198257068611,"connected_time":889000000000,"state":"active","ping":83},{"user_id":16,"name":"swan","steam_id":76561198012569200,"connected_time":746000000000,"state":"active","ping":72},{"user_id":17,"name":"puppygirl gaming","steam_id":76561198044363630,"connected_time":688000000000,"state":"active","ping":60},{"user_id":28,"name":"smart smella","steam_id":76561198157983180,"connected_time":170000000000,"state":"active","ping":60},{"user_id":19,"name":"Jesus Of Suburbia","steam_id":76561198941700660,"connected_time":649000000000,"state":"active","ping":83},{"user_id":20,"name":"griptape","steam_id":76561198078415931,"connected_time":636000000000,"state":"active","ping":62},{"user_id":29,"name":"breathing meat donut","steam_id":76561198123566649,"connected_time":162000000000,"state":"active","ping":75},{"user_id":30,"name":"hola","steam_id":76561198873043242,"connected_time":66000000000,"state":"active","ping":115},{"user_id":31,"name":"LARGE","steam_id":76561198124583948,"connected_time":66000000000,"state":"active","ping":80},{"user_id":32,"name":"Hertz Donut","steam_id":76561197983040945,"connected_time":50000000000,"state":"active","ping":96},{"user_id":33,"name":"Tywhip","steam_id":76561199207545191,"connected_time":43000000000,"state":"active","ping":154},{"user_id":34,"name":"Gramma!","steam_id":76561198340989175,"connected_time":4000000000,"state":"spawning","ping":69}]},{"server_id":403,"name":"Uncletopia | Chicago | 4 | All Maps","name_short":"chi-4","host":"chi-1.us.uncletopia.com","port":27045,"enabled":true,"region":"us-central","cc":"us","latitude":41.881832,"longitude":-87.62318,"reserved":0,"last_update":"0001-01-01T00:00:00Z","name_a2s":"Uncletopia | Chicago | 4 | All Maps","protocol":17,"map":"koth_highpass","folder":"tf","game":"Team Fortress","app_id":440,"player_count":0,"max_players":24,"Bots":0,"server_type":"Dedicated","server_os":"Linux","password":true,"vac":true,"version":"7742253","steam_id":85568392924515193,"keywords":["cp","nocrits","nodmgspread","uncletopia"],"game_id":440,"stv_port":27046,"stv_name":"Uncletopia | Chicago | 4 | All Maps | STV","players":null},{"server_id":36,"name":"Uncletopia | Chicago | 5 | All Maps","name_short":"chi-5","host":"chi-2.us.uncletopia.com","port":27015,"enabled":true,"region":"us-central","cc":"us","latitude":41.881832,"longitude":-87.62318,"reserved":0,"last_update":"0001-01-01T00:00:00Z","name_a2s":"Uncletopia | Chicago | 5 | All Maps","protocol":17,"map":"koth_highpass","folder":"tf","game":"Team Fortress","app_id":440,"player_count":0,"max_players":24,"Bots":0,"server_type":"Dedicated","server_os":"Linux","password":true,"vac":true,"version":"7742253","steam_id":85568392924866362,"keywords":["cp","nocrits","nodmgspread","uncletopia"],"game_id":440,"stv_port":27016,"stv_name":"Uncletopia | Chicago | 5 | All Maps | STV","players":null},{"server_id":37,"name":"Uncletopia | Chicago | 6 | All Maps","name_short":"chi-6","host":"chi-2.us.uncletopia.com","port":27025,"enabled":true,"region":"us-central","cc":"us","latitude":41.881832,"longitude":-87.62318,"reserved":0,"last_update":"0001-01-01T00:00:00Z","name_a2s":"Uncletopia | Chicago | 6 | All Maps","protocol":17,"map":"pl_frontier_final","folder":"tf","game":"Team Fortress","app_id":440,"player_count":0,"max_players":24,"Bots":0,"server_type":"Dedicated","server_os":"Linux","password":true,"vac":true,"version":"7742253","steam_id":85568392924866363,"keywords":["nocrits","nodmgspread","payload","uncletopia"],"game_id":440,"stv_port":27026,"stv_name":"Uncletopia | Chicago | 6 | All Maps | STV","players":null},{"server_id":38,"name":"Uncletopia | Chicago | 7 | Stopwatch Beta","name_short":"chi-7","host":"chi-2.us.uncletopia.com","port":27035,"enabled":true,"region":"us-central","cc":"us","latitude":41.881832,"longitude":-87.62318,"reserved":0,"last_update":"0001-01-01T00:00:00Z","name_a2s":"Uncletopia | Chicago | 7 | Stopwatch Beta","protocol":17,"map":"cp_altitude","folder":"tf","game":"Team Fortress","app_id":440,"player_count":0,"max_players":24,"Bots":0,"server_type":"Dedicated","server_os":"Linux","password":true,"vac":true,"version":"7742253","steam_id":85568392924866364,"keywords":["cp","nocrits","nodmgspread","uncletopia"],"game_id":440,"stv_port":27036,"stv_name":"Uncletopia | Chicago | 7 | Stopwatch Beta | STV","players":null},{"server_id":39,"name":"Uncletopia | Chicago | 8 | Community","name_short":"chi-8","host":"chi-2.us.uncletopia.com","port":27045,"enabled":true,"region":"us-central","cc":"us","latitude":41.881832,"longitude":-87.62318,"reserved":0,"last_update":"0001-01-01T00:00:00Z","name_a2s":"Uncletopia | Chicago | 8 | Community","protocol":17,"map":"koth_cascade","folder":"tf","game":"Team Fortress","app_id":440,"player_count":0,"max_players":24,"Bots":0,"server_type":"Dedicated","server_os":"Linux","password":true,"vac":true,"version":"7742253","steam_id":85568392924866365,"keywords":["cp","nocrits","nodmgspread","uncletopia"],"game_id":440,"stv_port":27046,"stv_name":"Uncletopia | Chicago | 8 | Community | STV","players":null},{"server_id":8,"name":"Uncletopia | Dallas | 1 | All Maps","name_short":"dal-1","host":"dal-1.us.uncletopia.com","port":27015,"enabled":true,"region":"us-central","cc":"us","latitude":32.779167,"longitude":-96.80889,"reserved":0,"last_update":"0001-01-01T00:00:00Z","name_a2s":"Uncletopia | Dallas | 1 | All Maps","protocol":17,"map":"koth_viaduct","folder":"tf","game":"Team Fortress","app_id":440,"player_count":0,"max_players":24,"Bots":0,"server_type":"Dedicated","server_os":"Linux","password":true,"vac":true,"version":"7742253","steam_id":85568392924469986,"keywords":["cp","nocrits","nodmgspread","uncletopia"],"game_id":440,"stv_port":27016,"stv_name":"Uncletopia | Dallas | 1 | All Maps | STV","players":null},{"server_id":108,"name":"Uncletopia | Dallas | 2 | All Maps","name_short":"dal-2","host":"dal-1.us.uncletopia.com","port":27025,"enabled":true,"region":"us-central","cc":"us","latitude":32.779167,"longitude":-96.80889,"reserved":0,"last_update":"0001-01-01T00:00:00Z","name_a2s":"Uncletopia | Dallas | 2 | All Maps","protocol":17,"map":"pl_barnblitz","folder":"tf","game":"Team Fortress","app_id":440,"player_count":0,"max_players":24,"Bots":0,"server_type":"Dedicated","server_os":"Linux","password":true,"vac":true,"version":"7742253","steam_id":85568392924469988,"keywords":["nocrits","nodmgspread","payload","uncletopia"],"game_id":440,"stv_port":27026,"stv_name":"Uncletopia | Dallas | 2 | All Maps | STV","players":null},{"server_id":5,"name":"Uncletopia | Frankfurt | 1 | All Maps","name_short":"frk-1","host":"frk-1.de.uncletopia.com","port":27015,"enabled":true,"region":"eu","cc":"de","latitude":50.110924,"longitude":8.682127,"reserved":0,"last_update":"0001-01-01T00:00:00Z","name_a2s":"Uncletopia | Frankfurt | 1 | All Maps","protocol":17,"map":"koth_highpass","folder":"tf","game":"Team Fortress","app_id":440,"player_count":2,"max_players":24,"Bots":0,"server_type":"Dedicated","server_os":"Linux","password":true,"vac":true,"version":"7742253","steam_id":85568392924469989,"keywords":["cp","nocrits","nodmgspread","uncletopia"],"game_id":440,"stv_port":27016,"stv_name":"Uncletopia | Frankfurt | 1 | All Maps | STV","players":[{"user_id":31,"name":"Bepperman","steam_id":76561198397517828,"connected_time":58000000000,"state":"active","ping":66},{"user_id":32,"name":"Wyvern786","steam_id":76561199137770636,"connected_time":35000000000,"state":"active","ping":58}]},{"server_id":110,"name":"Uncletopia | Frankfurt | 2 | All Maps","name_short":"frk-2","host":"frk-1.de.uncletopia.com","port":27025,"enabled":true,"region":"eu","cc":"de","latitude":50.110924,"longitude":8.682127,"reserved":0,"last_update":"0001-01-01T00:00:00Z","name_a2s":"Uncletopia | Frankfurt | 2 | All Maps","protocol":17,"map":"pl_snowycoast","folder":"tf","game":"Team Fortress","app_id":440,"player_count":24,"max_players":24,"Bots":0,"server_type":"Dedicated","server_os":"Linux","password":true,"vac":true,"version":"7742253","steam_id":85568392924469990,"keywords":["nocrits","nodmgspread","payload","uncletopia"],"game_id":440,"stv_port":27026,"stv_name":"Uncletopia | Frankfurt | 2 | All Maps | STV","players":[{"user_id":373,"name":"holykyckling","steam_id":76561198040661615,"connected_time":2315000000000,"state":"active","ping":75},{"user_id":393,"name":"OmR","steam_id":76561198015792609,"connected_time":1028000000000,"state":"active","ping":59},{"user_id":375,"name":"install gentoo","steam_id":76561198185257982,"connected_time":2202000000000,"state":"active","ping":77},{"user_id":319,"name":"Dolcelatte","steam_id":76561198038501770,"connected_time":5562000000000,"state":"active","ping":48},{"user_id":403,"name":"AWP Bodyshot :) ‚ù§","steam_id":76561198029928533,"connected_time":564000000000,"state":"active","ping":44},{"user_id":400,"name":"Swiss Angel","steam_id":76561198032059287,"connected_time":702000000000,"state":"active","ping":49},{"user_id":395,"name":"Kard","steam_id":76561198191894926,"connected_time":988000000000,"state":"active","ping":115},{"user_id":370,"name":"jaMie","steam_id":76561198170148783,"connected_time":2531000000000,"state":"active","ping":68},{"user_id":378,"name":"yuh","steam_id":76561199005555839,"connected_time":1863000000000,"state":"active","ping":66},{"user_id":387,"name":"XenBad","steam_id":76561197990719842,"connected_time":1406000000000,"state":"active","ping":57},{"user_id":401,"name":"Dzieciol","steam_id":76561198160237556,"connected_time":663000000000,"state":"active","ping":65},{"user_id":402,"name":"ghost","steam_id":76561198189940229,"connected_time":644000000000,"state":"active","ping":53},{"user_id":376,"name":"ScottMachine","steam_id":76561198813531432,"connected_time":2162000000000,"state":"active","ping":65},{"user_id":369,"name":"winocm","steam_id":76561198066977580,"connected_time":2568000000000,"state":"active","ping":87},{"user_id":383,"name":"..","steam_id":76561198380752444,"connected_time":1672000000000,"state":"active","ping":59},{"user_id":377,"name":"Mogwai","steam_id":76561198078832314,"connected_time":2012000000000,"state":"active","ping":78},{"user_id":397,"name":"dad","steam_id":76561198058583989,"connected_time":932000000000,"state":"active","ping":47},{"user_id":389,"name":"KING CRIMSON","steam_id":76561198031573426,"connected_time":1399000000000,"state":"active","ping":62},{"user_id":379,"name":"Festivised Paper","steam_id":76561199037749675,"connected_time":1847000000000,"state":"active","ping":43},{"user_id":390,"name":"Decadence","steam_id":76561198206829379,"connected_time":1399000000000,"state":"active","ping":77},{"user_id":382,"name":"af0","steam_id":76561199225397974,"connected_time":1693000000000,"state":"active","ping":116},{"user_id":374,"name":"saml","steam_id":76561198040716257,"connected_time":2310000000000,"state":"active","ping":74},{"user_id":399,"name":"Dan","steam_id":76561198314800357,"connected_time":718000000000,"state":"active","ping":104},{"user_id":404,"name":"wootabs","steam_id":76561198831766743,"connected_time":492000000000,"state":"active","ping":65}]},{"server_id":308,"name":"Uncletopia | Frankfurt | 3 | All Maps","name_short":"frk-3","host":"frk-1.de.uncletopia.com","port":27035,"enabled":true,"region":"eu","cc":"de","latitude":50.110924,"longitude":8.682127,"reserved":0,"last_update":"0001-01-01T00:00:00Z","name_a2s":"Uncletopia | Frankfurt | 3 | All Maps","protocol":17,"map":"pl_pier","folder":"tf","game":"Team Fortress","app_id":440,"player_count":23,"max_players":24,"Bots":0,"server_type":"Dedicated","server_os":"Linux","password":true,"vac":true,"version":"7742253","steam_id":85568392924504274,"keywords":["nocrits","nodmgspread","payload","uncletopia"],"game_id":440,"stv_port":27036,"stv_name":"Uncletopia | Frankfurt | 3 | All Maps | STV","players":[{"user_id":345,"name":"Yassine","steam_id":76561198140565712,"connected_time":1166000000000,"state":"active","ping":94},{"user_id":304,"name":"That 1 gayfrog","steam_id":76561199160796458,"connected_time":3799000000000,"state":"active","ping":95},{"user_id":306,"name":"TheGamerNL","steam_id":76561198079738608,"connected_time":3693000000000,"state":"active","ping":65},{"user_id":262,"name":"TheGreenWolf","steam_id":76561198170607033,"connected_time":5910000000000,"state":"active","ping":70},{"user_id":346,"name":"O. Wilson","steam_id":76561198090751331,"connected_time":1147000000000,"state":"active","ping":66},{"user_id":324,"name":"MISTER SUIIII","steam_id":76561198018330092,"connected_time":2684000000000,"state":"active","ping":74},{"user_id":337,"name":"Hanƒ±mSever23","steam_id":76561198142124751,"connected_time":2235000000000,"state":"active","ping":97},{"user_id":341,"name":"Radical priest","steam_id":76561198110470565,"connected_time":1703000000000,"state":"active","ping":94},{"user_id":354,"name":"a wheelbarrow (real)","steam_id":76561198220124617,"connected_time":149000000000,"state":"active","ping":58},{"user_id":356,"name":"Jamba Sparabo","steam_id":76561198131647600,"connected_time":120000000000,"state":"active","ping":46},{"user_id":330,"name":"pathetic polish fat man","steam_id":76561198062107879,"connected_time":2536000000000,"state":"active","ping":75},{"user_id":342,"name":"zoro","steam_id":76561198083657017,"connected_time":1558000000000,"state":"active","ping":85},{"user_id":347,"name":"Hohoty","steam_id":76561198272988743,"connected_time":939000000000,"state":"active","ping":76},{"user_id":339,"name":"Liba","steam_id":76561198118006754,"connected_time":1930000000000,"state":"active","ping":67},{"user_id":325,"name":"Dzerky","steam_id":76561199022604955,"connected_time":2659000000000,"state":"active","ping":81},{"user_id":336,"name":"|20BB)\u003eMach","steam_id":76561198952487564,"connected_time":2249000000000,"state":"active","ping":90},{"user_id":353,"name":"unbelievable polish behavior","steam_id":76561198126524735,"connected_time":156000000000,"state":"active","ping":74},{"user_id":309,"name":"sweeterthy","steam_id":76561198356325792,"connected_time":3308000000000,"state":"active","ping":106},{"user_id":352,"name":"low-income polish city","steam_id":76561199433578516,"connected_time":674000000000,"state":"active","ping":80},{"user_id":317,"name":"disturbing polish father","steam_id":76561198126398022,"connected_time":3024000000000,"state":"active","ping":75},{"user_id":351,"name":"gardontar","steam_id":76561198169929053,"connected_time":744000000000,"state":"active","ping":48},{"user_id":335,"name":"Cookie_","steam_id":76561198091732557,"connected_time":2397000000000,"state":"active","ping":60},{"user_id":311,"name":"TheViper","steam_id":76561199220156752,"connected_time":3294000000000,"state":"active","ping":65}]},{"server_id":309,"name":"Uncletopia | Frankfurt | 4 | All Maps","name_short":"frk-4","host":"frk-1.de.uncletopia.com","port":27045,"enabled":true,"region":"eu","cc":"de","latitude":50.110924,"longitude":8.682127,"reserved":0,"last_update":"0001-01-01T00:00:00Z","name_a2s":"Uncletopia | Frankfurt | 4 | All Maps","protocol":17,"map":"pl_badwater","folder":"tf","game":"Team Fortress","app_id":440,"player_count":24,"max_players":24,"Bots":0,"server_type":"Dedicated","server_os":"Linux","password":true,"vac":true,"version":"7742253","steam_id":85568392924504275,"keywords":["nocrits","nodmgspread","payload","uncletopia"],"game_id":440,"stv_port":27046,"stv_name":"Uncletopia | Frankfurt | 4 | All Maps | STV","players":[{"user_id":27,"name":"Accident","steam_id":76561198115160396,"connected_time":1246000000000,"state":"active","ping":63},{"user_id":57,"name":"ashley","steam_id":76561198056152479,"connected_time":145000000000,"state":"active","ping":45},{"user_id":38,"name":"nolozu","steam_id":76561198979339663,"connected_time":1054000000000,"state":"active","ping":77},{"user_id":13,"name":"garbage mikuknight","steam_id":76561198361819054,"connected_time":1702000000000,"state":"active","ping":123},{"user_id":54,"name":"Pachakamakk","steam_id":76561197989010401,"connected_time":452000000000,"state":"active","ping":50},{"user_id":15,"name":"robbob","steam_id":76561198137375391,"connected_time":1656000000000,"state":"active","ping":76},{"user_id":44,"name":"toust","steam_id":76561199103417422,"connected_time":960000000000,"state":"active","ping":38},{"user_id":17,"name":"Shymtzack","steam_id":76561198160369616,"connected_time":1468000000000,"state":"active","ping":88},{"user_id":18,"name":"H√ºsn√ºKomiser","steam_id":76561199000381326,"connected_time":1459000000000,"state":"active","ping":97},{"user_id":29,"name":"Lan","steam_id":76561198930362783,"connected_time":1216000000000,"state":"active","ping":60},{"user_id":20,"name":"Hasan","steam_id":76561198144344647,"connected_time":1425000000000,"state":"active","ping":102},{"user_id":59,"name":"Kali","steam_id":76561198070745106,"connected_time":133000000000,"state":"active","ping":59},{"user_id":60,"name":"it would be so awesome","steam_id":76561198273792479,"connected_time":129000000000,"state":"active","ping":100},{"user_id":58,"name":"SIUUUUUUU","steam_id":76561198364121077,"connected_time":142000000000,"state":"active","ping":93},{"user_id":40,"name":"getheadofstate","steam_id":76561198041456837,"connected_time":1036000000000,"state":"active","ping":90},{"user_id":33,"name":"Withaust","steam_id":76561199434353811,"connected_time":1112000000000,"state":"active","ping":85},{"user_id":30,"name":"Til","steam_id":76561199025229782,"connected_time":1213000000000,"state":"active","ping":57},{"user_id":34,"name":"grif","steam_id":76561198272333800,"connected_time":1107000000000,"state":"active","ping":153},{"user_id":37,"name":"kryhu","steam_id":76561198293327713,"connected_time":1068000000000,"state":"active","ping":67},{"user_id":64,"name":"BOMBA?","steam_id":76561198325276848,"connected_time":42000000000,"state":"active","ping":78},{"user_id":39,"name":"Û†Ä°Û†Ä°","steam_id":76561198406469995,"connected_time":1043000000000,"state":"active","ping":59},{"user_id":62,"name":"Purple","steam_id":76561199032365015,"connected_time":118000000000,"state":"active","ping":80},{"user_id":55,"name":"srandy52","steam_id":76561198276786482,"connected_time":314000000000,"state":"active","ping":57},{"user_id":63,"name":"icu","steam_id":76561198352588278,"connected_time":117000000000,"state":"active","ping":61}]},{"server_id":310,"name":"Uncletopia | Frankfurt | 5 | All Maps","name_short":"frk-5","host":"frk-1.de.uncletopia.com","port":27055,"enabled":true,"region":"eu","cc":"de","latitude":50.110924,"longitude":8.682127,"reserved":0,"last_update":"0001-01-01T00:00:00Z","name_a2s":"Uncletopia | Frankfurt | 5 | All Maps","protocol":17,"map":"pl_swiftwater_final1","folder":"tf","game":"Team Fortress","app_id":440,"player_count":24,"max_players":24,"Bots":0,"server_type":"Dedicated","server_os":"Linux","password":true,"vac":true,"version":"7742253","steam_id":85568392924504277,"keywords":["nocrits","nodmgspread","payload","uncletopia"],"game_id":440,"stv_port":27056,"stv_name":"Uncletopia | Frankfurt | 5 | All Maps | STV","players":[{"user_id":223,"name":"üèàmumzumüèà","steam_id":76561198117131899,"connected_time":706000000000,"state":"active","ping":58},{"user_id":181,"name":"Zeora","steam_id":76561198799145251,"connected_time":2347000000000,"state":"active","ping":151},{"user_id":105,"name":"sleepy babs","steam_id":76561198314919758,"connected_time":7349000000000,"state":"active","ping":72},{"user_id":213,"name":"Jar","steam_id":76561198156384007,"connected_time":1523000000000,"state":"active","ping":61},{"user_id":197,"name":"tristan","steam_id":76561198096097448,"connected_time":1869000000000,"state":"active","ping":54},{"user_id":232,"name":"---","steam_id":76561198027463207,"connected_time":21000000000,"state":"active","ping":58},{"user_id":189,"name":"Vibing Wave [IRan]","steam_id":76561198866358613,"connected_time":1972000000000,"state":"active","ping":136},{"user_id":168,"name":"dempsey","steam_id":76561198049405872,"connected_time":3232000000000,"state":"active","ping":33},{"user_id":225,"name":"Penis Contortionist","steam_id":76561198073663784,"connected_time":632000000000,"state":"active","ping":58},{"user_id":172,"name":"mountaindrill","steam_id":76561198864327475,"connected_time":2874000000000,"state":"active","ping":44},{"user_id":200,"name":"Blondie","steam_id":76561198080631634,"connected_time":1799000000000,"state":"active","ping":63},{"user_id":226,"name":"AddyD","steam_id":76561198201834415,"connected_time":611000000000,"state":"active","ping":57},{"user_id":222,"name":"Oceanic | tuesday maybe","steam_id":76561197979741827,"connected_time":758000000000,"state":"active","ping":60},{"user_id":227,"name":"Bohelor","steam_id":76561198135329948,"connected_time":605000000000,"state":"active","ping":86},{"user_id":219,"name":"mt","steam_id":76561197961319303,"connected_time":1213000000000,"state":"active","ping":46},{"user_id":199,"name":"EZPK","steam_id":76561197987474355,"connected_time":1846000000000,"state":"active","ping":59},{"user_id":195,"name":"toe eater","steam_id":76561199272782484,"connected_time":1929000000000,"state":"active","ping":51},{"user_id":196,"name":"submissive and abusable","steam_id":76561197994492154,"connected_time":1925000000000,"state":"active","ping":67},{"user_id":198,"name":"Crocodile","steam_id":76561197984680667,"connected_time":1851000000000,"state":"active","ping":63},{"user_id":221,"name":"DANGEROUS INDIVIDUAL","steam_id":76561198088624259,"connected_time":811000000000,"state":"active","ping":64},{"user_id":210,"name":"viva la liko loko","steam_id":76561198105028151,"connected_time":1626000000000,"state":"active","ping":44},{"user_id":231,"name":"apple","steam_id":76561198116932635,"connected_time":46000000000,"state":"active","ping":57},{"user_id":229,"name":"mostafa1452","steam_id":76561198967483047,"connected_time":590000000000,"state":"active","ping":121},{"user_id":230,"name":"–ø—É—Ç–∏–Ω —Ö—É–π–ª–æ","steam_id":76561198176636145,"connected_time":315000000000,"state":"active","ping":86}]},{"server_id":311,"name":"Uncletopia | Frankfurt | 6 | All Maps","name_short":"frk-6","host":"frk-1.de.uncletopia.com","port":27065,"enabled":true,"region":"eu","cc":"de","latitude":50.110924,"longitude":8.682127,"reserved":0,"last_update":"0001-01-01T00:00:00Z","name_a2s":"Uncletopia | Frankfurt | 6 | All Maps","protocol":17,"map":"pl_badwater","folder":"tf","game":"Team Fortress","app_id":440,"player_count":24,"max_players":24,"Bots":0,"server_type":"Dedicated","server_os":"Linux","password":true,"vac":true,"version":"7742253","steam_id":85568392924504278,"keywords":["nocrits","nodmgspread","payload","uncletopia"],"game_id":440,"stv_port":27066,"stv_name":"Uncletopia | Frankfurt | 6 | All Maps | STV","players":[{"user_id":142,"name":"Fluffy","steam_id":76561198084447725,"connected_time":2702000000000,"state":"active","ping":53},{"user_id":12,"name":"Espa√±aa","steam_id":76561198879587832,"connected_time":10955000000000,"state":"active","ping":81},{"user_id":86,"name":"SirNeeco \u003c3","steam_id":76561198103014203,"connected_time":6550000000000,"state":"active","ping":59},{"user_id":163,"name":"sunny","steam_id":76561198194849578,"connected_time":911000000000,"state":"active","ping":47},{"user_id":145,"name":"Grunf","steam_id":76561199006140585,"connected_time":2527000000000,"state":"active","ping":68},{"user_id":170,"name":"Random Dude","steam_id":76561199035738200,"connected_time":17000000000,"state":"spawning","ping":190},{"user_id":148,"name":"clems17","steam_id":76561199420685482,"connected_time":1877000000000,"state":"active","ping":44},{"user_id":128,"name":"Micha≈Ç","steam_id":76561198320346362,"connected_time":3497000000000,"state":"active","ping":60},{"user_id":139,"name":"Fragnar","steam_id":76561198080049263,"connected_time":3053000000000,"state":"active","ping":66},{"user_id":168,"name":"ZRD83[FR]","steam_id":76561198411341922,"connected_time":93000000000,"state":"active","ping":69},{"user_id":150,"name":"mordecai","steam_id":76561198000689264,"connected_time":1347000000000,"state":"active","ping":85},{"user_id":169,"name":"Jyghc\u003c/3","steam_id":76561198405980575,"connected_time":78000000000,"state":"active","ping":97},{"user_id":132,"name":"ZazyLou_","steam_id":76561198411134617,"connected_time":3378000000000,"state":"active","ping":63},{"user_id":164,"name":"smrk","steam_id":76561198066926098,"connected_time":870000000000,"state":"active","ping":54},{"user_id":140,"name":"Newax","steam_id":76561198020758511,"connected_time":3046000000000,"state":"active","ping":71},{"user_id":125,"name":"Rops","steam_id":76561198031608011,"connected_time":3811000000000,"state":"active","ping":87},{"user_id":88,"name":"Itai","steam_id":76561198804555329,"connected_time":6444000000000,"state":"active","ping":107},{"user_id":106,"name":"Lyra","steam_id":76561198043601838,"connected_time":5504000000000,"state":"active","ping":63},{"user_id":147,"name":"MatesThePlayer","steam_id":76561198066156449,"connected_time":2298000000000,"state":"active","ping":56},{"user_id":165,"name":"KeNNy L.O.L","steam_id":76561198041918418,"connected_time":866000000000,"state":"active","ping":90},{"user_id":157,"name":"handsome steve","steam_id":76561198388750592,"connected_time":1158000000000,"state":"active","ping":62},{"user_id":155,"name":"Dimitri_612","steam_id":76561199223984137,"connected_time":1253000000000,"state":"active","ping":53},{"user_id":121,"name":"Xydran","steam_id":76561198042397402,"connected_time":3964000000000,"state":"active","ping":87},{"user_id":127,"name":"Stivo","steam_id":76561198026547999,"connected_time":3707000000000,"state":"active","ping":90}]},{"server_id":23,"name":"Uncletopia | Frankfurt | 7 | Stopwatch Beta","name_short":"frk-7","host":"frk-1.de.uncletopia.com","port":27075,"enabled":true,"region":"eu","cc":"de","latitude":50.110924,"longitude":8.682127,"reserved":0,"last_update":"0001-01-01T00:00:00Z","name_a2s":"Uncletopia | Frankfurt | 7 | Stopwatch Beta","protocol":17,"map":"workshop/koth_ramjam_v2_b2.ugc2865676487","folder":"tf","game":"Team Fortress","app_id":440,"player_count":0,"max_players":24,"Bots":0,"server_type":"Dedicated","server_os":"Linux","password":true,"vac":true,"version":"7742253","steam_id":85568392924742827,"keywords":["cp","nocrits","nodmgspread","uncletopia"],"game_id":440,"stv_port":27076,"stv_name":"Uncletopia | Frankfurt | 7 | Stopwatch Beta | STV","players":null},{"server_id":24,"name":"Uncletopia | Frankfurt | 8 | Community","name_short":"frk-8","host":"frk-1.de.uncletopia.com","port":27085,"enabled":true,"region":"eu","cc":"de","latitude":50.110924,"longitude":8.682127,"reserved":0,"last_update":"0001-01-01T00:00:00Z","name_a2s":"Uncletopia | Frankfurt | 8 | Community","protocol":17,"map":"workshop/koth_synthetic_rc6a.ugc1549817316","folder":"tf","game":"Team Fortress","app_id":440,"player_count":1,"max_players":24,"Bots":0,"server_type":"Dedicated","server_os":"Linux","password":true,"vac":true,"version":"7742253","steam_id":85568392924742828,"keywords":["cp","nocrits","nodmgspread","uncletopia"],"game_id":440,"stv_port":27086,"stv_name":"Uncletopia | Frankfurt | 8 | Community | STV","players":[{"user_id":6,"name":"Neon","steam_id":76561198951583906,"connected_time":159000000000,"state":"active","ping":53}]},{"server_id":202,"name":"Uncletopia | Hong Kong | 1 | All Maps","name_short":"hgk-1","host":"hgk-1.hk.uncletopia.com","port":27015,"enabled":true,"region":"asia","cc":"hk","latitude":22.302711,"longitude":114.177216,"reserved":0,"last_update":"0001-01-01T00:00:00Z","name_a2s":"Uncletopia | Hong Kong | 1 | All Maps","protocol":17,"map":"cp_dustbowl","folder":"tf","game":"Team Fortress","app_id":440,"player_count":24,"max_players":24,"Bots":0,"server_type":"Dedicated","server_os":"Linux","password":true,"vac":true,"version":"7742253","steam_id":85568392924494504,"keywords":["cp","nocrits","nodmgspread","uncletopia"],"game_id":440,"stv_port":27016,"stv_name":"Uncletopia | Hong Kong | 1 | All Maps | STV","players":[{"user_id":510,"name":"IFUDGISTICX","steam_id":76561199105415893,"connected_time":1020000000000,"state":"active","ping":82},{"user_id":505,"name":"Basil omori","steam_id":76561198861303317,"connected_time":1556000000000,"state":"active","ping":73},{"user_id":508,"name":"LudE","steam_id":76561198828840546,"connected_time":1341000000000,"state":"active","ping":69},{"user_id":503,"name":"cercent","steam_id":76561198956361075,"connected_time":1566000000000,"state":"active","ping":92},{"user_id":492,"name":"Puddin","steam_id":76561198140052918,"connected_time":2736000000000,"state":"active","ping":91},{"user_id":491,"name":"That Finger","steam_id":76561199062866529,"connected_time":2968000000000,"state":"active","ping":81},{"user_id":494,"name":"Frankoceanlover911","steam_id":76561198400698408,"connected_time":2192000000000,"state":"active","ping":89},{"user_id":445,"name":"it chrmis time (fr)","steam_id":76561198055553140,"connected_time":8618000000000,"state":"active","ping":75},{"user_id":517,"name":"m1ko-  ‚ùÄ‚ùÜ","steam_id":76561198337154745,"connected_time":640000000000,"state":"active","ping":82},{"user_id":520,"name":"r/leroy","steam_id":76561199137927625,"connected_time":616000000000,"state":"active","ping":295},{"user_id":483,"name":":)","steam_id":76561198437941450,"connected_time":3679000000000,"state":"active","ping":78},{"user_id":442,"name":"instant karma","steam_id":76561198027307933,"connected_time":9509000000000,"state":"active","ping":48},{"user_id":459,"name":"am lk","steam_id":76561199077602424,"connected_time":7101000000000,"state":"active","ping":60},{"user_id":479,"name":"Medi","steam_id":76561198447470800,"connected_time":5031000000000,"state":"active","ping":68},{"user_id":477,"name":"+","steam_id":76561198121311286,"connected_time":5049000000000,"state":"active","ping":72},{"user_id":457,"name":"juiceword999","steam_id":76561199010058387,"connected_time":7318000000000,"state":"active","ping":67},{"user_id":485,"name":"Cashewal","steam_id":76561198381576087,"connected_time":3675000000000,"state":"active","ping":86},{"user_id":519,"name":"oNyour","steam_id":76561198323259830,"connected_time":626000000000,"state":"active","ping":107},{"user_id":513,"name":"Avg KFC Enjoyer","steam_id":76561198959978678,"connected_time":649000000000,"state":"active","ping":87},{"user_id":504,"name":"bocchi the rock oppai","steam_id":76561198008307645,"connected_time":1566000000000,"state":"active","ping":78},{"user_id":484,"name":"ZUdolph, the Robo-reindeer","steam_id":76561198179320563,"connected_time":3679000000000,"state":"active","ping":75},{"user_id":506,"name":"tuxy","steam_id":76561198996816684,"connected_time":1353000000000,"state":"active","ping":105},{"user_id":515,"name":"troll juice","steam_id":76561199146847474,"connected_time":646000000000,"state":"active","ping":49},{"user_id":516,"name":"realnhours14","steam_id":76561198412329672,"connected_time":644000000000,"state":"active","ping":81}]},{"server_id":1,"name":"Uncletopia | Los Angeles | 1 | All Maps","name_short":"lax-1","host":"lax-1.us.uncletopia.com","port":27015,"enabled":true,"region":"us-west","cc":"us","latitude":33.94279,"longitude":-118.41004,"reserved":0,"last_update":"0001-01-01T00:00:00Z","name_a2s":"Uncletopia | Los Angeles | 1 | All Maps","protocol":17,"map":"pl_borneo","folder":"tf","game":"Team Fortress","app_id":440,"player_count":0,"max_players":24,"Bots":0,"server_type":"Dedicated","server_os":"Linux","password":true,"vac":true,"version":"7742253","steam_id":85568392924469991,"keywords":["nocrits","nodmgspread","payload","uncletopia"],"game_id":440,"stv_port":27016,"stv_name":"Uncletopia | Los Angeles | 1 | All Maps | STV","players":null},{"server_id":112,"name":"Uncletopia | Los Angeles | 2 | All Maps","name_short":"lax-2","host":"lax-1.us.uncletopia.com","port":27025,"enabled":true,"region":"us-west","cc":"us","latitude":33.94279,"longitude":-118.41004,"reserved":0,"last_update":"0001-01-01T00:00:00Z","name_a2s":"Uncletopia | Los Angeles | 2 | All Maps","protocol":17,"map":"pl_upward","folder":"tf","game":"Team Fortress","app_id":440,"player_count":0,"max_players":24,"Bots":0,"server_type":"Dedicated","server_os":"Linux","password":true,"vac":true,"version":"7742253","steam_id":85568392924469992,"keywords":["nocrits","nodmgspread","payload","uncletopia"],"game_id":440,"stv_port":27026,"stv_name":"Uncletopia | Los Angeles | 2 | All Maps | STV","players":null},{"server_id":324,"name":"Uncletopia | Los Angeles | 3 | All Maps","name_short":"lax-3","host":"lax-1.us.uncletopia.com","port":27035,"enabled":true,"region":"us-west","cc":"us","latitude":33.94279,"longitude":-118.41004,"reserved":0,"last_update":"0001-01-01T00:00:00Z","name_a2s":"Uncletopia | Los Angeles | 3 | All Maps","protocol":17,"map":"pl_borneo","folder":"tf","game":"Team Fortress","app_id":440,"player_count":0,"max_players":24,"Bots":0,"server_type":"Dedicated","server_os":"Linux","password":true,"vac":true,"version":"7742253","steam_id":85568392924510198,"keywords":["nocrits","nodmgspread","payload","uncletopia"],"game_id":440,"stv_port":27036,"stv_name":"Uncletopia | Los Angeles | 3 | All Maps | STV","players":null},{"server_id":25,"name":"Uncletopia | Los Angeles | 4 | Stopwatch Beta","name_short":"lax-4","host":"lax-1.us.uncletopia.com","port":27045,"enabled":true,"region":"us-west","cc":"us","latitude":33.94279,"longitude":-118.41004,"reserved":0,"last_update":"0001-01-01T00:00:00Z","name_a2s":"Uncletopia | Los Angeles | 4 | Stopwatch Beta","protocol":17,"map":"cp_process_final","folder":"tf","game":"Team Fortress","app_id":440,"player_count":0,"max_players":24,"Bots":0,"server_type":"Dedicated","server_os":"Linux","password":true,"vac":true,"version":"7742253","steam_id":85568392924510199,"keywords":["cp","nocrits","nodmgspread","uncletopia"],"game_id":440,"stv_port":27046,"stv_name":"Uncletopia | Los Angeles | 4 | Stopwatch Beta | STV","players":null},{"server_id":11,"name":"Uncletopia | London | 1 | All Maps","name_short":"lon-1","host":"lon-1.uk.uncletopia.com","port":27015,"enabled":true,"region":"eu","cc":"gb","latitude":51.509865,"longitude":-0.118092,"reserved":0,"last_update":"0001-01-01T00:00:00Z","name_a2s":"Uncletopia | London | 1 | All Maps","protocol":17,"map":"pl_barnblitz","folder":"tf","game":"Team Fortress","app_id":440,"player_count":0,"max_players":24,"Bots":0,"server_type":"Dedicated","server_os":"Linux","password":true,"vac":true,"version":"7742253","steam_id":85568392924367362,"keywords":["nocrits","nodmgspread","payload","uncletopia"],"game_id":440,"stv_port":27016,"stv_name":"Uncletopia | London | 1 | All Maps | STV","players":null},{"server_id":114,"name":"Uncletopia | London | 2 | All Maps","name_short":"lon-2","host":"lon-1.uk.uncletopia.com","port":27025,"enabled":true,"region":"eu","cc":"gb","latitude":51.509865,"longitude":-0.118092,"reserved":0,"last_update":"0001-01-01T00:00:00Z","name_a2s":"Uncletopia | London | 2 | All Maps","protocol":17,"map":"cp_process_final","folder":"tf","game":"Team Fortress","app_id":440,"player_count":24,"max_players":24,"Bots":0,"server_type":"Dedicated","server_os":"Linux","password":true,"vac":true,"version":"7742253","steam_id":85568392924470941,"keywords":["cp","nocrits","nodmgspread","uncletopia"],"game_id":440,"stv_port":27026,"stv_name":"Uncletopia | London | 2 | All Maps | STV","players":[{"user_id":75,"name":"UltimateAura","steam_id":76561198338361324,"connected_time":1053000000000,"state":"active","ping":42},{"user_id":66,"name":"Batunga","steam_id":76561198174496709,"connected_time":1816000000000,"state":"active","ping":68},{"user_id":95,"name":"Thesis","steam_id":76561199308784371,"connected_time":150000000000,"state":"active","ping":60},{"user_id":84,"name":"Klinmir","steam_id":76561198352339376,"connected_time":415000000000,"state":"active","ping":108},{"user_id":88,"name":"Kahvi","steam_id":76561198723244199,"connected_time":301000000000,"state":"active","ping":76},{"user_id":94,"name":"Tusho","steam_id":76561198115447383,"connected_time":207000000000,"state":"active","ping":97},{"user_id":96,"name":"‚ô£–ë—Ä–µ–¥–æ–≤—ã–π –ú–µ—Å—è—Ü","steam_id":76561198796404149,"connected_time":132000000000,"state":"active","ping":105},{"user_id":79,"name":"Supercle26","steam_id":76561199027147631,"connected_time":695000000000,"state":"active","ping":46},{"user_id":54,"name":"FackaYou","steam_id":76561198193036090,"connected_time":3240000000000,"state":"active","ping":61},{"user_id":83,"name":"Serton‚ôù","steam_id":76561198011061126,"connected_time":528000000000,"state":"active","ping":73},{"user_id":97,"name":"Florua","steam_id":76561198182297846,"connected_time":39000000000,"state":"active","ping":64},{"user_id":56,"name":"Manasa","steam_id":76561198265192382,"connected_time":2979000000000,"state":"active","ping":72},{"user_id":19,"name":"Munibe","steam_id":76561198107967904,"connected_time":4810000000000,"state":"active","ping":63},{"user_id":65,"name":"Hleno","steam_id":76561198060442619,"connected_time":1944000000000,"state":"active","ping":59},{"user_id":23,"name":"VK2124 :D","steam_id":76561198111130688,"connected_time":4483000000000,"state":"active","ping":59},{"user_id":58,"name":"grubs","steam_id":76561198798846454,"connected_time":2682000000000,"state":"active","ping":64},{"user_id":59,"name":"LukeLeal","steam_id":76561198049822995,"connected_time":2676000000000,"state":"active","ping":183},{"user_id":64,"name":"Commander Shepard","steam_id":76561198085531842,"connected_time":2139000000000,"state":"active","ping":53},{"user_id":69,"name":"the insane","steam_id":76561198968160899,"connected_time":1707000000000,"state":"active","ping":61},{"user_id":33,"name":"downtown boy","steam_id":76561197983094802,"connected_time":4081000000000,"state":"active","ping":96},{"user_id":34,"name":"d00bie","steam_id":76561198025295218,"connected_time":4067000000000,"state":"active","ping":78},{"user_id":80,"name":"matt.roser","steam_id":76561198200195855,"connected_time":681000000000,"state":"active","ping":66},{"user_id":82,"name":"Senator Armstrong","steam_id":76561198984346408,"connected_time":669000000000,"state":"active","ping":84},{"user_id":93,"name":"Flare","steam_id":76561198039098320,"connected_time":226000000000,"state":"active","ping":56}]},{"server_id":320,"name":"Uncletopia | London | 3 | All Maps","name_short":"lon-3","host":"lon-1.uk.uncletopia.com","port":27035,"enabled":true,"region":"eu","cc":"gb","latitude":51.509865,"longitude":-0.118092,"reserved":0,"last_update":"0001-01-01T00:00:00Z","name_a2s":"Uncletopia | London | 3 | All Maps","protocol":17,"map":"koth_suijin","folder":"tf","game":"Team Fortress","app_id":440,"player_count":24,"max_players":24,"Bots":0,"server_type":"Dedicated","server_os":"Linux","password":true,"vac":true,"version":"7742253","steam_id":85568392924510192,"keywords":["cp","nocrits","nodmgspread","uncletopia"],"game_id":440,"stv_port":27036,"stv_name":"Uncletopia | London | 3 | All Maps | STV","players":[{"user_id":164,"name":"waffle toaster","steam_id":76561198799089628,"connected_time":54000000000,"state":"active","ping":54},{"user_id":106,"name":"Sanctified","steam_id":76561198057092208,"connected_time":3936000000000,"state":"active","ping":75},{"user_id":159,"name":"Sto√Øcisme","steam_id":76561198127441800,"connected_time":96000000000,"state":"active","ping":104},{"user_id":107,"name":"Artemis","steam_id":76561198199091801,"connected_time":3929000000000,"state":"active","ping":46},{"user_id":144,"name":"mumrik","steam_id":76561198040812711,"connected_time":1072000000000,"state":"active","ping":76},{"user_id":104,"name":"marsel","steam_id":76561198116168271,"connected_time":4214000000000,"state":"active","ping":75},{"user_id":135,"name":"NotExactlyAName","steam_id":76561199131759230,"connected_time":2816000000000,"state":"active","ping":72},{"user_id":156,"name":"LeMaxaff","steam_id":76561198034412961,"connected_time":191000000000,"state":"active","ping":61},{"user_id":153,"name":"cantsniff","steam_id":76561198259668029,"connected_time":433000000000,"state":"active","ping":48},{"user_id":120,"name":"Taewinzer","steam_id":76561198261820803,"connected_time":3479000000000,"state":"active","ping":70},{"user_id":152,"name":"3xample","steam_id":76561198805049375,"connected_time":503000000000,"state":"active","ping":63},{"user_id":121,"name":"Taekio","steam_id":76561198158934992,"connected_time":3464000000000,"state":"active","ping":76},{"user_id":91,"name":"dorak","steam_id":76561198818037965,"connected_time":5006000000000,"state":"active","ping":105},{"user_id":137,"name":"fierce_A2","steam_id":76561198301836443,"connected_time":2187000000000,"state":"active","ping":121},{"user_id":160,"name":"so cute it kils","steam_id":76561198256660599,"connected_time":94000000000,"state":"active","ping":57},{"user_id":31,"name":"Sir H√§berli B√§nz","steam_id":76561198138294650,"connected_time":8904000000000,"state":"active","ping":59},{"user_id":161,"name":"brk559","steam_id":76561199095687349,"connected_time":80000000000,"state":"active","ping":88},{"user_id":157,"name":"tugcan3021","steam_id":76561198236015392,"connected_time":153000000000,"state":"active","ping":130},{"user_id":162,"name":"Johan","steam_id":76561197999517316,"connected_time":78000000000,"state":"active","ping":72},{"user_id":163,"name":"Bucket of Chicken","steam_id":76561198835382392,"connected_time":73000000000,"state":"active","ping":109},{"user_id":151,"name":"Techm32","steam_id":76561198317134994,"connected_time":553000000000,"state":"active","ping":64},{"user_id":146,"name":"Lods of Emone","steam_id":76561198188642265,"connected_time":993000000000,"state":"active","ping":47},{"user_id":129,"name":"ShoobyDooby","steam_id":76561198118473910,"connected_time":3263000000000,"state":"active","ping":56},{"user_id":143,"name":"cslevi","steam_id":76561198142858923,"connected_time":1660000000000,"state":"active","ping":77}]},{"server_id":321,"name":"Uncletopia | London | 4 | All Maps","name_short":"lon-4","host":"lon-1.uk.uncletopia.com","port":27045,"enabled":true,"region":"eu","cc":"gb","latitude":51.509865,"longitude":-0.118092,"reserved":0,"last_update":"0001-01-01T00:00:00Z","name_a2s":"Uncletopia | London | 4 | All Maps","protocol":17,"map":"koth_cascade","folder":"tf","game":"Team Fortress","app_id":440,"player_count":0,"max_players":24,"Bots":0,"server_type":"Dedicated","server_os":"Linux","password":true,"vac":true,"version":"7742253","steam_id":85568392924510193,"keywords":["cp","nocrits","nodmgspread","uncletopia"],"game_id":440,"stv_port":27046,"stv_name":"Uncletopia | London | 4 | All Maps | STV","players":null},{"server_id":21,"name":"Uncletopia | London | 5 | All Maps","name_short":"lon-5","host":"lon-1.uk.uncletopia.com","port":27055,"enabled":true,"region":"eu","cc":"gb","latitude":51.509865,"longitude":-0.118092,"reserved":0,"last_update":"0001-01-01T00:00:00Z","name_a2s":"Uncletopia | London | 5 | All Maps","protocol":17,"map":"pl_upward","folder":"tf","game":"Team Fortress","app_id":440,"player_count":1,"max_players":24,"Bots":0,"server_type":"Dedicated","server_os":"Linux","password":true,"vac":true,"version":"7742253","steam_id":85568392924742829,"keywords":["nocrits","nodmgspread","payload","uncletopia"],"game_id":440,"stv_port":27056,"stv_name":"Uncletopia | London | 5 | All Maps | STV","players":[{"user_id":7,"name":"Ben UFO","steam_id":76561198001648348,"connected_time":180000000000,"state":"active","ping":42}]},{"server_id":22,"name":"Uncletopia | London | 6 | All Maps","name_short":"lon-6","host":"lon-1.uk.uncletopia.com","port":27065,"enabled":true,"region":"eu","cc":"gb","latitude":51.509865,"longitude":-0.118092,"reserved":0,"last_update":"0001-01-01T00:00:00Z","name_a2s":"Uncletopia | London | 6 | All Maps","protocol":17,"map":"cp_mountainlab","folder":"tf","game":"Team Fortress","app_id":440,"player_count":0,"max_players":24,"Bots":0,"server_type":"Dedicated","server_os":"Linux","password":true,"vac":true,"version":"7742253","steam_id":85568392924742830,"keywords":["cp","nocrits","nodmgspread","uncletopia"],"game_id":440,"stv_port":27066,"stv_name":"Uncletopia | London | 6 | All Maps | STV","players":null},{"server_id":40,"name":"Uncletopia | London | 7 | No Payload","name_short":"lon-7","host":"lon-1.uk.uncletopia.com","port":27075,"enabled":true,"region":"eu","cc":"gb","latitude":51.509865,"longitude":-0.118092,"reserved":0,"last_update":"0001-01-01T00:00:00Z","name_a2s":"Uncletopia | London | 7 | No Payload","protocol":17,"map":"cp_gravelpit","folder":"tf","game":"Team Fortress","app_id":440,"player_count":0,"max_players":24,"Bots":0,"server_type":"Dedicated","server_os":"Linux","password":true,"vac":true,"version":"7742253","steam_id":85568392924964314,"keywords":["cp","nocrits","nodmgspread","uncletopia"],"game_id":440,"stv_port":27076,"stv_name":"Uncletopia | London | 7 | No Payload | STV","players":null},{"server_id":41,"name":"Uncletopia | London | 8 | Community","name_short":"lon-8","host":"lon-1.uk.uncletopia.com","port":27085,"enabled":true,"region":"eu","cc":"gb","latitude":51.509865,"longitude":-0.118092,"reserved":0,"last_update":"0001-01-01T00:00:00Z","name_a2s":"Uncletopia | London | 8 | Community","protocol":17,"map":"cp_process_final","folder":"tf","game":"Team Fortress","app_id":440,"player_count":0,"max_players":24,"Bots":0,"server_type":"Dedicated","server_os":"Linux","password":true,"vac":true,"version":"7742253","steam_id":85568392924964315,"keywords":["cp","nocrits","nodmgspread","uncletopia"],"game_id":440,"stv_port":27086,"stv_name":"Uncletopia | London | 8 | Community | STV","players":null},{"server_id":300,"name":"Uncletopia | Montr√©al | 1 | All Maps","name_short":"mtl-1","host":"mtl-1.ca.uncletopia.com","port":27015,"enabled":true,"region":"us-east","cc":"ca","latitude":45.50889,"longitude":-73.56167,"reserved":0,"last_update":"0001-01-01T00:00:00Z","name_a2s":"Uncletopia | Montr√©al | 1 | All Maps","protocol":17,"map":"koth_lakeside_final","folder":"tf","game":"Team Fortress","app_id":440,"player_count":0,"max_players":24,"Bots":0,"server_type":"Dedicated","server_os":"Linux","password":true,"vac":true,"version":"7742253","steam_id":85568392924500087,"keywords":["cp","nocrits","nodmgspread","uncletopia"],"game_id":440,"stv_port":27016,"stv_name":"Uncletopia | Montr√©al | 1 | All Maps | STV","players":null},{"server_id":301,"name":"Uncletopia | Montr√©al | 2 | All Maps","name_short":"mtl-2","host":"mtl-1.ca.uncletopia.com","port":27025,"enabled":true,"region":"us-east","cc":"ca","latitude":45.50889,"longitude":-73.56167,"reserved":0,"last_update":"0001-01-01T00:00:00Z","name_a2s":"Uncletopia | Montr√©al | 2 | All Maps","protocol":17,"map":"koth_lakeside_final","folder":"tf","game":"Team Fortress","app_id":440,"player_count":0,"max_players":24,"Bots":0,"server_type":"Dedicated","server_os":"Linux","password":true,"vac":true,"version":"7742253","steam_id":85568392924500088,"keywords":["cp","nocrits","nodmgspread","uncletopia"],"game_id":440,"stv_port":27026,"stv_name":"Uncletopia | Montr√©al | 2 | All Maps | STV","players":null},{"server_id":302,"name":"Uncletopia | Montr√©al | 3 | All Maps","name_short":"mtl-3","host":"mtl-1.ca.uncletopia.com","port":27035,"enabled":true,"region":"us-east","cc":"ca","latitude":45.50889,"longitude":-73.56167,"reserved":0,"last_update":"0001-01-01T00:00:00Z","name_a2s":"Uncletopia | Montr√©al | 3 | All Maps","protocol":17,"map":"cp_sunshine","folder":"tf","game":"Team Fortress","app_id":440,"player_count":0,"max_players":24,"Bots":0,"server_type":"Dedicated","server_os":"Linux","password":true,"vac":true,"version":"7742253","steam_id":85568392924500089,"keywords":["cp","nocrits","nodmgspread","uncletopia"],"game_id":440,"stv_port":27036,"stv_name":"Uncletopia | Montr√©al | 3 | All Maps | STV","players":null},{"server_id":303,"name":"Uncletopia | Montr√©al | 4 | No Payload","name_short":"mtl-4","host":"mtl-1.ca.uncletopia.com","port":27045,"enabled":true,"region":"us-east","cc":"ca","latitude":45.50889,"longitude":-73.56167,"reserved":0,"last_update":"0001-01-01T00:00:00Z","name_a2s":"Uncletopia | Montr√©al | 4 | No Payload","protocol":17,"map":"koth_highpass","folder":"tf","game":"Team Fortress","app_id":440,"player_count":0,"max_players":24,"Bots":0,"server_type":"Dedicated","server_os":"Linux","password":true,"vac":true,"version":"7742253","steam_id":85568392924500090,"keywords":["cp","nocrits","nodmgspread","uncletopia"],"game_id":440,"stv_port":27046,"stv_name":"Uncletopia | Montr√©al | 4 | No Payload | STV","players":null},{"server_id":13,"name":"Uncletopia | New York City | 1 | All Maps","name_short":"nyc-1","host":"nyc-1.us.uncletopia.com","port":27015,"enabled":true,"region":"us-east","cc":"us","latitude":40.73061,"longitude":-73.93524,"reserved":0,"last_update":"0001-01-01T00:00:00Z","name_a2s":"Uncletopia | New York City | 1 | All Maps","protocol":17,"map":"cp_process_final","folder":"tf","game":"Team Fortress","app_id":440,"player_count":0,"max_players":24,"Bots":0,"server_type":"Dedicated","server_os":"Linux","password":true,"vac":true,"version":"7742253","steam_id":85568392924469993,"keywords":["cp","nocrits","nodmgspread","uncletopia"],"game_id":440,"stv_port":27016,"stv_name":"Uncletopia | New York City | 1 | All Maps | STV","players":null},{"server_id":14,"name":"Uncletopia | New York City | 2 | All Maps","name_short":"nyc-2","host":"nyc-1.us.uncletopia.com","port":27025,"enabled":true,"region":"us-east","cc":"us","latitude":40.73061,"longitude":-73.93524,"reserved":0,"last_update":"0001-01-01T00:00:00Z","name_a2s":"Uncletopia | New York City | 2 | All Maps","protocol":17,"map":"pl_borneo","folder":"tf","game":"Team Fortress","app_id":440,"player_count":0,"max_players":24,"Bots":0,"server_type":"Dedicated","server_os":"Linux","password":true,"vac":true,"version":"7742253","steam_id":85568392924469994,"keywords":["nocrits","nodmgspread","payload","uncletopia"],"game_id":440,"stv_port":27026,"stv_name":"Uncletopia | New York City | 2 | All Maps | STV","players":null},{"server_id":15,"name":"Uncletopia | New York City | 3 | Stopwatch Beta","name_short":"nyc-3","host":"nyc-1.us.uncletopia.com","port":27035,"enabled":true,"region":"us-east","cc":"us","latitude":40.73061,"longitude":-73.93524,"reserved":0,"last_update":"0001-01-01T00:00:00Z","name_a2s":"Uncletopia | New York City | 3 | Stopwatch Beta","protocol":17,"map":"cp_altitude","folder":"tf","game":"Team Fortress","app_id":440,"player_count":0,"max_players":24,"Bots":0,"server_type":"Dedicated","server_os":"Linux","password":true,"vac":true,"version":"7742253","steam_id":85568392924742820,"keywords":["cp","nocrits","nodmgspread","uncletopia"],"game_id":440,"stv_port":27036,"stv_name":"Uncletopia | New York City | 3 | Stopwatch Beta | STV","players":null},{"server_id":16,"name":"Uncletopia | New York City | 4 | Community","name_short":"nyc-4","host":"nyc-1.us.uncletopia.com","port":27045,"enabled":true,"region":"us-east","cc":"us","latitude":40.73061,"longitude":-73.93524,"reserved":0,"last_update":"0001-01-01T00:00:00Z","name_a2s":"Uncletopia | New York City | 4 | Community","protocol":17,"map":"pl_barnblitz","folder":"tf","game":"Team Fortress","app_id":440,"player_count":0,"max_players":24,"Bots":0,"server_type":"Dedicated","server_os":"Linux","password":true,"vac":true,"version":"7742253","steam_id":85568392924742821,"keywords":["nocrits","nodmgspread","payload","uncletopia"],"game_id":440,"stv_port":27046,"stv_name":"Uncletopia | New York City | 4 | Community | STV","players":null},{"server_id":142,"name":"Uncletopia | S√£o Paulo | 1 | All Maps","name_short":"sao-1","host":"sao-1.br.uncletopia.com","port":27015,"enabled":true,"region":"sa","cc":"br","latitude":-23.533773,"longitude":-46.62529,"reserved":0,"last_update":"0001-01-01T00:00:00Z","name_a2s":"Uncletopia | S√£o Paulo | 1 | All Maps","protocol":17,"map":"pl_upward","folder":"tf","game":"Team Fortress","app_id":440,"player_count":0,"max_players":24,"Bots":0,"server_type":"Dedicated","server_os":"Linux","password":true,"vac":true,"version":"7742253","steam_id":85568392924469996,"keywords":["nocrits","nodmgspread","payload","uncletopia"],"game_id":440,"stv_port":27016,"stv_name":"Uncletopia | S√£o Paulo | 1 | All Maps | STV","players":null},{"server_id":143,"name":"Uncletopia | S√£o Paulo | 2 | All Maps","name_short":"sao-2","host":"sao-2.br.uncletopia.com","port":27015,"enabled":true,"region":"sa","cc":"br","latitude":-23.533773,"longitude":-46.62529,"reserved":0,"last_update":"0001-01-01T00:00:00Z","name_a2s":"Uncletopia | S√£o Paulo | 2 | All Maps","protocol":17,"map":"pl_upward","folder":"tf","game":"Team Fortress","app_id":440,"player_count":0,"max_players":24,"Bots":0,"server_type":"Dedicated","server_os":"Linux","password":true,"vac":true,"version":"7742253","steam_id":85568392924485349,"keywords":["nocrits","nodmgspread","payload","uncletopia"],"game_id":440,"stv_port":27016,"stv_name":"Uncletopia | S√£o Paulo | 2 | All Maps | STV","players":null},{"server_id":7,"name":"Uncletopia | Seattle | 1 | All Maps","name_short":"sea-1","host":"sea-1.us.uncletopia.com","port":27015,"enabled":true,"region":"us-west","cc":"us","latitude":47.608013,"longitude":-122.33517,"reserved":0,"last_update":"0001-01-01T00:00:00Z","name_a2s":"Uncletopia | Seattle | 1 | All Maps","protocol":17,"map":"pl_coal_event","folder":"tf","game":"Team Fortress","app_id":440,"player_count":6,"max_players":24,"Bots":0,"server_type":"Dedicated","server_os":"Linux","password":true,"vac":true,"version":"7742253","steam_id":85568392924469997,"keywords":["nocrits","nodmgspread","payload","uncletopia"],"game_id":440,"stv_port":27016,"stv_name":"Uncletopia | Seattle | 1 | All Maps | STV","players":[{"user_id":4,"name":"the pizza","steam_id":76561198221331476,"connected_time":699000000000,"state":"active","ping":59},{"user_id":12,"name":"debin","steam_id":76561198070711217,"connected_time":597000000000,"state":"active","ping":89},{"user_id":7,"name":"summerlis","steam_id":76561198165324438,"connected_time":664000000000,"state":"active","ping":60},{"user_id":9,"name":"Jay","steam_id":76561198148464582,"connected_time":651000000000,"state":"active","ping":81},{"user_id":10,"name":"Jesus Loves You57","steam_id":76561199058833769,"connected_time":648000000000,"state":"active","ping":57},{"user_id":14,"name":"The Classy Ferret","steam_id":76561198200961750,"connected_time":575000000000,"state":"active","ping":63}]},{"server_id":119,"name":"Uncletopia | Seattle | 2 | All Maps","name_short":"sea-2","host":"sea-1.us.uncletopia.com","port":27025,"enabled":true,"region":"us-west","cc":"us","latitude":47.608013,"longitude":-122.33517,"reserved":0,"last_update":"0001-01-01T00:00:00Z","name_a2s":"Uncletopia | Seattle | 2 | All Maps","protocol":17,"map":"pl_swiftwater_final1","folder":"tf","game":"Team Fortress","app_id":440,"player_count":0,"max_players":24,"Bots":0,"server_type":"Dedicated","server_os":"Linux","password":true,"vac":true,"version":"7742253","steam_id":85568392924469998,"keywords":["nocrits","nodmgspread","payload","uncletopia"],"game_id":440,"stv_port":27026,"stv_name":"Uncletopia | Seattle | 2 | All Maps | STV","players":null},{"server_id":406,"name":"Uncletopia | Seattle | 3 | Stopwatch Beta","name_short":"sea-3","host":"sea-1.us.uncletopia.com","port":27035,"enabled":true,"region":"us-west","cc":"us","latitude":47.608013,"longitude":-122.33517,"reserved":0,"last_update":"0001-01-01T00:00:00Z","name_a2s":"Uncletopia | Seattle | 3 | Stopwatch Beta","protocol":17,"map":"pl_upward","folder":"tf","game":"Team Fortress","app_id":440,"player_count":0,"max_players":24,"Bots":0,"server_type":"Dedicated","server_os":"Linux","password":true,"vac":false,"version":"7742253","steam_id":0,"keywords":["nocrits","nodmgspread","payload","uncletopia"],"game_id":440,"stv_port":27036,"stv_name":"Uncletopia | Seattle | 3 | Stopwatch Beta | STV","players":null},{"server_id":17,"name":"Uncletopia | San Francisco | 1 | All Maps","name_short":"sfo-1","host":"sfo-1.us.uncletopia.com","port":27015,"enabled":true,"region":"us-west","cc":"us","latitude":37.77397,"longitude":-122.4313,"reserved":0,"last_update":"0001-01-01T00:00:00Z","name_a2s":"Uncletopia | San Francisco | 1 | All Maps","protocol":17,"map":"koth_cascade","folder":"tf","game":"Team Fortress","app_id":440,"player_count":0,"max_players":24,"Bots":0,"server_type":"Dedicated","server_os":"Linux","password":true,"vac":true,"version":"7742253","steam_id":85568392924469999,"keywords":["cp","nocrits","nodmgspread","uncletopia"],"game_id":440,"stv_port":27016,"stv_name":"Uncletopia | San Francisco | 1 | All Maps | STV","players":null},{"server_id":18,"name":"Uncletopia | San Francisco | 2 | All Maps","name_short":"sfo-2","host":"sfo-1.us.uncletopia.com","port":27025,"enabled":true,"region":"us-west","cc":"us","latitude":37.77397,"longitude":-122.4313,"reserved":0,"last_update":"0001-01-01T00:00:00Z","name_a2s":"Uncletopia | San Francisco | 2 | All Maps","protocol":17,"map":"cp_process_final","folder":"tf","game":"Team Fortress","app_id":440,"player_count":0,"max_players":24,"Bots":0,"server_type":"Dedicated","server_os":"Linux","password":true,"vac":true,"version":"7742253","steam_id":85568392924470000,"keywords":["cp","nocrits","nodmgspread","uncletopia"],"game_id":440,"stv_port":27026,"stv_name":"Uncletopia | San Francisco | 2 | All Maps | STV","players":null},{"server_id":19,"name":"Uncletopia | San Francisco | 3 | Stopwatch Beta","name_short":"sfo-3","host":"sfo-1.us.uncletopia.com","port":27035,"enabled":true,"region":"us-west","cc":"us","latitude":37.77397,"longitude":-122.4313,"reserved":0,"last_update":"0001-01-01T00:00:00Z","name_a2s":"Uncletopia | San Francisco | 3 | Stopwatch Beta","protocol":17,"map":"cp_snakewater_final1","folder":"tf","game":"Team Fortress","app_id":440,"player_count":0,"max_players":24,"Bots":0,"server_type":"Dedicated","server_os":"Linux","password":true,"vac":true,"version":"7742253","steam_id":85568392924742824,"keywords":["cp","nocrits","nodmgspread","uncletopia"],"game_id":440,"stv_port":27036,"stv_name":"Uncletopia | San Francisco | 3 | Stopwatch Beta | STV","players":null},{"server_id":20,"name":"Uncletopia | San Francisco | 4 | Community","name_short":"sfo-4","host":"sfo-1.us.uncletopia.com","port":27045,"enabled":true,"region":"us-west","cc":"us","latitude":37.77397,"longitude":-122.4313,"reserved":0,"last_update":"0001-01-01T00:00:00Z","name_a2s":"Uncletopia | San Francisco | 4 | Community","protocol":17,"map":"cp_altitude","folder":"tf","game":"Team Fortress","app_id":440,"player_count":0,"max_players":24,"Bots":0,"server_type":"Dedicated","server_os":"Linux","password":true,"vac":true,"version":"7742253","steam_id":85568392924742826,"keywords":["cp","nocrits","nodmgspread","uncletopia"],"game_id":440,"stv_port":27046,"stv_name":"Uncletopia | San Francisco | 4 | Community | STV","players":null},{"server_id":141,"name":"Uncletopia | Sydney | 1 | All Maps","name_short":"syd-1","host":"syd-1.au.uncletopia.com","port":27015,"enabled":true,"region":"au","cc":"au","latitude":-33.865143,"longitude":151.2099,"reserved":0,"last_update":"0001-01-01T00:00:00Z","name_a2s":"Uncletopia | Sydney | 1 | All Maps","protocol":17,"map":"pl_pier","folder":"tf","game":"Team Fortress","app_id":440,"player_count":8,"max_players":24,"Bots":0,"server_type":"Dedicated","server_os":"Linux","password":true,"vac":true,"version":"7742253","steam_id":85568392924470001,"keywords":["nocrits","nodmgspread","payload","uncletopia"],"game_id":440,"stv_port":27016,"stv_name":"Uncletopia | Sydney | 1 | All Maps | STV","players":[{"user_id":673,"name":"Winston Churchill","steam_id":76561198355125370,"connected_time":162000000000,"state":"active","ping":39},{"user_id":654,"name":"George \"The Oster\" Floyd","steam_id":76561198173890097,"connected_time":2039000000000,"state":"active","ping":62},{"user_id":675,"name":"sneezing and farting","steam_id":76561198000773035,"connected_time":76000000000,"state":"active","ping":91},{"user_id":674,"name":"Power from Chainsaw Man","steam_id":76561198136583999,"connected_time":108000000000,"state":"active","ping":64},{"user_id":652,"name":"Pak'n'Save","steam_id":76561199199754055,"connected_time":2273000000000,"state":"active","ping":55},{"user_id":638,"name":"MikkyD","steam_id":76561198043452962,"connected_time":3842000000000,"state":"active","ping":74},{"user_id":653,"name":"The Law","steam_id":76561198083989790,"connected_time":2161000000000,"state":"active","ping":52},{"user_id":656,"name":"Good Australian Doctor","steam_id":76561198175470231,"connected_time":1875000000000,"state":"active","ping":99}]},{"server_id":123,"name":"Uncletopia | Sydney | 2 | All Maps","name_short":"syd-2","host":"syd-1.au.uncletopia.com","port":27025,"enabled":true,"region":"au","cc":"au","latitude":-33.865143,"longitude":151.2099,"reserved":0,"last_update":"0001-01-01T00:00:00Z","name_a2s":"Uncletopia | Sydney | 2 | All Maps","protocol":17,"map":"pl_chilly","folder":"tf","game":"Team Fortress","app_id":440,"player_count":0,"max_players":24,"Bots":0,"server_type":"Dedicated","server_os":"Linux","password":true,"vac":true,"version":"7742253","steam_id":85568392924470002,"keywords":["nocrits","nodmgspread","payload","uncletopia"],"game_id":440,"stv_port":27026,"stv_name":"Uncletopia | Sydney | 2 | All Maps | STV","players":null},{"server_id":395,"name":"Uncletopia | Sydney | 3 | All Maps","name_short":"syd-3","host":"syd-1.au.uncletopia.com","port":27035,"enabled":true,"region":"au","cc":"au","latitude":-33.865143,"longitude":151.2099,"reserved":0,"last_update":"0001-01-01T00:00:00Z","name_a2s":"Uncletopia | Sydney | 3 | All Maps","protocol":17,"map":"pl_chilly","folder":"tf","game":"Team Fortress","app_id":440,"player_count":0,"max_players":24,"Bots":0,"server_type":"Dedicated","server_os":"Linux","password":true,"vac":true,"version":"7742253","steam_id":85568392925194467,"keywords":["nocrits","nodmgspread","payload","uncletopia"],"game_id":440,"stv_port":27036,"stv_name":"Uncletopia | Sydney | 3 | All Maps | STV","players":null},{"server_id":396,"name":"Uncletopia | Sydney | 4 | All Maps","name_short":"syd-4","host":"syd-1.au.uncletopia.com","port":27045,"enabled":true,"region":"au","cc":"au","latitude":-33.865143,"longitude":151.2099,"reserved":0,"last_update":"0001-01-01T00:00:00Z","name_a2s":"Uncletopia | Sydney | 4 | All Maps","protocol":17,"map":"koth_lakeside_final","folder":"tf","game":"Team Fortress","app_id":440,"player_count":0,"max_players":24,"Bots":0,"server_type":"Dedicated","server_os":"Linux","password":true,"vac":true,"version":"7742253","steam_id":85568392925397958,"keywords":["cp","nocrits","nodmgspread","uncletopia"],"game_id":440,"stv_port":27046,"stv_name":"Uncletopia | Sydney | 4 | All Maps | STV","players":null},{"server_id":58,"name":"Uncletopia | Sydney | 5 | Stopwatch Beta","name_short":"syd-5","host":"syd-1.au.uncletopia.com","port":27055,"enabled":true,"region":"au","cc":"au","latitude":-33.865143,"longitude":151.2099,"reserved":0,"last_update":"0001-01-01T00:00:00Z","name_a2s":"Uncletopia | Sydney | 5 | Stopwatch Beta","protocol":17,"map":"cp_snakewater_final1","folder":"tf","game":"Team Fortress","app_id":440,"player_count":0,"max_players":24,"Bots":0,"server_type":"Dedicated","server_os":"Linux","password":true,"vac":true,"version":"7742253","steam_id":85568392925397959,"keywords":["cp","nocrits","nodmgspread","uncletopia"],"game_id":440,"stv_port":27056,"stv_name":"Uncletopia | Sydney | 5 | Stopwatch Beta | STV","players":null},{"server_id":59,"name":"Uncletopia | Sydney | 6 | Community","name_short":"syd-6","host":"syd-1.au.uncletopia.com","port":27065,"enabled":true,"region":"au","cc":"au","latitude":-33.865143,"longitude":151.2099,"reserved":0,"last_update":"0001-01-01T00:00:00Z","name_a2s":"Uncletopia | Sydney | 6 | Community","protocol":17,"map":"workshop/pl_barnblitz_pro7.ugc582280235","folder":"tf","game":"Team Fortress","app_id":440,"player_count":0,"max_players":24,"Bots":0,"server_type":"Dedicated","server_os":"Linux","password":true,"vac":true,"version":"7742253","steam_id":85568392925397960,"keywords":["nocrits","nodmgspread","payload","uncletopia"],"game_id":440,"stv_port":27066,"stv_name":"Uncletopia | Sydney | 6 | Community | STV","players":null},{"server_id":49,"name":"Uncletopia | Warsaw | 1 | All Maps","name_short":"waw-1","host":"waw-1.pl.uncletopia.com","port":27015,"enabled":true,"region":"eu","cc":"pl","latitude":52.2297,"longitude":21.017532,"reserved":0,"last_update":"0001-01-01T00:00:00Z","name_a2s":"Uncletopia | Warsaw | 1 | All Maps","protocol":17,"map":"koth_lakeside_final","folder":"tf","game":"Team Fortress","app_id":440,"player_count":0,"max_players":24,"Bots":0,"server_type":"Dedicated","server_os":"Linux","password":true,"vac":true,"version":"7723704","steam_id":85568392925397850,"keywords":["cp","nocrits","nodmgspread","uncletopia"],"game_id":440,"stv_port":27016,"stv_name":"Uncletopia | Warsaw | 1 | All Maps | STV","players":null},{"server_id":50,"name":"Uncletopia | Warsaw | 2 | All Maps","name_short":"waw-2","host":"waw-1.pl.uncletopia.com","port":27025,"enabled":true,"region":"eu","cc":"pl","latitude":52.2297,"longitude":21.017532,"reserved":0,"last_update":"0001-01-01T00:00:00Z","name_a2s":"Uncletopia | Warsaw | 2 | All Maps","protocol":17,"map":"pl_upward","folder":"tf","game":"Team Fortress","app_id":440,"player_count":0,"max_players":24,"Bots":0,"server_type":"Dedicated","server_os":"Linux","password":true,"vac":true,"version":"7742253","steam_id":85568392925397851,"keywords":["nocrits","nodmgspread","payload","uncletopia"],"game_id":440,"stv_port":27026,"stv_name":"Uncletopia | Warsaw | 2 | All Maps | STV","players":null},{"server_id":51,"name":"Uncletopia | Warsaw | 3 | All Maps","name_short":"waw-3","host":"waw-1.pl.uncletopia.com","port":27035,"enabled":true,"region":"eu","cc":"pl","latitude":52.2297,"longitude":21.017532,"reserved":0,"last_update":"0001-01-01T00:00:00Z","name_a2s":"Uncletopia | Warsaw | 3 | All Maps","protocol":17,"map":"pl_swiftwater_final1","folder":"tf","game":"Team Fortress","app_id":440,"player_count":0,"max_players":24,"Bots":0,"server_type":"Dedicated","server_os":"Linux","password":true,"vac":true,"version":"7742253","steam_id":85568392925397852,"keywords":["nocrits","nodmgspread","payload","uncletopia"],"game_id":440,"stv_port":27036,"stv_name":"Uncletopia | Warsaw | 3 | All Maps | STV","players":null},{"server_id":52,"name":"Uncletopia | Warsaw | 4 | All Maps","name_short":"waw-4","host":"waw-1.pl.uncletopia.com","port":27045,"enabled":true,"region":"eu","cc":"pl","latitude":52.2297,"longitude":21.017532,"reserved":0,"last_update":"0001-01-01T00:00:00Z","name_a2s":"Uncletopia | Warsaw | 4 | All Maps","protocol":17,"map":"pl_swiftwater_final1","folder":"tf","game":"Team Fortress","app_id":440,"player_count":0,"max_players":24,"Bots":0,"server_type":"Dedicated","server_os":"Linux","password":true,"vac":true,"version":"7742253","steam_id":85568392925397853,"keywords":["nocrits","nodmgspread","payload","uncletopia"],"game_id":440,"stv_port":27046,"stv_name":"Uncletopia | Warsaw | 4 | All Maps | STV","players":null},{"server_id":53,"name":"Uncletopia | Warsaw | 5 | Stopwatch Beta","name_short":"waw-5","host":"waw-1.pl.uncletopia.com","port":27055,"enabled":true,"region":"eu","cc":"pl","latitude":52.2297,"longitude":21.017532,"reserved":0,"last_update":"0001-01-01T00:00:00Z","name_a2s":"Uncletopia | Warsaw | 5 | Stopwatch Beta","protocol":17,"map":"pl_pier","folder":"tf","game":"Team Fortress","app_id":440,"player_count":0,"max_players":24,"Bots":0,"server_type":"Dedicated","server_os":"Linux","password":true,"vac":true,"version":"7742253","steam_id":85568392925397854,"keywords":["nocrits","nodmgspread","payload","uncletopia"],"game_id":440,"stv_port":27056,"stv_name":"Uncletopia | Warsaw | 5 | Stopwatch Beta | STV","players":null},{"server_id":54,"name":"Uncletopia | Warsaw | 6 | Community","name_short":"waw-6","host":"waw-1.pl.uncletopia.com","port":27065,"enabled":true,"region":"eu","cc":"pl","latitude":52.2297,"longitude":21.017532,"reserved":0,"last_update":"0001-01-01T00:00:00Z","name_a2s":"Uncletopia | Warsaw | 6 | Community","protocol":17,"map":"workshop/koth_synthetic_rc6a.ugc1549817316","folder":"tf","game":"Team Fortress","app_id":440,"player_count":0,"max_players":24,"Bots":0,"server_type":"Dedicated","server_os":"Linux","password":true,"vac":true,"version":"7742253","steam_id":85568392925397856,"keywords":["cp","nocrits","nodmgspread","uncletopia"],"game_id":440,"stv_port":27066,"stv_name":"Uncletopia | Warsaw | 6 | Community | STV","players":null}]}