{"status":true,"message":"","result":[{"server_id":9,"name":"Uncletopia | Atlanta | 1 | All Maps","name_short":"atl-1","host":"atl-1.us.uncletopia.com","port":27015,"enabled":true,"region":"us-east","cc":"us","latitude":33.753746,"longitude":-84.38633,"reserved":0,"last_update":"0001-01-01T00:00:00Z","name_a2s":"Uncletopia | Atlanta | 1 | All Maps","protocol":17,"map":"pl_barnblitz","folder":"tf","game":"Team Fortress","app_id":440,"player_count":24,"max_players":24,"Bots":0,"server_type":"Dedicated","server_os":"Linux","password":true,"vac":true,"version":"7708610","steam_id":85568392924469982,"keywords":["nocrits","nodmgspread","payload","uncletopia"],"game_id":440,"stv_port":27016,"stv_name":"Uncletopia | Atlanta | 1 | All Maps | STV","players":[{"user_id":563,"name":"MOTORTREND TRUCK OF THE YEAR","steam_id":76561198077654131,"connected_time":968000000000,"state":"active","ping":68},{"user_id":471,"name":"i have a gun","steam_id":76561198016121536,"connected_time":10180000000000,"state":"active","ping":89},{"user_id":565,"name":"hazelsnail","steam_id":76561198862764679,"connected_time":834000000000,"state":"active","ping":75},{"user_id":550,"name":"♡Alyx♡","steam_id":76561198024303978,"connected_time":2377000000000,"state":"active","ping":57},{"user_id":566,"name":"Boop","steam_id":76561198376703875,"connected_time":659000000000,"state":"active","ping":63},{"user_id":484,"name":"Festive Fire Starting Rock","steam_id":76561198066547582,"connected_time":9996000000000,"state":"active","ping":107},{"user_id":510,"name":"--_Cook_--","steam_id":76561198080855748,"connected_time":7355000000000,"state":"active","ping":54},{"user_id":567,"name":"Devoid","steam_id":76561198254039012,"connected_time":636000000000,"state":"active","ping":54},{"user_id":568,"name":"skaj","steam_id":76561198082278586,"connected_time":553000000000,"state":"active","ping":94},{"user_id":546,"name":"mommy grinch","steam_id":76561199230929836,"connected_time":2989000000000,"state":"active","ping":92},{"user_id":524,"name":"C papi","steam_id":76561198027779564,"connected_time":6783000000000,"state":"active","ping":51},{"user_id":569,"name":"Gerald Jay Sussman","steam_id":76561198114515026,"connected_time":513000000000,"state":"active","ping":63},{"user_id":558,"name":"Chrisscar","steam_id":76561198086298130,"connected_time":1148000000000,"state":"active","ping":107},{"user_id":489,"name":"TRHD_Pharaxer™","steam_id":76561198051236069,"connected_time":9127000000000,"state":"active","ping":149},{"user_id":572,"name":"Fulgrim Ventris","steam_id":76561198031332870,"connected_time":155000000000,"state":"active","ping":63},{"user_id":549,"name":"A Very Angry Heavy","steam_id":76561198122634602,"connected_time":2390000000000,"state":"active","ping":56},{"user_id":544,"name":"ATL1 | on my hunting trip","steam_id":76561198315341646,"connected_time":3106000000000,"state":"active","ping":67},{"user_id":522,"name":"ATL1 | eish","steam_id":76561198089463603,"connected_time":7099000000000,"state":"active","ping":121},{"user_id":561,"name":"abomination","steam_id":76561198167974713,"connected_time":1123000000000,"state":"active","ping":50},{"user_id":483,"name":"sansa musa","steam_id":76561198163723555,"connected_time":10066000000000,"state":"active","ping":75},{"user_id":570,"name":"snoops","steam_id":76561197986760351,"connected_time":509000000000,"state":"active","ping":76},{"user_id":548,"name":"owlbortch","steam_id":76561198042849350,"connected_time":2473000000000,"state":"active","ping":66},{"user_id":518,"name":"Tommy Pickles (Very Cool)","steam_id":76561198391261463,"connected_time":7272000000000,"state":"active","ping":82},{"user_id":559,"name":"Spy_Is_Pye","steam_id":76561199439622967,"connected_time":1148000000000,"state":"active","ping":68}]},{"server_id":400,"name":"Uncletopia | Atlanta | 3 | All Maps","name_short":"atl-3","host":"atl-1.us.uncletopia.com","port":27035,"enabled":true,"region":"us-east","cc":"us","latitude":33.753746,"longitude":-84.38633,"reserved":0,"last_update":"0001-01-01T00:00:00Z","name_a2s":"Uncletopia | Atlanta | 3 | All Maps","protocol":17,"map":"koth_viaduct","folder":"tf","game":"Team Fortress","app_id":440,"player_count":0,"max_players":24,"Bots":0,"server_type":"Dedicated","server_os":"Linux","password":true,"vac":true,"version":"7708610","steam_id":85568392924515187,"keywords":["cp","nocrits","nodmgspread","uncletopia"],"game_id":440,"stv_port":27036,"stv_name":"Uncletopia | Atlanta | 3 | All Maps | STV","players":null},{"server_id":401,"name":"Uncletopia | Atlanta | 4 | No Payload","name_short":"atl-4","host":"atl-1.us.uncletopia.com","port":27045,"enabled":true,"region":"us-east","cc":"us","latitude":33.753746,"longitude":-84.38633,"reserved":0,"last_update":"0001-01-01T00:00:00Z","name_a2s":"Uncletopia | Atlanta | 4 | No Payload","protocol":17,"map":"koth_sawmill","folder":"tf","game":"Team Fortress","app_id":440,"player_count":0,"max_players":24,"Bots":0,"server_type":"Dedicated","server_os":"Linux","password":true,"vac":true,"version":"7708610","steam_id":85568392924515188,"keywords":["cp","nocrits","nodmgspread","uncletopia"],"game_id":440,"stv_port":27046,"stv_name":"Uncletopia | Atlanta | 4 | No Payload | STV","players":null},{"server_id":2,"name":"Uncletopia | Chicago | 1 | All Maps","name_short":"chi-1","host":"chi-1.us.uncletopia.com","port":27015,"enabled":true,"region":"us-central","cc":"us","latitude":41.881832,"longitude":-87.62318,"reserved":0,"last_update":"0001-01-01T00:00:00Z","name_a2s":"Uncletopia | Chicago | 1 | All Maps","protocol":17,"map":"pl_pier","folder":"tf","game":"Team Fortress","app_id":440,"player_count":24,"max_players":24,"Bots":0,"server_type":"Dedicated","server_os":"Linux","password":true,"vac":true,"version":"7708610","steam_id":85568392924469984,"keywords":["nocrits","nodmgspread","payload","uncletopia"],"game_id":440,"stv_port":27016,"stv_name":"Uncletopia | Chicago | 1 | All Maps | STV","players":[{"user_id":686,"name":"fuckterry","steam_id":76561198271957738,"connected_time":318000000000,"state":"active","ping":69},{"user_id":654,"name":"023e20902o0239ee02390o239e","steam_id":76561198175741741,"connected_time":2980000000000,"state":"active","ping":77},{"user_id":684,"name":"debin","steam_id":76561198070711217,"connected_time":403000000000,"state":"active","ping":56},{"user_id":668,"name":"Vladimir Chirgin","steam_id":76561198170035235,"connected_time":1105000000000,"state":"active","ping":45},{"user_id":670,"name":"a crazy hobo","steam_id":76561198289650060,"connected_time":997000000000,"state":"active","ping":89},{"user_id":627,"name":"☼ champloo","steam_id":76561198074180953,"connected_time":4863000000000,"state":"active","ping":68},{"user_id":644,"name":"wesker can hit it tbh","steam_id":76561197968351430,"connected_time":3948000000000,"state":"active","ping":102},{"user_id":645,"name":"TriM","steam_id":76561198048332533,"connected_time":3844000000000,"state":"active","ping":62},{"user_id":646,"name":"Donnie Blasto","steam_id":76561198043432005,"connected_time":3784000000000,"state":"active","ping":53},{"user_id":689,"name":"كندوز","steam_id":76561198326987939,"connected_time":124000000000,"state":"active","ping":75},{"user_id":637,"name":"Krow","steam_id":76561198010392099,"connected_time":4401000000000,"state":"active","ping":72},{"user_id":688,"name":"Mixolydia","steam_id":76561198058998371,"connected_time":184000000000,"state":"active","ping":59},{"user_id":656,"name":"Caboom","steam_id":76561198040221007,"connected_time":2873000000000,"state":"active","ping":84},{"user_id":687,"name":"The_Quiet_One","steam_id":76561198132476501,"connected_time":317000000000,"state":"active","ping":50},{"user_id":680,"name":"Panthera","steam_id":76561198095641424,"connected_time":676000000000,"state":"active","ping":80},{"user_id":672,"name":"Architect","steam_id":76561198015242016,"connected_time":922000000000,"state":"active","ping":62},{"user_id":662,"name":"Demon","steam_id":76561199012192496,"connected_time":2184000000000,"state":"active","ping":73},{"user_id":663,"name":"R33se","steam_id":76561198296531992,"connected_time":2146000000000,"state":"active","ping":71},{"user_id":673,"name":"RoboSLD","steam_id":76561198105546680,"connected_time":912000000000,"state":"active","ping":61},{"user_id":681,"name":"boo_thefeared","steam_id":76561198127967685,"connected_time":662000000000,"state":"active","ping":140},{"user_id":682,"name":"Bo","steam_id":76561199120426986,"connected_time":595000000000,"state":"active","ping":56},{"user_id":677,"name":"Whorenet","steam_id":76561198090433209,"connected_time":857000000000,"state":"active","ping":93},{"user_id":685,"name":"milfs hmu","steam_id":76561198123477485,"connected_time":339000000000,"state":"active","ping":104},{"user_id":678,"name":"Taste the Pain","steam_id":76561198081617990,"connected_time":810000000000,"state":"active","ping":101}]},{"server_id":106,"name":"Uncletopia | Chicago | 2 | All Maps","name_short":"chi-2","host":"chi-1.us.uncletopia.com","port":27025,"enabled":true,"region":"us-central","cc":"us","latitude":41.881832,"longitude":-87.62318,"reserved":0,"last_update":"0001-01-01T00:00:00Z","name_a2s":"Uncletopia | Chicago | 2 | All Maps","protocol":17,"map":"koth_cascade","folder":"tf","game":"Team Fortress","app_id":440,"player_count":19,"max_players":24,"Bots":0,"server_type":"Dedicated","server_os":"Linux","password":true,"vac":true,"version":"7708610","steam_id":85568392924469985,"keywords":["cp","nocrits","nodmgspread","uncletopia"],"game_id":440,"stv_port":27026,"stv_name":"Uncletopia | Chicago | 2 | All Maps | STV","players":[{"user_id":440,"name":"Aspxts","steam_id":76561199125254746,"connected_time":82000000000,"state":"active","ping":52},{"user_id":435,"name":"OneTrueCorvid","steam_id":76561199012953221,"connected_time":224000000000,"state":"active","ping":82},{"user_id":417,"name":"Huge","steam_id":76561199030987614,"connected_time":1101000000000,"state":"active","ping":85},{"user_id":406,"name":"Piyono","steam_id":76561197962188504,"connected_time":1969000000000,"state":"active","ping":64},{"user_id":416,"name":"Stupid Horse","steam_id":76561198120866763,"connected_time":1171000000000,"state":"active","ping":42},{"user_id":408,"name":"sp00kydoge","steam_id":76561198097465954,"connected_time":1703000000000,"state":"active","ping":105},{"user_id":434,"name":"jeckatk","steam_id":76561198848930696,"connected_time":289000000000,"state":"active","ping":55},{"user_id":441,"name":"Tom","steam_id":76561198084257653,"connected_time":75000000000,"state":"active","ping":52},{"user_id":436,"name":"Van","steam_id":76561198073518712,"connected_time":223000000000,"state":"active","ping":62},{"user_id":381,"name":"savagedachshund","steam_id":76561199208468955,"connected_time":4115000000000,"state":"active","ping":88},{"user_id":442,"name":"medic enthusiast","steam_id":76561198323031964,"connected_time":66000000000,"state":"active","ping":84},{"user_id":444,"name":"Shwal","steam_id":76561198138840448,"connected_time":20000000000,"state":"active","ping":90},{"user_id":428,"name":"math","steam_id":76561198092542997,"connected_time":752000000000,"state":"active","ping":65},{"user_id":437,"name":"CthUwU","steam_id":76561198036541581,"connected_time":208000000000,"state":"active","ping":70},{"user_id":421,"name":"Admiral Shackleford","steam_id":76561198051952755,"connected_time":966000000000,"state":"active","ping":70},{"user_id":397,"name":"help","steam_id":76561199230779168,"connected_time":2778000000000,"state":"active","ping":64},{"user_id":430,"name":"rainwarden","steam_id":76561198085183458,"connected_time":466000000000,"state":"active","ping":82},{"user_id":423,"name":"Money Collector","steam_id":76561198046249467,"connected_time":936000000000,"state":"active","ping":51},{"user_id":401,"name":"Dragondreamer749","steam_id":76561198211608639,"connected_time":2366000000000,"state":"active","ping":61}]},{"server_id":402,"name":"Uncletopia | Chicago | 3 | All Maps","name_short":"chi-3","host":"chi-1.us.uncletopia.com","port":27035,"enabled":true,"region":"us-central","cc":"us","latitude":41.881832,"longitude":-87.62318,"reserved":0,"last_update":"0001-01-01T00:00:00Z","name_a2s":"Uncletopia | Chicago | 3 | All Maps","protocol":17,"map":"pl_borneo","folder":"tf","game":"Team Fortress","app_id":440,"player_count":24,"max_players":24,"Bots":0,"server_type":"Dedicated","server_os":"Linux","password":true,"vac":true,"version":"7708610","steam_id":85568392924515191,"keywords":["nocrits","nodmgspread","payload","uncletopia"],"game_id":440,"stv_port":27036,"stv_name":"Uncletopia | Chicago | 3 | All Maps | STV","players":[{"user_id":353,"name":"hemispherectomy","steam_id":76561198119178364,"connected_time":592000000000,"state":"active","ping":75},{"user_id":316,"name":"Ace Chromatica","steam_id":76561198042211131,"connected_time":3409000000000,"state":"active","ping":63},{"user_id":345,"name":"a table","steam_id":76561198158461279,"connected_time":1642000000000,"state":"active","ping":66},{"user_id":308,"name":"Kyaaaaa!!!","steam_id":76561198066384337,"connected_time":3835000000000,"state":"active","ping":52},{"user_id":323,"name":"tiddyweed","steam_id":76561198067080769,"connected_time":3165000000000,"state":"active","ping":113},{"user_id":349,"name":"Merry Matches_","steam_id":76561198048925904,"connected_time":700000000000,"state":"active","ping":120},{"user_id":348,"name":"Avi","steam_id":76561198132127985,"connected_time":1235000000000,"state":"active","ping":59},{"user_id":357,"name":"SeaBass","steam_id":76561198278914206,"connected_time":365000000000,"state":"active","ping":95},{"user_id":351,"name":"MikeLovesRabbit","steam_id":76561197997742625,"connected_time":654000000000,"state":"active","ping":59},{"user_id":350,"name":"Gay Cake","steam_id":76561198004388831,"connected_time":673000000000,"state":"active","ping":64},{"user_id":363,"name":"Ignatius J. Reilly","steam_id":76561198026393621,"connected_time":281000000000,"state":"active","ping":84},{"user_id":352,"name":"honked off the bobo","steam_id":76561198123287268,"connected_time":646000000000,"state":"active","ping":47},{"user_id":321,"name":"Marty Byrde IRL","steam_id":76561199427269098,"connected_time":3228000000000,"state":"active","ping":63},{"user_id":326,"name":"Sch3rky","steam_id":76561198045212771,"connected_time":3097000000000,"state":"active","ping":73},{"user_id":355,"name":"minihoog","steam_id":76561198102156780,"connected_time":477000000000,"state":"active","ping":80},{"user_id":342,"name":"spaced seed","steam_id":76561198025229526,"connected_time":1733000000000,"state":"active","ping":83},{"user_id":356,"name":"Brendan","steam_id":76561198041079914,"connected_time":467000000000,"state":"active","ping":69},{"user_id":343,"name":"MamaLuigi","steam_id":76561199054368008,"connected_time":1724000000000,"state":"active","ping":62},{"user_id":358,"name":"cheetaz","steam_id":76561198224614084,"connected_time":357000000000,"state":"active","ping":69},{"user_id":329,"name":"Medic","steam_id":76561198067869016,"connected_time":3072000000000,"state":"active","ping":47},{"user_id":359,"name":"Femcel Fornicator","steam_id":76561198336584447,"connected_time":352000000000,"state":"active","ping":99},{"user_id":360,"name":"Lone Dancer","steam_id":76561199096241116,"connected_time":341000000000,"state":"active","ping":59},{"user_id":361,"name":"jnn","steam_id":76561198078395002,"connected_time":339000000000,"state":"active","ping":75},{"user_id":364,"name":"Omni Monky","steam_id":76561198083975292,"connected_time":74000000000,"state":"active","ping":93}]},{"server_id":403,"name":"Uncletopia | Chicago | 4 | All Maps","name_short":"chi-4","host":"chi-1.us.uncletopia.com","port":27045,"enabled":true,"region":"us-central","cc":"us","latitude":41.881832,"longitude":-87.62318,"reserved":0,"last_update":"0001-01-01T00:00:00Z","name_a2s":"Uncletopia | Chicago | 4 | All Maps","protocol":17,"map":"pl_borneo","folder":"tf","game":"Team Fortress","app_id":440,"player_count":24,"max_players":24,"Bots":0,"server_type":"Dedicated","server_os":"Linux","password":true,"vac":true,"version":"7708610","steam_id":85568392924515193,"keywords":["nocrits","nodmgspread","payload","uncletopia"],"game_id":440,"stv_port":27046,"stv_name":"Uncletopia | Chicago | 4 | All Maps | STV","players":[{"user_id":135,"name":"boxagon","steam_id":76561198307845869,"connected_time":303000000000,"state":"active","ping":76},{"user_id":65,"name":"Divine Mountain of Heaven","steam_id":76561198196793754,"connected_time":6968000000000,"state":"active","ping":69},{"user_id":136,"name":"sheep","steam_id":76561198172943006,"connected_time":291000000000,"state":"active","ping":45},{"user_id":131,"name":"extinct111","steam_id":76561199013696367,"connected_time":611000000000,"state":"active","ping":63},{"user_id":137,"name":"SunGod","steam_id":76561198329166803,"connected_time":289000000000,"state":"active","ping":57},{"user_id":138,"name":"ItsGian","steam_id":76561198073108956,"connected_time":278000000000,"state":"active","ping":105},{"user_id":118,"name":"TheFoolOnTheHill","steam_id":76561198088140076,"connected_time":2578000000000,"state":"active","ping":86},{"user_id":134,"name":"Cruisin'","steam_id":76561199245457119,"connected_time":339000000000,"state":"active","ping":80},{"user_id":126,"name":"jennydude","steam_id":76561198119132813,"connected_time":1365000000000,"state":"active","ping":67},{"user_id":127,"name":"Pikmin2.iso","steam_id":76561198131458027,"connected_time":1266000000000,"state":"active","ping":72},{"user_id":132,"name":"Skelitor ✪","steam_id":76561198043885634,"connected_time":440000000000,"state":"active","ping":74},{"user_id":139,"name":"Banana Distributor","steam_id":76561198969136257,"connected_time":277000000000,"state":"active","ping":140},{"user_id":129,"name":"thecal","steam_id":76561198307893384,"connected_time":830000000000,"state":"active","ping":55},{"user_id":89,"name":"Harold","steam_id":76561198057317770,"connected_time":5079000000000,"state":"active","ping":90},{"user_id":94,"name":"Ellen Baker","steam_id":76561198065712435,"connected_time":5052000000000,"state":"active","ping":102},{"user_id":123,"name":"GAYTRANSCOMMIE.milf","steam_id":76561198044370224,"connected_time":1628000000000,"state":"active","ping":79},{"user_id":125,"name":"DAS SCHNITZELSTIEN","steam_id":76561198051137159,"connected_time":1534000000000,"state":"active","ping":95},{"user_id":100,"name":":3","steam_id":76561198120772700,"connected_time":4534000000000,"state":"active","ping":67},{"user_id":140,"name":"balisohng","steam_id":76561198151654107,"connected_time":242000000000,"state":"active","ping":59},{"user_id":112,"name":"non_ai","steam_id":76561198270951938,"connected_time":3095000000000,"state":"active","ping":63},{"user_id":122,"name":"Aventicus","steam_id":76561198149968390,"connected_time":2457000000000,"state":"active","ping":105},{"user_id":141,"name":"Dad 2","steam_id":76561198138546187,"connected_time":227000000000,"state":"active","ping":103},{"user_id":104,"name":"Essentially_Someone","steam_id":76561199435588199,"connected_time":3555000000000,"state":"active","ping":76},{"user_id":142,"name":"Wso1123","steam_id":76561198048040111,"connected_time":223000000000,"state":"active","ping":67}]},{"server_id":36,"name":"Uncletopia | Chicago | 5 | All Maps","name_short":"chi-5","host":"chi-2.us.uncletopia.com","port":27015,"enabled":true,"region":"us-central","cc":"us","latitude":41.881832,"longitude":-87.62318,"reserved":0,"last_update":"0001-01-01T00:00:00Z","name_a2s":"Uncletopia | Chicago | 5 | All Maps","protocol":17,"map":"cp_mountainlab","folder":"tf","game":"Team Fortress","app_id":440,"player_count":0,"max_players":24,"Bots":0,"server_type":"Dedicated","server_os":"Linux","password":true,"vac":true,"version":"7708610","steam_id":85568392924866362,"keywords":["cp","nocrits","nodmgspread","uncletopia"],"game_id":440,"stv_port":27016,"stv_name":"Uncletopia | Chicago | 5 | All Maps | STV","players":null},{"server_id":37,"name":"Uncletopia | Chicago | 6 | All Maps","name_short":"chi-6","host":"chi-2.us.uncletopia.com","port":27025,"enabled":true,"region":"us-central","cc":"us","latitude":41.881832,"longitude":-87.62318,"reserved":0,"last_update":"0001-01-01T00:00:00Z","name_a2s":"Uncletopia | Chicago | 6 | All Maps","protocol":17,"map":"pl_pier","folder":"tf","game":"Team Fortress","app_id":440,"player_count":19,"max_players":24,"Bots":0,"server_type":"Dedicated","server_os":"Linux","password":true,"vac":true,"version":"7708610","steam_id":85568392924866363,"keywords":["nocrits","nodmgspread","payload","uncletopia"],"game_id":440,"stv_port":27026,"stv_name":"Uncletopia | Chicago | 6 | All Maps | STV","players":[{"user_id":296,"name":"Smet19","steam_id":76561198118455606,"connected_time":314000000000,"state":"active","ping":56},{"user_id":297,"name":"spill","steam_id":76561198082337619,"connected_time":194000000000,"state":"active","ping":69},{"user_id":298,"name":"obama","steam_id":76561199103591283,"connected_time":169000000000,"state":"active","ping":63},{"user_id":271,"name":"plasmaofthedawn","steam_id":76561198287916194,"connected_time":1406000000000,"state":"active","ping":50},{"user_id":299,"name":"Questking1","steam_id":76561198328107634,"connected_time":111000000000,"state":"active","ping":39},{"user_id":263,"name":"Uncle","steam_id":76561197988647705,"connected_time":2251000000000,"state":"active","ping":63},{"user_id":300,"name":"Hobbes","steam_id":76561198119447181,"connected_time":103000000000,"state":"active","ping":93},{"user_id":295,"name":"Tick","steam_id":76561198184161214,"connected_time":430000000000,"state":"active","ping":41},{"user_id":282,"name":"Zero","steam_id":76561199383267408,"connected_time":1311000000000,"state":"active","ping":68},{"user_id":292,"name":"tokemaster69","steam_id":76561198083996924,"connected_time":640000000000,"state":"active","ping":65},{"user_id":301,"name":"Calvin Harkkonen","steam_id":76561198095271960,"connected_time":96000000000,"state":"active","ping":112},{"user_id":302,"name":"Combatspok","steam_id":76561197971598115,"connected_time":89000000000,"state":"active","ping":52},{"user_id":303,"name":"Fruit snacks","steam_id":76561198120349566,"connected_time":82000000000,"state":"active","ping":108},{"user_id":289,"name":"ZeFizzyPop™","steam_id":76561198258104981,"connected_time":763000000000,"state":"active","ping":40},{"user_id":304,"name":"Kohbold","steam_id":76561198996480140,"connected_time":25000000000,"state":"spawning","ping":139},{"user_id":251,"name":"sinisterMayo","steam_id":76561198087244649,"connected_time":3523000000000,"state":"active","ping":71},{"user_id":288,"name":"GreekGoat_Coffee","steam_id":76561198129331088,"connected_time":1004000000000,"state":"active","ping":42},{"user_id":279,"name":"*Gage*","steam_id":76561197975233869,"connected_time":1371000000000,"state":"active","ping":82},{"user_id":256,"name":"ashelin praxis nude mod","steam_id":76561198167907089,"connected_time":3279000000000,"state":"active","ping":77}]},{"server_id":38,"name":"Uncletopia | Chicago | 7 | No Payload","name_short":"chi-7","host":"chi-2.us.uncletopia.com","port":27035,"enabled":true,"region":"us-central","cc":"us","latitude":41.881832,"longitude":-87.62318,"reserved":0,"last_update":"0001-01-01T00:00:00Z","name_a2s":"Uncletopia | Chicago | 7 | No Payload","protocol":17,"map":"koth_badlands","folder":"tf","game":"Team Fortress","app_id":440,"player_count":0,"max_players":24,"Bots":0,"server_type":"Dedicated","server_os":"Linux","password":true,"vac":true,"version":"7708610","steam_id":85568392924866364,"keywords":["cp","nocrits","nodmgspread","uncletopia"],"game_id":440,"stv_port":27036,"stv_name":"Uncletopia | Chicago | 7 | No Payload | STV","players":null},{"server_id":39,"name":"Uncletopia | Chicago | 8 | Community","name_short":"chi-8","host":"chi-2.us.uncletopia.com","port":27045,"enabled":true,"region":"us-central","cc":"us","latitude":41.881832,"longitude":-87.62318,"reserved":0,"last_update":"0001-01-01T00:00:00Z","name_a2s":"Uncletopia | Chicago | 8 | Community","protocol":17,"map":"workshop/koth_ashville_final.ugc2130459942","folder":"tf","game":"Team Fortress","app_id":440,"player_count":0,"max_players":24,"Bots":0,"server_type":"Dedicated","server_os":"Linux","password":true,"vac":true,"version":"7708610","steam_id":85568392924866365,"keywords":["cp","nocrits","nodmgspread","uncletopia"],"game_id":440,"stv_port":27046,"stv_name":"Uncletopia | Chicago | 8 | Community | STV","players":null},{"server_id":8,"name":"Uncletopia | Dallas | 1 | All Maps","name_short":"dal-1","host":"dal-1.us.uncletopia.com","port":27015,"enabled":true,"region":"us-central","cc":"us","latitude":32.779167,"longitude":-96.80889,"reserved":0,"last_update":"0001-01-01T00:00:00Z","name_a2s":"Uncletopia | Dallas | 1 | All Maps","protocol":17,"map":"plr_hightower","folder":"tf","game":"Team Fortress","app_id":440,"player_count":24,"max_players":24,"Bots":0,"server_type":"Dedicated","server_os":"Linux","password":true,"vac":true,"version":"7708610","steam_id":85568392924469986,"keywords":["nocrits","nodmgspread","payload","uncletopia"],"game_id":440,"stv_port":27016,"stv_name":"Uncletopia | Dallas | 1 | All Maps | STV","players":[{"user_id":503,"name":"The_Skull_boy","steam_id":76561198227692664,"connected_time":542000000000,"state":"active","ping":76},{"user_id":505,"name":"TheBuljum","steam_id":76561198114706369,"connected_time":380000000000,"state":"active","ping":93},{"user_id":498,"name":"jkao","steam_id":76561197989863583,"connected_time":858000000000,"state":"active","ping":86},{"user_id":478,"name":"Frontier Psychiatrist","steam_id":76561198038689088,"connected_time":2136000000000,"state":"active","ping":80},{"user_id":491,"name":"The Fireblazer","steam_id":76561198011128160,"connected_time":1043000000000,"state":"active","ping":93},{"user_id":506,"name":"_Adriancho","steam_id":76561199064216180,"connected_time":371000000000,"state":"active","ping":113},{"user_id":501,"name":"MrBajaBlast","steam_id":76561199052471047,"connected_time":642000000000,"state":"active","ping":94},{"user_id":425,"name":"xX_matias.gamer_Xx","steam_id":76561199187226776,"connected_time":5448000000000,"state":"active","ping":80},{"user_id":446,"name":"JimmyJonJillakers","steam_id":76561198318651369,"connected_time":3731000000000,"state":"active","ping":91},{"user_id":508,"name":"Pinhead","steam_id":76561198334918935,"connected_time":204000000000,"state":"active","ping":85},{"user_id":472,"name":"Auggy","steam_id":76561197972349969,"connected_time":2266000000000,"state":"active","ping":73},{"user_id":461,"name":"Special","steam_id":76561198070380404,"connected_time":2932000000000,"state":"active","ping":90},{"user_id":507,"name":"WhiteBladeZero","steam_id":76561198862514815,"connected_time":252000000000,"state":"active","ping":90},{"user_id":448,"name":"Wilhelmktx","steam_id":76561198158102295,"connected_time":3694000000000,"state":"active","ping":63},{"user_id":509,"name":"PinheadLarry69","steam_id":76561199159928133,"connected_time":154000000000,"state":"active","ping":77},{"user_id":489,"name":"fat tits haver","steam_id":76561198081681647,"connected_time":1350000000000,"state":"active","ping":62},{"user_id":494,"name":"Just Another Stoned Eevee","steam_id":76561198262852705,"connected_time":982000000000,"state":"active","ping":79},{"user_id":510,"name":"LocusUwU","steam_id":76561198250393626,"connected_time":93000000000,"state":"active","ping":102},{"user_id":397,"name":"C-Chunky?!","steam_id":76561198132231011,"connected_time":7894000000000,"state":"active","ping":65},{"user_id":463,"name":"swat aaa","steam_id":76561199099843307,"connected_time":2917000000000,"state":"active","ping":54},{"user_id":496,"name":"NotSoMewwo","steam_id":76561198130067099,"connected_time":938000000000,"state":"active","ping":65},{"user_id":464,"name":"The Ultimate Coomer","steam_id":76561199128833757,"connected_time":2902000000000,"state":"active","ping":46},{"user_id":455,"name":"hollandese","steam_id":76561198078636737,"connected_time":3376000000000,"state":"active","ping":64},{"user_id":511,"name":"☃️Festive Wormhole☃","steam_id":76561199008302939,"connected_time":86000000000,"state":"active","ping":95}]},{"server_id":108,"name":"Uncletopia | Dallas | 2 | All Maps","name_short":"dal-2","host":"dal-1.us.uncletopia.com","port":27025,"enabled":true,"region":"us-central","cc":"us","latitude":32.779167,"longitude":-96.80889,"reserved":0,"last_update":"0001-01-01T00:00:00Z","name_a2s":"Uncletopia | Dallas | 2 | All Maps","protocol":17,"map":"pl_badwater","folder":"tf","game":"Team Fortress","app_id":440,"player_count":24,"max_players":24,"Bots":0,"server_type":"Dedicated","server_os":"Linux","password":true,"vac":true,"version":"7708610","steam_id":85568392924469988,"keywords":["nocrits","nodmgspread","payload","uncletopia"],"game_id":440,"stv_port":27026,"stv_name":"Uncletopia | Dallas | 2 | All Maps | STV","players":[{"user_id":357,"name":"Drakon","steam_id":76561198078210822,"connected_time":901000000000,"state":"active","ping":86},{"user_id":323,"name":"Texmap","steam_id":76561198050444933,"connected_time":2496000000000,"state":"active","ping":58},{"user_id":343,"name":"Santa","steam_id":76561198044130442,"connected_time":1767000000000,"state":"active","ping":46},{"user_id":327,"name":"spaaaaace","steam_id":76561199085974120,"connected_time":2079000000000,"state":"active","ping":80},{"user_id":307,"name":"dog","steam_id":76561198263873491,"connected_time":3640000000000,"state":"active","ping":61},{"user_id":365,"name":"what","steam_id":76561198082336619,"connected_time":97000000000,"state":"active","ping":91},{"user_id":358,"name":"totally not a pile of beans","steam_id":76561198119851931,"connected_time":886000000000,"state":"active","ping":93},{"user_id":331,"name":"Rin \"Hindwing\" Redtail","steam_id":76561199074865638,"connected_time":2016000000000,"state":"active","ping":47},{"user_id":353,"name":"khlvklsh","steam_id":76561198024924029,"connected_time":1390000000000,"state":"active","ping":52},{"user_id":274,"name":"Pyrite","steam_id":76561198158817820,"connected_time":5776000000000,"state":"active","ping":64},{"user_id":359,"name":"Plasic74x","steam_id":76561199058981206,"connected_time":788000000000,"state":"active","ping":104},{"user_id":360,"name":"Level 1 Crook","steam_id":76561198441098132,"connected_time":741000000000,"state":"active","ping":100},{"user_id":364,"name":"Zell Da Sheepy","steam_id":76561198978753666,"connected_time":686000000000,"state":"active","ping":79},{"user_id":354,"name":"autumnal.messenger","steam_id":76561199345816635,"connected_time":1261000000000,"state":"active","ping":101},{"user_id":276,"name":"UNIT 220","steam_id":76561198042243497,"connected_time":5721000000000,"state":"active","ping":80},{"user_id":362,"name":"Shipmunk","steam_id":76561198063062670,"connected_time":723000000000,"state":"active","ping":79},{"user_id":352,"name":"cyg","steam_id":76561198138012167,"connected_time":1412000000000,"state":"active","ping":60},{"user_id":363,"name":"Tetanus Bob","steam_id":76561198074500319,"connected_time":722000000000,"state":"active","ping":114},{"user_id":280,"name":"Importality","steam_id":76561198049943127,"connected_time":5270000000000,"state":"active","ping":94},{"user_id":344,"name":"CSharp","steam_id":76561199185191710,"connected_time":1766000000000,"state":"active","ping":132},{"user_id":345,"name":"[S]Mr. X [No Monitor]","steam_id":76561197963746035,"connected_time":1760000000000,"state":"active","ping":123},{"user_id":234,"name":"BOT [Craf227]","steam_id":76561198196211121,"connected_time":6983000000000,"state":"active","ping":52},{"user_id":347,"name":"Captain Zyrin","steam_id":76561197983121824,"connected_time":1743000000000,"state":"active","ping":95},{"user_id":349,"name":"mr ploobmeister","steam_id":76561198128908529,"connected_time":1645000000000,"state":"active","ping":56}]},{"server_id":5,"name":"Uncletopia | Frankfurt | 1 | All Maps","name_short":"frk-1","host":"frk-1.de.uncletopia.com","port":27015,"enabled":true,"region":"eu","cc":"de","latitude":50.110924,"longitude":8.682127,"reserved":0,"last_update":"0001-01-01T00:00:00Z","name_a2s":"Uncletopia | Frankfurt | 1 | All Maps","protocol":17,"map":"pl_coal_event","folder":"tf","game":"Team Fortress","app_id":440,"player_count":0,"max_players":24,"Bots":0,"server_type":"Dedicated","server_os":"Linux","password":true,"vac":true,"version":"7708610","steam_id":85568392924469989,"keywords":["nocrits","nodmgspread","payload","uncletopia"],"game_id":440,"stv_port":27016,"stv_name":"Uncletopia | Frankfurt | 1 | All Maps | STV","players":null},{"server_id":110,"name":"Uncletopia | Frankfurt | 2 | All Maps","name_short":"frk-2","host":"frk-1.de.uncletopia.com","port":27025,"enabled":true,"region":"eu","cc":"de","latitude":50.110924,"longitude":8.682127,"reserved":0,"last_update":"0001-01-01T00:00:00Z","name_a2s":"Uncletopia | Frankfurt | 2 | All Maps","protocol":17,"map":"koth_lakeside_final","folder":"tf","game":"Team Fortress","app_id":440,"player_count":0,"max_players":24,"Bots":0,"server_type":"Dedicated","server_os":"Linux","password":true,"vac":true,"version":"7708610","steam_id":85568392924469990,"keywords":["cp","nocrits","nodmgspread","uncletopia"],"game_id":440,"stv_port":27026,"stv_name":"Uncletopia | Frankfurt | 2 | All Maps | STV","players":null},{"server_id":308,"name":"Uncletopia | Frankfurt | 3 | All Maps","name_short":"frk-3","host":"frk-1.de.uncletopia.com","port":27035,"enabled":true,"region":"eu","cc":"de","latitude":50.110924,"longitude":8.682127,"reserved":0,"last_update":"0001-01-01T00:00:00Z","name_a2s":"Uncletopia | Frankfurt | 3 | All Maps","protocol":17,"map":"koth_viaduct","folder":"tf","game":"Team Fortress","app_id":440,"player_count":0,"max_players":24,"Bots":0,"server_type":"Dedicated","server_os":"Linux","password":true,"vac":true,"version":"7708610","steam_id":85568392924504274,"keywords":["cp","nocrits","nodmgspread","uncletopia"],"game_id":440,"stv_port":27036,"stv_name":"Uncletopia | Frankfurt | 3 | All Maps | STV","players":null},{"server_id":309,"name":"Uncletopia | Frankfurt | 4 | All Maps","name_short":"frk-4","host":"frk-1.de.uncletopia.com","port":27045,"enabled":true,"region":"eu","cc":"de","latitude":50.110924,"longitude":8.682127,"reserved":0,"last_update":"0001-01-01T00:00:00Z","name_a2s":"Uncletopia | Frankfurt | 4 | All Maps","protocol":17,"map":"pl_pier","folder":"tf","game":"Team Fortress","app_id":440,"player_count":0,"max_players":24,"Bots":0,"server_type":"Dedicated","server_os":"Linux","password":true,"vac":true,"version":"7708610","steam_id":85568392924504275,"keywords":["nocrits","nodmgspread","payload","uncletopia"],"game_id":440,"stv_port":27046,"stv_name":"Uncletopia | Frankfurt | 4 | All Maps | STV","players":null},{"server_id":310,"name":"Uncletopia | Frankfurt | 5 | All Maps","name_short":"frk-5","host":"frk-1.de.uncletopia.com","port":27055,"enabled":true,"region":"eu","cc":"de","latitude":50.110924,"longitude":8.682127,"reserved":0,"last_update":"0001-01-01T00:00:00Z","name_a2s":"Uncletopia | Frankfurt | 5 | All Maps","protocol":17,"map":"pl_frontier_final","folder":"tf","game":"Team Fortress","app_id":440,"player_count":0,"max_players":24,"Bots":0,"server_type":"Dedicated","server_os":"Linux","password":true,"vac":true,"version":"7708610","steam_id":85568392924504277,"keywords":["nocrits","nodmgspread","payload","uncletopia"],"game_id":440,"stv_port":27056,"stv_name":"Uncletopia | Frankfurt | 5 | All Maps | STV","players":null},{"server_id":311,"name":"Uncletopia | Frankfurt | 6 | All Maps","name_short":"frk-6","host":"frk-1.de.uncletopia.com","port":27065,"enabled":true,"region":"eu","cc":"de","latitude":50.110924,"longitude":8.682127,"reserved":0,"last_update":"0001-01-01T00:00:00Z","name_a2s":"Uncletopia | Frankfurt | 6 | All Maps","protocol":17,"map":"koth_viaduct","folder":"tf","game":"Team Fortress","app_id":440,"player_count":0,"max_players":24,"Bots":0,"server_type":"Dedicated","server_os":"Linux","password":true,"vac":true,"version":"7708610","steam_id":85568392924504278,"keywords":["cp","nocrits","nodmgspread","uncletopia"],"game_id":440,"stv_port":27066,"stv_name":"Uncletopia | Frankfurt | 6 | All Maps | STV","players":null},{"server_id":23,"name":"Uncletopia | Frankfurt | 7 | No Payload","name_short":"frk-7","host":"frk-1.de.uncletopia.com","port":27075,"enabled":true,"region":"eu","cc":"de","latitude":50.110924,"longitude":8.682127,"reserved":0,"last_update":"0001-01-01T00:00:00Z","name_a2s":"Uncletopia | Frankfurt | 7 | No Payload","protocol":17,"map":"ctf_turbine","folder":"tf","game":"Team Fortress","app_id":440,"player_count":0,"max_players":24,"Bots":0,"server_type":"Dedicated","server_os":"Linux","password":true,"vac":true,"version":"7708610","steam_id":85568392924742827,"keywords":["ctf","nocrits","nodmgspread","uncletopia"],"game_id":440,"stv_port":27076,"stv_name":"Uncletopia | Frankfurt | 7 | No Payload | STV","players":null},{"server_id":24,"name":"Uncletopia | Frankfurt | 8 | Community","name_short":"frk-8","host":"frk-1.de.uncletopia.com","port":27085,"enabled":true,"region":"eu","cc":"de","latitude":50.110924,"longitude":8.682127,"reserved":0,"last_update":"0001-01-01T00:00:00Z","name_a2s":"Uncletopia | Frankfurt | 8 | Community","protocol":17,"map":"workshop/koth_ramjam_v2_b2.ugc2865676487","folder":"tf","game":"Team Fortress","app_id":440,"player_count":0,"max_players":24,"Bots":0,"server_type":"Dedicated","server_os":"Linux","password":true,"vac":true,"version":"7708610","steam_id":85568392924742828,"keywords":["cp","nocrits","nodmgspread","uncletopia"],"game_id":440,"stv_port":27086,"stv_name":"Uncletopia | Frankfurt | 8 | Community | STV","players":null},{"server_id":202,"name":"Uncletopia | Hong Kong | 1 | All Maps","name_short":"hgk-1","host":"hgk-1.hk.uncletopia.com","port":27015,"enabled":true,"region":"asia","cc":"hk","latitude":22.302711,"longitude":114.177216,"reserved":0,"last_update":"0001-01-01T00:00:00Z","name_a2s":"Uncletopia | Hong Kong | 1 | All Maps","protocol":17,"map":"cp_dustbowl","folder":"tf","game":"Team Fortress","app_id":440,"player_count":9,"max_players":24,"Bots":0,"server_type":"Dedicated","server_os":"Linux","password":true,"vac":true,"version":"7708610","steam_id":85568392924494504,"keywords":["cp","nocrits","nodmgspread","uncletopia"],"game_id":440,"stv_port":27016,"stv_name":"Uncletopia | Hong Kong | 1 | All Maps | STV","players":[{"user_id":34,"name":"screaming sniper","steam_id":76561199085568674,"connected_time":492000000000,"state":"active","ping":61},{"user_id":15,"name":"Cool_A","steam_id":76561199177496182,"connected_time":2895000000000,"state":"active","ping":85},{"user_id":36,"name":"Zeneith","steam_id":76561199189403262,"connected_time":259000000000,"state":"active","ping":71},{"user_id":19,"name":"Windmill","steam_id":76561199230997986,"connected_time":2267000000000,"state":"active","ping":79},{"user_id":20,"name":"Friendly Hoovy","steam_id":76561199145831752,"connected_time":2218000000000,"state":"active","ping":195},{"user_id":31,"name":"gilsomnia","steam_id":76561198830813639,"connected_time":710000000000,"state":"active","ping":64},{"user_id":37,"name":"iLikeMudrock ᗜ‸ᗜ","steam_id":76561199352285088,"connected_time":119000000000,"state":"active","ping":65},{"user_id":29,"name":"Noyour","steam_id":76561198323259830,"connected_time":823000000000,"state":"active","ping":110},{"user_id":33,"name":"Level 3 sentry","steam_id":76561198979802944,"connected_time":684000000000,"state":"active","ping":68}]},{"server_id":1,"name":"Uncletopia | Los Angeles | 1 | All Maps","name_short":"lax-1","host":"lax-1.us.uncletopia.com","port":27015,"enabled":true,"region":"us-west","cc":"us","latitude":33.94279,"longitude":-118.41004,"reserved":0,"last_update":"0001-01-01T00:00:00Z","name_a2s":"Uncletopia | Los Angeles | 1 | All Maps","protocol":17,"map":"pl_snowycoast","folder":"tf","game":"Team Fortress","app_id":440,"player_count":22,"max_players":24,"Bots":0,"server_type":"Dedicated","server_os":"Linux","password":true,"vac":true,"version":"7708610","steam_id":85568392924469991,"keywords":["nocrits","nodmgspread","payload","uncletopia"],"game_id":440,"stv_port":27016,"stv_name":"Uncletopia | Los Angeles | 1 | All Maps | STV","players":[{"user_id":393,"name":"hehe :3","steam_id":76561198036901822,"connected_time":25000000000,"state":"active","ping":81},{"user_id":340,"name":"ice cream (冰淇淋)","steam_id":76561198976530881,"connected_time":4829000000000,"state":"active","ping":30},{"user_id":319,"name":"King Cotton","steam_id":76561198292444376,"connected_time":5641000000000,"state":"active","ping":89},{"user_id":387,"name":"HAT-WEARING™ Maggot Gamer Cat","steam_id":76561197973992705,"connected_time":508000000000,"state":"active","ping":60},{"user_id":388,"name":"PersonWhoJustDiedMaybeIDontKnow","steam_id":76561199109564855,"connected_time":473000000000,"state":"active","ping":58},{"user_id":368,"name":"Ecliptica","steam_id":76561198171951333,"connected_time":1601000000000,"state":"active","ping":110},{"user_id":335,"name":"Doc","steam_id":76561198265147327,"connected_time":5134000000000,"state":"active","ping":67},{"user_id":380,"name":"Cardjitsu Blackbelt","steam_id":76561199099203623,"connected_time":917000000000,"state":"active","ping":84},{"user_id":372,"name":"hoOmIN","steam_id":76561198334947079,"connected_time":1509000000000,"state":"active","ping":45},{"user_id":390,"name":"Nugakku","steam_id":76561198082346219,"connected_time":406000000000,"state":"active","ping":57},{"user_id":374,"name":"SortOfABigDeal","steam_id":76561198323397375,"connected_time":1480000000000,"state":"active","ping":112},{"user_id":336,"name":"Jax O'Gaytor","steam_id":76561198288922168,"connected_time":4952000000000,"state":"active","ping":64},{"user_id":391,"name":"Quest1onable1","steam_id":76561199114459845,"connected_time":94000000000,"state":"active","ping":61},{"user_id":357,"name":"GeneWilder","steam_id":76561198014424411,"connected_time":2756000000000,"state":"active","ping":84},{"user_id":382,"name":"-BRH- Tangled up in Bluegrass","steam_id":76561197987181139,"connected_time":849000000000,"state":"active","ping":100},{"user_id":383,"name":"Rusty","steam_id":76561198055585129,"connected_time":635000000000,"state":"active","ping":85},{"user_id":307,"name":"GW4D","steam_id":76561198268791283,"connected_time":7733000000000,"state":"active","ping":57},{"user_id":376,"name":"Gugomo","steam_id":76561198121428316,"connected_time":1471000000000,"state":"active","ping":44},{"user_id":389,"name":"Coyote Bongwater (coffee addict","steam_id":76561199375501871,"connected_time":455000000000,"state":"active","ping":51},{"user_id":375,"name":"creepycrawler","steam_id":76561198352016831,"connected_time":1476000000000,"state":"active","ping":99},{"user_id":386,"name":"Altruisticailuridae","steam_id":76561198335295596,"connected_time":541000000000,"state":"active","ping":53},{"user_id":351,"name":"RyanTheKat","steam_id":76561198261728547,"connected_time":3614000000000,"state":"active","ping":55}]},{"server_id":112,"name":"Uncletopia | Los Angeles | 2 | All Maps","name_short":"lax-2","host":"lax-1.us.uncletopia.com","port":27025,"enabled":true,"region":"us-west","cc":"us","latitude":33.94279,"longitude":-118.41004,"reserved":0,"last_update":"0001-01-01T00:00:00Z","name_a2s":"Uncletopia | Los Angeles | 2 | All Maps","protocol":17,"map":"cp_sunshine","folder":"tf","game":"Team Fortress","app_id":440,"player_count":24,"max_players":24,"Bots":0,"server_type":"Dedicated","server_os":"Linux","password":true,"vac":true,"version":"7708610","steam_id":85568392924469992,"keywords":["cp","nocrits","nodmgspread","uncletopia"],"game_id":440,"stv_port":27026,"stv_name":"Uncletopia | Los Angeles | 2 | All Maps | STV","players":[{"user_id":22,"name":"G. Howard Dee","steam_id":76561198058382812,"connected_time":5601000000000,"state":"active","ping":51},{"user_id":75,"name":"Agent Q","steam_id":76561198830829003,"connected_time":2718000000000,"state":"active","ping":71},{"user_id":77,"name":"Theory-Y","steam_id":76561198116419931,"connected_time":2612000000000,"state":"active","ping":98},{"user_id":120,"name":"walrooos ✿","steam_id":76561198024521839,"connected_time":1137000000000,"state":"active","ping":57},{"user_id":125,"name":"the crust","steam_id":76561198361999761,"connected_time":907000000000,"state":"active","ping":52},{"user_id":116,"name":"EatSomeBEES","steam_id":76561198047334307,"connected_time":1199000000000,"state":"active","ping":82},{"user_id":103,"name":"nelly modelo","steam_id":76561198044875206,"connected_time":1602000000000,"state":"active","ping":72},{"user_id":50,"name":"JacenHan","steam_id":76561198077796718,"connected_time":3822000000000,"state":"active","ping":80},{"user_id":97,"name":"Frongus","steam_id":76561197979056451,"connected_time":1817000000000,"state":"active","ping":73},{"user_id":118,"name":"Swamp Fever","steam_id":76561198096836451,"connected_time":1173000000000,"state":"active","ping":50},{"user_id":115,"name":"Hernandez$","steam_id":76561198019324588,"connected_time":1309000000000,"state":"active","ping":54},{"user_id":109,"name":"Swag6","steam_id":76561198064110837,"connected_time":1389000000000,"state":"active","ping":53},{"user_id":90,"name":"The Irish Ghost","steam_id":76561199021970654,"connected_time":2303000000000,"state":"active","ping":47},{"user_id":70,"name":"no vc no c","steam_id":76561197989503095,"connected_time":3061000000000,"state":"active","ping":149},{"user_id":82,"name":"Themasterman75","steam_id":76561199385573293,"connected_time":2536000000000,"state":"active","ping":104},{"user_id":104,"name":"mu","steam_id":76561197997530228,"connected_time":1524000000000,"state":"active","ping":86},{"user_id":101,"name":"Literally Printer Jesus","steam_id":76561198093687962,"connected_time":1646000000000,"state":"active","ping":63},{"user_id":119,"name":"Eden","steam_id":76561198081284664,"connected_time":1139000000000,"state":"active","ping":48},{"user_id":126,"name":"Cinna Mon","steam_id":76561198005840633,"connected_time":563000000000,"state":"active","ping":81},{"user_id":127,"name":"dewey","steam_id":76561198132791511,"connected_time":44000000000,"state":"active","ping":58},{"user_id":114,"name":"mrs. business","steam_id":76561198025454291,"connected_time":1339000000000,"state":"active","ping":62},{"user_id":100,"name":"sxgbln","steam_id":76561198921318264,"connected_time":1750000000000,"state":"active","ping":165},{"user_id":86,"name":"Rock Kickass","steam_id":76561198450510841,"connected_time":2470000000000,"state":"active","ping":83}]},{"server_id":324,"name":"Uncletopia | Los Angeles | 3 | All Maps","name_short":"lax-3","host":"lax-1.us.uncletopia.com","port":27035,"enabled":true,"region":"us-west","cc":"us","latitude":33.94279,"longitude":-118.41004,"reserved":0,"last_update":"0001-01-01T00:00:00Z","name_a2s":"Uncletopia | Los Angeles | 3 | All Maps","protocol":17,"map":"koth_cascade","folder":"tf","game":"Team Fortress","app_id":440,"player_count":9,"max_players":24,"Bots":0,"server_type":"Dedicated","server_os":"Linux","password":true,"vac":true,"version":"7708610","steam_id":85568392924510198,"keywords":["cp","nocrits","nodmgspread","uncletopia"],"game_id":440,"stv_port":27036,"stv_name":"Uncletopia | Los Angeles | 3 | All Maps | STV","players":[{"user_id":126,"name":"CasualCakeEater","steam_id":76561199406096223,"connected_time":3372000000000,"state":"active","ping":61},{"user_id":173,"name":"BIGGS","steam_id":76561198057399996,"connected_time":158000000000,"state":"active","ping":46},{"user_id":174,"name":"Captin_Ciyro","steam_id":76561198861899909,"connected_time":102000000000,"state":"active","ping":51},{"user_id":167,"name":"Subderhenge","steam_id":76561198090955892,"connected_time":757000000000,"state":"active","ping":88},{"user_id":175,"name":"Matt","steam_id":76561199122703238,"connected_time":47000000000,"state":"active","ping":100},{"user_id":130,"name":"lili.winters","steam_id":76561199391478575,"connected_time":3302000000000,"state":"active","ping":87},{"user_id":171,"name":"flabber","steam_id":76561199247494538,"connected_time":505000000000,"state":"active","ping":105},{"user_id":86,"name":"Noxus","steam_id":76561199009820852,"connected_time":5915000000000,"state":"active","ping":96},{"user_id":87,"name":"Nibotshooter","steam_id":76561199284825579,"connected_time":5911000000000,"state":"active","ping":100}]},{"server_id":25,"name":"Uncletopia | Los Angeles | 4 | No Payload","name_short":"lax-4","host":"lax-1.us.uncletopia.com","port":27045,"enabled":true,"region":"us-west","cc":"us","latitude":33.94279,"longitude":-118.41004,"reserved":0,"last_update":"0001-01-01T00:00:00Z","name_a2s":"Uncletopia | Los Angeles | 4 | No Payload","protocol":17,"map":"ctf_turbine","folder":"tf","game":"Team Fortress","app_id":440,"player_count":0,"max_players":24,"Bots":0,"server_type":"Dedicated","server_os":"Linux","password":true,"vac":true,"version":"7708610","steam_id":85568392924510199,"keywords":["ctf","nocrits","nodmgspread","uncletopia"],"game_id":440,"stv_port":27046,"stv_name":"Uncletopia | Los Angeles | 4 | No Payload | STV","players":null},{"server_id":11,"name":"Uncletopia | London | 1 | All Maps","name_short":"lon-1","host":"lon-1.uk.uncletopia.com","port":27015,"enabled":true,"region":"eu","cc":"gb","latitude":51.509865,"longitude":-0.118092,"reserved":0,"last_update":"0001-01-01T00:00:00Z","name_a2s":"Uncletopia | London | 1 | All Maps","protocol":17,"map":"pl_borneo","folder":"tf","game":"Team Fortress","app_id":440,"player_count":10,"max_players":24,"Bots":0,"server_type":"Dedicated","server_os":"Linux","password":true,"vac":true,"version":"7708610","steam_id":85568392924367362,"keywords":["nocrits","nodmgspread","payload","uncletopia"],"game_id":440,"stv_port":27016,"stv_name":"Uncletopia | London | 1 | All Maps | STV","players":[{"user_id":1073,"name":"Enigmus","steam_id":76561197994063627,"connected_time":3210000000000,"state":"active","ping":82},{"user_id":1093,"name":"OSwaldd","steam_id":76561199078712899,"connected_time":889000000000,"state":"active","ping":55},{"user_id":1082,"name":"cinny","steam_id":76561198832112629,"connected_time":1909000000000,"state":"active","ping":88},{"user_id":1078,"name":"E1s","steam_id":76561198894958917,"connected_time":2395000000000,"state":"active","ping":38},{"user_id":1071,"name":"frosty","steam_id":76561198094560834,"connected_time":3431000000000,"state":"active","ping":46},{"user_id":1079,"name":"IQ","steam_id":76561199198830142,"connected_time":2310000000000,"state":"active","ping":142},{"user_id":1096,"name":"geezer","steam_id":76561198116981188,"connected_time":355000000000,"state":"active","ping":64},{"user_id":1081,"name":"medick","steam_id":76561199380849468,"connected_time":2156000000000,"state":"active","ping":60},{"user_id":1083,"name":"ashley","steam_id":76561198448551449,"connected_time":1842000000000,"state":"active","ping":39},{"user_id":1092,"name":"worry about it","steam_id":76561199414716848,"connected_time":1195000000000,"state":"active","ping":72}]},{"server_id":114,"name":"Uncletopia | London | 2 | All Maps","name_short":"lon-2","host":"lon-1.uk.uncletopia.com","port":27025,"enabled":true,"region":"eu","cc":"gb","latitude":51.509865,"longitude":-0.118092,"reserved":0,"last_update":"0001-01-01T00:00:00Z","name_a2s":"Uncletopia | London | 2 | All Maps","protocol":17,"map":"koth_viaduct","folder":"tf","game":"Team Fortress","app_id":440,"player_count":0,"max_players":24,"Bots":0,"server_type":"Dedicated","server_os":"Linux","password":true,"vac":true,"version":"7708610","steam_id":85568392924470941,"keywords":["cp","nocrits","nodmgspread","uncletopia"],"game_id":440,"stv_port":27026,"stv_name":"Uncletopia | London | 2 | All Maps | STV","players":null},{"server_id":320,"name":"Uncletopia | London | 3 | All Maps","name_short":"lon-3","host":"lon-1.uk.uncletopia.com","port":27035,"enabled":true,"region":"eu","cc":"gb","latitude":51.509865,"longitude":-0.118092,"reserved":0,"last_update":"0001-01-01T00:00:00Z","name_a2s":"Uncletopia | London | 3 | All Maps","protocol":17,"map":"koth_viaduct","folder":"tf","game":"Team Fortress","app_id":440,"player_count":0,"max_players":24,"Bots":0,"server_type":"Dedicated","server_os":"Linux","password":true,"vac":true,"version":"7708610","steam_id":85568392924510192,"keywords":["cp","nocrits","nodmgspread","uncletopia"],"game_id":440,"stv_port":27036,"stv_name":"Uncletopia | London | 3 | All Maps | STV","players":null},{"server_id":321,"name":"Uncletopia | London | 4 | All Maps","name_short":"lon-4","host":"lon-1.uk.uncletopia.com","port":27045,"enabled":true,"region":"eu","cc":"gb","latitude":51.509865,"longitude":-0.118092,"reserved":0,"last_update":"0001-01-01T00:00:00Z","name_a2s":"Uncletopia | London | 4 | All Maps","protocol":17,"map":"koth_lakeside_final","folder":"tf","game":"Team Fortress","app_id":440,"player_count":0,"max_players":24,"Bots":0,"server_type":"Dedicated","server_os":"Linux","password":true,"vac":true,"version":"7708610","steam_id":85568392924510193,"keywords":["cp","nocrits","nodmgspread","uncletopia"],"game_id":440,"stv_port":27046,"stv_name":"Uncletopia | London | 4 | All Maps | STV","players":null},{"server_id":21,"name":"Uncletopia | London | 5 | All Maps","name_short":"lon-5","host":"lon-1.uk.uncletopia.com","port":27055,"enabled":true,"region":"eu","cc":"gb","latitude":51.509865,"longitude":-0.118092,"reserved":0,"last_update":"0001-01-01T00:00:00Z","name_a2s":"Uncletopia | London | 5 | All Maps","protocol":17,"map":"koth_lakeside_final","folder":"tf","game":"Team Fortress","app_id":440,"player_count":0,"max_players":24,"Bots":0,"server_type":"Dedicated","server_os":"Linux","password":true,"vac":true,"version":"7708610","steam_id":85568392924742829,"keywords":["cp","nocrits","nodmgspread","uncletopia"],"game_id":440,"stv_port":27056,"stv_name":"Uncletopia | London | 5 | All Maps | STV","players":null},{"server_id":22,"name":"Uncletopia | London | 6 | All Maps","name_short":"lon-6","host":"lon-1.uk.uncletopia.com","port":27065,"enabled":true,"region":"eu","cc":"gb","latitude":51.509865,"longitude":-0.118092,"reserved":0,"last_update":"0001-01-01T00:00:00Z","name_a2s":"Uncletopia | London | 6 | All Maps","protocol":17,"map":"cp_dustbowl","folder":"tf","game":"Team Fortress","app_id":440,"player_count":0,"max_players":24,"Bots":0,"server_type":"Dedicated","server_os":"Linux","password":true,"vac":true,"version":"7708610","steam_id":85568392924742830,"keywords":["cp","nocrits","nodmgspread","uncletopia"],"game_id":440,"stv_port":27066,"stv_name":"Uncletopia | London | 6 | All Maps | STV","players":null},{"server_id":40,"name":"Uncletopia | London | 7 | No Payload","name_short":"lon-7","host":"lon-1.uk.uncletopia.com","port":27075,"enabled":true,"region":"eu","cc":"gb","latitude":51.509865,"longitude":-0.118092,"reserved":0,"last_update":"0001-01-01T00:00:00Z","name_a2s":"Uncletopia | London | 7 | No Payload","protocol":17,"map":"cp_metalworks","folder":"tf","game":"Team Fortress","app_id":440,"player_count":0,"max_players":24,"Bots":0,"server_type":"Dedicated","server_os":"Linux","password":true,"vac":true,"version":"7708610","steam_id":85568392924964314,"keywords":["cp","nocrits","nodmgspread","uncletopia"],"game_id":440,"stv_port":27076,"stv_name":"Uncletopia | London | 7 | No Payload | STV","players":null},{"server_id":41,"name":"Uncletopia | London | 8 | Community","name_short":"lon-8","host":"lon-1.uk.uncletopia.com","port":27085,"enabled":true,"region":"eu","cc":"gb","latitude":51.509865,"longitude":-0.118092,"reserved":0,"last_update":"0001-01-01T00:00:00Z","name_a2s":"Uncletopia | London | 8 | Community","protocol":17,"map":"workshop/pl_cactuscanyon_redux_rc4b.ugc2579644293","folder":"tf","game":"Team Fortress","app_id":440,"player_count":0,"max_players":24,"Bots":0,"server_type":"Dedicated","server_os":"Linux","password":true,"vac":true,"version":"7708610","steam_id":85568392924964315,"keywords":["nocrits","nodmgspread","payload","uncletopia"],"game_id":440,"stv_port":27086,"stv_name":"Uncletopia | London | 8 | Community | STV","players":null},{"server_id":300,"name":"Uncletopia | Montréal | 1 | All Maps","name_short":"mtl-1","host":"mtl-1.ca.uncletopia.com","port":27015,"enabled":true,"region":"us-east","cc":"ca","latitude":45.50889,"longitude":-73.56167,"reserved":0,"last_update":"0001-01-01T00:00:00Z","name_a2s":"Uncletopia | Montréal | 1 | All Maps","protocol":17,"map":"koth_viaduct","folder":"tf","game":"Team Fortress","app_id":440,"player_count":0,"max_players":24,"Bots":0,"server_type":"Dedicated","server_os":"Linux","password":true,"vac":true,"version":"7708610","steam_id":85568392924500087,"keywords":["cp","nocrits","nodmgspread","uncletopia"],"game_id":440,"stv_port":27016,"stv_name":"Uncletopia | Montréal | 1 | All Maps | STV","players":null},{"server_id":301,"name":"Uncletopia | Montréal | 2 | All Maps","name_short":"mtl-2","host":"mtl-1.ca.uncletopia.com","port":27025,"enabled":true,"region":"us-east","cc":"ca","latitude":45.50889,"longitude":-73.56167,"reserved":0,"last_update":"0001-01-01T00:00:00Z","name_a2s":"Uncletopia | Montréal | 2 | All Maps","protocol":17,"map":"koth_highpass","folder":"tf","game":"Team Fortress","app_id":440,"player_count":0,"max_players":24,"Bots":0,"server_type":"Dedicated","server_os":"Linux","password":true,"vac":true,"version":"7708610","steam_id":85568392924500088,"keywords":["cp","nocrits","nodmgspread","uncletopia"],"game_id":440,"stv_port":27026,"stv_name":"Uncletopia | Montréal | 2 | All Maps | STV","players":null},{"server_id":302,"name":"Uncletopia | Montréal | 3 | All Maps","name_short":"mtl-3","host":"mtl-1.ca.uncletopia.com","port":27035,"enabled":true,"region":"us-east","cc":"ca","latitude":45.50889,"longitude":-73.56167,"reserved":0,"last_update":"0001-01-01T00:00:00Z","name_a2s":"Uncletopia | Montréal | 3 | All Maps","protocol":17,"map":"cp_process_final","folder":"tf","game":"Team Fortress","app_id":440,"player_count":0,"max_players":24,"Bots":0,"server_type":"Dedicated","server_os":"Linux","password":true,"vac":true,"version":"7708610","steam_id":85568392924500089,"keywords":["cp","nocrits","nodmgspread","uncletopia"],"game_id":440,"stv_port":27036,"stv_name":"Uncletopia | Montréal | 3 | All Maps | STV","players":null},{"server_id":303,"name":"Uncletopia | Montréal | 4 | No Payload","name_short":"mtl-4","host":"mtl-1.ca.uncletopia.com","port":27045,"enabled":true,"region":"us-east","cc":"ca","latitude":45.50889,"longitude":-73.56167,"reserved":0,"last_update":"0001-01-01T00:00:00Z","name_a2s":"Uncletopia | Montréal | 4 | No Payload","protocol":17,"map":"cp_granary","folder":"tf","game":"Team Fortress","app_id":440,"player_count":0,"max_players":24,"Bots":0,"server_type":"Dedicated","server_os":"Linux","password":true,"vac":true,"version":"7708610","steam_id":85568392924500090,"keywords":["cp","nocrits","nodmgspread","uncletopia"],"game_id":440,"stv_port":27046,"stv_name":"Uncletopia | Montréal | 4 | No Payload | STV","players":null},{"server_id":13,"name":"Uncletopia | New York City | 1 | All Maps","name_short":"nyc-1","host":"nyc-1.us.uncletopia.com","port":27015,"enabled":true,"region":"us-east","cc":"us","latitude":40.73061,"longitude":-73.93524,"reserved":0,"last_update":"0001-01-01T00:00:00Z","name_a2s":"Uncletopia | New York City | 1 | All Maps","protocol":17,"map":"pl_borneo","folder":"tf","game":"Team Fortress","app_id":440,"player_count":24,"max_players":24,"Bots":0,"server_type":"Dedicated","server_os":"Linux","password":true,"vac":true,"version":"7708610","steam_id":85568392924469993,"keywords":["nocrits","nodmgspread","payload","uncletopia"],"game_id":440,"stv_port":27016,"stv_name":"Uncletopia | New York City | 1 | All Maps | STV","players":[{"user_id":353,"name":"Nosferatu","steam_id":76561198048205270,"connected_time":3634000000000,"state":"active","ping":64},{"user_id":378,"name":"nhbiker","steam_id":76561198081277675,"connected_time":1633000000000,"state":"active","ping":45},{"user_id":383,"name":"BD[PL]","steam_id":76561198115995871,"connected_time":1276000000000,"state":"active","ping":157},{"user_id":394,"name":"womit","steam_id":76561198333675595,"connected_time":131000000000,"state":"active","ping":78},{"user_id":362,"name":"Whorse","steam_id":76561198114141445,"connected_time":2633000000000,"state":"active","ping":84},{"user_id":395,"name":"damianluck925","steam_id":76561197962607364,"connected_time":81000000000,"state":"active","ping":60},{"user_id":235,"name":"fuck it we balld","steam_id":76561198026589960,"connected_time":13061000000000,"state":"active","ping":75},{"user_id":368,"name":"TheGhostThatWas","steam_id":76561198055836483,"connected_time":2121000000000,"state":"active","ping":45},{"user_id":385,"name":"Horse","steam_id":76561199112075552,"connected_time":1122000000000,"state":"active","ping":42},{"user_id":396,"name":"DropBear","steam_id":76561197964435496,"connected_time":63000000000,"state":"active","ping":71},{"user_id":369,"name":"Electric Camel","steam_id":76561198065589663,"connected_time":2105000000000,"state":"active","ping":50},{"user_id":386,"name":"Penis Man","steam_id":76561199079213911,"connected_time":1104000000000,"state":"active","ping":126},{"user_id":393,"name":"Diamond Jack","steam_id":76561198321304762,"connected_time":142000000000,"state":"active","ping":43},{"user_id":381,"name":"Chewbacca","steam_id":76561198041927925,"connected_time":1513000000000,"state":"active","ping":55},{"user_id":349,"name":"Mikey Wikey","steam_id":76561198118857936,"connected_time":4316000000000,"state":"active","ping":89},{"user_id":389,"name":"Acheo","steam_id":76561198068228498,"connected_time":1029000000000,"state":"active","ping":46},{"user_id":382,"name":"Kamin","steam_id":76561198255299559,"connected_time":1325000000000,"state":"active","ping":111},{"user_id":390,"name":"Amaretto Sour","steam_id":76561198063112844,"connected_time":782000000000,"state":"active","ping":61},{"user_id":357,"name":"Fudge_Cake","steam_id":76561198059218167,"connected_time":2933000000000,"state":"active","ping":79},{"user_id":377,"name":"Dusty Bucket","steam_id":76561198037064732,"connected_time":1689000000000,"state":"active","ping":59},{"user_id":375,"name":"Sideshow Penguin","steam_id":76561198128024135,"connected_time":1766000000000,"state":"active","ping":40},{"user_id":367,"name":"MitcheyHD","steam_id":76561198066489645,"connected_time":2175000000000,"state":"active","ping":63},{"user_id":391,"name":"korean makeup tutorial","steam_id":76561198135648823,"connected_time":760000000000,"state":"active","ping":113},{"user_id":392,"name":"werecat","steam_id":76561198005091213,"connected_time":669000000000,"state":"active","ping":46}]},{"server_id":14,"name":"Uncletopia | New York City | 2 | All Maps","name_short":"nyc-2","host":"nyc-1.us.uncletopia.com","port":27025,"enabled":true,"region":"us-east","cc":"us","latitude":40.73061,"longitude":-73.93524,"reserved":0,"last_update":"0001-01-01T00:00:00Z","name_a2s":"Uncletopia | New York City | 2 | All Maps","protocol":17,"map":"pl_snowycoast","folder":"tf","game":"Team Fortress","app_id":440,"player_count":24,"max_players":24,"Bots":0,"server_type":"Dedicated","server_os":"Linux","password":true,"vac":true,"version":"7708610","steam_id":85568392924469994,"keywords":["nocrits","nodmgspread","payload","uncletopia"],"game_id":440,"stv_port":27026,"stv_name":"Uncletopia | New York City | 2 | All Maps | STV","players":[{"user_id":362,"name":"barely sentient bag of meat","steam_id":76561198062763756,"connected_time":2660000000000,"state":"active","ping":111},{"user_id":384,"name":"altoids","steam_id":76561198071788256,"connected_time":1251000000000,"state":"active","ping":39},{"user_id":373,"name":"josh","steam_id":76561198111565081,"connected_time":2277000000000,"state":"active","ping":127},{"user_id":391,"name":"AceDeuce","steam_id":76561198049904924,"connected_time":1075000000000,"state":"active","ping":70},{"user_id":354,"name":"DREW PEACOCK","steam_id":76561198065057392,"connected_time":3244000000000,"state":"active","ping":76},{"user_id":365,"name":"KRELLAH","steam_id":76561198287045069,"connected_time":2633000000000,"state":"active","ping":61},{"user_id":380,"name":"kg","steam_id":76561198147746558,"connected_time":1991000000000,"state":"active","ping":75},{"user_id":385,"name":"SpiderString","steam_id":76561198092409181,"connected_time":1238000000000,"state":"active","ping":126},{"user_id":347,"name":"Domino Jones","steam_id":76561198202195792,"connected_time":3361000000000,"state":"active","ping":67},{"user_id":348,"name":"keyboardHarpist","steam_id":76561198045916049,"connected_time":3355000000000,"state":"active","ping":57},{"user_id":402,"name":"FrostStorm","steam_id":76561198142685151,"connected_time":423000000000,"state":"active","ping":77},{"user_id":258,"name":"InkQuil","steam_id":76561198135315642,"connected_time":6206000000000,"state":"active","ping":87},{"user_id":400,"name":"|AG| Level","steam_id":76561198063633592,"connected_time":432000000000,"state":"active","ping":63},{"user_id":397,"name":"Error 4 Oh Four","steam_id":76561198121637567,"connected_time":730000000000,"state":"active","ping":86},{"user_id":387,"name":"jt","steam_id":76561198059575962,"connected_time":1160000000000,"state":"active","ping":47},{"user_id":405,"name":"Got Hat?","steam_id":76561197998486431,"connected_time":118000000000,"state":"active","ping":53},{"user_id":404,"name":"Rudy","steam_id":76561198013456828,"connected_time":279000000000,"state":"active","ping":58},{"user_id":390,"name":"ˢᵖᵗᶠʸenvythealchemist","steam_id":76561198099470277,"connected_time":1081000000000,"state":"active","ping":81},{"user_id":403,"name":"crankshaft","steam_id":76561197992798282,"connected_time":364000000000,"state":"active","ping":118},{"user_id":357,"name":"juliusgem","steam_id":76561198206751192,"connected_time":3157000000000,"state":"active","ping":181},{"user_id":399,"name":"McNamJam","steam_id":76561198028128686,"connected_time":562000000000,"state":"active","ping":117},{"user_id":394,"name":"Shemply","steam_id":76561198193658910,"connected_time":981000000000,"state":"active","ping":88},{"user_id":356,"name":"Mir","steam_id":76561198271925474,"connected_time":3218000000000,"state":"active","ping":142},{"user_id":372,"name":"averted","steam_id":76561198067784310,"connected_time":2452000000000,"state":"active","ping":46}]},{"server_id":15,"name":"Uncletopia | New York City | 3 | All Maps","name_short":"nyc-3","host":"nyc-1.us.uncletopia.com","port":27035,"enabled":true,"region":"us-east","cc":"us","latitude":40.73061,"longitude":-73.93524,"reserved":0,"last_update":"0001-01-01T00:00:00Z","name_a2s":"Uncletopia | New York City | 3 | All Maps","protocol":17,"map":"koth_viaduct","folder":"tf","game":"Team Fortress","app_id":440,"player_count":0,"max_players":24,"Bots":0,"server_type":"Dedicated","server_os":"Linux","password":true,"vac":true,"version":"7708610","steam_id":85568392924742820,"keywords":["cp","nocrits","nodmgspread","uncletopia"],"game_id":440,"stv_port":27036,"stv_name":"Uncletopia | New York City | 3 | All Maps | STV","players":null},{"server_id":16,"name":"Uncletopia | New York City | 4 | Community","name_short":"nyc-4","host":"nyc-1.us.uncletopia.com","port":27045,"enabled":true,"region":"us-east","cc":"us","latitude":40.73061,"longitude":-73.93524,"reserved":0,"last_update":"0001-01-01T00:00:00Z","name_a2s":"Uncletopia | New York City | 4 | Community","protocol":17,"map":"workshop/koth_synthetic_rc6a.ugc1549817316","folder":"tf","game":"Team Fortress","app_id":440,"player_count":0,"max_players":24,"Bots":0,"server_type":"Dedicated","server_os":"Linux","password":true,"vac":true,"version":"7708610","steam_id":85568392924742821,"keywords":["cp","nocrits","nodmgspread","uncletopia"],"game_id":440,"stv_port":27046,"stv_name":"Uncletopia | New York City | 4 | Community | STV","players":null},{"server_id":142,"name":"Uncletopia | São Paulo | 1 | All Maps","name_short":"sao-1","host":"sao-1.br.uncletopia.com","port":27015,"enabled":true,"region":"sa","cc":"br","latitude":-23.533773,"longitude":-46.62529,"reserved":0,"last_update":"0001-01-01T00:00:00Z","name_a2s":"Uncletopia | São Paulo | 1 | All Maps","protocol":17,"map":"pl_snowycoast","folder":"tf","game":"Team Fortress","app_id":440,"player_count":0,"max_players":24,"Bots":0,"server_type":"Dedicated","server_os":"Linux","password":true,"vac":true,"version":"7708610","steam_id":85568392924469996,"keywords":["nocrits","nodmgspread","payload","uncletopia"],"game_id":440,"stv_port":27016,"stv_name":"Uncletopia | São Paulo | 1 | All Maps | STV","players":null},{"server_id":143,"name":"Uncletopia | São Paulo | 2 | All Maps","name_short":"sao-2","host":"sao-2.br.uncletopia.com","port":27015,"enabled":true,"region":"sa","cc":"br","latitude":-23.533773,"longitude":-46.62529,"reserved":0,"last_update":"0001-01-01T00:00:00Z","name_a2s":"Uncletopia | São Paulo | 2 | All Maps","protocol":17,"map":"koth_cascade","folder":"tf","game":"Team Fortress","app_id":440,"player_count":0,"max_players":24,"Bots":0,"server_type":"Dedicated","server_os":"Linux","password":true,"vac":true,"version":"7708610","steam_id":85568392924485349,"keywords":["cp","nocrits","nodmgspread","uncletopia"],"game_id":440,"stv_port":27016,"stv_name":"Uncletopia | São Paulo | 2 | All Maps | STV","players":null},{"server_id":7,"name":"Uncletopia | Seattle | 1 | All Maps","name_short":"sea-1","host":"sea-1.us.uncletopia.com","port":27015,"enabled":true,"region":"us-west","cc":"us","latitude":47.608013,"longitude":-122.33517,"reserved":0,"last_update":"0001-01-01T00:00:00Z","name_a2s":"Uncletopia | Seattle | 1 | All Maps","protocol":17,"map":"pl_swiftwater_final1","folder":"tf","game":"Team Fortress","app_id":440,"player_count":23,"max_players":24,"Bots":0,"server_type":"Dedicated","server_os":"Linux","password":true,"vac":true,"version":"7708610","steam_id":85568392924469997,"keywords":["nocrits","nodmgspread","payload","uncletopia"],"game_id":440,"stv_port":27016,"stv_name":"Uncletopia | Seattle | 1 | All Maps | STV","players":[{"user_id":655,"name":"grape","steam_id":76561197993980328,"connected_time":1158000000000,"state":"active","ping":52},{"user_id":629,"name":"dust","steam_id":76561198045218909,"connected_time":3171000000000,"state":"active","ping":43},{"user_id":630,"name":"triforcemack","steam_id":76561198055812400,"connected_time":3110000000000,"state":"active","ping":92},{"user_id":662,"name":"incineratedbread","steam_id":76561198133619079,"connected_time":815000000000,"state":"active","ping":59},{"user_id":633,"name":"Dosario","steam_id":76561198298095535,"connected_time":2965000000000,"state":"active","ping":51},{"user_id":591,"name":"[DATS➡] Sugar Meowth","steam_id":76561197995251793,"connected_time":6395000000000,"state":"active","ping":45},{"user_id":666,"name":"Radio","steam_id":76561197963596200,"connected_time":310000000000,"state":"active","ping":42},{"user_id":644,"name":"exephur","steam_id":76561198135763234,"connected_time":1980000000000,"state":"active","ping":68},{"user_id":605,"name":"Quavo_YRN","steam_id":76561198070630154,"connected_time":5872000000000,"state":"active","ping":80},{"user_id":669,"name":"Sykes10","steam_id":76561198279623105,"connected_time":115000000000,"state":"active","ping":78},{"user_id":652,"name":"Faust","steam_id":76561198125178567,"connected_time":1539000000000,"state":"active","ping":60},{"user_id":667,"name":"A-Train","steam_id":76561199031775779,"connected_time":306000000000,"state":"active","ping":91},{"user_id":654,"name":"Delta","steam_id":76561198021957971,"connected_time":1447000000000,"state":"active","ping":60},{"user_id":557,"name":"Level 99 Mudcrab","steam_id":76561198077452771,"connected_time":9361000000000,"state":"active","ping":61},{"user_id":637,"name":"Mr. Big Quack","steam_id":76561198062219416,"connected_time":2758000000000,"state":"active","ping":79},{"user_id":650,"name":"squash","steam_id":76561198150281353,"connected_time":1775000000000,"state":"active","ping":57},{"user_id":670,"name":"smeasly","steam_id":76561198028718812,"connected_time":39000000000,"state":"spawning","ping":79},{"user_id":653,"name":"Lily Thorn","steam_id":76561198305488625,"connected_time":1538000000000,"state":"active","ping":70},{"user_id":643,"name":"Lord Hater","steam_id":76561199158148782,"connected_time":2226000000000,"state":"active","ping":77},{"user_id":659,"name":"no sound (no smell)","steam_id":76561198062712676,"connected_time":918000000000,"state":"active","ping":49},{"user_id":661,"name":"......","steam_id":76561198067612741,"connected_time":883000000000,"state":"active","ping":45},{"user_id":663,"name":"Nolan","steam_id":76561198169648081,"connected_time":804000000000,"state":"active","ping":98},{"user_id":560,"name":"soup","steam_id":76561198043209046,"connected_time":9108000000000,"state":"active","ping":77}]},{"server_id":119,"name":"Uncletopia | Seattle | 2 | All Maps","name_short":"sea-2","host":"sea-1.us.uncletopia.com","port":27025,"enabled":true,"region":"us-west","cc":"us","latitude":47.608013,"longitude":-122.33517,"reserved":0,"last_update":"0001-01-01T00:00:00Z","name_a2s":"Uncletopia | Seattle | 2 | All Maps","protocol":17,"map":"cp_sunshine","folder":"tf","game":"Team Fortress","app_id":440,"player_count":23,"max_players":24,"Bots":0,"server_type":"Dedicated","server_os":"Linux","password":true,"vac":true,"version":"7708610","steam_id":85568392924469998,"keywords":["cp","nocrits","nodmgspread","uncletopia"],"game_id":440,"stv_port":27026,"stv_name":"Uncletopia | Seattle | 2 | All Maps | STV","players":[{"user_id":230,"name":"Dogg wader","steam_id":76561199090314340,"connected_time":467000000000,"state":"active","ping":57},{"user_id":213,"name":"dEvil","steam_id":76561198019388833,"connected_time":1887000000000,"state":"active","ping":43},{"user_id":227,"name":"Winter the Witchie","steam_id":76561198151971178,"connected_time":715000000000,"state":"active","ping":107},{"user_id":201,"name":"MG","steam_id":76561197980131846,"connected_time":2272000000000,"state":"active","ping":71},{"user_id":226,"name":"hypotenuse","steam_id":76561198062479158,"connected_time":750000000000,"state":"active","ping":54},{"user_id":183,"name":"0xFUL","steam_id":76561198081684676,"connected_time":4379000000000,"state":"active","ping":77},{"user_id":196,"name":"TüCold","steam_id":76561198111278197,"connected_time":2696000000000,"state":"active","ping":55},{"user_id":144,"name":"Goofy Goober","steam_id":76561198128299594,"connected_time":6952000000000,"state":"active","ping":81},{"user_id":235,"name":"ENGINEERED BIO-WEAPON","steam_id":76561198162714624,"connected_time":174000000000,"state":"active","ping":86},{"user_id":232,"name":"Seriously Bruh","steam_id":76561198070408485,"connected_time":308000000000,"state":"active","ping":60},{"user_id":229,"name":"marlow","steam_id":76561198094408360,"connected_time":643000000000,"state":"active","ping":120},{"user_id":207,"name":"ReformedOrthodoxRabbiBillClinto","steam_id":76561198401455467,"connected_time":2057000000000,"state":"active","ping":76},{"user_id":208,"name":"yule goat","steam_id":76561198293617465,"connected_time":2007000000000,"state":"active","ping":126},{"user_id":233,"name":"Goldbug","steam_id":76561198025221202,"connected_time":286000000000,"state":"active","ping":134},{"user_id":179,"name":"Quantify45","steam_id":76561198044400135,"connected_time":4499000000000,"state":"active","ping":79},{"user_id":234,"name":"Armstrong The Giant","steam_id":76561198065068213,"connected_time":250000000000,"state":"active","ping":78},{"user_id":236,"name":"Bevan(The Manager)","steam_id":76561198073890273,"connected_time":129000000000,"state":"active","ping":59},{"user_id":212,"name":"Jacasola","steam_id":76561198055460402,"connected_time":1963000000000,"state":"active","ping":67},{"user_id":158,"name":"Lambchop","steam_id":76561198043900363,"connected_time":5878000000000,"state":"active","ping":79},{"user_id":101,"name":"OxOoxen841","steam_id":76561198297981993,"connected_time":10285000000000,"state":"active","ping":90},{"user_id":237,"name":"Poopkter Paughn","steam_id":76561198347394948,"connected_time":35000000000,"state":"active","ping":65},{"user_id":162,"name":"CheeseCake488","steam_id":76561199407617942,"connected_time":5744000000000,"state":"active","ping":115},{"user_id":223,"name":"River Rat","steam_id":76561198116383976,"connected_time":1061000000000,"state":"active","ping":62}]},{"server_id":17,"name":"Uncletopia | San Francisco | 1 | All Maps","name_short":"sfo-1","host":"sfo-1.us.uncletopia.com","port":27015,"enabled":true,"region":"us-west","cc":"us","latitude":37.77397,"longitude":-122.4313,"reserved":0,"last_update":"0001-01-01T00:00:00Z","name_a2s":"Uncletopia | San Francisco | 1 | All Maps","protocol":17,"map":"koth_highpass","folder":"tf","game":"Team Fortress","app_id":440,"player_count":0,"max_players":24,"Bots":0,"server_type":"Dedicated","server_os":"Linux","password":true,"vac":true,"version":"7708610","steam_id":85568392924469999,"keywords":["cp","nocrits","nodmgspread","uncletopia"],"game_id":440,"stv_port":27016,"stv_name":"Uncletopia | San Francisco | 1 | All Maps | STV","players":null},{"server_id":18,"name":"Uncletopia | San Francisco | 2 | All Maps","name_short":"sfo-2","host":"sfo-1.us.uncletopia.com","port":27025,"enabled":true,"region":"us-west","cc":"us","latitude":37.77397,"longitude":-122.4313,"reserved":0,"last_update":"0001-01-01T00:00:00Z","name_a2s":"Uncletopia | San Francisco | 2 | All Maps","protocol":17,"map":"pl_upward","folder":"tf","game":"Team Fortress","app_id":440,"player_count":8,"max_players":24,"Bots":0,"server_type":"Dedicated","server_os":"Linux","password":true,"vac":true,"version":"7708610","steam_id":85568392924470000,"keywords":["nocrits","nodmgspread","payload","uncletopia"],"game_id":440,"stv_port":27026,"stv_name":"Uncletopia | San Francisco | 2 | All Maps | STV","players":[{"user_id":6,"name":"stump","steam_id":76561198143450904,"connected_time":1447000000000,"state":"active","ping":74},{"user_id":7,"name":"Purple Crush mmm","steam_id":76561198256909502,"connected_time":1440000000000,"state":"active","ping":82},{"user_id":8,"name":"Shampoo","steam_id":76561198230195864,"connected_time":1396000000000,"state":"active","ping":76},{"user_id":9,"name":"oofypoo61","steam_id":76561199154891270,"connected_time":1157000000000,"state":"active","ping":75},{"user_id":10,"name":"grassman","steam_id":76561197972835907,"connected_time":732000000000,"state":"active","ping":62},{"user_id":12,"name":"Based Jvnko Fan","steam_id":76561198355290984,"connected_time":492000000000,"state":"active","ping":74},{"user_id":13,"name":"zinnk","steam_id":76561198092081825,"connected_time":407000000000,"state":"active","ping":60},{"user_id":14,"name":"ZazzItUp","steam_id":76561198035550781,"connected_time":202000000000,"state":"connecting","ping":0}]},{"server_id":19,"name":"Uncletopia | San Francisco | 3 | No Payload","name_short":"sfo-3","host":"sfo-1.us.uncletopia.com","port":27035,"enabled":true,"region":"us-west","cc":"us","latitude":37.77397,"longitude":-122.4313,"reserved":0,"last_update":"0001-01-01T00:00:00Z","name_a2s":"Uncletopia | San Francisco | 3 | No Payload","protocol":17,"map":"koth_lazarus","folder":"tf","game":"Team Fortress","app_id":440,"player_count":0,"max_players":24,"Bots":0,"server_type":"Dedicated","server_os":"Linux","password":true,"vac":true,"version":"7708610","steam_id":85568392924742824,"keywords":["cp","nocrits","nodmgspread","uncletopia"],"game_id":440,"stv_port":27036,"stv_name":"Uncletopia | San Francisco | 3 | No Payload | STV","players":null},{"server_id":20,"name":"Uncletopia | San Francisco | 4 | Community","name_short":"sfo-4","host":"sfo-1.us.uncletopia.com","port":27045,"enabled":true,"region":"us-west","cc":"us","latitude":37.77397,"longitude":-122.4313,"reserved":0,"last_update":"0001-01-01T00:00:00Z","name_a2s":"Uncletopia | San Francisco | 4 | Community","protocol":17,"map":"workshop/koth_slaughter_rc1.ugc1712845210","folder":"tf","game":"Team Fortress","app_id":440,"player_count":0,"max_players":24,"Bots":0,"server_type":"Dedicated","server_os":"Linux","password":true,"vac":true,"version":"7708610","steam_id":85568392924742826,"keywords":["cp","nocrits","nodmgspread","uncletopia"],"game_id":440,"stv_port":27046,"stv_name":"Uncletopia | San Francisco | 4 | Community | STV","players":null},{"server_id":141,"name":"Uncletopia | Sydney | 1 | All Maps","name_short":"syd-1","host":"syd-1.au.uncletopia.com","port":27015,"enabled":true,"region":"au","cc":"au","latitude":-33.865143,"longitude":151.2099,"reserved":0,"last_update":"0001-01-01T00:00:00Z","name_a2s":"Uncletopia | Sydney | 1 | All Maps","protocol":17,"map":"pl_pier","folder":"tf","game":"Team Fortress","app_id":440,"player_count":22,"max_players":24,"Bots":0,"server_type":"Dedicated","server_os":"Linux","password":true,"vac":true,"version":"7708610","steam_id":85568392924470001,"keywords":["nocrits","nodmgspread","payload","uncletopia"],"game_id":440,"stv_port":27016,"stv_name":"Uncletopia | Sydney | 1 | All Maps | STV","players":[{"user_id":261,"name":"CurryEnthusiast69","steam_id":76561198001960707,"connected_time":544000000000,"state":"active","ping":50},{"user_id":260,"name":"f2p","steam_id":76561198288113974,"connected_time":585000000000,"state":"active","ping":52},{"user_id":249,"name":"blackmanblack","steam_id":76561198309279405,"connected_time":1416000000000,"state":"active","ping":46},{"user_id":235,"name":"MineSweeper2048","steam_id":76561198338746543,"connected_time":2736000000000,"state":"active","ping":57},{"user_id":245,"name":"bigdaddykane","steam_id":76561198867224434,"connected_time":1942000000000,"state":"active","ping":43},{"user_id":262,"name":"Ashes","steam_id":76561198105820742,"connected_time":389000000000,"state":"active","ping":63},{"user_id":259,"name":"-pandora","steam_id":76561198108851796,"connected_time":692000000000,"state":"active","ping":54},{"user_id":266,"name":"El Chupacabra","steam_id":76561198070641651,"connected_time":126000000000,"state":"active","ping":51},{"user_id":256,"name":"Egg","steam_id":76561198191266994,"connected_time":814000000000,"state":"active","ping":180},{"user_id":237,"name":"herb of war","steam_id":76561198836003115,"connected_time":2597000000000,"state":"active","ping":62},{"user_id":265,"name":"Chops","steam_id":76561198071178936,"connected_time":186000000000,"state":"active","ping":96},{"user_id":230,"name":"The Generic Terrorist","steam_id":76561199257116847,"connected_time":3215000000000,"state":"active","ping":62},{"user_id":254,"name":"Jonkles","steam_id":76561197988782005,"connected_time":831000000000,"state":"active","ping":48},{"user_id":156,"name":"The_Green_Jelly","steam_id":76561198381061704,"connected_time":7899000000000,"state":"active","ping":89},{"user_id":247,"name":"Ninja||Crow","steam_id":76561198002073084,"connected_time":1598000000000,"state":"active","ping":29},{"user_id":172,"name":"Flak","steam_id":76561198205833232,"connected_time":6684000000000,"state":"active","ping":46},{"user_id":206,"name":"J959","steam_id":76561198855585931,"connected_time":4804000000000,"state":"active","ping":59},{"user_id":252,"name":"Huski","steam_id":76561198108956967,"connected_time":1091000000000,"state":"active","ping":66},{"user_id":268,"name":"Dingo","steam_id":76561198315774295,"connected_time":91000000000,"state":"active","ping":63},{"user_id":253,"name":"Zeron","steam_id":76561198125778202,"connected_time":1060000000000,"state":"active","ping":45},{"user_id":250,"name":"merkier","steam_id":76561198006943216,"connected_time":1236000000000,"state":"active","ping":70},{"user_id":251,"name":"enemy gamer","steam_id":76561198127848228,"connected_time":1229000000000,"state":"active","ping":62}]},{"server_id":123,"name":"Uncletopia | Sydney | 2 | All Maps","name_short":"syd-2","host":"syd-1.au.uncletopia.com","port":27025,"enabled":true,"region":"au","cc":"au","latitude":-33.865143,"longitude":151.2099,"reserved":0,"last_update":"0001-01-01T00:00:00Z","name_a2s":"Uncletopia | Sydney | 2 | All Maps","protocol":17,"map":"pl_frontier_final","folder":"tf","game":"Team Fortress","app_id":440,"player_count":0,"max_players":24,"Bots":0,"server_type":"Dedicated","server_os":"Linux","password":true,"vac":true,"version":"7708610","steam_id":85568392924470002,"keywords":["nocrits","nodmgspread","payload","uncletopia"],"game_id":440,"stv_port":27026,"stv_name":"Uncletopia | Sydney | 2 | All Maps | STV","players":null},{"server_id":395,"name":"Uncletopia | Sydney | 3 | All Maps","name_short":"syd-3","host":"syd-1.au.uncletopia.com","port":27035,"enabled":true,"region":"au","cc":"au","latitude":-33.865143,"longitude":151.2099,"reserved":0,"last_update":"0001-01-01T00:00:00Z","name_a2s":"Uncletopia | Sydney | 3 | All Maps","protocol":17,"map":"koth_viaduct","folder":"tf","game":"Team Fortress","app_id":440,"player_count":3,"max_players":24,"Bots":0,"server_type":"Dedicated","server_os":"Linux","password":true,"vac":true,"version":"7708610","steam_id":85568392925194467,"keywords":["cp","nocrits","nodmgspread","uncletopia"],"game_id":440,"stv_port":27036,"stv_name":"Uncletopia | Sydney | 3 | All Maps | STV","players":[{"user_id":10,"name":"Boogeymansbutt","steam_id":76561198992966625,"connected_time":2096000000000,"state":"active","ping":48},{"user_id":11,"name":"seizurekid69","steam_id":76561199189995074,"connected_time":1962000000000,"state":"active","ping":55},{"user_id":12,"name":"The Goon","steam_id":76561198967034272,"connected_time":189000000000,"state":"active","ping":61}]},{"server_id":396,"name":"Uncletopia | Sydney | 4 | All Maps","name_short":"syd-4","host":"syd-1.au.uncletopia.com","port":27045,"enabled":true,"region":"au","cc":"au","latitude":-33.865143,"longitude":151.2099,"reserved":0,"last_update":"0001-01-01T00:00:00Z","name_a2s":"Uncletopia | Sydney | 4 | All Maps","protocol":17,"map":"pl_frontier_final","folder":"tf","game":"Team Fortress","app_id":440,"player_count":0,"max_players":24,"Bots":0,"server_type":"Dedicated","server_os":"Linux","password":true,"vac":true,"version":"7708610","steam_id":85568392925397958,"keywords":["nocrits","nodmgspread","payload","uncletopia"],"game_id":440,"stv_port":27046,"stv_name":"Uncletopia | Sydney | 4 | All Maps | STV","players":null},{"server_id":58,"name":"Uncletopia | Sydney | 5 | No Payload","name_short":"syd-5","host":"syd-1.au.uncletopia.com","port":27055,"enabled":true,"region":"au","cc":"au","latitude":-33.865143,"longitude":151.2099,"reserved":0,"last_update":"0001-01-01T00:00:00Z","name_a2s":"Uncletopia | Sydney | 5 | No Payload","protocol":17,"map":"pl_pier","folder":"tf","game":"Team Fortress","app_id":440,"player_count":0,"max_players":24,"Bots":0,"server_type":"Dedicated","server_os":"Linux","password":true,"vac":true,"version":"7708610","steam_id":85568392925397959,"keywords":["nocrits","nodmgspread","payload","uncletopia"],"game_id":440,"stv_port":27056,"stv_name":"Uncletopia | Sydney | 5 | No Payload | STV","players":null},{"server_id":59,"name":"Uncletopia | Sydney | 6 | Community","name_short":"syd-6","host":"syd-1.au.uncletopia.com","port":27065,"enabled":true,"region":"au","cc":"au","latitude":-33.865143,"longitude":151.2099,"reserved":0,"last_update":"0001-01-01T00:00:00Z","name_a2s":"Uncletopia | Sydney | 6 | Community","protocol":17,"map":"workshop/pl_barnblitz_pro7.ugc582280235","folder":"tf","game":"Team Fortress","app_id":440,"player_count":0,"max_players":24,"Bots":0,"server_type":"Dedicated","server_os":"Linux","password":true,"vac":true,"version":"7708610","steam_id":85568392925397960,"keywords":["nocrits","nodmgspread","payload","uncletopia"],"game_id":440,"stv_port":27066,"stv_name":"Uncletopia | Sydney | 6 | Community | STV","players":null},{"server_id":49,"name":"Uncletopia | Warsaw | 1 | All Maps","name_short":"waw-1","host":"waw-1.pl.uncletopia.com","port":27015,"enabled":true,"region":"eu","cc":"pl","latitude":52.2297,"longitude":21.017532,"reserved":0,"last_update":"0001-01-01T00:00:00Z","name_a2s":"Uncletopia | Warsaw | 1 | All Maps","protocol":17,"map":"pl_upward","folder":"tf","game":"Team Fortress","app_id":440,"player_count":0,"max_players":24,"Bots":0,"server_type":"Dedicated","server_os":"Linux","password":true,"vac":true,"version":"7708610","steam_id":85568392925397850,"keywords":["nocrits","nodmgspread","payload","uncletopia"],"game_id":440,"stv_port":27016,"stv_name":"Uncletopia | Warsaw | 1 | All Maps | STV","players":null},{"server_id":50,"name":"Uncletopia | Warsaw | 2 | All Maps","name_short":"waw-2","host":"waw-1.pl.uncletopia.com","port":27025,"enabled":true,"region":"eu","cc":"pl","latitude":52.2297,"longitude":21.017532,"reserved":0,"last_update":"0001-01-01T00:00:00Z","name_a2s":"Uncletopia | Warsaw | 2 | All Maps","protocol":17,"map":"koth_highpass","folder":"tf","game":"Team Fortress","app_id":440,"player_count":0,"max_players":24,"Bots":0,"server_type":"Dedicated","server_os":"Linux","password":true,"vac":true,"version":"7708610","steam_id":85568392925397851,"keywords":["cp","nocrits","nodmgspread","uncletopia"],"game_id":440,"stv_port":27026,"stv_name":"Uncletopia | Warsaw | 2 | All Maps | STV","players":null},{"server_id":51,"name":"Uncletopia | Warsaw | 3 | All Maps","name_short":"waw-3","host":"waw-1.pl.uncletopia.com","port":27035,"enabled":true,"region":"eu","cc":"pl","latitude":52.2297,"longitude":21.017532,"reserved":0,"last_update":"0001-01-01T00:00:00Z","name_a2s":"Uncletopia | Warsaw | 3 | All Maps","protocol":17,"map":"cp_yukon_final","folder":"tf","game":"Team Fortress","app_id":440,"player_count":0,"max_players":24,"Bots":0,"server_type":"Dedicated","server_os":"Linux","password":true,"vac":true,"version":"7708610","steam_id":85568392925397852,"keywords":["cp","nocrits","nodmgspread","uncletopia"],"game_id":440,"stv_port":27036,"stv_name":"Uncletopia | Warsaw | 3 | All Maps | STV","players":null},{"server_id":52,"name":"Uncletopia | Warsaw | 4 | All Maps","name_short":"waw-4","host":"waw-1.pl.uncletopia.com","port":27045,"enabled":true,"region":"eu","cc":"pl","latitude":52.2297,"longitude":21.017532,"reserved":0,"last_update":"0001-01-01T00:00:00Z","name_a2s":"Uncletopia | Warsaw | 4 | All Maps","protocol":17,"map":"pl_pier","folder":"tf","game":"Team Fortress","app_id":440,"player_count":0,"max_players":24,"Bots":0,"server_type":"Dedicated","server_os":"Linux","password":true,"vac":true,"version":"7708610","steam_id":85568392925397853,"keywords":["nocrits","nodmgspread","payload","uncletopia"],"game_id":440,"stv_port":27046,"stv_name":"Uncletopia | Warsaw | 4 | All Maps | STV","players":null},{"server_id":53,"name":"Uncletopia | Warsaw | 5 | No Payload","name_short":"waw-5","host":"waw-1.pl.uncletopia.com","port":27055,"enabled":true,"region":"eu","cc":"pl","latitude":52.2297,"longitude":21.017532,"reserved":0,"last_update":"0001-01-01T00:00:00Z","name_a2s":"Uncletopia | Warsaw | 5 | No Payload","protocol":17,"map":"pl_borneo","folder":"tf","game":"Team Fortress","app_id":440,"player_count":0,"max_players":24,"Bots":0,"server_type":"Dedicated","server_os":"Linux","password":true,"vac":true,"version":"7708610","steam_id":85568392925397854,"keywords":["nocrits","nodmgspread","payload","uncletopia"],"game_id":440,"stv_port":27056,"stv_name":"Uncletopia | Warsaw | 5 | No Payload | STV","players":null},{"server_id":54,"name":"Uncletopia | Warsaw | 6 | Community","name_short":"waw-6","host":"waw-1.pl.uncletopia.com","port":27065,"enabled":true,"region":"eu","cc":"pl","latitude":52.2297,"longitude":21.017532,"reserved":0,"last_update":"0001-01-01T00:00:00Z","name_a2s":"Uncletopia | Warsaw | 6 | Community","protocol":17,"map":"workshop/pl_barnblitz_pro7.ugc582280235","folder":"tf","game":"Team Fortress","app_id":440,"player_count":0,"max_players":24,"Bots":0,"server_type":"Dedicated","server_os":"Linux","password":true,"vac":true,"version":"7708610","steam_id":85568392925397856,"keywords":["nocrits","nodmgspread","payload","uncletopia"],"game_id":440,"stv_port":27066,"stv_name":"Uncletopia | Warsaw | 6 | Community | STV","players":null}]}