{"status":true,"message":"","result":[{"server_id":9,"name":"Uncletopia | Atlanta | 1 | All Maps","name_short":"atl-1","host":"atl-1.us.uncletopia.com","port":27015,"enabled":true,"region":"us-east","cc":"us","latitude":33.753746,"longitude":-84.38633,"reserved":0,"last_update":"0001-01-01T00:00:00Z","name_a2s":"Uncletopia | Atlanta | 1 | All Maps","protocol":17,"map":"pl_frontier_final","folder":"tf","game":"Team Fortress","app_id":440,"player_count":24,"max_players":24,"Bots":0,"server_type":"Dedicated","server_os":"Linux","password":true,"vac":true,"version":"7961495","steam_id":85568392924469982,"keywords":["nocrits","nodmgspread","payload","uncletopia"],"game_id":440,"stv_port":27016,"stv_name":"Uncletopia | Atlanta | 1 | All Maps | STV","players":null},{"server_id":104,"name":"Uncletopia | Atlanta | 2 | All Maps","name_short":"atl-2","host":"atl-1.us.uncletopia.com","port":27025,"enabled":true,"region":"us-east","cc":"us","latitude":33.753746,"longitude":-84.38633,"reserved":0,"last_update":"0001-01-01T00:00:00Z","name_a2s":"Uncletopia | Atlanta | 2 | All Maps","protocol":17,"map":"pl_upward","folder":"tf","game":"Team Fortress","app_id":440,"player_count":24,"max_players":24,"Bots":0,"server_type":"Dedicated","server_os":"Linux","password":true,"vac":true,"version":"7961495","steam_id":85568392924469983,"keywords":["nocrits","nodmgspread","payload","uncletopia"],"game_id":440,"stv_port":27026,"stv_name":"Uncletopia | Atlanta | 2 | All Maps | STV","players":null},{"server_id":400,"name":"Uncletopia | Atlanta | 3 | Stopwatch","name_short":"atl-3","host":"atl-1.us.uncletopia.com","port":27035,"enabled":true,"region":"us-east","cc":"us","latitude":33.753746,"longitude":-84.38633,"reserved":0,"last_update":"0001-01-01T00:00:00Z","name_a2s":"Uncletopia | Atlanta | 3 | Stopwatch","protocol":17,"map":"pl_barnblitz_pro7","folder":"tf","game":"Team Fortress","app_id":440,"player_count":12,"max_players":24,"Bots":0,"server_type":"Dedicated","server_os":"Linux","password":true,"vac":true,"version":"7961495","steam_id":85568392924515187,"keywords":["nocrits","nodmgspread","payload","uncletopia"],"game_id":440,"stv_port":27036,"stv_name":"Uncletopia | Atlanta | 3 | Stopwatch | STV","players":null},{"server_id":401,"name":"Uncletopia | Atlanta | 4 | Community","name_short":"atl-4","host":"atl-1.us.uncletopia.com","port":27045,"enabled":true,"region":"us-east","cc":"us","latitude":33.753746,"longitude":-84.38633,"reserved":0,"last_update":"0001-01-01T00:00:00Z","name_a2s":"Uncletopia | Atlanta | 4 | Community","protocol":17,"map":"koth_kemptown_rc1","folder":"tf","game":"Team Fortress","app_id":440,"player_count":0,"max_players":24,"Bots":0,"server_type":"Dedicated","server_os":"Linux","password":true,"vac":true,"version":"7961495","steam_id":85568392924515188,"keywords":["cp","nocrits","nodmgspread","uncletopia"],"game_id":440,"stv_port":27046,"stv_name":"Uncletopia | Atlanta | 4 | Community | STV","players":null},{"server_id":2,"name":"Uncletopia | Chicago | 1 | All Maps","name_short":"chi-1","host":"chi-1.us.uncletopia.com","port":27015,"enabled":true,"region":"us-central","cc":"us","latitude":41.881832,"longitude":-87.62318,"reserved":0,"last_update":"0001-01-01T00:00:00Z","name_a2s":"Uncletopia | Chicago | 1 | All Maps","protocol":17,"map":"pl_frontier_final","folder":"tf","game":"Team Fortress","app_id":440,"player_count":24,"max_players":24,"Bots":0,"server_type":"Dedicated","server_os":"Linux","password":true,"vac":true,"version":"7961495","steam_id":85568392924469984,"keywords":["nocrits","nodmgspread","payload","uncletopia"],"game_id":440,"stv_port":27016,"stv_name":"Uncletopia | Chicago | 1 | All Maps | STV","players":[{"user_id":668,"name":"Swash","steam_id":76561197969421355,"connected_time":1451000000000,"state":"active","ping":46},{"user_id":669,"name":"I shovel mayonnaise in mouth","steam_id":76561199123118241,"connected_time":1442000000000,"state":"active","ping":104},{"user_id":677,"name":"Let Œµ \u003e 0","steam_id":76561198111790388,"connected_time":308000000000,"state":"active","ping":90},{"user_id":658,"name":"Xyverle","steam_id":76561198799726415,"connected_time":1799000000000,"state":"active","ping":58},{"user_id":601,"name":"fish fight me‚óè","steam_id":76561198999217575,"connected_time":7502000000000,"state":"active","ping":65},{"user_id":673,"name":"Bread","steam_id":76561198251896612,"connected_time":698000000000,"state":"active","ping":45},{"user_id":684,"name":"TheOneZoot","steam_id":76561198121944243,"connected_time":42000000000,"state":"active","ping":81},{"user_id":656,"name":"Comradical","steam_id":76561197990808285,"connected_time":1835000000000,"state":"active","ping":71},{"user_id":676,"name":"H C N","steam_id":76561198106290021,"connected_time":389000000000,"state":"active","ping":74},{"user_id":642,"name":"l3fty","steam_id":76561198057788958,"connected_time":3364000000000,"state":"active","ping":78},{"user_id":660,"name":"MedRed‚Ñ¢ #IATAH","steam_id":76561198002962970,"connected_time":1781000000000,"state":"active","ping":92},{"user_id":648,"name":"bog","steam_id":76561198070975491,"connected_time":2928000000000,"state":"active","ping":75},{"user_id":652,"name":"Roflcawptur","steam_id":76561198042913763,"connected_time":2621000000000,"state":"active","ping":72},{"user_id":678,"name":"The local hobo","steam_id":76561198289650060,"connected_time":267000000000,"state":"active","ping":80},{"user_id":655,"name":"Method Mon Mothma","steam_id":76561197976110189,"connected_time":1920000000000,"state":"active","ping":60},{"user_id":649,"name":"loser","steam_id":76561198259380127,"connected_time":2885000000000,"state":"active","ping":60},{"user_id":628,"name":"Spy Gaming","steam_id":76561198453295613,"connected_time":4692000000000,"state":"active","ping":111},{"user_id":679,"name":"HanakoToast","steam_id":76561198045233131,"connected_time":256000000000,"state":"active","ping":103},{"user_id":675,"name":"Space","steam_id":76561198350489754,"connected_time":393000000000,"state":"active","ping":44},{"user_id":683,"name":"Friznog","steam_id":76561198064302940,"connected_time":69000000000,"state":"active","ping":62},{"user_id":670,"name":"Der Krieger105","steam_id":76561197978384609,"connected_time":1109000000000,"state":"active","ping":85},{"user_id":682,"name":"The_RainbowTrout","steam_id":76561199309554436,"connected_time":212000000000,"state":"active","ping":95},{"user_id":651,"name":"SWISS!","steam_id":76561198271971252,"connected_time":2818000000000,"state":"active","ping":75},{"user_id":626,"name":"King's Disease","steam_id":76561198076639682,"connected_time":4853000000000,"state":"active","ping":74}]},{"server_id":106,"name":"Uncletopia | Chicago | 2 | All Maps","name_short":"chi-2","host":"chi-1.us.uncletopia.com","port":27025,"enabled":true,"region":"us-central","cc":"us","latitude":41.881832,"longitude":-87.62318,"reserved":0,"last_update":"0001-01-01T00:00:00Z","name_a2s":"Uncletopia | Chicago | 2 | All Maps","protocol":17,"map":"koth_harvest_final","folder":"tf","game":"Team Fortress","app_id":440,"player_count":24,"max_players":24,"Bots":0,"server_type":"Dedicated","server_os":"Linux","password":true,"vac":true,"version":"7961495","steam_id":85568392924469985,"keywords":["cp","nocrits","nodmgspread","uncletopia"],"game_id":440,"stv_port":27026,"stv_name":"Uncletopia | Chicago | 2 | All Maps | STV","players":[{"user_id":635,"name":"doku","steam_id":76561199186072324,"connected_time":195000000000,"state":"active","ping":56},{"user_id":602,"name":"my kneecap cartilage is eroding","steam_id":76561198012126625,"connected_time":2299000000000,"state":"active","ping":73},{"user_id":598,"name":"shnowshner","steam_id":76561198066450438,"connected_time":2448000000000,"state":"active","ping":86},{"user_id":634,"name":"Plasmie{ylo}","steam_id":76561198083513154,"connected_time":204000000000,"state":"active","ping":70},{"user_id":636,"name":"0","steam_id":76561198046065237,"connected_time":190000000000,"state":"active","ping":74},{"user_id":616,"name":"Lamp","steam_id":76561199013593695,"connected_time":1953000000000,"state":"active","ping":58},{"user_id":627,"name":"maaagnetic","steam_id":76561198298928311,"connected_time":873000000000,"state":"active","ping":76},{"user_id":606,"name":"Shorty","steam_id":76561198044873248,"connected_time":2154000000000,"state":"active","ping":51},{"user_id":638,"name":"MayKaye","steam_id":76561199016092265,"connected_time":159000000000,"state":"active","ping":98},{"user_id":603,"name":"spooby","steam_id":76561198168114366,"connected_time":2277000000000,"state":"active","ping":53},{"user_id":637,"name":"Mr. Cakes","steam_id":76561198007400043,"connected_time":162000000000,"state":"active","ping":44},{"user_id":576,"name":"bobbymcbobington","steam_id":76561199089411172,"connected_time":3860000000000,"state":"active","ping":120},{"user_id":608,"name":"grayMercutia","steam_id":76561198126438018,"connected_time":2069000000000,"state":"active","ping":59},{"user_id":513,"name":"Dr_Cecil","steam_id":76561198873862113,"connected_time":6798000000000,"state":"active","ping":99},{"user_id":629,"name":"cryptelda","steam_id":76561198360961182,"connected_time":702000000000,"state":"active","ping":78},{"user_id":630,"name":"Magma","steam_id":76561198108261173,"connected_time":677000000000,"state":"active","ping":46},{"user_id":628,"name":"Ayylmao","steam_id":76561198104780147,"connected_time":779000000000,"state":"active","ping":45},{"user_id":546,"name":"Six Piece Chicken McNobody","steam_id":76561198129848222,"connected_time":4946000000000,"state":"active","ping":68},{"user_id":617,"name":"skaska4","steam_id":76561198080606141,"connected_time":1887000000000,"state":"active","ping":69},{"user_id":633,"name":"bbb","steam_id":76561198091328388,"connected_time":547000000000,"state":"active","ping":52},{"user_id":632,"name":"Ovat","steam_id":76561198009371525,"connected_time":663000000000,"state":"active","ping":60},{"user_id":581,"name":"Goose","steam_id":76561198245716618,"connected_time":3811000000000,"state":"active","ping":86},{"user_id":625,"name":"booper_101","steam_id":76561198003712162,"connected_time":1544000000000,"state":"active","ping":70},{"user_id":639,"name":"dirk's dirty dingleberry dining","steam_id":76561197972601902,"connected_time":133000000000,"state":"active","ping":86}]},{"server_id":402,"name":"Uncletopia | Chicago | 3 | All Maps","name_short":"chi-3","host":"chi-1.us.uncletopia.com","port":27035,"enabled":true,"region":"us-central","cc":"us","latitude":41.881832,"longitude":-87.62318,"reserved":0,"last_update":"0001-01-01T00:00:00Z","name_a2s":"Uncletopia | Chicago | 3 | All Maps","protocol":17,"map":"pl_borneo","folder":"tf","game":"Team Fortress","app_id":440,"player_count":24,"max_players":24,"Bots":0,"server_type":"Dedicated","server_os":"Linux","password":true,"vac":true,"version":"7961495","steam_id":85568392924515191,"keywords":["nocrits","nodmgspread","payload","uncletopia"],"game_id":440,"stv_port":27036,"stv_name":"Uncletopia | Chicago | 3 | All Maps | STV","players":[{"user_id":362,"name":"Kamin","steam_id":76561198255299559,"connected_time":98000000000,"state":"active","ping":85},{"user_id":333,"name":"PackingPeanutt :]","steam_id":76561199053229413,"connected_time":2027000000000,"state":"active","ping":89},{"user_id":302,"name":"Jesse","steam_id":76561198157305426,"connected_time":4514000000000,"state":"active","ping":61},{"user_id":339,"name":"J21","steam_id":76561198066590783,"connected_time":1394000000000,"state":"active","ping":75},{"user_id":359,"name":"Sergeant Joker #savetf2","steam_id":76561198854616604,"connected_time":271000000000,"state":"active","ping":68},{"user_id":364,"name":"my friend can take 5guys anyday","steam_id":76561198144766439,"connected_time":72000000000,"state":"active","ping":45},{"user_id":307,"name":"banana bay enthusiast","steam_id":76561198124791670,"connected_time":4393000000000,"state":"active","ping":55},{"user_id":356,"name":"butchersnake","steam_id":76561198162618469,"connected_time":414000000000,"state":"active","ping":57},{"user_id":269,"name":"Wiggee","steam_id":76561197972792989,"connected_time":5901000000000,"state":"active","ping":67},{"user_id":341,"name":"Bag","steam_id":76561198152890989,"connected_time":1365000000000,"state":"active","ping":150},{"user_id":352,"name":"LikeASir","steam_id":76561198042209721,"connected_time":851000000000,"state":"active","ping":50},{"user_id":355,"name":"cold","steam_id":76561198027963611,"connected_time":616000000000,"state":"active","ping":80},{"user_id":313,"name":"Phos","steam_id":76561198122339506,"connected_time":3728000000000,"state":"active","ping":73},{"user_id":305,"name":"Dick Grimes","steam_id":76561198157414556,"connected_time":4443000000000,"state":"active","ping":78},{"user_id":363,"name":"glorilla better","steam_id":76561198136642793,"connected_time":97000000000,"state":"active","ping":77},{"user_id":336,"name":"GoofyAhGamingGuy","steam_id":76561199331315881,"connected_time":1582000000000,"state":"active","ping":74},{"user_id":365,"name":"chuck","steam_id":76561198102300433,"connected_time":66000000000,"state":"active","ping":75},{"user_id":367,"name":"Sunshine On Me","steam_id":76561198042570322,"connected_time":24000000000,"state":"active","ping":58},{"user_id":357,"name":"iluvtopoo","steam_id":76561198843522498,"connected_time":387000000000,"state":"active","ping":104},{"user_id":368,"name":"Ben_","steam_id":76561198101334984,"connected_time":20000000000,"state":"active","ping":225},{"user_id":354,"name":"CowardicePrevails","steam_id":76561198145199545,"connected_time":841000000000,"state":"active","ping":75},{"user_id":304,"name":"Walt","steam_id":76561198964107245,"connected_time":4483000000000,"state":"active","ping":93},{"user_id":369,"name":"Makina","steam_id":76561198057475567,"connected_time":20000000000,"state":"active","ping":71},{"user_id":370,"name":"Pizza","steam_id":76561198118748364,"connected_time":20000000000,"state":"active","ping":78}]},{"server_id":403,"name":"Uncletopia | Chicago | 4 | All Maps","name_short":"chi-4","host":"chi-1.us.uncletopia.com","port":27045,"enabled":true,"region":"us-central","cc":"us","latitude":41.881832,"longitude":-87.62318,"reserved":0,"last_update":"0001-01-01T00:00:00Z","name_a2s":"Uncletopia | Chicago | 4 | All Maps","protocol":17,"map":"pl_pier","folder":"tf","game":"Team Fortress","app_id":440,"player_count":23,"max_players":24,"Bots":0,"server_type":"Dedicated","server_os":"Linux","password":true,"vac":true,"version":"7961495","steam_id":85568392924515193,"keywords":["nocrits","nodmgspread","payload","uncletopia"],"game_id":440,"stv_port":27046,"stv_name":"Uncletopia | Chicago | 4 | All Maps | STV","players":[{"user_id":564,"name":"lordisofjhoalt","steam_id":76561199074154165,"connected_time":251000000000,"state":"active","ping":72},{"user_id":511,"name":"K_ylo","steam_id":76561198401421253,"connected_time":3820000000000,"state":"active","ping":86},{"user_id":557,"name":"Anxious Nerd Bird","steam_id":76561198112178602,"connected_time":404000000000,"state":"active","ping":109},{"user_id":565,"name":"jebs strognest soljer","steam_id":76561198056622157,"connected_time":213000000000,"state":"active","ping":72},{"user_id":508,"name":"GreekGoat_Coffee","steam_id":76561198129331088,"connected_time":4374000000000,"state":"active","ping":45},{"user_id":528,"name":"2L84U","steam_id":76561198079176017,"connected_time":3099000000000,"state":"active","ping":88},{"user_id":468,"name":"Hello World","steam_id":76561199093925982,"connected_time":8042000000000,"state":"active","ping":97},{"user_id":554,"name":"Ridley","steam_id":76561198002145507,"connected_time":1070000000000,"state":"active","ping":91},{"user_id":543,"name":"sex enjoyer","steam_id":76561198106320012,"connected_time":2062000000000,"state":"active","ping":90},{"user_id":552,"name":"Firehound","steam_id":76561198005512706,"connected_time":1120000000000,"state":"active","ping":58},{"user_id":512,"name":"cdn :3","steam_id":76561198862735659,"connected_time":3696000000000,"state":"active","ping":64},{"user_id":536,"name":"‚ô¶‚ô£Quadric‚ô•‚ô†","steam_id":76561198061003853,"connected_time":2812000000000,"state":"active","ping":72},{"user_id":553,"name":"The_Legend","steam_id":76561198894535386,"connected_time":1116000000000,"state":"active","ping":71},{"user_id":555,"name":"misterspud","steam_id":76561198195306218,"connected_time":1033000000000,"state":"active","ping":48},{"user_id":541,"name":"boffo","steam_id":76561198096978718,"connected_time":2431000000000,"state":"active","ping":86},{"user_id":542,"name":"Yarman53","steam_id":76561198099889202,"connected_time":2412000000000,"state":"active","ping":45},{"user_id":547,"name":"ZBaldTop","steam_id":76561199396318132,"connected_time":1664000000000,"state":"active","ping":44},{"user_id":558,"name":"Stapler","steam_id":76561198099295077,"connected_time":383000000000,"state":"active","ping":97},{"user_id":566,"name":"Every Villain Is Lemons","steam_id":76561198069909083,"connected_time":212000000000,"state":"active","ping":85},{"user_id":537,"name":"girlbosspriella","steam_id":76561199025846154,"connected_time":2522000000000,"state":"active","ping":70},{"user_id":522,"name":"kul√≥t","steam_id":76561198181904809,"connected_time":3329000000000,"state":"active","ping":63},{"user_id":550,"name":"Shaunt","steam_id":76561198171551057,"connected_time":1577000000000,"state":"active","ping":54},{"user_id":561,"name":"Desh","steam_id":76561198276017711,"connected_time":351000000000,"state":"active","ping":64}]},{"server_id":36,"name":"Uncletopia | Chicago | 5 | All Maps","name_short":"chi-5","host":"chi-2.us.uncletopia.com","port":27015,"enabled":true,"region":"us-central","cc":"us","latitude":41.881832,"longitude":-87.62318,"reserved":0,"last_update":"0001-01-01T00:00:00Z","name_a2s":"Uncletopia | Chicago | 5 | All Maps","protocol":17,"map":"cp_dustbowl","folder":"tf","game":"Team Fortress","app_id":440,"player_count":24,"max_players":24,"Bots":0,"server_type":"Dedicated","server_os":"Linux","password":true,"vac":true,"version":"7961495","steam_id":85568392924866362,"keywords":["cp","nocrits","nodmgspread","uncletopia"],"game_id":440,"stv_port":27016,"stv_name":"Uncletopia | Chicago | 5 | All Maps | STV","players":[{"user_id":480,"name":"‚ù§ ‚ô° uwu ‚ô° ‚ù§","steam_id":76561198108200735,"connected_time":679000000000,"state":"active","ping":46},{"user_id":484,"name":"plutonium isotope","steam_id":76561198319442494,"connected_time":399000000000,"state":"active","ping":106},{"user_id":435,"name":"Squeeky Clean","steam_id":76561198231132788,"connected_time":3145000000000,"state":"active","ping":119},{"user_id":471,"name":"A Glade Plugin","steam_id":76561198106850687,"connected_time":912000000000,"state":"active","ping":65},{"user_id":472,"name":"Deantallica","steam_id":76561198287223999,"connected_time":906000000000,"state":"active","ping":77},{"user_id":423,"name":"I am the pinnacle of funny","steam_id":76561198306393090,"connected_time":3720000000000,"state":"active","ping":45},{"user_id":486,"name":"Space‚≠êTaffy","steam_id":76561198002271720,"connected_time":262000000000,"state":"active","ping":71},{"user_id":449,"name":"Michaelpc1","steam_id":76561198088365519,"connected_time":2523000000000,"state":"active","ping":75},{"user_id":453,"name":"mudspaw","steam_id":76561198101327448,"connected_time":2247000000000,"state":"active","ping":69},{"user_id":463,"name":"Joculatrix","steam_id":76561198012795457,"connected_time":1579000000000,"state":"active","ping":62},{"user_id":457,"name":"Alfonso Molestro","steam_id":76561197998677099,"connected_time":2105000000000,"state":"active","ping":78},{"user_id":473,"name":"{Malik} Lightnin œü Phoenix‚Ñ¢","steam_id":76561198042509328,"connected_time":899000000000,"state":"active","ping":89},{"user_id":474,"name":"CynForSin","steam_id":76561198094739849,"connected_time":849000000000,"state":"active","ping":71},{"user_id":475,"name":"Hobostoon","steam_id":76561198263362532,"connected_time":817000000000,"state":"active","ping":90},{"user_id":476,"name":"james may","steam_id":76561198043857339,"connected_time":774000000000,"state":"active","ping":106},{"user_id":482,"name":"Greyasauraus","steam_id":76561198144717930,"connected_time":671000000000,"state":"active","ping":85},{"user_id":439,"name":"Broken prototype","steam_id":76561198113608004,"connected_time":2928000000000,"state":"active","ping":56},{"user_id":434,"name":"Greymalkin","steam_id":76561198082604618,"connected_time":3196000000000,"state":"active","ping":58},{"user_id":483,"name":"Dr. Mantis Tobaggan, M.D.","steam_id":76561198028550499,"connected_time":586000000000,"state":"active","ping":77},{"user_id":477,"name":"crulorys","steam_id":76561198070794764,"connected_time":769000000000,"state":"active","ping":101},{"user_id":420,"name":"Tibalt Nyahuma","steam_id":76561198034779431,"connected_time":4408000000000,"state":"active","ping":79},{"user_id":464,"name":"Mr. Soupman","steam_id":76561198021649598,"connected_time":1516000000000,"state":"active","ping":63},{"user_id":478,"name":"Skye","steam_id":76561197962957336,"connected_time":768000000000,"state":"active","ping":116},{"user_id":445,"name":"ASDF","steam_id":76561199086189834,"connected_time":2769000000000,"state":"active","ping":69}]},{"server_id":37,"name":"Uncletopia | Chicago | 6 | All Maps","name_short":"chi-6","host":"chi-2.us.uncletopia.com","port":27025,"enabled":true,"region":"us-central","cc":"us","latitude":41.881832,"longitude":-87.62318,"reserved":0,"last_update":"0001-01-01T00:00:00Z","name_a2s":"Uncletopia | Chicago | 6 | All Maps","protocol":17,"map":"pl_pier","folder":"tf","game":"Team Fortress","app_id":440,"player_count":24,"max_players":24,"Bots":0,"server_type":"Dedicated","server_os":"Linux","password":true,"vac":true,"version":"7961495","steam_id":85568392924866363,"keywords":["nocrits","nodmgspread","payload","uncletopia"],"game_id":440,"stv_port":27026,"stv_name":"Uncletopia | Chicago | 6 | All Maps | STV","players":[{"user_id":228,"name":"Ace Attorney","steam_id":76561198133011705,"connected_time":2885000000000,"state":"active","ping":65},{"user_id":246,"name":"Blobbyfish","steam_id":76561198822962650,"connected_time":1200000000000,"state":"active","ping":70},{"user_id":193,"name":"Q47","steam_id":76561198087128341,"connected_time":4501000000000,"state":"active","ping":143},{"user_id":244,"name":"d1pp_","steam_id":76561198395577807,"connected_time":1721000000000,"state":"active","ping":74},{"user_id":247,"name":"Olaf (gets zero bitches)","steam_id":76561198328556573,"connected_time":1123000000000,"state":"active","ping":70},{"user_id":227,"name":"Animal Slices","steam_id":76561198137545511,"connected_time":2960000000000,"state":"active","ping":61},{"user_id":240,"name":"majorbobfunction","steam_id":76561198042464632,"connected_time":2049000000000,"state":"active","ping":62},{"user_id":241,"name":"gIBBY","steam_id":76561198080099598,"connected_time":1882000000000,"state":"active","ping":57},{"user_id":255,"name":"for the king","steam_id":76561197973488858,"connected_time":486000000000,"state":"active","ping":64},{"user_id":245,"name":"eBay","steam_id":76561198061214569,"connected_time":1518000000000,"state":"active","ping":112},{"user_id":212,"name":"Spicy Chicken","steam_id":76561198074209737,"connected_time":4275000000000,"state":"active","ping":62},{"user_id":192,"name":"xFactr","steam_id":76561198129007422,"connected_time":4509000000000,"state":"active","ping":61},{"user_id":256,"name":"Johnny Rocket","steam_id":76561198169306531,"connected_time":171000000000,"state":"active","ping":91},{"user_id":254,"name":"Cunt Force Trauma","steam_id":76561198086121413,"connected_time":525000000000,"state":"active","ping":71},{"user_id":259,"name":"Joeyy #1Team","steam_id":76561198284576866,"connected_time":70000000000,"state":"active","ping":116},{"user_id":230,"name":"babywhoa","steam_id":76561198070854627,"connected_time":2682000000000,"state":"active","ping":102},{"user_id":250,"name":"DastardlyRed","steam_id":76561198336094275,"connected_time":818000000000,"state":"active","ping":44},{"user_id":238,"name":"Ajax","steam_id":76561198071310833,"connected_time":2267000000000,"state":"active","ping":78},{"user_id":258,"name":"Bytor2121","steam_id":76561197991263350,"connected_time":156000000000,"state":"active","ping":45},{"user_id":252,"name":"flange nut","steam_id":76561198207881077,"connected_time":794000000000,"state":"active","ping":88},{"user_id":224,"name":"69 jellyfishes","steam_id":76561199046490785,"connected_time":3309000000000,"state":"active","ping":80},{"user_id":43,"name":"menonamed","steam_id":76561198199564382,"connected_time":11530000000000,"state":"active","ping":70},{"user_id":257,"name":"big boobs","steam_id":76561198151150175,"connected_time":165000000000,"state":"active","ping":57},{"user_id":213,"name":"DroidFreak36","steam_id":76561198028681032,"connected_time":4219000000000,"state":"active","ping":62}]},{"server_id":38,"name":"Uncletopia | Chicago | 7 | Stopwatch","name_short":"chi-7","host":"chi-2.us.uncletopia.com","port":27035,"enabled":true,"region":"us-central","cc":"us","latitude":41.881832,"longitude":-87.62318,"reserved":0,"last_update":"0001-01-01T00:00:00Z","name_a2s":"Uncletopia | Chicago | 7 | Stopwatch","protocol":17,"map":"workshop/pl_badwater_pro_v12.ugc2142942074","folder":"tf","game":"Team Fortress","app_id":440,"player_count":0,"max_players":24,"Bots":0,"server_type":"Dedicated","server_os":"Linux","password":true,"vac":true,"version":"7961495","steam_id":85568392924866364,"keywords":["nocrits","nodmgspread","payload","uncletopia"],"game_id":440,"stv_port":27036,"stv_name":"Uncletopia | Chicago | 7 | Stopwatch | STV","players":null},{"server_id":39,"name":"Uncletopia | Chicago | 8 | Community","name_short":"chi-8","host":"chi-2.us.uncletopia.com","port":27045,"enabled":true,"region":"us-central","cc":"us","latitude":41.881832,"longitude":-87.62318,"reserved":0,"last_update":"0001-01-01T00:00:00Z","name_a2s":"Uncletopia | Chicago | 8 | Community","protocol":17,"map":"workshop/pl_boundary_final1.ugc456799153","folder":"tf","game":"Team Fortress","app_id":440,"player_count":24,"max_players":24,"Bots":0,"server_type":"Dedicated","server_os":"Linux","password":true,"vac":true,"version":"7961495","steam_id":85568392924866365,"keywords":["nocrits","nodmgspread","payload","uncletopia"],"game_id":440,"stv_port":27046,"stv_name":"Uncletopia | Chicago | 8 | Community | STV","players":[{"user_id":207,"name":"the pest","steam_id":76561198826298849,"connected_time":860000000000,"state":"active","ping":91},{"user_id":188,"name":"Terathan","steam_id":76561198062560047,"connected_time":3183000000000,"state":"active","ping":70},{"user_id":212,"name":"Slowboop","steam_id":76561198111076317,"connected_time":334000000000,"state":"active","ping":57},{"user_id":184,"name":"Yosh","steam_id":76561198027078899,"connected_time":3449000000000,"state":"active","ping":78},{"user_id":168,"name":"TheGrassMan (He/Him)","steam_id":76561198118984048,"connected_time":4555000000000,"state":"active","ping":53},{"user_id":203,"name":"Owl Daddy","steam_id":76561198006250352,"connected_time":1986000000000,"state":"active","ping":66},{"user_id":173,"name":"green bean","steam_id":76561198113099204,"connected_time":4349000000000,"state":"active","ping":78},{"user_id":182,"name":"Gram Tokers Count Doinkula","steam_id":76561198112811565,"connected_time":3594000000000,"state":"active","ping":74},{"user_id":209,"name":"t.tv/FamilyGuyFunnyMoments277","steam_id":76561198416047580,"connected_time":664000000000,"state":"active","ping":67},{"user_id":196,"name":"Yume","steam_id":76561198018060136,"connected_time":2966000000000,"state":"active","ping":74},{"user_id":198,"name":"TheSausageSwiper","steam_id":76561198972869845,"connected_time":2618000000000,"state":"active","ping":86},{"user_id":181,"name":"Erumbitarbo","steam_id":76561198204568491,"connected_time":3714000000000,"state":"active","ping":73},{"user_id":187,"name":"Audra123577","steam_id":76561198410945326,"connected_time":3376000000000,"state":"active","ping":101},{"user_id":213,"name":"rice","steam_id":76561198119326733,"connected_time":266000000000,"state":"active","ping":78},{"user_id":189,"name":"Ace of Spade","steam_id":76561198102919431,"connected_time":3120000000000,"state":"active","ping":55},{"user_id":197,"name":"3pac","steam_id":76561198068393322,"connected_time":2758000000000,"state":"active","ping":64},{"user_id":214,"name":"Awsomesauce","steam_id":76561199128366543,"connected_time":179000000000,"state":"active","ping":69},{"user_id":193,"name":"Poorly Drawn Bees","steam_id":76561197996763330,"connected_time":3048000000000,"state":"active","ping":85},{"user_id":194,"name":"Evie","steam_id":76561198004001828,"connected_time":3047000000000,"state":"active","ping":49},{"user_id":205,"name":"Sporks4Life","steam_id":76561198845120154,"connected_time":1821000000000,"state":"active","ping":57},{"user_id":199,"name":"Tired Knight","steam_id":76561199167223143,"connected_time":2151000000000,"state":"active","ping":76},{"user_id":179,"name":"prototype money","steam_id":76561198116767286,"connected_time":4250000000000,"state":"active","ping":56},{"user_id":211,"name":"TommySalami69","steam_id":76561198180275926,"connected_time":473000000000,"state":"active","ping":100},{"user_id":180,"name":"Horizon","steam_id":76561198088957930,"connected_time":4249000000000,"state":"active","ping":66}]},{"server_id":8,"name":"Uncletopia | Dallas | 1 | All Maps","name_short":"dal-1","host":"dal-1.us.uncletopia.com","port":27015,"enabled":true,"region":"us-central","cc":"us","latitude":32.779167,"longitude":-96.80889,"reserved":0,"last_update":"0001-01-01T00:00:00Z","name_a2s":"Uncletopia | Dallas | 1 | All Maps","protocol":17,"map":"cp_process_final","folder":"tf","game":"Team Fortress","app_id":440,"player_count":24,"max_players":24,"Bots":0,"server_type":"Dedicated","server_os":"Linux","password":true,"vac":true,"version":"7961495","steam_id":85568392924469986,"keywords":["cp","nocrits","nodmgspread","uncletopia"],"game_id":440,"stv_port":27016,"stv_name":"Uncletopia | Dallas | 1 | All Maps | STV","players":[{"user_id":847,"name":"CampinCarl","steam_id":76561197997373624,"connected_time":1776000000000,"state":"active","ping":82},{"user_id":880,"name":"leaving lunar orbit","steam_id":76561199085974120,"connected_time":89000000000,"state":"active","ping":91},{"user_id":866,"name":"Lain","steam_id":76561198029303534,"connected_time":932000000000,"state":"active","ping":62},{"user_id":845,"name":"Bogey","steam_id":76561198096227944,"connected_time":1808000000000,"state":"active","ping":48},{"user_id":652,"name":"THRONGLER","steam_id":76561198198563466,"connected_time":15314000000000,"state":"active","ping":46},{"user_id":874,"name":"mcjuice","steam_id":76561198087730829,"connected_time":348000000000,"state":"active","ping":74},{"user_id":872,"name":"Star_Mann_Jr.","steam_id":76561198071148924,"connected_time":394000000000,"state":"active","ping":86},{"user_id":873,"name":"double jump","steam_id":76561198170381402,"connected_time":364000000000,"state":"active","ping":86},{"user_id":863,"name":"8o8","steam_id":76561198996923332,"connected_time":1100000000000,"state":"active","ping":88},{"user_id":875,"name":"‚òπ","steam_id":76561198804763186,"connected_time":330000000000,"state":"active","ping":88},{"user_id":870,"name":"suffer :)","steam_id":76561198091875604,"connected_time":736000000000,"state":"active","ping":74},{"user_id":760,"name":"Kiso ÁÅ´","steam_id":76561198141026844,"connected_time":5718000000000,"state":"active","ping":134},{"user_id":858,"name":"Archangel","steam_id":76561198020089542,"connected_time":1340000000000,"state":"active","ping":59},{"user_id":865,"name":"GatorAIDS","steam_id":76561198043220092,"connected_time":951000000000,"state":"active","ping":56},{"user_id":867,"name":"Eomy","steam_id":76561198297783627,"connected_time":877000000000,"state":"active","ping":89},{"user_id":856,"name":"Coffeemelon","steam_id":76561198285891257,"connected_time":1398000000000,"state":"active","ping":110},{"user_id":859,"name":"Dog","steam_id":76561198450992953,"connected_time":1327000000000,"state":"active","ping":93},{"user_id":677,"name":"gyat","steam_id":76561198043684960,"connected_time":13325000000000,"state":"active","ping":55},{"user_id":876,"name":"garfield","steam_id":76561198114119308,"connected_time":321000000000,"state":"active","ping":72},{"user_id":868,"name":"Blue Eyes Ace Dragon.","steam_id":76561198048214237,"connected_time":876000000000,"state":"active","ping":88},{"user_id":871,"name":"marty","steam_id":76561198032782746,"connected_time":448000000000,"state":"active","ping":86},{"user_id":879,"name":"big guapo","steam_id":76561198103228695,"connected_time":197000000000,"state":"active","ping":90},{"user_id":878,"name":"Portaldude626","steam_id":76561198954610452,"connected_time":295000000000,"state":"active","ping":62},{"user_id":827,"name":"the lazy gamer","steam_id":76561199070127039,"connected_time":3242000000000,"state":"active","ping":127}]},{"server_id":108,"name":"Uncletopia | Dallas | 2 | All Maps","name_short":"dal-2","host":"dal-1.us.uncletopia.com","port":27025,"enabled":true,"region":"us-central","cc":"us","latitude":32.779167,"longitude":-96.80889,"reserved":0,"last_update":"0001-01-01T00:00:00Z","name_a2s":"Uncletopia | Dallas | 2 | All Maps","protocol":17,"map":"cp_dustbowl","folder":"tf","game":"Team Fortress","app_id":440,"player_count":24,"max_players":24,"Bots":0,"server_type":"Dedicated","server_os":"Linux","password":true,"vac":true,"version":"7961495","steam_id":85568392924469988,"keywords":["cp","nocrits","nodmgspread","uncletopia"],"game_id":440,"stv_port":27026,"stv_name":"Uncletopia | Dallas | 2 | All Maps | STV","players":[{"user_id":389,"name":"QwipQwop","steam_id":76561198019028725,"connected_time":251000000000,"state":"active","ping":57},{"user_id":359,"name":"Doctor Emerald(Bison king)","steam_id":76561199123003872,"connected_time":2097000000000,"state":"active","ping":87},{"user_id":381,"name":"rugbyralph288","steam_id":76561198161475964,"connected_time":958000000000,"state":"active","ping":87},{"user_id":382,"name":"riSygneD","steam_id":76561198331618687,"connected_time":841000000000,"state":"active","ping":67},{"user_id":390,"name":"Thequirka (regular trackpad use","steam_id":76561198968058652,"connected_time":184000000000,"state":"active","ping":107},{"user_id":391,"name":"Green Icicle","steam_id":76561198069624529,"connected_time":172000000000,"state":"active","ping":99},{"user_id":397,"name":"Mr. Snrub","steam_id":76561199039358883,"connected_time":24000000000,"state":"spawning","ping":97},{"user_id":387,"name":"`o2","steam_id":76561197992030936,"connected_time":286000000000,"state":"active","ping":85},{"user_id":358,"name":"Suppressing Dakka","steam_id":76561198237334538,"connected_time":2151000000000,"state":"active","ping":71},{"user_id":365,"name":"Cliffigriff","steam_id":76561198121924499,"connected_time":1919000000000,"state":"active","ping":45},{"user_id":392,"name":"üå∏MelWormüå∏","steam_id":76561198084145814,"connected_time":167000000000,"state":"active","ping":65},{"user_id":393,"name":"JohnnyGitGud","steam_id":76561198401455467,"connected_time":133000000000,"state":"active","ping":97},{"user_id":376,"name":"daffygoodfeller","steam_id":76561199013084916,"connected_time":1543000000000,"state":"active","ping":75},{"user_id":368,"name":"Beato","steam_id":76561198064727277,"connected_time":1853000000000,"state":"active","ping":86},{"user_id":383,"name":"basilberry","steam_id":76561198145275937,"connected_time":654000000000,"state":"active","ping":68},{"user_id":369,"name":"weasilsquid","steam_id":76561199014763568,"connected_time":1841000000000,"state":"active","ping":68},{"user_id":287,"name":"AudaCD","steam_id":76561198202775853,"connected_time":6749000000000,"state":"active","ping":63},{"user_id":394,"name":"Takumi","steam_id":76561198380837318,"connected_time":86000000000,"state":"active","ping":73},{"user_id":371,"name":"dicksnip","steam_id":76561198356515396,"connected_time":1813000000000,"state":"active","ping":56},{"user_id":395,"name":"TitlingFiddle","steam_id":76561198059931078,"connected_time":80000000000,"state":"active","ping":103},{"user_id":281,"name":"Manic","steam_id":76561198128149670,"connected_time":7085000000000,"state":"active","ping":55},{"user_id":396,"name":"Maxmind24","steam_id":76561198859888778,"connected_time":51000000000,"state":"spawning","ping":118},{"user_id":353,"name":"dailydiamond","steam_id":76561199123582502,"connected_time":3071000000000,"state":"active","ping":93},{"user_id":398,"name":"TheAsianMeatball","steam_id":76561198336926133,"connected_time":23000000000,"state":"spawning","ping":59}]},{"server_id":404,"name":"Uncletopia | Dallas | 3 | All Maps","name_short":"dal-3","host":"dal-1.us.uncletopia.com","port":27035,"enabled":true,"region":"us-central","cc":"us","latitude":32.779167,"longitude":-96.80889,"reserved":0,"last_update":"0001-01-01T00:00:00Z","name_a2s":"Uncletopia | Dallas | 3 | All Maps","protocol":17,"map":"pl_frontier_final","folder":"tf","game":"Team Fortress","app_id":440,"player_count":24,"max_players":24,"Bots":0,"server_type":"Dedicated","server_os":"Linux","password":true,"vac":true,"version":"7961495","steam_id":85568392924515219,"keywords":["nocrits","nodmgspread","payload","uncletopia"],"game_id":440,"stv_port":27036,"stv_name":"Uncletopia | Dallas | 3 | All Maps | STV","players":[{"user_id":547,"name":"Cahootles","steam_id":76561198056407485,"connected_time":684000000000,"state":"active","ping":51},{"user_id":550,"name":"Floppy Disk Wizard","steam_id":76561198015154311,"connected_time":435000000000,"state":"active","ping":70},{"user_id":512,"name":"two-bit Thief","steam_id":76561199202681534,"connected_time":4006000000000,"state":"active","ping":86},{"user_id":516,"name":"NINJADRAGONS + COSMIC WAFFLES","steam_id":76561198148479997,"connected_time":2971000000000,"state":"active","ping":87},{"user_id":552,"name":"H2OBourne","steam_id":76561198396293109,"connected_time":145000000000,"state":"active","ping":66},{"user_id":534,"name":"Macho Man","steam_id":76561198062247260,"connected_time":1970000000000,"state":"active","ping":55},{"user_id":541,"name":"pl_chicago","steam_id":76561198055626638,"connected_time":937000000000,"state":"active","ping":120},{"user_id":521,"name":"Sup m8","steam_id":76561198081659121,"connected_time":2761000000000,"state":"active","ping":45},{"user_id":551,"name":"YORCHspartan117","steam_id":76561198272955205,"connected_time":275000000000,"state":"active","ping":67},{"user_id":499,"name":"Human Unit Never Killed","steam_id":76561198086608978,"connected_time":4407000000000,"state":"active","ping":85},{"user_id":531,"name":"Streetwise","steam_id":76561197971684268,"connected_time":2204000000000,"state":"active","ping":130},{"user_id":542,"name":"—ïœÖ„Äê ï‚Ä¢·¥•‚Ä¢ î„Äë","steam_id":76561198071233302,"connected_time":936000000000,"state":"active","ping":86},{"user_id":497,"name":"joe mama","steam_id":76561198083561382,"connected_time":4433000000000,"state":"active","ping":87},{"user_id":498,"name":"KennytheHedgehog","steam_id":76561198094607721,"connected_time":4428000000000,"state":"active","ping":59},{"user_id":507,"name":"HoneyOTU","steam_id":76561198200366607,"connected_time":4327000000000,"state":"active","ping":110},{"user_id":548,"name":"jizz gaming","steam_id":76561198984762462,"connected_time":672000000000,"state":"active","ping":90},{"user_id":502,"name":"Two","steam_id":76561198207078715,"connected_time":4361000000000,"state":"active","ping":110},{"user_id":546,"name":"DepressedShrek","steam_id":76561198811248402,"connected_time":773000000000,"state":"active","ping":90},{"user_id":536,"name":"Hugs","steam_id":76561198214584133,"connected_time":1720000000000,"state":"active","ping":97},{"user_id":533,"name":"Noob of Noobs","steam_id":76561198195791766,"connected_time":1994000000000,"state":"active","ping":96},{"user_id":539,"name":"[Sc.B.V.G] Eagley Beagley Eagle","steam_id":76561198166730618,"connected_time":968000000000,"state":"active","ping":98},{"user_id":506,"name":"stub","steam_id":76561199060788308,"connected_time":4346000000000,"state":"active","ping":90},{"user_id":508,"name":"Some_Arse","steam_id":76561198039095394,"connected_time":4326000000000,"state":"active","ping":88},{"user_id":549,"name":"LeopoldVR","steam_id":76561198041597869,"connected_time":533000000000,"state":"active","ping":58}]},{"server_id":405,"name":"Uncletopia | Dallas | 4 | Community","name_short":"dal-4","host":"dal-1.us.uncletopia.com","port":27045,"enabled":true,"region":"us-central","cc":"us","latitude":32.779167,"longitude":-96.80889,"reserved":0,"last_update":"0001-01-01T00:00:00Z","name_a2s":"Uncletopia | Dallas | 4 | Community","protocol":17,"map":"workshop/pl_vigil_rc10.ugc1266210012","folder":"tf","game":"Team Fortress","app_id":440,"player_count":22,"max_players":24,"Bots":0,"server_type":"Dedicated","server_os":"Linux","password":true,"vac":true,"version":"7961495","steam_id":85568392924515220,"keywords":["nocrits","nodmgspread","payload","uncletopia"],"game_id":440,"stv_port":27046,"stv_name":"Uncletopia | Dallas | 4 | Community | STV","players":[{"user_id":150,"name":"Goldwalker","steam_id":76561198279461590,"connected_time":622000000000,"state":"active","ping":87},{"user_id":147,"name":"nrj1998pelma.six","steam_id":76561198425503395,"connected_time":846000000000,"state":"active","ping":42},{"user_id":151,"name":"H.","steam_id":76561198074951179,"connected_time":609000000000,"state":"active","ping":63},{"user_id":131,"name":"FerventRobin935","steam_id":76561198440135297,"connected_time":2820000000000,"state":"active","ping":80},{"user_id":113,"name":"Shrebbie","steam_id":76561198875230824,"connected_time":3870000000000,"state":"active","ping":81},{"user_id":80,"name":"Wolf","steam_id":76561198272611033,"connected_time":6573000000000,"state":"active","ping":74},{"user_id":114,"name":"Groundlaser49","steam_id":76561198259288290,"connected_time":3749000000000,"state":"active","ping":87},{"user_id":120,"name":"firstlastmcgee","steam_id":76561198170187989,"connected_time":3385000000000,"state":"active","ping":51},{"user_id":159,"name":"MrBreadMcMann","steam_id":76561199485707188,"connected_time":248000000000,"state":"active","ping":85},{"user_id":148,"name":"bobletoob","steam_id":76561199184464900,"connected_time":822000000000,"state":"active","ping":86},{"user_id":135,"name":"Lezabel","steam_id":76561198970753261,"connected_time":2552000000000,"state":"active","ping":77},{"user_id":152,"name":"taddeo131112","steam_id":76561199482678921,"connected_time":562000000000,"state":"active","ping":105},{"user_id":136,"name":"Action-Flash","steam_id":76561198042438122,"connected_time":2531000000000,"state":"active","ping":159},{"user_id":153,"name":"WaveSmash","steam_id":76561198208785485,"connected_time":502000000000,"state":"active","ping":92},{"user_id":140,"name":"3/4'' x 18'' industrial pipe","steam_id":76561198094042613,"connected_time":1896000000000,"state":"active","ping":93},{"user_id":154,"name":"iggybones (girl with balls)","steam_id":76561198101610291,"connected_time":488000000000,"state":"active","ping":87},{"user_id":142,"name":"James","steam_id":76561199174288258,"connected_time":1855000000000,"state":"active","ping":109},{"user_id":160,"name":"Chad of the Fish","steam_id":76561199233965468,"connected_time":238000000000,"state":"active","ping":77},{"user_id":156,"name":"MrMind","steam_id":76561199321657653,"connected_time":453000000000,"state":"active","ping":74},{"user_id":89,"name":"I GOT LAID AT SHEN YUN 2023","steam_id":76561198844003641,"connected_time":6056000000000,"state":"active","ping":87},{"user_id":90,"name":"leonardo doujinshi","steam_id":76561198025810326,"connected_time":6021000000000,"state":"active","ping":60},{"user_id":149,"name":"Mayan","steam_id":76561198087915957,"connected_time":746000000000,"state":"active","ping":60}]},{"server_id":5,"name":"Uncletopia | Frankfurt | 1 | All Maps","name_short":"frk-1","host":"frk-1.de.uncletopia.com","port":27015,"enabled":true,"region":"eu","cc":"de","latitude":50.110924,"longitude":8.682127,"reserved":0,"last_update":"0001-01-01T00:00:00Z","name_a2s":"Uncletopia | Frankfurt | 1 | All Maps","protocol":17,"map":"ctf_2fort","folder":"tf","game":"Team Fortress","app_id":440,"player_count":0,"max_players":24,"Bots":0,"server_type":"Dedicated","server_os":"Linux","password":true,"vac":true,"version":"7961495","steam_id":85568392924469989,"keywords":["ctf","nocrits","nodmgspread","uncletopia"],"game_id":440,"stv_port":27016,"stv_name":"Uncletopia | Frankfurt | 1 | All Maps | STV","players":null},{"server_id":110,"name":"Uncletopia | Frankfurt | 2 | All Maps","name_short":"frk-2","host":"frk-1.de.uncletopia.com","port":27025,"enabled":true,"region":"eu","cc":"de","latitude":50.110924,"longitude":8.682127,"reserved":0,"last_update":"0001-01-01T00:00:00Z","name_a2s":"Uncletopia | Frankfurt | 2 | All Maps","protocol":17,"map":"cp_altitude","folder":"tf","game":"Team Fortress","app_id":440,"player_count":0,"max_players":24,"Bots":0,"server_type":"Dedicated","server_os":"Linux","password":true,"vac":true,"version":"7961495","steam_id":85568392924469990,"keywords":["cp","nocrits","nodmgspread","uncletopia"],"game_id":440,"stv_port":27026,"stv_name":"Uncletopia | Frankfurt | 2 | All Maps | STV","players":null},{"server_id":308,"name":"Uncletopia | Frankfurt | 3 | All Maps","name_short":"frk-3","host":"frk-1.de.uncletopia.com","port":27035,"enabled":true,"region":"eu","cc":"de","latitude":50.110924,"longitude":8.682127,"reserved":0,"last_update":"0001-01-01T00:00:00Z","name_a2s":"Uncletopia | Frankfurt | 3 | All Maps","protocol":17,"map":"koth_cascade","folder":"tf","game":"Team Fortress","app_id":440,"player_count":0,"max_players":24,"Bots":0,"server_type":"Dedicated","server_os":"Linux","password":true,"vac":true,"version":"7961495","steam_id":85568392924504274,"keywords":["cp","nocrits","nodmgspread","uncletopia"],"game_id":440,"stv_port":27036,"stv_name":"Uncletopia | Frankfurt | 3 | All Maps | STV","players":null},{"server_id":309,"name":"Uncletopia | Frankfurt | 4 | All Maps","name_short":"frk-4","host":"frk-1.de.uncletopia.com","port":27045,"enabled":true,"region":"eu","cc":"de","latitude":50.110924,"longitude":8.682127,"reserved":0,"last_update":"0001-01-01T00:00:00Z","name_a2s":"Uncletopia | Frankfurt | 4 | All Maps","protocol":17,"map":"koth_highpass","folder":"tf","game":"Team Fortress","app_id":440,"player_count":0,"max_players":24,"Bots":0,"server_type":"Dedicated","server_os":"Linux","password":true,"vac":true,"version":"7961495","steam_id":85568392924504275,"keywords":["cp","nocrits","nodmgspread","uncletopia"],"game_id":440,"stv_port":27046,"stv_name":"Uncletopia | Frankfurt | 4 | All Maps | STV","players":null},{"server_id":310,"name":"Uncletopia | Frankfurt | 5 | All Maps","name_short":"frk-5","host":"frk-1.de.uncletopia.com","port":27055,"enabled":true,"region":"eu","cc":"de","latitude":50.110924,"longitude":8.682127,"reserved":0,"last_update":"0001-01-01T00:00:00Z","name_a2s":"Uncletopia | Frankfurt | 5 | All Maps","protocol":17,"map":"cp_metalworks","folder":"tf","game":"Team Fortress","app_id":440,"player_count":0,"max_players":24,"Bots":0,"server_type":"Dedicated","server_os":"Linux","password":true,"vac":true,"version":"7961495","steam_id":85568392924504277,"keywords":["cp","nocrits","nodmgspread","uncletopia"],"game_id":440,"stv_port":27056,"stv_name":"Uncletopia | Frankfurt | 5 | All Maps | STV","players":null},{"server_id":311,"name":"Uncletopia | Frankfurt | 6 | All Maps","name_short":"frk-6","host":"frk-1.de.uncletopia.com","port":27065,"enabled":true,"region":"eu","cc":"de","latitude":50.110924,"longitude":8.682127,"reserved":0,"last_update":"0001-01-01T00:00:00Z","name_a2s":"Uncletopia | Frankfurt | 6 | All Maps","protocol":17,"map":"koth_viaduct","folder":"tf","game":"Team Fortress","app_id":440,"player_count":0,"max_players":24,"Bots":0,"server_type":"Dedicated","server_os":"Linux","password":true,"vac":true,"version":"7961495","steam_id":85568392924504278,"keywords":["cp","nocrits","nodmgspread","uncletopia"],"game_id":440,"stv_port":27066,"stv_name":"Uncletopia | Frankfurt | 6 | All Maps | STV","players":null},{"server_id":23,"name":"Uncletopia | Frankfurt | 7 | Stopwatch","name_short":"frk-7","host":"frk-1.de.uncletopia.com","port":27075,"enabled":true,"region":"eu","cc":"de","latitude":50.110924,"longitude":8.682127,"reserved":0,"last_update":"0001-01-01T00:00:00Z","name_a2s":"Uncletopia | Frankfurt | 7 | Stopwatch","protocol":17,"map":"pl_frontier_final","folder":"tf","game":"Team Fortress","app_id":440,"player_count":0,"max_players":24,"Bots":0,"server_type":"Dedicated","server_os":"Linux","password":true,"vac":true,"version":"7961495","steam_id":85568392924742827,"keywords":["nocrits","nodmgspread","payload","uncletopia"],"game_id":440,"stv_port":27076,"stv_name":"Uncletopia | Frankfurt | 7 | Stopwatch | STV","players":null},{"server_id":24,"name":"Uncletopia | Frankfurt | 8 | Community","name_short":"frk-8","host":"frk-1.de.uncletopia.com","port":27085,"enabled":true,"region":"eu","cc":"de","latitude":50.110924,"longitude":8.682127,"reserved":0,"last_update":"0001-01-01T00:00:00Z","name_a2s":"Uncletopia | Frankfurt | 8 | Community","protocol":17,"map":"workshop/koth_bagel_rc6.ugc2514036946","folder":"tf","game":"Team Fortress","app_id":440,"player_count":0,"max_players":24,"Bots":0,"server_type":"Dedicated","server_os":"Linux","password":true,"vac":true,"version":"7961495","steam_id":85568392924742828,"keywords":["cp","nocrits","nodmgspread","uncletopia"],"game_id":440,"stv_port":27086,"stv_name":"Uncletopia | Frankfurt | 8 | Community | STV","players":null},{"server_id":202,"name":"Uncletopia | Hong Kong | 1 | All Maps","name_short":"hgk-1","host":"hgk-1.hk.uncletopia.com","port":27015,"enabled":true,"region":"asia","cc":"hk","latitude":22.302711,"longitude":114.177216,"reserved":0,"last_update":"0001-01-01T00:00:00Z","name_a2s":"Uncletopia | Hong Kong | 1 | All Maps","protocol":17,"map":"pl_frontier_final","folder":"tf","game":"Team Fortress","app_id":440,"player_count":0,"max_players":24,"Bots":0,"server_type":"Dedicated","server_os":"Linux","password":true,"vac":true,"version":"7961495","steam_id":85568392924494504,"keywords":["nocrits","nodmgspread","payload","uncletopia"],"game_id":440,"stv_port":27016,"stv_name":"Uncletopia | Hong Kong | 1 | All Maps | STV","players":null},{"server_id":1,"name":"Uncletopia | Los Angeles | 1 | All Maps","name_short":"lax-1","host":"lax-1.us.uncletopia.com","port":27015,"enabled":true,"region":"us-west","cc":"us","latitude":33.94279,"longitude":-118.41004,"reserved":0,"last_update":"0001-01-01T00:00:00Z","name_a2s":"Uncletopia | Los Angeles | 1 | All Maps","protocol":17,"map":"koth_cascade","folder":"tf","game":"Team Fortress","app_id":440,"player_count":24,"max_players":24,"Bots":0,"server_type":"Dedicated","server_os":"Linux","password":true,"vac":true,"version":"7961495","steam_id":85568392924469991,"keywords":["cp","nocrits","nodmgspread","uncletopia"],"game_id":440,"stv_port":27016,"stv_name":"Uncletopia | Los Angeles | 1 | All Maps | STV","players":[{"user_id":241,"name":"dogwater","steam_id":76561199416942289,"connected_time":2657000000000,"state":"active","ping":55},{"user_id":199,"name":"Alchemist","steam_id":76561198094238189,"connected_time":7560000000000,"state":"active","ping":57},{"user_id":179,"name":"B class hero","steam_id":76561198066091050,"connected_time":8503000000000,"state":"active","ping":77},{"user_id":270,"name":"sleepytuna12","steam_id":76561199258347093,"connected_time":306000000000,"state":"active","ping":42},{"user_id":263,"name":"Pixelated Pussy","steam_id":76561198002511088,"connected_time":1261000000000,"state":"active","ping":52},{"user_id":247,"name":"rangle","steam_id":76561198150137369,"connected_time":2436000000000,"state":"active","ping":51},{"user_id":268,"name":"cielael","steam_id":76561198043971956,"connected_time":394000000000,"state":"active","ping":62},{"user_id":264,"name":"IceCream_axolotl","steam_id":76561199195617432,"connected_time":1244000000000,"state":"active","ping":93},{"user_id":249,"name":"M_Zuy","steam_id":76561199005898955,"connected_time":2352000000000,"state":"active","ping":64},{"user_id":254,"name":"Addii","steam_id":76561199088297605,"connected_time":2143000000000,"state":"active","ping":108},{"user_id":178,"name":"lol","steam_id":76561198026491738,"connected_time":8605000000000,"state":"active","ping":57},{"user_id":271,"name":"Mocha Josie","steam_id":76561198066452726,"connected_time":126000000000,"state":"active","ping":65},{"user_id":269,"name":"Yoyos","steam_id":76561198061035695,"connected_time":371000000000,"state":"active","ping":47},{"user_id":237,"name":"raya","steam_id":76561198051504581,"connected_time":3626000000000,"state":"active","ping":80},{"user_id":261,"name":"NFL.com","steam_id":76561198113405376,"connected_time":1286000000000,"state":"active","ping":45},{"user_id":267,"name":"for eel? on cod? no carp?","steam_id":76561198095121758,"connected_time":823000000000,"state":"active","ping":56},{"user_id":252,"name":"Bestmaster202","steam_id":76561198235282680,"connected_time":2302000000000,"state":"active","ping":72},{"user_id":216,"name":"RadioRave","steam_id":76561198240837534,"connected_time":5830000000000,"state":"active","ping":60},{"user_id":266,"name":"sixauto0706","steam_id":76561198126443610,"connected_time":929000000000,"state":"active","ping":282},{"user_id":272,"name":"Mr. Noodle","steam_id":76561198025280658,"connected_time":102000000000,"state":"active","ping":59},{"user_id":223,"name":"xD","steam_id":76561198149683030,"connected_time":5011000000000,"state":"active","ping":72},{"user_id":244,"name":"Jonatello","steam_id":76561198045699189,"connected_time":2594000000000,"state":"active","ping":78},{"user_id":217,"name":"Hindmost","steam_id":76561199081837220,"connected_time":5796000000000,"state":"active","ping":106},{"user_id":258,"name":"fertile moist and well drained","steam_id":76561198031409921,"connected_time":2025000000000,"state":"active","ping":54}]},{"server_id":112,"name":"Uncletopia | Los Angeles | 2 | All Maps","name_short":"lax-2","host":"lax-1.us.uncletopia.com","port":27025,"enabled":true,"region":"us-west","cc":"us","latitude":33.94279,"longitude":-118.41004,"reserved":0,"last_update":"0001-01-01T00:00:00Z","name_a2s":"Uncletopia | Los Angeles | 2 | All Maps","protocol":17,"map":"pl_borneo","folder":"tf","game":"Team Fortress","app_id":440,"player_count":23,"max_players":24,"Bots":0,"server_type":"Dedicated","server_os":"Linux","password":true,"vac":true,"version":"7961495","steam_id":85568392924469992,"keywords":["nocrits","nodmgspread","payload","uncletopia"],"game_id":440,"stv_port":27026,"stv_name":"Uncletopia | Los Angeles | 2 | All Maps | STV","players":[{"user_id":147,"name":"Gourmet Swain","steam_id":76561198046942967,"connected_time":381000000000,"state":"active","ping":71},{"user_id":142,"name":"Mr_Tuffy","steam_id":76561199206331113,"connected_time":453000000000,"state":"active","ping":63},{"user_id":113,"name":"DORK","steam_id":76561198037384555,"connected_time":2073000000000,"state":"active","ping":60},{"user_id":144,"name":"Beef Wellington","steam_id":76561197995635241,"connected_time":421000000000,"state":"active","ping":167},{"user_id":92,"name":"mn","steam_id":76561198042357436,"connected_time":3877000000000,"state":"active","ping":65},{"user_id":131,"name":"SHADOW","steam_id":76561198426120506,"connected_time":1066000000000,"state":"active","ping":52},{"user_id":145,"name":"Johnora","steam_id":76561198220495936,"connected_time":417000000000,"state":"active","ping":85},{"user_id":146,"name":"silly jester","steam_id":76561198079609974,"connected_time":417000000000,"state":"active","ping":59},{"user_id":153,"name":"(TPT) Ghost","steam_id":76561198123262873,"connected_time":174000000000,"state":"active","ping":61},{"user_id":137,"name":"6.5 In/360¬∞","steam_id":76561198889997809,"connected_time":531000000000,"state":"active","ping":59},{"user_id":120,"name":"squibonacci","steam_id":76561198305870184,"connected_time":1611000000000,"state":"active","ping":71},{"user_id":149,"name":"DesertFroggo","steam_id":76561198015607829,"connected_time":326000000000,"state":"active","ping":102},{"user_id":97,"name":"californjoe","steam_id":76561197965047795,"connected_time":3307000000000,"state":"active","ping":54},{"user_id":60,"name":"Lambchop","steam_id":76561198043900363,"connected_time":5392000000000,"state":"active","ping":75},{"user_id":61,"name":"Mapachito Lindo","steam_id":76561198031359995,"connected_time":5374000000000,"state":"active","ping":69},{"user_id":150,"name":"adolf tickler","steam_id":76561198163120788,"connected_time":320000000000,"state":"active","ping":44},{"user_id":121,"name":"Nobody","steam_id":76561199352089107,"connected_time":1524000000000,"state":"active","ping":52},{"user_id":111,"name":"They could be ********","steam_id":76561198441020995,"connected_time":2196000000000,"state":"active","ping":47},{"user_id":151,"name":"Age","steam_id":76561198079727565,"connected_time":317000000000,"state":"active","ping":119},{"user_id":126,"name":"[S]Mr. X [No Monitor]","steam_id":76561197963746035,"connected_time":1193000000000,"state":"active","ping":117},{"user_id":155,"name":"tum","steam_id":76561198084712019,"connected_time":75000000000,"state":"active","ping":60},{"user_id":141,"name":"Jimmy","steam_id":76561198857959855,"connected_time":492000000000,"state":"active","ping":46},{"user_id":98,"name":"SilverMango","steam_id":76561198091243252,"connected_time":3301000000000,"state":"active","ping":58}]},{"server_id":324,"name":"Uncletopia | Los Angeles | 3 | All Maps","name_short":"lax-3","host":"lax-1.us.uncletopia.com","port":27035,"enabled":true,"region":"us-west","cc":"us","latitude":33.94279,"longitude":-118.41004,"reserved":0,"last_update":"0001-01-01T00:00:00Z","name_a2s":"Uncletopia | Los Angeles | 3 | All Maps","protocol":17,"map":"pl_frontier_final","folder":"tf","game":"Team Fortress","app_id":440,"player_count":24,"max_players":24,"Bots":0,"server_type":"Dedicated","server_os":"Linux","password":true,"vac":true,"version":"7961495","steam_id":85568392924510198,"keywords":["nocrits","nodmgspread","payload","uncletopia"],"game_id":440,"stv_port":27036,"stv_name":"Uncletopia | Los Angeles | 3 | All Maps | STV","players":[{"user_id":216,"name":"exx","steam_id":76561198090552145,"connected_time":255000000000,"state":"spawning","ping":51},{"user_id":208,"name":"üçíbutaüçí","steam_id":76561198135538212,"connected_time":968000000000,"state":"spawning","ping":112},{"user_id":214,"name":"Gobb","steam_id":76561198028907283,"connected_time":730000000000,"state":"spawning","ping":44},{"user_id":158,"name":"Spread Joy, Not Hate","steam_id":76561198053117503,"connected_time":3794000000000,"state":"spawning","ping":97},{"user_id":212,"name":"solitaire","steam_id":76561198964025682,"connected_time":816000000000,"state":"spawning","ping":48},{"user_id":218,"name":"Tiparium","steam_id":76561198060021230,"connected_time":109000000000,"state":"spawning","ping":57},{"user_id":137,"name":"yowhatupitk","steam_id":76561199224530901,"connected_time":5517000000000,"state":"spawning","ping":68},{"user_id":105,"name":"‚ù§ Ashley ‚ù§","steam_id":76561198056428303,"connected_time":6858000000000,"state":"spawning","ping":153},{"user_id":219,"name":"ognuker","steam_id":76561198044114346,"connected_time":22000000000,"state":"spawning","ping":126},{"user_id":205,"name":"NOBODY","steam_id":76561198094578887,"connected_time":1024000000000,"state":"spawning","ping":99},{"user_id":177,"name":"Stag","steam_id":76561198058537502,"connected_time":3170000000000,"state":"spawning","ping":35},{"user_id":215,"name":"Do cOck","steam_id":76561198132755619,"connected_time":518000000000,"state":"spawning","ping":40},{"user_id":171,"name":"small meth pouch","steam_id":76561198130412963,"connected_time":3492000000000,"state":"spawning","ping":85},{"user_id":220,"name":"Greatcascade","steam_id":76561198161218812,"connected_time":16000000000,"state":"spawning","ping":146},{"user_id":207,"name":"KYLE KYLESON","steam_id":76561198021920887,"connected_time":1004000000000,"state":"spawning","ping":97},{"user_id":186,"name":"Rex Racer","steam_id":76561198008899513,"connected_time":2155000000000,"state":"spawning","ping":50},{"user_id":221,"name":"Junk Synchron","steam_id":76561198329478764,"connected_time":10000000000,"state":"spawning","ping":46},{"user_id":188,"name":"minerkid2004","steam_id":76561198044262827,"connected_time":1758000000000,"state":"spawning","ping":60},{"user_id":167,"name":"self sufficient kitten","steam_id":76561197960592612,"connected_time":3640000000000,"state":"spawning","ping":213},{"user_id":194,"name":"laughs bigman","steam_id":76561198067714032,"connected_time":1562000000000,"state":"spawning","ping":45},{"user_id":204,"name":"Your Favorite Fearless Hero","steam_id":76561199127590316,"connected_time":1092000000000,"state":"spawning","ping":49},{"user_id":170,"name":"roach","steam_id":76561198354811369,"connected_time":3554000000000,"state":"spawning","ping":51},{"user_id":209,"name":"Context","steam_id":76561197972634187,"connected_time":961000000000,"state":"spawning","ping":51},{"user_id":211,"name":"JuiceTeamSix","steam_id":76561198039155649,"connected_time":930000000000,"state":"active","ping":179}]},{"server_id":25,"name":"Uncletopia | Los Angeles | 4 | Stopwatch","name_short":"lax-4","host":"lax-1.us.uncletopia.com","port":27045,"enabled":true,"region":"us-west","cc":"us","latitude":33.94279,"longitude":-118.41004,"reserved":0,"last_update":"0001-01-01T00:00:00Z","name_a2s":"Uncletopia | Los Angeles | 4 | Stopwatch","protocol":17,"map":"workshop/koth_product_final.ugc454272353","folder":"tf","game":"Team Fortress","app_id":440,"player_count":0,"max_players":24,"Bots":0,"server_type":"Dedicated","server_os":"Linux","password":true,"vac":true,"version":"7961495","steam_id":85568392924510199,"keywords":["cp","nocrits","nodmgspread","uncletopia"],"game_id":440,"stv_port":27046,"stv_name":"Uncletopia | Los Angeles | 4 | Stopwatch | STV","players":null},{"server_id":11,"name":"Uncletopia | London | 1 | All Maps","name_short":"lon-1","host":"lon-1.uk.uncletopia.com","port":27015,"enabled":true,"region":"eu","cc":"gb","latitude":51.509865,"longitude":-0.118092,"reserved":0,"last_update":"0001-01-01T00:00:00Z","name_a2s":"Uncletopia | London | 1 | All Maps","protocol":17,"map":"pl_borneo","folder":"tf","game":"Team Fortress","app_id":440,"player_count":17,"max_players":24,"Bots":0,"server_type":"Dedicated","server_os":"Linux","password":true,"vac":true,"version":"7961495","steam_id":85568392924367362,"keywords":["nocrits","nodmgspread","payload","uncletopia"],"game_id":440,"stv_port":27016,"stv_name":"Uncletopia | London | 1 | All Maps | STV","players":[{"user_id":1023,"name":"vi","steam_id":76561198303147966,"connected_time":2696000000000,"state":"active","ping":45},{"user_id":995,"name":"Nox Equites","steam_id":76561198115438449,"connected_time":5167000000000,"state":"active","ping":84},{"user_id":1048,"name":"TheVikingTheRed","steam_id":76561199221731253,"connected_time":508000000000,"state":"active","ping":53},{"user_id":1011,"name":"SuperBob103","steam_id":76561199175360012,"connected_time":3985000000000,"state":"active","ping":49},{"user_id":1055,"name":"@1opgloryboyz","steam_id":76561198046754534,"connected_time":139000000000,"state":"active","ping":85},{"user_id":1047,"name":"ForTheFlag","steam_id":76561198830403342,"connected_time":600000000000,"state":"active","ping":189},{"user_id":985,"name":"noseb","steam_id":76561199480942903,"connected_time":5478000000000,"state":"active","ping":73},{"user_id":1021,"name":"Vix The Vulpix","steam_id":76561198292181452,"connected_time":3221000000000,"state":"active","ping":150},{"user_id":1050,"name":"inteli-keeper","steam_id":76561199011763306,"connected_time":373000000000,"state":"active","ping":93},{"user_id":1035,"name":"Frank, Destroyer of Worlds","steam_id":76561198079740756,"connected_time":1683000000000,"state":"active","ping":47},{"user_id":1045,"name":"e102y","steam_id":76561198009205562,"connected_time":664000000000,"state":"active","ping":184},{"user_id":1040,"name":"Riboflavin","steam_id":76561198079587192,"connected_time":1010000000000,"state":"active","ping":48},{"user_id":1051,"name":"Joshass","steam_id":76561198062663024,"connected_time":321000000000,"state":"active","ping":64},{"user_id":1043,"name":"DazCrazy","steam_id":76561197995510812,"connected_time":763000000000,"state":"active","ping":192},{"user_id":1038,"name":"Draco","steam_id":76561198031226933,"connected_time":1338000000000,"state":"active","ping":51},{"user_id":1054,"name":"Bartmoss","steam_id":76561198090560650,"connected_time":185000000000,"state":"active","ping":45},{"user_id":936,"name":"Ran33","steam_id":76561197991474499,"connected_time":9454000000000,"state":"active","ping":81}]},{"server_id":114,"name":"Uncletopia | London | 2 | All Maps","name_short":"lon-2","host":"lon-1.uk.uncletopia.com","port":27025,"enabled":true,"region":"eu","cc":"gb","latitude":51.509865,"longitude":-0.118092,"reserved":0,"last_update":"0001-01-01T00:00:00Z","name_a2s":"Uncletopia | London | 2 | All Maps","protocol":17,"map":"cp_mountainlab","folder":"tf","game":"Team Fortress","app_id":440,"player_count":0,"max_players":24,"Bots":0,"server_type":"Dedicated","server_os":"Linux","password":true,"vac":true,"version":"7961495","steam_id":85568392924470941,"keywords":["cp","nocrits","nodmgspread","uncletopia"],"game_id":440,"stv_port":27026,"stv_name":"Uncletopia | London | 2 | All Maps | STV","players":null},{"server_id":320,"name":"Uncletopia | London | 3 | All Maps","name_short":"lon-3","host":"lon-1.uk.uncletopia.com","port":27035,"enabled":true,"region":"eu","cc":"gb","latitude":51.509865,"longitude":-0.118092,"reserved":0,"last_update":"0001-01-01T00:00:00Z","name_a2s":"Uncletopia | London | 3 | All Maps","protocol":17,"map":"koth_lakeside_final","folder":"tf","game":"Team Fortress","app_id":440,"player_count":0,"max_players":24,"Bots":0,"server_type":"Dedicated","server_os":"Linux","password":true,"vac":true,"version":"7961495","steam_id":85568392924510192,"keywords":["cp","nocrits","nodmgspread","uncletopia"],"game_id":440,"stv_port":27036,"stv_name":"Uncletopia | London | 3 | All Maps | STV","players":null},{"server_id":321,"name":"Uncletopia | London | 4 | All Maps","name_short":"lon-4","host":"lon-1.uk.uncletopia.com","port":27045,"enabled":true,"region":"eu","cc":"gb","latitude":51.509865,"longitude":-0.118092,"reserved":0,"last_update":"0001-01-01T00:00:00Z","name_a2s":"Uncletopia | London | 4 | All Maps","protocol":17,"map":"pl_borneo","folder":"tf","game":"Team Fortress","app_id":440,"player_count":0,"max_players":24,"Bots":0,"server_type":"Dedicated","server_os":"Linux","password":true,"vac":true,"version":"7961495","steam_id":85568392924510193,"keywords":["nocrits","nodmgspread","payload","uncletopia"],"game_id":440,"stv_port":27046,"stv_name":"Uncletopia | London | 4 | All Maps | STV","players":null},{"server_id":21,"name":"Uncletopia | London | 5 | All Maps","name_short":"lon-5","host":"lon-1.uk.uncletopia.com","port":27055,"enabled":true,"region":"eu","cc":"gb","latitude":51.509865,"longitude":-0.118092,"reserved":0,"last_update":"0001-01-01T00:00:00Z","name_a2s":"Uncletopia | London | 5 | All Maps","protocol":17,"map":"cp_process_final","folder":"tf","game":"Team Fortress","app_id":440,"player_count":0,"max_players":24,"Bots":0,"server_type":"Dedicated","server_os":"Linux","password":true,"vac":true,"version":"7961495","steam_id":85568392924742829,"keywords":["cp","nocrits","nodmgspread","uncletopia"],"game_id":440,"stv_port":27056,"stv_name":"Uncletopia | London | 5 | All Maps | STV","players":null},{"server_id":22,"name":"Uncletopia | London | 6 | All Maps","name_short":"lon-6","host":"lon-1.uk.uncletopia.com","port":27065,"enabled":true,"region":"eu","cc":"gb","latitude":51.509865,"longitude":-0.118092,"reserved":0,"last_update":"0001-01-01T00:00:00Z","name_a2s":"Uncletopia | London | 6 | All Maps","protocol":17,"map":"cp_snakewater_final1","folder":"tf","game":"Team Fortress","app_id":440,"player_count":0,"max_players":24,"Bots":0,"server_type":"Dedicated","server_os":"Linux","password":true,"vac":true,"version":"7961495","steam_id":85568392924742830,"keywords":["cp","nocrits","nodmgspread","uncletopia"],"game_id":440,"stv_port":27066,"stv_name":"Uncletopia | London | 6 | All Maps | STV","players":null},{"server_id":40,"name":"Uncletopia | London | 7 | Stopwatch","name_short":"lon-7","host":"lon-1.uk.uncletopia.com","port":27075,"enabled":true,"region":"eu","cc":"gb","latitude":51.509865,"longitude":-0.118092,"reserved":0,"last_update":"0001-01-01T00:00:00Z","name_a2s":"Uncletopia | London | 7 | Stopwatch","protocol":17,"map":"cp_process_final","folder":"tf","game":"Team Fortress","app_id":440,"player_count":0,"max_players":24,"Bots":0,"server_type":"Dedicated","server_os":"Linux","password":true,"vac":true,"version":"7961495","steam_id":85568392924964314,"keywords":["cp","nocrits","nodmgspread","uncletopia"],"game_id":440,"stv_port":27076,"stv_name":"Uncletopia | London | 7 | Stopwatch | STV","players":null},{"server_id":41,"name":"Uncletopia | London | 8 | Community","name_short":"lon-8","host":"lon-1.uk.uncletopia.com","port":27085,"enabled":true,"region":"eu","cc":"gb","latitude":51.509865,"longitude":-0.118092,"reserved":0,"last_update":"0001-01-01T00:00:00Z","name_a2s":"Uncletopia | London | 8 | Community","protocol":17,"map":"workshop/koth_bagel_rc6.ugc2514036946","folder":"tf","game":"Team Fortress","app_id":440,"player_count":0,"max_players":24,"Bots":0,"server_type":"Dedicated","server_os":"Linux","password":true,"vac":true,"version":"7961495","steam_id":85568392924964315,"keywords":["cp","nocrits","nodmgspread","uncletopia"],"game_id":440,"stv_port":27086,"stv_name":"Uncletopia | London | 8 | Community | STV","players":null},{"server_id":300,"name":"Uncletopia | Montr√©al | 1 | All Maps","name_short":"mtl-1","host":"mtl-1.ca.uncletopia.com","port":27015,"enabled":true,"region":"us-east","cc":"ca","latitude":45.50889,"longitude":-73.56167,"reserved":0,"last_update":"0001-01-01T00:00:00Z","name_a2s":"","protocol":0,"map":"","folder":"","game":"","app_id":0,"player_count":1,"max_players":0,"Bots":0,"server_type":"","server_os":"","password":false,"vac":false,"version":"","steam_id":0,"keywords":null,"game_id":0,"stv_port":0,"stv_name":"","players":[{"user_id":22,"name":"Grunkie_Chubs","steam_id":76561198272017187,"connected_time":247000000000,"state":"active","ping":76}]},{"server_id":301,"name":"Uncletopia | Montr√©al | 2 | One Thousand Uncles","name_short":"mtl-2","host":"mtl-1.ca.uncletopia.com","port":27025,"enabled":true,"region":"us-east","cc":"ca","latitude":45.50889,"longitude":-73.56167,"reserved":0,"last_update":"0001-01-01T00:00:00Z","name_a2s":"","protocol":0,"map":"","folder":"","game":"","app_id":0,"player_count":14,"max_players":0,"Bots":0,"server_type":"","server_os":"","password":false,"vac":false,"version":"","steam_id":0,"keywords":null,"game_id":0,"stv_port":0,"stv_name":"","players":[{"user_id":34,"name":"groot","steam_id":76561198057999536,"connected_time":2705000000000,"state":"active","ping":114},{"user_id":3,"name":"doomed","steam_id":76561198340512594,"connected_time":2926000000000,"state":"active","ping":58},{"user_id":4,"name":"Cornmac","steam_id":76561198104780569,"connected_time":2923000000000,"state":"active","ping":143},{"user_id":5,"name":"HentacleTentai","steam_id":76561198128090776,"connected_time":2923000000000,"state":"active","ping":309},{"user_id":6,"name":"Stevelonk","steam_id":76561198088224665,"connected_time":2918000000000,"state":"active","ping":61},{"user_id":90,"name":"NormanVillage","steam_id":76561198330337371,"connected_time":194000000000,"state":"active","ping":136},{"user_id":8,"name":"brian damage","steam_id":76561198118455606,"connected_time":2917000000000,"state":"active","ping":43},{"user_id":67,"name":"Avenging Spirit","steam_id":76561198119572121,"connected_time":1280000000000,"state":"active","ping":50},{"user_id":25,"name":"undsha","steam_id":76561198171335530,"connected_time":2912000000000,"state":"active","ping":75},{"user_id":26,"name":"Dr. Professor PJ, Ph.D","steam_id":76561198004429398,"connected_time":2909000000000,"state":"active","ping":60},{"user_id":28,"name":"Anon","steam_id":76561198109740776,"connected_time":2899000000000,"state":"active","ping":128},{"user_id":38,"name":"Skiddy","steam_id":76561198125942665,"connected_time":2541000000000,"state":"active","ping":117},{"user_id":39,"name":"‡∏∏","steam_id":76561198084134025,"connected_time":2538000000000,"state":"active","ping":88},{"user_id":47,"name":"1-800-GHOST-DANCE","steam_id":76561198835430429,"connected_time":1405000000000,"state":"active","ping":80}]},{"server_id":13,"name":"Uncletopia | New York City | 1 | All Maps","name_short":"nyc-1","host":"nyc-1.us.uncletopia.com","port":27015,"enabled":true,"region":"us-east","cc":"us","latitude":40.73061,"longitude":-73.93524,"reserved":0,"last_update":"0001-01-01T00:00:00Z","name_a2s":"Uncletopia | New York City | 1 | All Maps","protocol":17,"map":"plr_pipeline","folder":"tf","game":"Team Fortress","app_id":440,"player_count":24,"max_players":24,"Bots":0,"server_type":"Dedicated","server_os":"Linux","password":true,"vac":true,"version":"7961495","steam_id":85568392924469993,"keywords":["nocrits","nodmgspread","payload","uncletopia"],"game_id":440,"stv_port":27016,"stv_name":"Uncletopia | New York City | 1 | All Maps | STV","players":[{"user_id":727,"name":"Cspans","steam_id":76561198290316405,"connected_time":126000000000,"state":"active","ping":101},{"user_id":717,"name":"Scoutdy","steam_id":76561198053640598,"connected_time":403000000000,"state":"active","ping":71},{"user_id":719,"name":"toasty weber","steam_id":76561198037746805,"connected_time":399000000000,"state":"active","ping":58},{"user_id":692,"name":"Marc Antony","steam_id":76561198011366517,"connected_time":3182000000000,"state":"active","ping":45},{"user_id":704,"name":"It's FoolMoon","steam_id":76561198153344375,"connected_time":1889000000000,"state":"active","ping":37},{"user_id":702,"name":"Scoob","steam_id":76561198078633301,"connected_time":2178000000000,"state":"active","ping":51},{"user_id":647,"name":"NightEmerald","steam_id":76561198878856805,"connected_time":6674000000000,"state":"active","ping":48},{"user_id":706,"name":"jootloops","steam_id":76561198155447794,"connected_time":1814000000000,"state":"active","ping":47},{"user_id":728,"name":"xfinitycablebox","steam_id":76561198317433700,"connected_time":90000000000,"state":"active","ping":78},{"user_id":721,"name":"beeb","steam_id":76561198057201346,"connected_time":362000000000,"state":"active","ping":55},{"user_id":696,"name":"Hunt0rb","steam_id":76561198120527608,"connected_time":3104000000000,"state":"active","ping":81},{"user_id":697,"name":"PieSpie","steam_id":76561198054531169,"connected_time":3096000000000,"state":"active","ping":95},{"user_id":659,"name":"Meh","steam_id":76561198078187920,"connected_time":5769000000000,"state":"active","ping":96},{"user_id":707,"name":"Kermit The Stand User","steam_id":76561199115286658,"connected_time":1808000000000,"state":"active","ping":48},{"user_id":710,"name":"Herdez Hot Salsa","steam_id":76561197991740906,"connected_time":1697000000000,"state":"active","ping":69},{"user_id":698,"name":"brawndo luvr","steam_id":76561198202436474,"connected_time":2990000000000,"state":"active","ping":49},{"user_id":723,"name":"ndvr","steam_id":76561199379200102,"connected_time":347000000000,"state":"active","ping":50},{"user_id":713,"name":"AlphaTwo3","steam_id":76561198034696854,"connected_time":1182000000000,"state":"active","ping":81},{"user_id":703,"name":"Amauri","steam_id":76561198130809137,"connected_time":1950000000000,"state":"active","ping":87},{"user_id":722,"name":"slayerluggyII","steam_id":76561198048104611,"connected_time":361000000000,"state":"active","ping":67},{"user_id":724,"name":"Acorn","steam_id":76561198353480153,"connected_time":321000000000,"state":"active","ping":73},{"user_id":725,"name":"BIG LION","steam_id":76561198091880358,"connected_time":295000000000,"state":"active","ping":60},{"user_id":688,"name":"patdine","steam_id":76561198060865671,"connected_time":3798000000000,"state":"active","ping":65},{"user_id":712,"name":"ivy","steam_id":76561198031474906,"connected_time":1225000000000,"state":"active","ping":47}]},{"server_id":14,"name":"Uncletopia | New York City | 2 | All Maps","name_short":"nyc-2","host":"nyc-1.us.uncletopia.com","port":27025,"enabled":true,"region":"us-east","cc":"us","latitude":40.73061,"longitude":-73.93524,"reserved":0,"last_update":"0001-01-01T00:00:00Z","name_a2s":"Uncletopia | New York City | 2 | All Maps","protocol":17,"map":"pl_barnblitz","folder":"tf","game":"Team Fortress","app_id":440,"player_count":24,"max_players":24,"Bots":0,"server_type":"Dedicated","server_os":"Linux","password":true,"vac":true,"version":"7961495","steam_id":85568392924469994,"keywords":["nocrits","nodmgspread","payload","uncletopia"],"game_id":440,"stv_port":27026,"stv_name":"Uncletopia | New York City | 2 | All Maps | STV","players":[{"user_id":361,"name":"googa","steam_id":76561198133130452,"connected_time":7157000000000,"state":"active","ping":45},{"user_id":416,"name":"rattlin' bog","steam_id":76561198224551028,"connected_time":2677000000000,"state":"active","ping":56},{"user_id":394,"name":"WHO WANTS IT","steam_id":76561198079493217,"connected_time":5202000000000,"state":"active","ping":55},{"user_id":437,"name":"P.C. Baby","steam_id":76561198067011379,"connected_time":941000000000,"state":"active","ping":121},{"user_id":362,"name":"De","steam_id":76561198206728044,"connected_time":7150000000000,"state":"active","ping":79},{"user_id":372,"name":"Egg","steam_id":76561198028157625,"connected_time":6826000000000,"state":"active","ping":86},{"user_id":439,"name":"linklol262","steam_id":76561198305620134,"connected_time":927000000000,"state":"active","ping":74},{"user_id":438,"name":"Person","steam_id":76561198093244204,"connected_time":938000000000,"state":"active","ping":68},{"user_id":373,"name":"Terror-Billy #SaveTF2","steam_id":76561198328141870,"connected_time":6781000000000,"state":"active","ping":71},{"user_id":432,"name":"You Don't Nomi.","steam_id":76561197969137836,"connected_time":1834000000000,"state":"active","ping":43},{"user_id":445,"name":"MrLonelySlayer","steam_id":76561198061793470,"connected_time":456000000000,"state":"active","ping":54},{"user_id":446,"name":"lightsword24","steam_id":76561198227552556,"connected_time":257000000000,"state":"active","ping":103},{"user_id":443,"name":"Moonshine Man","steam_id":76561198088010073,"connected_time":610000000000,"state":"active","ping":101},{"user_id":424,"name":"Parth Makeo","steam_id":76561198002516581,"connected_time":2228000000000,"state":"active","ping":45},{"user_id":444,"name":"Renota","steam_id":76561198058224488,"connected_time":609000000000,"state":"active","ping":84},{"user_id":447,"name":"Fluff Butt","steam_id":76561199008334604,"connected_time":30000000000,"state":"active","ping":67},{"user_id":429,"name":"Dundramino","steam_id":76561198196976154,"connected_time":2018000000000,"state":"active","ping":66},{"user_id":441,"name":"flappyflap2","steam_id":76561198285048973,"connected_time":868000000000,"state":"active","ping":43},{"user_id":420,"name":"Fiendish Frog","steam_id":76561198029478821,"connected_time":2575000000000,"state":"active","ping":57},{"user_id":374,"name":"Bigsumoslammer","steam_id":76561198044505076,"connected_time":6746000000000,"state":"active","ping":44},{"user_id":421,"name":"Sqiddwr","steam_id":76561197998071622,"connected_time":2572000000000,"state":"active","ping":82},{"user_id":442,"name":"Urbanzpinapple","steam_id":76561198115426938,"connected_time":843000000000,"state":"active","ping":74},{"user_id":426,"name":"GodandTitans","steam_id":76561198070070155,"connected_time":2082000000000,"state":"active","ping":94},{"user_id":403,"name":"hashmap","steam_id":76561198043794014,"connected_time":5005000000000,"state":"active","ping":65}]},{"server_id":15,"name":"Uncletopia | New York City | 3 | Stopwatch","name_short":"nyc-3","host":"nyc-1.us.uncletopia.com","port":27035,"enabled":true,"region":"us-east","cc":"us","latitude":40.73061,"longitude":-73.93524,"reserved":0,"last_update":"0001-01-01T00:00:00Z","name_a2s":"Uncletopia | New York City | 3 | Stopwatch","protocol":17,"map":"workshop/koth_clearcut_b15.ugc2107050255","folder":"tf","game":"Team Fortress","app_id":440,"player_count":1,"max_players":24,"Bots":0,"server_type":"Dedicated","server_os":"Linux","password":true,"vac":true,"version":"7961495","steam_id":85568392924742820,"keywords":["cp","nocrits","nodmgspread","uncletopia"],"game_id":440,"stv_port":27036,"stv_name":"Uncletopia | New York City | 3 | Stopwatch | STV","players":[{"user_id":17,"name":"THE Grapist","steam_id":76561198069648668,"connected_time":84000000000,"state":"active","ping":77}]},{"server_id":16,"name":"Uncletopia | New York City | 4 | Community","name_short":"nyc-4","host":"nyc-1.us.uncletopia.com","port":27045,"enabled":true,"region":"us-east","cc":"us","latitude":40.73061,"longitude":-73.93524,"reserved":0,"last_update":"0001-01-01T00:00:00Z","name_a2s":"Uncletopia | New York City | 4 | Community","protocol":17,"map":"workshop/pl_fifthcurve_rc1.ugc648227046","folder":"tf","game":"Team Fortress","app_id":440,"player_count":0,"max_players":24,"Bots":0,"server_type":"Dedicated","server_os":"Linux","password":true,"vac":true,"version":"7961495","steam_id":85568392924742821,"keywords":["nocrits","nodmgspread","payload","uncletopia"],"game_id":440,"stv_port":27046,"stv_name":"Uncletopia | New York City | 4 | Community | STV","players":null},{"server_id":142,"name":"Uncletopia | S√£o Paulo | 1 | All Maps","name_short":"sao-1","host":"sao-1.br.uncletopia.com","port":27015,"enabled":true,"region":"sa","cc":"br","latitude":-23.533773,"longitude":-46.62529,"reserved":0,"last_update":"0001-01-01T00:00:00Z","name_a2s":"Uncletopia | S√£o Paulo | 1 | All Maps","protocol":17,"map":"koth_lakeside_final","folder":"tf","game":"Team Fortress","app_id":440,"player_count":0,"max_players":24,"Bots":0,"server_type":"Dedicated","server_os":"Linux","password":true,"vac":true,"version":"7961495","steam_id":85568392924469996,"keywords":["cp","nocrits","nodmgspread","uncletopia"],"game_id":440,"stv_port":27016,"stv_name":"Uncletopia | S√£o Paulo | 1 | All Maps | STV","players":null},{"server_id":143,"name":"Uncletopia | S√£o Paulo | 2 | Community","name_short":"sao-2","host":"sao-2.br.uncletopia.com","port":27015,"enabled":true,"region":"sa","cc":"br","latitude":-23.533773,"longitude":-46.62529,"reserved":0,"last_update":"0001-01-01T00:00:00Z","name_a2s":"Uncletopia | S√£o Paulo | 2 | Community","protocol":17,"map":"workshop/cp_reckoner_rc6.ugc674719999","folder":"tf","game":"Team Fortress","app_id":440,"player_count":0,"max_players":24,"Bots":0,"server_type":"Dedicated","server_os":"Linux","password":true,"vac":true,"version":"7961495","steam_id":85568392924485349,"keywords":["cp","nocrits","nodmgspread","uncletopia"],"game_id":440,"stv_port":27016,"stv_name":"Uncletopia | S√£o Paulo | 2 | Community | STV","players":null},{"server_id":7,"name":"Uncletopia | Seattle | 1 | All Maps","name_short":"sea-1","host":"sea-1.us.uncletopia.com","port":27015,"enabled":true,"region":"us-west","cc":"us","latitude":47.608013,"longitude":-122.33517,"reserved":0,"last_update":"0001-01-01T00:00:00Z","name_a2s":"Uncletopia | Seattle | 1 | All Maps","protocol":17,"map":"pl_badwater","folder":"tf","game":"Team Fortress","app_id":440,"player_count":24,"max_players":24,"Bots":0,"server_type":"Dedicated","server_os":"Linux","password":true,"vac":true,"version":"7961495","steam_id":85568392924469997,"keywords":["nocrits","nodmgspread","payload","uncletopia"],"game_id":440,"stv_port":27016,"stv_name":"Uncletopia | Seattle | 1 | All Maps | STV","players":[{"user_id":158,"name":"JawnyMac","steam_id":76561198179529599,"connected_time":5769000000000,"state":"active","ping":71},{"user_id":168,"name":"Ayayayayayahuasca","steam_id":76561199002906056,"connected_time":5218000000000,"state":"active","ping":48},{"user_id":178,"name":"Mignyanne :3","steam_id":76561198048754056,"connected_time":3522000000000,"state":"active","ping":60},{"user_id":189,"name":"CL Pocky","steam_id":76561198067597483,"connected_time":3114000000000,"state":"active","ping":45},{"user_id":180,"name":"[DATS‚û°] Sugar Meowth","steam_id":76561197995251793,"connected_time":3440000000000,"state":"active","ping":43},{"user_id":133,"name":"Karg","steam_id":76561198091387866,"connected_time":7830000000000,"state":"active","ping":64},{"user_id":165,"name":"RainboomCrash","steam_id":76561198065612273,"connected_time":5343000000000,"state":"active","ping":50},{"user_id":190,"name":"Mr. Pirate","steam_id":76561199247095754,"connected_time":3076000000000,"state":"active","ping":89},{"user_id":147,"name":"toes","steam_id":76561198221151676,"connected_time":6048000000000,"state":"active","ping":60},{"user_id":212,"name":"rawry :))","steam_id":76561198065825165,"connected_time":949000000000,"state":"active","ping":230},{"user_id":200,"name":"?","steam_id":76561198209880837,"connected_time":2336000000000,"state":"active","ping":45},{"user_id":205,"name":"thunderous prophet","steam_id":76561198131166135,"connected_time":1419000000000,"state":"active","ping":37},{"user_id":198,"name":"Geight","steam_id":76561197991645292,"connected_time":2543000000000,"state":"active","ping":45},{"user_id":208,"name":"Mitchell","steam_id":76561197972922328,"connected_time":986000000000,"state":"active","ping":76},{"user_id":201,"name":"NEBULA","steam_id":76561198086878595,"connected_time":2110000000000,"state":"active","ping":75},{"user_id":206,"name":"jungus","steam_id":76561198129862008,"connected_time":1224000000000,"state":"active","ping":73},{"user_id":195,"name":"woodpigeon","steam_id":76561199391478575,"connected_time":2857000000000,"state":"active","ping":60},{"user_id":150,"name":"A UsedNom","steam_id":76561198402832756,"connected_time":5915000000000,"state":"active","ping":62},{"user_id":187,"name":"cheesebro","steam_id":76561198002072852,"connected_time":3265000000000,"state":"active","ping":75},{"user_id":202,"name":"Luca","steam_id":76561198125087140,"connected_time":2101000000000,"state":"active","ping":46},{"user_id":214,"name":"Can of Oranges","steam_id":76561199121813529,"connected_time":604000000000,"state":"active","ping":43},{"user_id":215,"name":"orbisg","steam_id":76561198004133638,"connected_time":604000000000,"state":"active","ping":59},{"user_id":209,"name":"a cat plushie","steam_id":76561198080046542,"connected_time":986000000000,"state":"active","ping":53},{"user_id":194,"name":"Henchie!","steam_id":76561198047567464,"connected_time":2873000000000,"state":"active","ping":82}]},{"server_id":119,"name":"Uncletopia | Seattle | 2 | All Maps","name_short":"sea-2","host":"sea-1.us.uncletopia.com","port":27025,"enabled":true,"region":"us-west","cc":"us","latitude":47.608013,"longitude":-122.33517,"reserved":0,"last_update":"0001-01-01T00:00:00Z","name_a2s":"Uncletopia | Seattle | 2 | All Maps","protocol":17,"map":"pl_badwater","folder":"tf","game":"Team Fortress","app_id":440,"player_count":24,"max_players":24,"Bots":0,"server_type":"Dedicated","server_os":"Linux","password":true,"vac":true,"version":"7961495","steam_id":85568392924469998,"keywords":["nocrits","nodmgspread","payload","uncletopia"],"game_id":440,"stv_port":27026,"stv_name":"Uncletopia | Seattle | 2 | All Maps | STV","players":[{"user_id":178,"name":"Hound From Heck","steam_id":76561198087764017,"connected_time":1636000000000,"state":"active","ping":46},{"user_id":169,"name":"Acidbrawler","steam_id":76561198174803983,"connected_time":2601000000000,"state":"active","ping":48},{"user_id":188,"name":"InfernoFlower64","steam_id":76561198181097391,"connected_time":1307000000000,"state":"active","ping":122},{"user_id":166,"name":"thebeast","steam_id":76561198255963049,"connected_time":2693000000000,"state":"active","ping":50},{"user_id":202,"name":"Amateur Glaswegian","steam_id":76561198030851956,"connected_time":643000000000,"state":"active","ping":51},{"user_id":190,"name":"weegeebad","steam_id":76561198280841437,"connected_time":1204000000000,"state":"active","ping":98},{"user_id":191,"name":"Tideflat","steam_id":76561198179850851,"connected_time":1202000000000,"state":"active","ping":47},{"user_id":205,"name":"Greskrendtregk","steam_id":76561197969553142,"connected_time":73000000000,"state":"active","ping":52},{"user_id":180,"name":"Scrux","steam_id":76561198129763115,"connected_time":1582000000000,"state":"active","ping":75},{"user_id":197,"name":"Skoad","steam_id":76561198104650528,"connected_time":820000000000,"state":"active","ping":50},{"user_id":192,"name":"Gamingtime","steam_id":76561198339856746,"connected_time":1197000000000,"state":"active","ping":73},{"user_id":171,"name":"Sirfub","steam_id":76561198160767583,"connected_time":2553000000000,"state":"active","ping":97},{"user_id":149,"name":"Tsunami","steam_id":76561198097188001,"connected_time":3205000000000,"state":"active","ping":44},{"user_id":159,"name":"wugmup","steam_id":76561199096287734,"connected_time":2910000000000,"state":"active","ping":81},{"user_id":198,"name":"JellyParrot","steam_id":76561199190990163,"connected_time":711000000000,"state":"active","ping":111},{"user_id":204,"name":"S Q U I S H E  T H A T  C A T","steam_id":76561198293865429,"connected_time":147000000000,"state":"active","ping":36},{"user_id":153,"name":"Broskimane","steam_id":76561198892962015,"connected_time":3098000000000,"state":"active","ping":119},{"user_id":203,"name":"Forty","steam_id":76561198257410181,"connected_time":255000000000,"state":"active","ping":59},{"user_id":195,"name":"laggy mcstab","steam_id":76561198106379962,"connected_time":918000000000,"state":"active","ping":60},{"user_id":200,"name":"2 Midget Hater","steam_id":76561198846845090,"connected_time":691000000000,"state":"active","ping":107},{"user_id":183,"name":"what da dog doin","steam_id":76561198090573639,"connected_time":1516000000000,"state":"active","ping":70},{"user_id":168,"name":"n√∏bu","steam_id":76561198100614981,"connected_time":2660000000000,"state":"active","ping":46},{"user_id":136,"name":"fish (2:3)","steam_id":76561198134331073,"connected_time":4510000000000,"state":"active","ping":45},{"user_id":194,"name":"Penis Music","steam_id":76561198089647760,"connected_time":1068000000000,"state":"active","ping":74}]},{"server_id":406,"name":"Uncletopia | Seattle | 3 | Stopwatch","name_short":"sea-3","host":"sea-1.us.uncletopia.com","port":27035,"enabled":true,"region":"us-west","cc":"us","latitude":47.608013,"longitude":-122.33517,"reserved":0,"last_update":"0001-01-01T00:00:00Z","name_a2s":"Uncletopia | Seattle | 3 | Stopwatch","protocol":17,"map":"pl_swiftwater_final1","folder":"tf","game":"Team Fortress","app_id":440,"player_count":0,"max_players":24,"Bots":0,"server_type":"Dedicated","server_os":"Linux","password":true,"vac":true,"version":"7961495","steam_id":85568392924515217,"keywords":["nocrits","nodmgspread","payload","uncletopia"],"game_id":440,"stv_port":27036,"stv_name":"Uncletopia | Seattle | 3 | Stopwatch | STV","players":null},{"server_id":17,"name":"Uncletopia | San Francisco | 1 | All Maps","name_short":"sfo-1","host":"sfo-1.us.uncletopia.com","port":27015,"enabled":true,"region":"us-west","cc":"us","latitude":37.77397,"longitude":-122.4313,"reserved":0,"last_update":"0001-01-01T00:00:00Z","name_a2s":"Uncletopia | San Francisco | 1 | All Maps","protocol":17,"map":"pl_badwater","folder":"tf","game":"Team Fortress","app_id":440,"player_count":24,"max_players":24,"Bots":0,"server_type":"Dedicated","server_os":"Linux","password":true,"vac":true,"version":"7961495","steam_id":85568392924469999,"keywords":["nocrits","nodmgspread","payload","uncletopia"],"game_id":440,"stv_port":27016,"stv_name":"Uncletopia | San Francisco | 1 | All Maps | STV","players":[{"user_id":95,"name":"EAT SPIT!","steam_id":76561198096836451,"connected_time":590000000000,"state":"active","ping":45},{"user_id":26,"name":"omnislime","steam_id":76561199382475668,"connected_time":4526000000000,"state":"active","ping":93},{"user_id":20,"name":"Caspian","steam_id":76561199041466962,"connected_time":5187000000000,"state":"active","ping":42},{"user_id":78,"name":"Maid 'n' China","steam_id":76561198423392976,"connected_time":2372000000000,"state":"active","ping":51},{"user_id":79,"name":"Big Blue","steam_id":76561198084930108,"connected_time":2286000000000,"state":"active","ping":57},{"user_id":96,"name":"drevott74","steam_id":76561199262592779,"connected_time":516000000000,"state":"active","ping":95},{"user_id":88,"name":"GoldtoothFour","steam_id":76561198055529332,"connected_time":1340000000000,"state":"active","ping":103},{"user_id":84,"name":"Firedust19","steam_id":76561198153238631,"connected_time":1791000000000,"state":"active","ping":82},{"user_id":76,"name":"copper","steam_id":76561198146250533,"connected_time":2601000000000,"state":"active","ping":49},{"user_id":82,"name":"Username","steam_id":76561198198918781,"connected_time":2038000000000,"state":"active","ping":71},{"user_id":64,"name":"Munky","steam_id":76561197993491054,"connected_time":3052000000000,"state":"active","ping":46},{"user_id":99,"name":"El Gato Paranoico","steam_id":76561198116567116,"connected_time":437000000000,"state":"active","ping":105},{"user_id":37,"name":"Red-Raven","steam_id":76561197971130794,"connected_time":4073000000000,"state":"active","ping":67},{"user_id":89,"name":"Kaly!","steam_id":76561199052502632,"connected_time":1301000000000,"state":"active","ping":97},{"user_id":102,"name":"UÃÅntermensch","steam_id":76561198149634242,"connected_time":34000000000,"state":"active","ping":85},{"user_id":39,"name":"The Rock","steam_id":76561198433328517,"connected_time":4051000000000,"state":"active","ping":131},{"user_id":100,"name":"Nova Academy of Salmon Action","steam_id":76561198021842526,"connected_time":135000000000,"state":"active","ping":55},{"user_id":42,"name":"aisu","steam_id":76561198043768507,"connected_time":4003000000000,"state":"active","ping":95},{"user_id":87,"name":"moomin","steam_id":76561198336244269,"connected_time":1448000000000,"state":"active","ping":69},{"user_id":62,"name":"\u003e:3 Muiramme Œµ—ó–∑","steam_id":76561197994458543,"connected_time":3064000000000,"state":"active","ping":61},{"user_id":58,"name":"Antwan","steam_id":76561198246200638,"connected_time":3349000000000,"state":"active","ping":79},{"user_id":63,"name":"Armpit!","steam_id":76561197978095727,"connected_time":3054000000000,"state":"active","ping":85},{"user_id":67,"name":"Sucks-At-Aiming","steam_id":76561198027487285,"connected_time":2981000000000,"state":"active","ping":107},{"user_id":81,"name":"Dingelsmurf the Orange","steam_id":76561198212489267,"connected_time":2169000000000,"state":"active","ping":111}]},{"server_id":18,"name":"Uncletopia | San Francisco | 2 | All Maps","name_short":"sfo-2","host":"sfo-1.us.uncletopia.com","port":27025,"enabled":true,"region":"us-west","cc":"us","latitude":37.77397,"longitude":-122.4313,"reserved":0,"last_update":"0001-01-01T00:00:00Z","name_a2s":"Uncletopia | San Francisco | 2 | All Maps","protocol":17,"map":"koth_viaduct","folder":"tf","game":"Team Fortress","app_id":440,"player_count":0,"max_players":24,"Bots":0,"server_type":"Dedicated","server_os":"Linux","password":true,"vac":true,"version":"7961495","steam_id":85568392924470000,"keywords":["cp","nocrits","nodmgspread","uncletopia"],"game_id":440,"stv_port":27026,"stv_name":"Uncletopia | San Francisco | 2 | All Maps | STV","players":null},{"server_id":19,"name":"Uncletopia | San Francisco | 3 | Stopwatch","name_short":"sfo-3","host":"sfo-1.us.uncletopia.com","port":27035,"enabled":true,"region":"us-west","cc":"us","latitude":37.77397,"longitude":-122.4313,"reserved":0,"last_update":"0001-01-01T00:00:00Z","name_a2s":"Uncletopia | San Francisco | 3 | Stopwatch","protocol":17,"map":"workshop/koth_product_final.ugc454272353","folder":"tf","game":"Team Fortress","app_id":440,"player_count":0,"max_players":24,"Bots":0,"server_type":"Dedicated","server_os":"Linux","password":true,"vac":true,"version":"7961495","steam_id":85568392924742824,"keywords":["cp","nocrits","nodmgspread","uncletopia"],"game_id":440,"stv_port":27036,"stv_name":"Uncletopia | San Francisco | 3 | Stopwatch | STV","players":null},{"server_id":20,"name":"Uncletopia | San Francisco | 4 | Community","name_short":"sfo-4","host":"sfo-1.us.uncletopia.com","port":27045,"enabled":true,"region":"us-west","cc":"us","latitude":37.77397,"longitude":-122.4313,"reserved":0,"last_update":"0001-01-01T00:00:00Z","name_a2s":"Uncletopia | San Francisco | 4 | Community","protocol":17,"map":"workshop/koth_synthetic_rc6a.ugc1549817316","folder":"tf","game":"Team Fortress","app_id":440,"player_count":4,"max_players":24,"Bots":0,"server_type":"Dedicated","server_os":"Linux","password":true,"vac":true,"version":"7961495","steam_id":85568392924742826,"keywords":["cp","nocrits","nodmgspread","uncletopia"],"game_id":440,"stv_port":27046,"stv_name":"Uncletopia | San Francisco | 4 | Community | STV","players":[{"user_id":10,"name":"Lord Blaident","steam_id":76561198076690878,"connected_time":46000000000,"state":"active","ping":61},{"user_id":11,"name":"2Fort Cactus","steam_id":76561199273395913,"connected_time":26000000000,"state":"active","ping":65},{"user_id":6,"name":"CometDrg0n_","steam_id":76561198175713051,"connected_time":794000000000,"state":"active","ping":59},{"user_id":7,"name":"StrayGuitarist","steam_id":76561198091315714,"connected_time":740000000000,"state":"active","ping":45}]},{"server_id":141,"name":"Uncletopia | Sydney | 1 | All Maps","name_short":"syd-1","host":"syd-1.au.uncletopia.com","port":27015,"enabled":true,"region":"au","cc":"au","latitude":-33.865143,"longitude":151.2099,"reserved":0,"last_update":"0001-01-01T00:00:00Z","name_a2s":"Uncletopia | Sydney | 1 | All Maps","protocol":17,"map":"koth_viaduct","folder":"tf","game":"Team Fortress","app_id":440,"player_count":0,"max_players":24,"Bots":0,"server_type":"Dedicated","server_os":"Linux","password":true,"vac":true,"version":"7961495","steam_id":85568392924470001,"keywords":["cp","nocrits","nodmgspread","uncletopia"],"game_id":440,"stv_port":27016,"stv_name":"Uncletopia | Sydney | 1 | All Maps | STV","players":null},{"server_id":123,"name":"Uncletopia | Sydney | 2 | All Maps","name_short":"syd-2","host":"syd-1.au.uncletopia.com","port":27025,"enabled":true,"region":"au","cc":"au","latitude":-33.865143,"longitude":151.2099,"reserved":0,"last_update":"0001-01-01T00:00:00Z","name_a2s":"Uncletopia | Sydney | 2 | All Maps","protocol":17,"map":"koth_lakeside_final","folder":"tf","game":"Team Fortress","app_id":440,"player_count":0,"max_players":24,"Bots":0,"server_type":"Dedicated","server_os":"Linux","password":true,"vac":true,"version":"7961495","steam_id":85568392924470002,"keywords":["cp","nocrits","nodmgspread","uncletopia"],"game_id":440,"stv_port":27026,"stv_name":"Uncletopia | Sydney | 2 | All Maps | STV","players":null},{"server_id":395,"name":"Uncletopia | Sydney | 3 | All Maps","name_short":"syd-3","host":"syd-1.au.uncletopia.com","port":27035,"enabled":true,"region":"au","cc":"au","latitude":-33.865143,"longitude":151.2099,"reserved":0,"last_update":"0001-01-01T00:00:00Z","name_a2s":"Uncletopia | Sydney | 3 | All Maps","protocol":17,"map":"cp_mountainlab","folder":"tf","game":"Team Fortress","app_id":440,"player_count":0,"max_players":24,"Bots":0,"server_type":"Dedicated","server_os":"Linux","password":true,"vac":true,"version":"7961495","steam_id":85568392925194467,"keywords":["cp","nocrits","nodmgspread","uncletopia"],"game_id":440,"stv_port":27036,"stv_name":"Uncletopia | Sydney | 3 | All Maps | STV","players":null},{"server_id":396,"name":"Uncletopia | Sydney | 4 | All Maps","name_short":"syd-4","host":"syd-1.au.uncletopia.com","port":27045,"enabled":true,"region":"au","cc":"au","latitude":-33.865143,"longitude":151.2099,"reserved":0,"last_update":"0001-01-01T00:00:00Z","name_a2s":"Uncletopia | Sydney | 4 | All Maps","protocol":17,"map":"pl_barnblitz","folder":"tf","game":"Team Fortress","app_id":440,"player_count":4,"max_players":24,"Bots":0,"server_type":"Dedicated","server_os":"Linux","password":true,"vac":true,"version":"7961495","steam_id":85568392925397958,"keywords":["nocrits","nodmgspread","payload","uncletopia"],"game_id":440,"stv_port":27046,"stv_name":"Uncletopia | Sydney | 4 | All Maps | STV","players":[{"user_id":4,"name":"BlazyBoi420","steam_id":76561199053770299,"connected_time":779000000000,"state":"active","ping":97},{"user_id":5,"name":"Underscore098","steam_id":76561199223566113,"connected_time":774000000000,"state":"active","ping":60},{"user_id":6,"name":"NaterulZ123","steam_id":76561199210525921,"connected_time":767000000000,"state":"active","ping":67},{"user_id":7,"name":"KillerBlow","steam_id":76561198930232832,"connected_time":167000000000,"state":"active","ping":80}]},{"server_id":58,"name":"Uncletopia | Sydney | 5 | Stopwatch","name_short":"syd-5","host":"syd-1.au.uncletopia.com","port":27055,"enabled":true,"region":"au","cc":"au","latitude":-33.865143,"longitude":151.2099,"reserved":0,"last_update":"0001-01-01T00:00:00Z","name_a2s":"Uncletopia | Sydney | 5 | Stopwatch","protocol":17,"map":"workshop/koth_clearcut_b15.ugc2107050255","folder":"tf","game":"Team Fortress","app_id":440,"player_count":0,"max_players":24,"Bots":0,"server_type":"Dedicated","server_os":"Linux","password":true,"vac":true,"version":"7961495","steam_id":85568392925397959,"keywords":["cp","nocrits","nodmgspread","uncletopia"],"game_id":440,"stv_port":27056,"stv_name":"Uncletopia | Sydney | 5 | Stopwatch | STV","players":null},{"server_id":59,"name":"Uncletopia | Sydney | 6 | Community","name_short":"syd-6","host":"syd-1.au.uncletopia.com","port":27065,"enabled":true,"region":"au","cc":"au","latitude":-33.865143,"longitude":151.2099,"reserved":0,"last_update":"0001-01-01T00:00:00Z","name_a2s":"Uncletopia | Sydney | 6 | Community","protocol":17,"map":"cp_sunshine","folder":"tf","game":"Team Fortress","app_id":440,"player_count":0,"max_players":24,"Bots":0,"server_type":"Dedicated","server_os":"Linux","password":true,"vac":true,"version":"7961495","steam_id":85568392925397960,"keywords":["cp","nocrits","nodmgspread","uncletopia"],"game_id":440,"stv_port":27066,"stv_name":"Uncletopia | Sydney | 6 | Community | STV","players":null},{"server_id":49,"name":"Uncletopia | Warsaw | 1 | All Maps","name_short":"waw-1","host":"waw-1.pl.uncletopia.com","port":27015,"enabled":true,"region":"eu","cc":"pl","latitude":52.2297,"longitude":21.017532,"reserved":0,"last_update":"0001-01-01T00:00:00Z","name_a2s":"Uncletopia | Warsaw | 1 | All Maps","protocol":17,"map":"cp_altitude","folder":"tf","game":"Team Fortress","app_id":440,"player_count":0,"max_players":24,"Bots":0,"server_type":"Dedicated","server_os":"Linux","password":true,"vac":true,"version":"7961495","steam_id":85568392925397850,"keywords":["cp","nocrits","nodmgspread","uncletopia"],"game_id":440,"stv_port":27016,"stv_name":"Uncletopia | Warsaw | 1 | All Maps | STV","players":null},{"server_id":50,"name":"Uncletopia | Warsaw | 2 | All Maps","name_short":"waw-2","host":"waw-1.pl.uncletopia.com","port":27025,"enabled":true,"region":"eu","cc":"pl","latitude":52.2297,"longitude":21.017532,"reserved":0,"last_update":"0001-01-01T00:00:00Z","name_a2s":"Uncletopia | Warsaw | 2 | All Maps","protocol":17,"map":"koth_cascade","folder":"tf","game":"Team Fortress","app_id":440,"player_count":0,"max_players":24,"Bots":0,"server_type":"Dedicated","server_os":"Linux","password":true,"vac":true,"version":"7961495","steam_id":85568392925397851,"keywords":["cp","nocrits","nodmgspread","uncletopia"],"game_id":440,"stv_port":27026,"stv_name":"Uncletopia | Warsaw | 2 | All Maps | STV","players":null},{"server_id":51,"name":"Uncletopia | Warsaw | 3 | All Maps","name_short":"waw-3","host":"waw-1.pl.uncletopia.com","port":27035,"enabled":true,"region":"eu","cc":"pl","latitude":52.2297,"longitude":21.017532,"reserved":0,"last_update":"0001-01-01T00:00:00Z","name_a2s":"Uncletopia | Warsaw | 3 | All Maps","protocol":17,"map":"pl_frontier_final","folder":"tf","game":"Team Fortress","app_id":440,"player_count":0,"max_players":24,"Bots":0,"server_type":"Dedicated","server_os":"Linux","password":true,"vac":true,"version":"7961495","steam_id":85568392925397852,"keywords":["nocrits","nodmgspread","payload","uncletopia"],"game_id":440,"stv_port":27036,"stv_name":"Uncletopia | Warsaw | 3 | All Maps | STV","players":null},{"server_id":52,"name":"Uncletopia | Warsaw | 4 | All Maps","name_short":"waw-4","host":"waw-1.pl.uncletopia.com","port":27045,"enabled":true,"region":"eu","cc":"pl","latitude":52.2297,"longitude":21.017532,"reserved":0,"last_update":"0001-01-01T00:00:00Z","name_a2s":"Uncletopia | Warsaw | 4 | All Maps","protocol":17,"map":"koth_lakeside_final","folder":"tf","game":"Team Fortress","app_id":440,"player_count":0,"max_players":24,"Bots":0,"server_type":"Dedicated","server_os":"Linux","password":true,"vac":true,"version":"7961495","steam_id":85568392925397853,"keywords":["cp","nocrits","nodmgspread","uncletopia"],"game_id":440,"stv_port":27046,"stv_name":"Uncletopia | Warsaw | 4 | All Maps | STV","players":null},{"server_id":53,"name":"Uncletopia | Warsaw | 5 | Stopwatch","name_short":"waw-5","host":"waw-1.pl.uncletopia.com","port":27055,"enabled":true,"region":"eu","cc":"pl","latitude":52.2297,"longitude":21.017532,"reserved":0,"last_update":"0001-01-01T00:00:00Z","name_a2s":"Uncletopia | Warsaw | 5 | Stopwatch","protocol":17,"map":"workshop/pl_vigil_rc10.ugc1266210012","folder":"tf","game":"Team Fortress","app_id":440,"player_count":0,"max_players":24,"Bots":0,"server_type":"Dedicated","server_os":"Linux","password":true,"vac":true,"version":"7961495","steam_id":85568392925397854,"keywords":["nocrits","nodmgspread","payload","uncletopia"],"game_id":440,"stv_port":27056,"stv_name":"Uncletopia | Warsaw | 5 | Stopwatch | STV","players":null},{"server_id":54,"name":"Uncletopia | Warsaw | 6 | Community","name_short":"waw-6","host":"waw-1.pl.uncletopia.com","port":27065,"enabled":true,"region":"eu","cc":"pl","latitude":52.2297,"longitude":21.017532,"reserved":0,"last_update":"0001-01-01T00:00:00Z","name_a2s":"Uncletopia | Warsaw | 6 | Community","protocol":17,"map":"workshop/cp_mannbase_rc2a.ugc1900737467","folder":"tf","game":"Team Fortress","app_id":440,"player_count":0,"max_players":24,"Bots":0,"server_type":"Dedicated","server_os":"Linux","password":true,"vac":true,"version":"7961495","steam_id":85568392925397856,"keywords":["cp","nocrits","nodmgspread","uncletopia"],"game_id":440,"stv_port":27066,"stv_name":"Uncletopia | Warsaw | 6 | Community | STV","players":null}]}