{"status":true,"message":"","result":[{"server_id":9,"name":"Uncletopia | Atlanta | 1 | All Maps","name_short":"atl-1","host":"atl-1.us.uncletopia.com","port":27015,"enabled":true,"region":"us-east","cc":"us","latitude":33.753746,"longitude":-84.38633,"reserved":0,"last_update":"0001-01-01T00:00:00Z","name_a2s":"Uncletopia | Atlanta | 1 | All Maps","protocol":17,"map":"koth_lakeside_final","folder":"tf","game":"Team Fortress","app_id":440,"player_count":0,"max_players":24,"Bots":0,"server_type":"Dedicated","server_os":"Linux","password":true,"vac":true,"version":"7757534","steam_id":85568392924469982,"keywords":["cp","nocrits","nodmgspread","uncletopia"],"game_id":440,"stv_port":27016,"stv_name":"Uncletopia | Atlanta | 1 | All Maps | STV","players":null},{"server_id":104,"name":"Uncletopia | Atlanta | 2 | All Maps","name_short":"atl-2","host":"atl-1.us.uncletopia.com","port":27025,"enabled":true,"region":"us-east","cc":"us","latitude":33.753746,"longitude":-84.38633,"reserved":0,"last_update":"0001-01-01T00:00:00Z","name_a2s":"Uncletopia | Atlanta | 2 | All Maps","protocol":17,"map":"cp_dustbowl","folder":"tf","game":"Team Fortress","app_id":440,"player_count":0,"max_players":24,"Bots":0,"server_type":"Dedicated","server_os":"Linux","password":true,"vac":true,"version":"7757534","steam_id":85568392924469983,"keywords":["cp","nocrits","nodmgspread","uncletopia"],"game_id":440,"stv_port":27026,"stv_name":"Uncletopia | Atlanta | 2 | All Maps | STV","players":null},{"server_id":400,"name":"Uncletopia | Atlanta | 3 | Community","name_short":"atl-3","host":"atl-1.us.uncletopia.com","port":27035,"enabled":true,"region":"us-east","cc":"us","latitude":33.753746,"longitude":-84.38633,"reserved":0,"last_update":"0001-01-01T00:00:00Z","name_a2s":"Uncletopia | Atlanta | 3 | Community","protocol":17,"map":"cp_snakewater_final1","folder":"tf","game":"Team Fortress","app_id":440,"player_count":0,"max_players":24,"Bots":0,"server_type":"Dedicated","server_os":"Linux","password":true,"vac":true,"version":"7757534","steam_id":85568392924515187,"keywords":["cp","nocrits","nodmgspread","uncletopia"],"game_id":440,"stv_port":27036,"stv_name":"Uncletopia | Atlanta | 3 | Community | STV","players":null},{"server_id":401,"name":"Uncletopia | Atlanta | 4 | No Payload","name_short":"atl-4","host":"atl-1.us.uncletopia.com","port":27045,"enabled":true,"region":"us-east","cc":"us","latitude":33.753746,"longitude":-84.38633,"reserved":0,"last_update":"0001-01-01T00:00:00Z","name_a2s":"","protocol":0,"map":"","folder":"","game":"","app_id":0,"player_count":0,"max_players":0,"Bots":0,"server_type":"","server_os":"","password":false,"vac":false,"version":"","steam_id":0,"keywords":null,"game_id":0,"stv_port":0,"stv_name":"","players":null},{"server_id":2,"name":"Uncletopia | Chicago | 1 | All Maps","name_short":"chi-1","host":"chi-1.us.uncletopia.com","port":27015,"enabled":true,"region":"us-central","cc":"us","latitude":41.881832,"longitude":-87.62318,"reserved":0,"last_update":"0001-01-01T00:00:00Z","name_a2s":"Uncletopia | Chicago | 1 | All Maps","protocol":17,"map":"cp_sunshine","folder":"tf","game":"Team Fortress","app_id":440,"player_count":0,"max_players":24,"Bots":0,"server_type":"Dedicated","server_os":"Linux","password":true,"vac":true,"version":"7757534","steam_id":85568392924469984,"keywords":["cp","nocrits","nodmgspread","uncletopia"],"game_id":440,"stv_port":27016,"stv_name":"Uncletopia | Chicago | 1 | All Maps | STV","players":null},{"server_id":106,"name":"Uncletopia | Chicago | 2 | All Maps","name_short":"chi-2","host":"chi-1.us.uncletopia.com","port":27025,"enabled":true,"region":"us-central","cc":"us","latitude":41.881832,"longitude":-87.62318,"reserved":0,"last_update":"0001-01-01T00:00:00Z","name_a2s":"Uncletopia | Chicago | 2 | All Maps","protocol":17,"map":"pl_barnblitz","folder":"tf","game":"Team Fortress","app_id":440,"player_count":0,"max_players":24,"Bots":0,"server_type":"Dedicated","server_os":"Linux","password":true,"vac":true,"version":"7757534","steam_id":85568392924469985,"keywords":["nocrits","nodmgspread","payload","uncletopia"],"game_id":440,"stv_port":27026,"stv_name":"Uncletopia | Chicago | 2 | All Maps | STV","players":null},{"server_id":402,"name":"Uncletopia | Chicago | 3 | All Maps","name_short":"chi-3","host":"chi-1.us.uncletopia.com","port":27035,"enabled":true,"region":"us-central","cc":"us","latitude":41.881832,"longitude":-87.62318,"reserved":0,"last_update":"0001-01-01T00:00:00Z","name_a2s":"Uncletopia | Chicago | 3 | All Maps","protocol":17,"map":"cp_badlands","folder":"tf","game":"Team Fortress","app_id":440,"player_count":4,"max_players":24,"Bots":0,"server_type":"Dedicated","server_os":"Linux","password":true,"vac":true,"version":"7757534","steam_id":85568392924515191,"keywords":["cp","nocrits","nodmgspread","uncletopia"],"game_id":440,"stv_port":27036,"stv_name":"Uncletopia | Chicago | 3 | All Maps | STV","players":[{"user_id":965,"name":"Tw0_T0ne","steam_id":76561198954628664,"connected_time":513000000000,"state":"active","ping":149},{"user_id":966,"name":"Sparse","steam_id":76561198865084441,"connected_time":512000000000,"state":"active","ping":67},{"user_id":942,"name":"Kedata","steam_id":76561198047750050,"connected_time":3254000000000,"state":"active","ping":35},{"user_id":900,"name":"dmdr1969","steam_id":76561198080469611,"connected_time":6276000000000,"state":"active","ping":59}]},{"server_id":403,"name":"Uncletopia | Chicago | 4 | All Maps","name_short":"chi-4","host":"chi-1.us.uncletopia.com","port":27045,"enabled":true,"region":"us-central","cc":"us","latitude":41.881832,"longitude":-87.62318,"reserved":0,"last_update":"0001-01-01T00:00:00Z","name_a2s":"Uncletopia | Chicago | 4 | All Maps","protocol":17,"map":"koth_highpass","folder":"tf","game":"Team Fortress","app_id":440,"player_count":0,"max_players":24,"Bots":0,"server_type":"Dedicated","server_os":"Linux","password":true,"vac":true,"version":"7757534","steam_id":85568392924515193,"keywords":["cp","nocrits","nodmgspread","uncletopia"],"game_id":440,"stv_port":27046,"stv_name":"Uncletopia | Chicago | 4 | All Maps | STV","players":null},{"server_id":36,"name":"Uncletopia | Chicago | 5 | All Maps","name_short":"chi-5","host":"chi-2.us.uncletopia.com","port":27015,"enabled":true,"region":"us-central","cc":"us","latitude":41.881832,"longitude":-87.62318,"reserved":0,"last_update":"0001-01-01T00:00:00Z","name_a2s":"Uncletopia | Chicago | 5 | All Maps","protocol":17,"map":"pl_borneo","folder":"tf","game":"Team Fortress","app_id":440,"player_count":0,"max_players":24,"Bots":0,"server_type":"Dedicated","server_os":"Linux","password":true,"vac":true,"version":"7757534","steam_id":85568392924866362,"keywords":["nocrits","nodmgspread","payload","uncletopia"],"game_id":440,"stv_port":27016,"stv_name":"Uncletopia | Chicago | 5 | All Maps | STV","players":null},{"server_id":37,"name":"Uncletopia | Chicago | 6 | All Maps","name_short":"chi-6","host":"chi-2.us.uncletopia.com","port":27025,"enabled":true,"region":"us-central","cc":"us","latitude":41.881832,"longitude":-87.62318,"reserved":0,"last_update":"0001-01-01T00:00:00Z","name_a2s":"Uncletopia | Chicago | 6 | All Maps","protocol":17,"map":"koth_lakeside_final","folder":"tf","game":"Team Fortress","app_id":440,"player_count":0,"max_players":24,"Bots":0,"server_type":"Dedicated","server_os":"Linux","password":true,"vac":true,"version":"7757534","steam_id":85568392924866363,"keywords":["cp","nocrits","nodmgspread","uncletopia"],"game_id":440,"stv_port":27026,"stv_name":"Uncletopia | Chicago | 6 | All Maps | STV","players":null},{"server_id":38,"name":"Uncletopia | Chicago | 7 | Stopwatch Beta","name_short":"chi-7","host":"chi-2.us.uncletopia.com","port":27035,"enabled":true,"region":"us-central","cc":"us","latitude":41.881832,"longitude":-87.62318,"reserved":0,"last_update":"0001-01-01T00:00:00Z","name_a2s":"Uncletopia | Chicago | 7 | Stopwatch Beta","protocol":17,"map":"pl_barnblitz","folder":"tf","game":"Team Fortress","app_id":440,"player_count":0,"max_players":24,"Bots":0,"server_type":"Dedicated","server_os":"Linux","password":true,"vac":true,"version":"7757534","steam_id":85568392924866364,"keywords":["nocrits","nodmgspread","payload","uncletopia"],"game_id":440,"stv_port":27036,"stv_name":"Uncletopia | Chicago | 7 | Stopwatch Beta | STV","players":null},{"server_id":39,"name":"Uncletopia | Chicago | 8 | Community","name_short":"chi-8","host":"chi-2.us.uncletopia.com","port":27045,"enabled":true,"region":"us-central","cc":"us","latitude":41.881832,"longitude":-87.62318,"reserved":0,"last_update":"0001-01-01T00:00:00Z","name_a2s":"Uncletopia | Chicago | 8 | Community","protocol":17,"map":"workshop/pl_corrode_rc2.ugc546577989","folder":"tf","game":"Team Fortress","app_id":440,"player_count":0,"max_players":24,"Bots":0,"server_type":"Dedicated","server_os":"Linux","password":true,"vac":true,"version":"7757534","steam_id":85568392924866365,"keywords":["nocrits","nodmgspread","payload","uncletopia"],"game_id":440,"stv_port":27046,"stv_name":"Uncletopia | Chicago | 8 | Community | STV","players":null},{"server_id":8,"name":"Uncletopia | Dallas | 1 | All Maps","name_short":"dal-1","host":"dal-1.us.uncletopia.com","port":27015,"enabled":true,"region":"us-central","cc":"us","latitude":32.779167,"longitude":-96.80889,"reserved":0,"last_update":"0001-01-01T00:00:00Z","name_a2s":"Uncletopia | Dallas | 1 | All Maps","protocol":17,"map":"koth_king","folder":"tf","game":"Team Fortress","app_id":440,"player_count":23,"max_players":24,"Bots":0,"server_type":"Dedicated","server_os":"Linux","password":true,"vac":true,"version":"7757534","steam_id":85568392924469986,"keywords":["cp","nocrits","nodmgspread","uncletopia"],"game_id":440,"stv_port":27016,"stv_name":"Uncletopia | Dallas | 1 | All Maps | STV","players":[{"user_id":1042,"name":"connie kins","steam_id":76561198074701151,"connected_time":3825000000000,"state":"active","ping":76},{"user_id":1081,"name":"Oddit77","steam_id":76561199274247868,"connected_time":383000000000,"state":"active","ping":69},{"user_id":1059,"name":"brock","steam_id":76561199015537819,"connected_time":2044000000000,"state":"active","ping":53},{"user_id":1043,"name":"Dairy Queen","steam_id":76561198285298576,"connected_time":3821000000000,"state":"active","ping":95},{"user_id":1013,"name":"Gelliterate","steam_id":76561198107233070,"connected_time":7104000000000,"state":"active","ping":49},{"user_id":1063,"name":"Ignatius J. Reilly","steam_id":76561198066958868,"connected_time":1668000000000,"state":"active","ping":88},{"user_id":1035,"name":"Yume","steam_id":76561198018060136,"connected_time":4599000000000,"state":"active","ping":68},{"user_id":1057,"name":"LtK","steam_id":76561197993180943,"connected_time":2331000000000,"state":"active","ping":44},{"user_id":1070,"name":"CheeseCake488","steam_id":76561199407617942,"connected_time":1039000000000,"state":"active","ping":105},{"user_id":1071,"name":"DualiTea","steam_id":76561198081733870,"connected_time":1026000000000,"state":"active","ping":72},{"user_id":1033,"name":"minty","steam_id":76561198062821894,"connected_time":4751000000000,"state":"active","ping":53},{"user_id":1065,"name":"Monster","steam_id":76561198189429665,"connected_time":1448000000000,"state":"active","ping":72},{"user_id":1082,"name":"pete_the_cat_2014","steam_id":76561198199266047,"connected_time":271000000000,"state":"active","ping":67},{"user_id":980,"name":"Yosh","steam_id":76561198027078899,"connected_time":9830000000000,"state":"active","ping":75},{"user_id":1061,"name":"Hentai Lord","steam_id":76561199030449654,"connected_time":1947000000000,"state":"active","ping":92},{"user_id":1079,"name":"BIG HOG","steam_id":76561198079923652,"connected_time":629000000000,"state":"active","ping":53},{"user_id":1068,"name":"hightower npc","steam_id":76561198097588802,"connected_time":1193000000000,"state":"active","ping":67},{"user_id":1073,"name":"Fred","steam_id":76561197983870604,"connected_time":975000000000,"state":"active","ping":71},{"user_id":1039,"name":"pocketpc_","steam_id":76561198123199942,"connected_time":4476000000000,"state":"active","ping":89},{"user_id":1054,"name":"üê∫-Iwky-ü¶ä","steam_id":76561198185616311,"connected_time":2865000000000,"state":"active","ping":69},{"user_id":938,"name":"Bread Makes you Fat","steam_id":76561198985126532,"connected_time":12447000000000,"state":"active","ping":45},{"user_id":1078,"name":"Drakon","steam_id":76561198078210822,"connected_time":685000000000,"state":"active","ping":90},{"user_id":1080,"name":"inzang","steam_id":76561198088318074,"connected_time":513000000000,"state":"active","ping":54}]},{"server_id":108,"name":"Uncletopia | Dallas | 2 | All Maps","name_short":"dal-2","host":"dal-1.us.uncletopia.com","port":27025,"enabled":true,"region":"us-central","cc":"us","latitude":32.779167,"longitude":-96.80889,"reserved":0,"last_update":"0001-01-01T00:00:00Z","name_a2s":"Uncletopia | Dallas | 2 | All Maps","protocol":17,"map":"cp_process_final","folder":"tf","game":"Team Fortress","app_id":440,"player_count":0,"max_players":24,"Bots":0,"server_type":"Dedicated","server_os":"Linux","password":true,"vac":true,"version":"7757534","steam_id":85568392924469988,"keywords":["cp","nocrits","nodmgspread","uncletopia"],"game_id":440,"stv_port":27026,"stv_name":"Uncletopia | Dallas | 2 | All Maps | STV","players":null},{"server_id":5,"name":"Uncletopia | Frankfurt | 1 | All Maps","name_short":"frk-1","host":"frk-1.de.uncletopia.com","port":27015,"enabled":true,"region":"eu","cc":"de","latitude":50.110924,"longitude":8.682127,"reserved":0,"last_update":"0001-01-01T00:00:00Z","name_a2s":"Uncletopia | Frankfurt | 1 | All Maps","protocol":17,"map":"cp_steel","folder":"tf","game":"Team Fortress","app_id":440,"player_count":20,"max_players":24,"Bots":0,"server_type":"Dedicated","server_os":"Linux","password":true,"vac":true,"version":"7757534","steam_id":85568392924469989,"keywords":["cp","nocrits","nodmgspread","uncletopia"],"game_id":440,"stv_port":27016,"stv_name":"Uncletopia | Frankfurt | 1 | All Maps | STV","players":[{"user_id":161,"name":"Doohickey mechanic","steam_id":76561198146180114,"connected_time":3483000000000,"state":"spawning","ping":75},{"user_id":212,"name":"lieutenant meaw is down meming","steam_id":76561198054313942,"connected_time":8000000000,"state":"spawning","ping":152},{"user_id":199,"name":"Reomk","steam_id":76561198309314129,"connected_time":760000000000,"state":"spawning","ping":264},{"user_id":201,"name":"hxppy","steam_id":76561198214356923,"connected_time":701000000000,"state":"spawning","ping":47},{"user_id":211,"name":"T i e","steam_id":76561198340615334,"connected_time":80000000000,"state":"spawning","ping":92},{"user_id":185,"name":"Nekontrolovateln√° st≈ôela","steam_id":76561198056810212,"connected_time":1485000000000,"state":"spawning","ping":247},{"user_id":187,"name":"Fish","steam_id":76561199133635066,"connected_time":1413000000000,"state":"spawning","ping":71},{"user_id":188,"name":"john fortress","steam_id":76561198013237629,"connected_time":1411000000000,"state":"spawning","ping":117},{"user_id":180,"name":"Fuvuk","steam_id":76561198044458593,"connected_time":1696000000000,"state":"spawning","ping":92},{"user_id":207,"name":"(tracking device)","steam_id":76561198261094295,"connected_time":176000000000,"state":"spawning","ping":53},{"user_id":203,"name":"Hari Pootis","steam_id":76561198156135937,"connected_time":583000000000,"state":"spawning","ping":41},{"user_id":162,"name":"Chopperson_","steam_id":76561198873728497,"connected_time":3473000000000,"state":"spawning","ping":94},{"user_id":206,"name":"–ù—ñ–∫—ñ—Ç—Ä–æ–Ω","steam_id":76561198044401080,"connected_time":504000000000,"state":"spawning","ping":61},{"user_id":210,"name":"triangle","steam_id":76561199313282353,"connected_time":94000000000,"state":"spawning","ping":90},{"user_id":175,"name":"Edgy Name","steam_id":76561198378270820,"connected_time":2117000000000,"state":"active","ping":155},{"user_id":183,"name":"no cunt","steam_id":76561198103269397,"connected_time":1574000000000,"state":"spawning","ping":63},{"user_id":179,"name":"Social Socialist","steam_id":76561198054448795,"connected_time":1872000000000,"state":"spawning","ping":135},{"user_id":192,"name":"coffee","steam_id":76561198382387303,"connected_time":1342000000000,"state":"spawning","ping":69},{"user_id":194,"name":"BasLutnya","steam_id":76561198050575776,"connected_time":1264000000000,"state":"spawning","ping":78},{"user_id":164,"name":"marco / s /","steam_id":76561198300120382,"connected_time":3405000000000,"state":"spawning","ping":65}]},{"server_id":110,"name":"Uncletopia | Frankfurt | 2 | All Maps","name_short":"frk-2","host":"frk-1.de.uncletopia.com","port":27025,"enabled":true,"region":"eu","cc":"de","latitude":50.110924,"longitude":8.682127,"reserved":0,"last_update":"0001-01-01T00:00:00Z","name_a2s":"Uncletopia | Frankfurt | 2 | All Maps","protocol":17,"map":"cp_snakewater_final1","folder":"tf","game":"Team Fortress","app_id":440,"player_count":0,"max_players":24,"Bots":0,"server_type":"Dedicated","server_os":"Linux","password":true,"vac":true,"version":"7757534","steam_id":85568392924469990,"keywords":["cp","nocrits","nodmgspread","uncletopia"],"game_id":440,"stv_port":27026,"stv_name":"Uncletopia | Frankfurt | 2 | All Maps | STV","players":null},{"server_id":308,"name":"Uncletopia | Frankfurt | 3 | All Maps","name_short":"frk-3","host":"frk-1.de.uncletopia.com","port":27035,"enabled":true,"region":"eu","cc":"de","latitude":50.110924,"longitude":8.682127,"reserved":0,"last_update":"0001-01-01T00:00:00Z","name_a2s":"Uncletopia | Frankfurt | 3 | All Maps","protocol":17,"map":"pl_badwater","folder":"tf","game":"Team Fortress","app_id":440,"player_count":24,"max_players":24,"Bots":0,"server_type":"Dedicated","server_os":"Linux","password":true,"vac":true,"version":"7757534","steam_id":85568392924504274,"keywords":["nocrits","nodmgspread","payload","uncletopia"],"game_id":440,"stv_port":27036,"stv_name":"Uncletopia | Frankfurt | 3 | All Maps | STV","players":[{"user_id":22,"name":"dorak","steam_id":76561198818037965,"connected_time":1228000000000,"state":"active","ping":106},{"user_id":21,"name":"Cirilla.gif","steam_id":76561198090586031,"connected_time":1363000000000,"state":"active","ping":77},{"user_id":29,"name":"X-tis","steam_id":76561198043837480,"connected_time":1122000000000,"state":"active","ping":70},{"user_id":57,"name":"ÍßÅ‡πñ‰π°√êe¬∑SexyLion‰π°ÍßÇ","steam_id":76561198123539320,"connected_time":25000000000,"state":"spawning","ping":89},{"user_id":9,"name":"Jeerven","steam_id":76561198259189841,"connected_time":2134000000000,"state":"active","ping":64},{"user_id":20,"name":"Boki","steam_id":76561198044553351,"connected_time":1448000000000,"state":"active","ping":75},{"user_id":23,"name":"Majami","steam_id":76561198054365738,"connected_time":1225000000000,"state":"active","ping":78},{"user_id":14,"name":"Luuk","steam_id":76561198088266026,"connected_time":1666000000000,"state":"active","ping":45},{"user_id":45,"name":"T der Ba | trade.tf","steam_id":76561198091189185,"connected_time":848000000000,"state":"active","ping":47},{"user_id":39,"name":"Blu (F2P, jittery ping)","steam_id":76561198874192746,"connected_time":964000000000,"state":"active","ping":170},{"user_id":25,"name":"padillacampos","steam_id":76561198161923970,"connected_time":1192000000000,"state":"active","ping":83},{"user_id":30,"name":"ü•∂RV14üî•","steam_id":76561199168204989,"connected_time":1115000000000,"state":"active","ping":89},{"user_id":27,"name":"Rex Z'Beq","steam_id":76561199300590000,"connected_time":1181000000000,"state":"active","ping":87},{"user_id":31,"name":"arnold","steam_id":76561198387792688,"connected_time":1115000000000,"state":"active","ping":53},{"user_id":32,"name":"Bab","steam_id":76561198277270975,"connected_time":1109000000000,"state":"active","ping":73},{"user_id":33,"name":"Fat Pigeon","steam_id":76561198817940142,"connected_time":1083000000000,"state":"active","ping":57},{"user_id":34,"name":"Jon Snuh","steam_id":76561198075298635,"connected_time":1052000000000,"state":"active","ping":148},{"user_id":46,"name":"One-Face","steam_id":76561197999384826,"connected_time":801000000000,"state":"active","ping":53},{"user_id":40,"name":"Weed Soldier Gaming","steam_id":76561198150448445,"connected_time":962000000000,"state":"active","ping":58},{"user_id":41,"name":"Ixion","steam_id":76561198041660675,"connected_time":941000000000,"state":"active","ping":78},{"user_id":54,"name":"vontex","steam_id":76561198211564973,"connected_time":174000000000,"state":"active","ping":88},{"user_id":42,"name":"John Smoke","steam_id":76561198061717986,"connected_time":932000000000,"state":"active","ping":59},{"user_id":43,"name":"dimitrij_6ix_god","steam_id":76561199023275543,"connected_time":908000000000,"state":"active","ping":75},{"user_id":56,"name":"panakid","steam_id":76561198364121077,"connected_time":127000000000,"state":"active","ping":104}]},{"server_id":309,"name":"Uncletopia | Frankfurt | 4 | All Maps","name_short":"frk-4","host":"frk-1.de.uncletopia.com","port":27045,"enabled":true,"region":"eu","cc":"de","latitude":50.110924,"longitude":8.682127,"reserved":0,"last_update":"0001-01-01T00:00:00Z","name_a2s":"Uncletopia | Frankfurt | 4 | All Maps","protocol":17,"map":"koth_viaduct","folder":"tf","game":"Team Fortress","app_id":440,"player_count":0,"max_players":24,"Bots":0,"server_type":"Dedicated","server_os":"Linux","password":true,"vac":true,"version":"7757534","steam_id":85568392924504275,"keywords":["cp","nocrits","nodmgspread","uncletopia"],"game_id":440,"stv_port":27046,"stv_name":"Uncletopia | Frankfurt | 4 | All Maps | STV","players":null},{"server_id":310,"name":"Uncletopia | Frankfurt | 5 | All Maps","name_short":"frk-5","host":"frk-1.de.uncletopia.com","port":27055,"enabled":true,"region":"eu","cc":"de","latitude":50.110924,"longitude":8.682127,"reserved":0,"last_update":"0001-01-01T00:00:00Z","name_a2s":"Uncletopia | Frankfurt | 5 | All Maps","protocol":17,"map":"pl_barnblitz","folder":"tf","game":"Team Fortress","app_id":440,"player_count":22,"max_players":24,"Bots":0,"server_type":"Dedicated","server_os":"Linux","password":true,"vac":true,"version":"7757534","steam_id":85568392924504277,"keywords":["nocrits","nodmgspread","payload","uncletopia"],"game_id":440,"stv_port":27056,"stv_name":"Uncletopia | Frankfurt | 5 | All Maps | STV","players":[{"user_id":61,"name":"scrumpy enjoyer","steam_id":76561199218231334,"connected_time":423000000000,"state":"active","ping":97},{"user_id":59,"name":"Lyell","steam_id":76561198350329389,"connected_time":484000000000,"state":"active","ping":79},{"user_id":60,"name":"Dragon","steam_id":76561198163255365,"connected_time":462000000000,"state":"active","ping":91},{"user_id":38,"name":"eXer","steam_id":76561198838634181,"connected_time":2293000000000,"state":"active","ping":89},{"user_id":8,"name":"Pan Pan","steam_id":76561199074670515,"connected_time":3194000000000,"state":"active","ping":96},{"user_id":9,"name":"Loop_Cat","steam_id":76561199045902145,"connected_time":3170000000000,"state":"active","ping":116},{"user_id":62,"name":"Ruke 1","steam_id":76561198409908008,"connected_time":79000000000,"state":"active","ping":93},{"user_id":46,"name":"WE NEED 5 BILLION ROCKETS","steam_id":76561199004923871,"connected_time":1907000000000,"state":"active","ping":87},{"user_id":13,"name":"Goon","steam_id":76561198927527338,"connected_time":3092000000000,"state":"active","ping":68},{"user_id":14,"name":"sex havin'","steam_id":76561198169857427,"connected_time":3020000000000,"state":"active","ping":83},{"user_id":57,"name":"Squash Banana","steam_id":76561198055480280,"connected_time":574000000000,"state":"active","ping":85},{"user_id":44,"name":"sneaky pete","steam_id":76561198066287297,"connected_time":1934000000000,"state":"active","ping":44},{"user_id":45,"name":"pensami forte","steam_id":76561198066071855,"connected_time":1930000000000,"state":"active","ping":61},{"user_id":54,"name":"Lessoz","steam_id":76561199211572036,"connected_time":709000000000,"state":"active","ping":103},{"user_id":37,"name":"Rin-Nakaret","steam_id":76561197971051188,"connected_time":2309000000000,"state":"active","ping":60},{"user_id":55,"name":"Seail_M","steam_id":76561198002405605,"connected_time":590000000000,"state":"active","ping":57},{"user_id":35,"name":"deadlyqueenie","steam_id":76561199466056869,"connected_time":2462000000000,"state":"active","ping":64},{"user_id":56,"name":"Mlanky","steam_id":76561198047796778,"connected_time":590000000000,"state":"active","ping":46},{"user_id":49,"name":"Krefa12","steam_id":76561198268375393,"connected_time":1892000000000,"state":"active","ping":98},{"user_id":64,"name":"DOMAIN","steam_id":76561199095640319,"connected_time":59000000000,"state":"active","ping":86},{"user_id":29,"name":"cof","steam_id":76561199128417805,"connected_time":2755000000000,"state":"active","ping":70},{"user_id":52,"name":"LFGGGGGG","steam_id":76561199062586342,"connected_time":1424000000000,"state":"active","ping":74}]},{"server_id":311,"name":"Uncletopia | Frankfurt | 6 | All Maps","name_short":"frk-6","host":"frk-1.de.uncletopia.com","port":27065,"enabled":true,"region":"eu","cc":"de","latitude":50.110924,"longitude":8.682127,"reserved":0,"last_update":"0001-01-01T00:00:00Z","name_a2s":"Uncletopia | Frankfurt | 6 | All Maps","protocol":17,"map":"pl_snowycoast","folder":"tf","game":"Team Fortress","app_id":440,"player_count":22,"max_players":24,"Bots":0,"server_type":"Dedicated","server_os":"Linux","password":true,"vac":true,"version":"7757534","steam_id":85568392924504278,"keywords":["nocrits","nodmgspread","payload","uncletopia"],"game_id":440,"stv_port":27066,"stv_name":"Uncletopia | Frankfurt | 6 | All Maps | STV","players":[{"user_id":95,"name":"Droy","steam_id":76561198065854668,"connected_time":4981000000000,"state":"active","ping":59},{"user_id":119,"name":"Muppburg","steam_id":76561198031070682,"connected_time":2594000000000,"state":"active","ping":74},{"user_id":117,"name":"on1on (fried)","steam_id":76561197995304137,"connected_time":3161000000000,"state":"active","ping":66},{"user_id":142,"name":"TheHuman147","steam_id":76561198980984647,"connected_time":116000000000,"state":"active","ping":110},{"user_id":143,"name":"the voices","steam_id":76561198261627736,"connected_time":111000000000,"state":"active","ping":93},{"user_id":109,"name":"Spinyapickle","steam_id":76561198086653667,"connected_time":3830000000000,"state":"active","ping":65},{"user_id":141,"name":"pfear","steam_id":76561197999207328,"connected_time":371000000000,"state":"active","ping":75},{"user_id":144,"name":"Taijny","steam_id":76561198200178861,"connected_time":99000000000,"state":"active","ping":90},{"user_id":75,"name":"b4s__","steam_id":76561198956558290,"connected_time":8164000000000,"state":"active","ping":58},{"user_id":152,"name":"Deacon Dracul","steam_id":76561198046880663,"connected_time":6000000000,"state":"spawning","ping":111},{"user_id":49,"name":"El Gato Volador","steam_id":76561198021296882,"connected_time":9655000000000,"state":"active","ping":75},{"user_id":146,"name":"Rat head","steam_id":76561198184360615,"connected_time":79000000000,"state":"active","ping":89},{"user_id":103,"name":"Helon","steam_id":76561198050761682,"connected_time":4146000000000,"state":"active","ping":46},{"user_id":147,"name":"swueuws","steam_id":76561198020716743,"connected_time":62000000000,"state":"active","ping":59},{"user_id":148,"name":"lofimonkeyjazz","steam_id":76561198117059662,"connected_time":49000000000,"state":"active","ping":80},{"user_id":133,"name":"Clitorina","steam_id":76561198077570815,"connected_time":1315000000000,"state":"active","ping":51},{"user_id":149,"name":"the babadook","steam_id":76561198040168682,"connected_time":42000000000,"state":"active","ping":46},{"user_id":150,"name":"Klonky","steam_id":76561199068329886,"connected_time":33000000000,"state":"active","ping":148},{"user_id":151,"name":":3","steam_id":76561199469547832,"connected_time":17000000000,"state":"active","ping":96},{"user_id":138,"name":"murderwow","steam_id":76561198024566944,"connected_time":1000000000000,"state":"active","ping":91},{"user_id":136,"name":"dongus","steam_id":76561198042774930,"connected_time":1033000000000,"state":"active","ping":72},{"user_id":124,"name":"Evelgrand","steam_id":76561199480523816,"connected_time":2175000000000,"state":"active","ping":98}]},{"server_id":23,"name":"Uncletopia | Frankfurt | 7 | Stopwatch Beta","name_short":"frk-7","host":"frk-1.de.uncletopia.com","port":27075,"enabled":true,"region":"eu","cc":"de","latitude":50.110924,"longitude":8.682127,"reserved":0,"last_update":"0001-01-01T00:00:00Z","name_a2s":"Uncletopia | Frankfurt | 7 | Stopwatch Beta","protocol":17,"map":"cp_sunshine","folder":"tf","game":"Team Fortress","app_id":440,"player_count":0,"max_players":24,"Bots":0,"server_type":"Dedicated","server_os":"Linux","password":true,"vac":true,"version":"7757534","steam_id":85568392924742827,"keywords":["cp","nocrits","nodmgspread","uncletopia"],"game_id":440,"stv_port":27076,"stv_name":"Uncletopia | Frankfurt | 7 | Stopwatch Beta | STV","players":null},{"server_id":24,"name":"Uncletopia | Frankfurt | 8 | Community","name_short":"frk-8","host":"frk-1.de.uncletopia.com","port":27085,"enabled":true,"region":"eu","cc":"de","latitude":50.110924,"longitude":8.682127,"reserved":0,"last_update":"0001-01-01T00:00:00Z","name_a2s":"Uncletopia | Frankfurt | 8 | Community","protocol":17,"map":"workshop/pl_barnblitz_pro7.ugc582280235","folder":"tf","game":"Team Fortress","app_id":440,"player_count":0,"max_players":24,"Bots":0,"server_type":"Dedicated","server_os":"Linux","password":true,"vac":true,"version":"7757534","steam_id":85568392924742828,"keywords":["nocrits","nodmgspread","payload","uncletopia"],"game_id":440,"stv_port":27086,"stv_name":"Uncletopia | Frankfurt | 8 | Community | STV","players":null},{"server_id":202,"name":"Uncletopia | Hong Kong | 1 | All Maps","name_short":"hgk-1","host":"hgk-1.hk.uncletopia.com","port":27015,"enabled":true,"region":"asia","cc":"hk","latitude":22.302711,"longitude":114.177216,"reserved":0,"last_update":"0001-01-01T00:00:00Z","name_a2s":"Uncletopia | Hong Kong | 1 | All Maps","protocol":17,"map":"pl_upward","folder":"tf","game":"Team Fortress","app_id":440,"player_count":24,"max_players":24,"Bots":0,"server_type":"Dedicated","server_os":"Linux","password":true,"vac":true,"version":"7757534","steam_id":85568392924494504,"keywords":["nocrits","nodmgspread","payload","uncletopia"],"game_id":440,"stv_port":27016,"stv_name":"Uncletopia | Hong Kong | 1 | All Maps | STV","players":[{"user_id":371,"name":"JDSFE","steam_id":76561198975490851,"connected_time":5273000000000,"state":"active","ping":108},{"user_id":386,"name":"bathtub","steam_id":76561198967804087,"connected_time":3736000000000,"state":"active","ping":102},{"user_id":403,"name":"killman47","steam_id":76561198348487408,"connected_time":2078000000000,"state":"active","ping":42},{"user_id":431,"name":"Taplightly","steam_id":76561199176417881,"connected_time":292000000000,"state":"active","ping":146},{"user_id":393,"name":"I am BOX","steam_id":76561198845309411,"connected_time":2405000000000,"state":"active","ping":157},{"user_id":397,"name":"Kovac","steam_id":76561198318126190,"connected_time":2202000000000,"state":"active","ping":98},{"user_id":420,"name":"Engineer Gaming","steam_id":76561199015521820,"connected_time":983000000000,"state":"active","ping":93},{"user_id":412,"name":"Lynax","steam_id":76561198384987334,"connected_time":1748000000000,"state":"active","ping":82},{"user_id":358,"name":"Hay","steam_id":76561199438952901,"connected_time":6498000000000,"state":"active","ping":50},{"user_id":413,"name":"loki :D","steam_id":76561198127985312,"connected_time":1712000000000,"state":"active","ping":92},{"user_id":401,"name":"√¶vidd","steam_id":76561198447451285,"connected_time":2115000000000,"state":"active","ping":132},{"user_id":426,"name":"MongGoyo63","steam_id":76561198349540834,"connected_time":498000000000,"state":"active","ping":104},{"user_id":433,"name":"monke mode","steam_id":76561198992723983,"connected_time":37000000000,"state":"active","ping":98},{"user_id":427,"name":"9–î6","steam_id":76561198124697322,"connected_time":498000000000,"state":"active","ping":93},{"user_id":428,"name":"Incompertent mercenaries","steam_id":76561198386626651,"connected_time":485000000000,"state":"active","ping":63},{"user_id":419,"name":"Dr_Newbie","steam_id":76561198085468965,"connected_time":1050000000000,"state":"active","ping":136},{"user_id":424,"name":"bushman beepost (deezers)","steam_id":76561199199118750,"connected_time":661000000000,"state":"active","ping":91},{"user_id":385,"name":"NootNoot","steam_id":76561199122109977,"connected_time":3920000000000,"state":"active","ping":116},{"user_id":429,"name":"ok i pull up","steam_id":76561198164297839,"connected_time":479000000000,"state":"active","ping":77},{"user_id":422,"name":"xPhid","steam_id":76561199080808930,"connected_time":874000000000,"state":"active","ping":106},{"user_id":363,"name":"Crippling Depression","steam_id":76561199198723894,"connected_time":5655000000000,"state":"active","ping":86},{"user_id":430,"name":"Fihstaca","steam_id":76561199000742448,"connected_time":339000000000,"state":"active","ping":388},{"user_id":343,"name":"urotsuki with da doobie","steam_id":76561198074339034,"connected_time":8379000000000,"state":"active","ping":76},{"user_id":432,"name":"sahuo","steam_id":76561198814822695,"connected_time":292000000000,"state":"active","ping":84}]},{"server_id":1,"name":"Uncletopia | Los Angeles | 1 | All Maps","name_short":"lax-1","host":"lax-1.us.uncletopia.com","port":27015,"enabled":true,"region":"us-west","cc":"us","latitude":33.94279,"longitude":-118.41004,"reserved":0,"last_update":"0001-01-01T00:00:00Z","name_a2s":"Uncletopia | Los Angeles | 1 | All Maps","protocol":17,"map":"koth_viaduct","folder":"tf","game":"Team Fortress","app_id":440,"player_count":0,"max_players":24,"Bots":0,"server_type":"Dedicated","server_os":"Linux","password":true,"vac":true,"version":"7757534","steam_id":85568392924469991,"keywords":["cp","nocrits","nodmgspread","uncletopia"],"game_id":440,"stv_port":27016,"stv_name":"Uncletopia | Los Angeles | 1 | All Maps | STV","players":null},{"server_id":112,"name":"Uncletopia | Los Angeles | 2 | All Maps","name_short":"lax-2","host":"lax-1.us.uncletopia.com","port":27025,"enabled":true,"region":"us-west","cc":"us","latitude":33.94279,"longitude":-118.41004,"reserved":0,"last_update":"0001-01-01T00:00:00Z","name_a2s":"Uncletopia | Los Angeles | 2 | All Maps","protocol":17,"map":"koth_lakeside_final","folder":"tf","game":"Team Fortress","app_id":440,"player_count":0,"max_players":24,"Bots":0,"server_type":"Dedicated","server_os":"Linux","password":true,"vac":true,"version":"7757534","steam_id":85568392924469992,"keywords":["cp","nocrits","nodmgspread","uncletopia"],"game_id":440,"stv_port":27026,"stv_name":"Uncletopia | Los Angeles | 2 | All Maps | STV","players":null},{"server_id":324,"name":"Uncletopia | Los Angeles | 3 | All Maps","name_short":"lax-3","host":"lax-1.us.uncletopia.com","port":27035,"enabled":true,"region":"us-west","cc":"us","latitude":33.94279,"longitude":-118.41004,"reserved":0,"last_update":"0001-01-01T00:00:00Z","name_a2s":"Uncletopia | Los Angeles | 3 | All Maps","protocol":17,"map":"koth_viaduct","folder":"tf","game":"Team Fortress","app_id":440,"player_count":0,"max_players":24,"Bots":0,"server_type":"Dedicated","server_os":"Linux","password":true,"vac":true,"version":"7757534","steam_id":85568392924510198,"keywords":["cp","nocrits","nodmgspread","uncletopia"],"game_id":440,"stv_port":27036,"stv_name":"Uncletopia | Los Angeles | 3 | All Maps | STV","players":null},{"server_id":25,"name":"Uncletopia | Los Angeles | 4 | Stopwatch Beta","name_short":"lax-4","host":"lax-1.us.uncletopia.com","port":27045,"enabled":true,"region":"us-west","cc":"us","latitude":33.94279,"longitude":-118.41004,"reserved":0,"last_update":"0001-01-01T00:00:00Z","name_a2s":"Uncletopia | Los Angeles | 4 | Stopwatch Beta","protocol":17,"map":"pl_borneo","folder":"tf","game":"Team Fortress","app_id":440,"player_count":0,"max_players":24,"Bots":0,"server_type":"Dedicated","server_os":"Linux","password":true,"vac":true,"version":"7757534","steam_id":85568392924510199,"keywords":["nocrits","nodmgspread","payload","uncletopia"],"game_id":440,"stv_port":27046,"stv_name":"Uncletopia | Los Angeles | 4 | Stopwatch Beta | STV","players":null},{"server_id":11,"name":"Uncletopia | London | 1 | All Maps","name_short":"lon-1","host":"lon-1.uk.uncletopia.com","port":27015,"enabled":true,"region":"eu","cc":"gb","latitude":51.509865,"longitude":-0.118092,"reserved":0,"last_update":"0001-01-01T00:00:00Z","name_a2s":"Uncletopia | London | 1 | All Maps","protocol":17,"map":"cp_dustbowl","folder":"tf","game":"Team Fortress","app_id":440,"player_count":24,"max_players":24,"Bots":0,"server_type":"Dedicated","server_os":"Linux","password":true,"vac":true,"version":"7757534","steam_id":85568392924367362,"keywords":["cp","nocrits","nodmgspread","uncletopia"],"game_id":440,"stv_port":27016,"stv_name":"Uncletopia | London | 1 | All Maps | STV","players":[{"user_id":166,"name":"Piquesque","steam_id":76561198286763046,"connected_time":2152000000000,"state":"active","ping":112},{"user_id":205,"name":"dishsoap","steam_id":76561198849284832,"connected_time":37000000000,"state":"active","ping":55},{"user_id":203,"name":"Munibe","steam_id":76561198107967904,"connected_time":170000000000,"state":"active","ping":68},{"user_id":164,"name":"JamesPepega","steam_id":76561198019156154,"connected_time":2178000000000,"state":"active","ping":75},{"user_id":201,"name":"go play rimworld","steam_id":76561199397932924,"connected_time":332000000000,"state":"active","ping":80},{"user_id":187,"name":"Crimea a bridge","steam_id":76561198030898371,"connected_time":1116000000000,"state":"active","ping":88},{"user_id":151,"name":"Flump","steam_id":76561198106352373,"connected_time":3166000000000,"state":"active","ping":36},{"user_id":130,"name":"Lucoa Enjoyer","steam_id":76561198842622419,"connected_time":4686000000000,"state":"active","ping":94},{"user_id":188,"name":"=PB=","steam_id":76561197999146612,"connected_time":1103000000000,"state":"active","ping":45},{"user_id":207,"name":"ok","steam_id":76561198044451693,"connected_time":12000000000,"state":"active","ping":152},{"user_id":202,"name":"Gorogaz","steam_id":76561198207157679,"connected_time":297000000000,"state":"active","ping":63},{"user_id":199,"name":"[waffles]","steam_id":76561198951206047,"connected_time":474000000000,"state":"active","ping":92},{"user_id":190,"name":"normii","steam_id":76561198301332732,"connected_time":1060000000000,"state":"active","ping":45},{"user_id":197,"name":"SpeddyMeddy","steam_id":76561197999693825,"connected_time":644000000000,"state":"active","ping":83},{"user_id":192,"name":"Tank","steam_id":76561199059174576,"connected_time":1049000000000,"state":"active","ping":179},{"user_id":114,"name":"Chad Slav","steam_id":76561198160103841,"connected_time":5355000000000,"state":"active","ping":62},{"user_id":196,"name":"Le Nain","steam_id":76561198050638632,"connected_time":765000000000,"state":"active","ping":58},{"user_id":204,"name":"lemon pene","steam_id":76561198206954985,"connected_time":138000000000,"state":"active","ping":117},{"user_id":193,"name":"Pilaarius","steam_id":76561198120273212,"connected_time":1048000000000,"state":"active","ping":102},{"user_id":194,"name":"Big They/Them is watching YOU","steam_id":76561198307598168,"connected_time":1048000000000,"state":"active","ping":60},{"user_id":139,"name":"no1-","steam_id":76561198067524060,"connected_time":3889000000000,"state":"active","ping":75},{"user_id":169,"name":"Dwevy","steam_id":76561198090379437,"connected_time":2100000000000,"state":"active","ping":54},{"user_id":181,"name":"Per√§miehen√§","steam_id":76561197968945306,"connected_time":1592000000000,"state":"active","ping":70},{"user_id":159,"name":"Kapitan Polska","steam_id":76561197968069413,"connected_time":2301000000000,"state":"active","ping":86}]},{"server_id":114,"name":"Uncletopia | London | 2 | All Maps","name_short":"lon-2","host":"lon-1.uk.uncletopia.com","port":27025,"enabled":true,"region":"eu","cc":"gb","latitude":51.509865,"longitude":-0.118092,"reserved":0,"last_update":"0001-01-01T00:00:00Z","name_a2s":"Uncletopia | London | 2 | All Maps","protocol":17,"map":"koth_viaduct","folder":"tf","game":"Team Fortress","app_id":440,"player_count":2,"max_players":24,"Bots":0,"server_type":"Dedicated","server_os":"Linux","password":true,"vac":true,"version":"7757534","steam_id":85568392924470941,"keywords":["cp","nocrits","nodmgspread","uncletopia"],"game_id":440,"stv_port":27026,"stv_name":"Uncletopia | London | 2 | All Maps | STV","players":[{"user_id":12,"name":"DeSepp","steam_id":76561198063149086,"connected_time":222000000000,"state":"active","ping":68},{"user_id":13,"name":"Dragco","steam_id":76561198133902802,"connected_time":176000000000,"state":"active","ping":61}]},{"server_id":320,"name":"Uncletopia | London | 3 | All Maps","name_short":"lon-3","host":"lon-1.uk.uncletopia.com","port":27035,"enabled":true,"region":"eu","cc":"gb","latitude":51.509865,"longitude":-0.118092,"reserved":0,"last_update":"0001-01-01T00:00:00Z","name_a2s":"Uncletopia | London | 3 | All Maps","protocol":17,"map":"pl_pier","folder":"tf","game":"Team Fortress","app_id":440,"player_count":24,"max_players":24,"Bots":0,"server_type":"Dedicated","server_os":"Linux","password":true,"vac":true,"version":"7757534","steam_id":85568392924510192,"keywords":["nocrits","nodmgspread","payload","uncletopia"],"game_id":440,"stv_port":27036,"stv_name":"Uncletopia | London | 3 | All Maps | STV","players":[{"user_id":142,"name":"Ardaaaaaaaaaaaaaaaaaaaaaaaaaaa","steam_id":76561199004214779,"connected_time":1617000000000,"state":"active","ping":101},{"user_id":90,"name":"„Éï„Ç°„ÉÉ„Ç´„Éñ„É´„Éª„Éâ„É©„Ç¥","steam_id":76561198016649655,"connected_time":5288000000000,"state":"active","ping":97},{"user_id":113,"name":"Virgil","steam_id":76561198248786778,"connected_time":3311000000000,"state":"active","ping":118},{"user_id":118,"name":"howabe","steam_id":76561197996486818,"connected_time":2832000000000,"state":"active","ping":59},{"user_id":77,"name":"–¢—Ä—É–ø –í–æ–ª–æ–¥—è","steam_id":76561198035718457,"connected_time":5839000000000,"state":"active","ping":89},{"user_id":147,"name":"scope","steam_id":76561198281647082,"connected_time":1179000000000,"state":"active","ping":103},{"user_id":89,"name":"Avedist","steam_id":76561198037236130,"connected_time":5295000000000,"state":"active","ping":78},{"user_id":151,"name":"mitical uknown","steam_id":76561198844852761,"connected_time":652000000000,"state":"active","ping":76},{"user_id":68,"name":".::[SerafeTTiN]::.","steam_id":76561198009471724,"connected_time":6589000000000,"state":"active","ping":91},{"user_id":153,"name":"Taez","steam_id":76561198261820803,"connected_time":481000000000,"state":"active","ping":59},{"user_id":150,"name":"Thors","steam_id":76561197968739075,"connected_time":1000000000000,"state":"active","ping":44},{"user_id":154,"name":"killbind irl","steam_id":76561198180637374,"connected_time":412000000000,"state":"active","ping":91},{"user_id":155,"name":"Kurata","steam_id":76561197967336300,"connected_time":150000000000,"state":"active","ping":38},{"user_id":116,"name":"The Wolf Leader","steam_id":76561198038007462,"connected_time":2835000000000,"state":"active","ping":74},{"user_id":117,"name":"Robr","steam_id":76561198321723252,"connected_time":2832000000000,"state":"active","ping":56},{"user_id":159,"name":"Koby","steam_id":76561198118554071,"connected_time":77000000000,"state":"active","ping":85},{"user_id":110,"name":"grandpa's post-mortem photo","steam_id":76561198130116078,"connected_time":3708000000000,"state":"active","ping":103},{"user_id":119,"name":"slowdown heavy","steam_id":76561198025916703,"connected_time":2832000000000,"state":"active","ping":81},{"user_id":88,"name":"Jan.","steam_id":76561197974066329,"connected_time":5512000000000,"state":"active","ping":60},{"user_id":146,"name":"JOHN GAMING (#1 gunspy)","steam_id":76561199085822219,"connected_time":1354000000000,"state":"active","ping":87},{"user_id":131,"name":"Desuangle","steam_id":76561198110800599,"connected_time":2322000000000,"state":"active","ping":83},{"user_id":160,"name":"Keittokapteeni","steam_id":76561198271579939,"connected_time":51000000000,"state":"active","ping":86},{"user_id":92,"name":"andria","steam_id":76561198930247131,"connected_time":5282000000000,"state":"active","ping":106},{"user_id":149,"name":"Wdfrodo","steam_id":76561198985647263,"connected_time":1078000000000,"state":"active","ping":56}]},{"server_id":321,"name":"Uncletopia | London | 4 | All Maps","name_short":"lon-4","host":"lon-1.uk.uncletopia.com","port":27045,"enabled":true,"region":"eu","cc":"gb","latitude":51.509865,"longitude":-0.118092,"reserved":0,"last_update":"0001-01-01T00:00:00Z","name_a2s":"Uncletopia | London | 4 | All Maps","protocol":17,"map":"pl_upward","folder":"tf","game":"Team Fortress","app_id":440,"player_count":0,"max_players":24,"Bots":0,"server_type":"Dedicated","server_os":"Linux","password":true,"vac":true,"version":"7757534","steam_id":85568392924510193,"keywords":["nocrits","nodmgspread","payload","uncletopia"],"game_id":440,"stv_port":27046,"stv_name":"Uncletopia | London | 4 | All Maps | STV","players":null},{"server_id":21,"name":"Uncletopia | London | 5 | All Maps","name_short":"lon-5","host":"lon-1.uk.uncletopia.com","port":27055,"enabled":true,"region":"eu","cc":"gb","latitude":51.509865,"longitude":-0.118092,"reserved":0,"last_update":"0001-01-01T00:00:00Z","name_a2s":"Uncletopia | London | 5 | All Maps","protocol":17,"map":"koth_highpass","folder":"tf","game":"Team Fortress","app_id":440,"player_count":0,"max_players":24,"Bots":0,"server_type":"Dedicated","server_os":"Linux","password":true,"vac":true,"version":"7757534","steam_id":85568392924742829,"keywords":["cp","nocrits","nodmgspread","uncletopia"],"game_id":440,"stv_port":27056,"stv_name":"Uncletopia | London | 5 | All Maps | STV","players":null},{"server_id":22,"name":"Uncletopia | London | 6 | All Maps","name_short":"lon-6","host":"lon-1.uk.uncletopia.com","port":27065,"enabled":true,"region":"eu","cc":"gb","latitude":51.509865,"longitude":-0.118092,"reserved":0,"last_update":"0001-01-01T00:00:00Z","name_a2s":"Uncletopia | London | 6 | All Maps","protocol":17,"map":"pl_pier","folder":"tf","game":"Team Fortress","app_id":440,"player_count":0,"max_players":24,"Bots":0,"server_type":"Dedicated","server_os":"Linux","password":true,"vac":true,"version":"7757534","steam_id":85568392924742830,"keywords":["nocrits","nodmgspread","payload","uncletopia"],"game_id":440,"stv_port":27066,"stv_name":"Uncletopia | London | 6 | All Maps | STV","players":null},{"server_id":40,"name":"Uncletopia | London | 7 | No Payload","name_short":"lon-7","host":"lon-1.uk.uncletopia.com","port":27075,"enabled":true,"region":"eu","cc":"gb","latitude":51.509865,"longitude":-0.118092,"reserved":0,"last_update":"0001-01-01T00:00:00Z","name_a2s":"Uncletopia | London | 7 | No Payload","protocol":17,"map":"cp_gullywash_final1","folder":"tf","game":"Team Fortress","app_id":440,"player_count":0,"max_players":24,"Bots":0,"server_type":"Dedicated","server_os":"Linux","password":true,"vac":true,"version":"7757534","steam_id":85568392924964314,"keywords":["cp","nocrits","nodmgspread","uncletopia"],"game_id":440,"stv_port":27076,"stv_name":"Uncletopia | London | 7 | No Payload | STV","players":null},{"server_id":41,"name":"Uncletopia | London | 8 | Community","name_short":"lon-8","host":"lon-1.uk.uncletopia.com","port":27085,"enabled":true,"region":"eu","cc":"gb","latitude":51.509865,"longitude":-0.118092,"reserved":0,"last_update":"0001-01-01T00:00:00Z","name_a2s":"Uncletopia | London | 8 | Community","protocol":17,"map":"pl_barnblitz","folder":"tf","game":"Team Fortress","app_id":440,"player_count":0,"max_players":24,"Bots":0,"server_type":"Dedicated","server_os":"Linux","password":true,"vac":true,"version":"7757534","steam_id":85568392924964315,"keywords":["nocrits","nodmgspread","payload","uncletopia"],"game_id":440,"stv_port":27086,"stv_name":"Uncletopia | London | 8 | Community | STV","players":null},{"server_id":300,"name":"Uncletopia | Montr√©al | 1 | All Maps","name_short":"mtl-1","host":"mtl-1.ca.uncletopia.com","port":27015,"enabled":true,"region":"us-east","cc":"ca","latitude":45.50889,"longitude":-73.56167,"reserved":0,"last_update":"0001-01-01T00:00:00Z","name_a2s":"Uncletopia | Montr√©al | 1 | All Maps","protocol":17,"map":"pl_upward","folder":"tf","game":"Team Fortress","app_id":440,"player_count":0,"max_players":24,"Bots":0,"server_type":"Dedicated","server_os":"Linux","password":true,"vac":true,"version":"7757534","steam_id":85568392924500087,"keywords":["nocrits","nodmgspread","payload","uncletopia"],"game_id":440,"stv_port":27016,"stv_name":"Uncletopia | Montr√©al | 1 | All Maps | STV","players":null},{"server_id":301,"name":"Uncletopia | Montr√©al | 2 | All Maps","name_short":"mtl-2","host":"mtl-1.ca.uncletopia.com","port":27025,"enabled":true,"region":"us-east","cc":"ca","latitude":45.50889,"longitude":-73.56167,"reserved":0,"last_update":"0001-01-01T00:00:00Z","name_a2s":"Uncletopia | Montr√©al | 2 | All Maps","protocol":17,"map":"pl_snowycoast","folder":"tf","game":"Team Fortress","app_id":440,"player_count":0,"max_players":24,"Bots":0,"server_type":"Dedicated","server_os":"Linux","password":true,"vac":true,"version":"7757534","steam_id":85568392924500088,"keywords":["nocrits","nodmgspread","payload","uncletopia"],"game_id":440,"stv_port":27026,"stv_name":"Uncletopia | Montr√©al | 2 | All Maps | STV","players":null},{"server_id":302,"name":"Uncletopia | Montr√©al | 3 | All Maps","name_short":"mtl-3","host":"mtl-1.ca.uncletopia.com","port":27035,"enabled":true,"region":"us-east","cc":"ca","latitude":45.50889,"longitude":-73.56167,"reserved":0,"last_update":"0001-01-01T00:00:00Z","name_a2s":"Uncletopia | Montr√©al | 3 | All Maps","protocol":17,"map":"pl_swiftwater_final1","folder":"tf","game":"Team Fortress","app_id":440,"player_count":0,"max_players":24,"Bots":0,"server_type":"Dedicated","server_os":"Linux","password":true,"vac":true,"version":"7757534","steam_id":85568392924500089,"keywords":["nocrits","nodmgspread","payload","uncletopia"],"game_id":440,"stv_port":27036,"stv_name":"Uncletopia | Montr√©al | 3 | All Maps | STV","players":null},{"server_id":303,"name":"Uncletopia | Montr√©al | 4 | No Payload","name_short":"mtl-4","host":"mtl-1.ca.uncletopia.com","port":27045,"enabled":true,"region":"us-east","cc":"ca","latitude":45.50889,"longitude":-73.56167,"reserved":0,"last_update":"0001-01-01T00:00:00Z","name_a2s":"Uncletopia | Montr√©al | 4 | No Payload","protocol":17,"map":"pl_pier","folder":"tf","game":"Team Fortress","app_id":440,"player_count":0,"max_players":24,"Bots":0,"server_type":"Dedicated","server_os":"Linux","password":true,"vac":true,"version":"7757534","steam_id":85568392924500090,"keywords":["nocrits","nodmgspread","payload","uncletopia"],"game_id":440,"stv_port":27046,"stv_name":"Uncletopia | Montr√©al | 4 | No Payload | STV","players":null},{"server_id":13,"name":"Uncletopia | New York City | 1 | All Maps","name_short":"nyc-1","host":"nyc-1.us.uncletopia.com","port":27015,"enabled":true,"region":"us-east","cc":"us","latitude":40.73061,"longitude":-73.93524,"reserved":0,"last_update":"0001-01-01T00:00:00Z","name_a2s":"Uncletopia | New York City | 1 | All Maps","protocol":17,"map":"koth_viaduct","folder":"tf","game":"Team Fortress","app_id":440,"player_count":0,"max_players":24,"Bots":0,"server_type":"Dedicated","server_os":"Linux","password":true,"vac":true,"version":"7757534","steam_id":85568392924469993,"keywords":["cp","nocrits","nodmgspread","uncletopia"],"game_id":440,"stv_port":27016,"stv_name":"Uncletopia | New York City | 1 | All Maps | STV","players":null},{"server_id":14,"name":"Uncletopia | New York City | 2 | All Maps","name_short":"nyc-2","host":"nyc-1.us.uncletopia.com","port":27025,"enabled":true,"region":"us-east","cc":"us","latitude":40.73061,"longitude":-73.93524,"reserved":0,"last_update":"0001-01-01T00:00:00Z","name_a2s":"Uncletopia | New York City | 2 | All Maps","protocol":17,"map":"pl_badwater","folder":"tf","game":"Team Fortress","app_id":440,"player_count":0,"max_players":24,"Bots":0,"server_type":"Dedicated","server_os":"Linux","password":true,"vac":true,"version":"7757534","steam_id":85568392924469994,"keywords":["nocrits","nodmgspread","payload","uncletopia"],"game_id":440,"stv_port":27026,"stv_name":"Uncletopia | New York City | 2 | All Maps | STV","players":null},{"server_id":15,"name":"Uncletopia | New York City | 3 | Stopwatch Beta","name_short":"nyc-3","host":"nyc-1.us.uncletopia.com","port":27035,"enabled":true,"region":"us-east","cc":"us","latitude":40.73061,"longitude":-73.93524,"reserved":0,"last_update":"0001-01-01T00:00:00Z","name_a2s":"Uncletopia | New York City | 3 | Stopwatch Beta","protocol":17,"map":"pl_upward","folder":"tf","game":"Team Fortress","app_id":440,"player_count":0,"max_players":24,"Bots":0,"server_type":"Dedicated","server_os":"Linux","password":true,"vac":true,"version":"7757534","steam_id":85568392924742820,"keywords":["nocrits","nodmgspread","payload","uncletopia"],"game_id":440,"stv_port":27036,"stv_name":"Uncletopia | New York City | 3 | Stopwatch Beta | STV","players":null},{"server_id":16,"name":"Uncletopia | New York City | 4 | Community","name_short":"nyc-4","host":"nyc-1.us.uncletopia.com","port":27045,"enabled":true,"region":"us-east","cc":"us","latitude":40.73061,"longitude":-73.93524,"reserved":0,"last_update":"0001-01-01T00:00:00Z","name_a2s":"Uncletopia | New York City | 4 | Community","protocol":17,"map":"pl_swiftwater_final1","folder":"tf","game":"Team Fortress","app_id":440,"player_count":0,"max_players":24,"Bots":0,"server_type":"Dedicated","server_os":"Linux","password":true,"vac":true,"version":"7757534","steam_id":85568392924742821,"keywords":["nocrits","nodmgspread","payload","uncletopia"],"game_id":440,"stv_port":27046,"stv_name":"Uncletopia | New York City | 4 | Community | STV","players":null},{"server_id":142,"name":"Uncletopia | S√£o Paulo | 1 | All Maps","name_short":"sao-1","host":"sao-1.br.uncletopia.com","port":27015,"enabled":true,"region":"sa","cc":"br","latitude":-23.533773,"longitude":-46.62529,"reserved":0,"last_update":"0001-01-01T00:00:00Z","name_a2s":"Uncletopia | S√£o Paulo | 1 | All Maps","protocol":17,"map":"koth_lakeside_final","folder":"tf","game":"Team Fortress","app_id":440,"player_count":0,"max_players":24,"Bots":0,"server_type":"Dedicated","server_os":"Linux","password":true,"vac":true,"version":"7757534","steam_id":85568392924469996,"keywords":["cp","nocrits","nodmgspread","uncletopia"],"game_id":440,"stv_port":27016,"stv_name":"Uncletopia | S√£o Paulo | 1 | All Maps | STV","players":null},{"server_id":143,"name":"Uncletopia | S√£o Paulo | 2 | All Maps","name_short":"sao-2","host":"sao-2.br.uncletopia.com","port":27015,"enabled":true,"region":"sa","cc":"br","latitude":-23.533773,"longitude":-46.62529,"reserved":0,"last_update":"0001-01-01T00:00:00Z","name_a2s":"Uncletopia | S√£o Paulo | 2 | All Maps","protocol":17,"map":"pl_swiftwater_final1","folder":"tf","game":"Team Fortress","app_id":440,"player_count":0,"max_players":24,"Bots":0,"server_type":"Dedicated","server_os":"Linux","password":true,"vac":true,"version":"7757534","steam_id":85568392924485349,"keywords":["nocrits","nodmgspread","payload","uncletopia"],"game_id":440,"stv_port":27016,"stv_name":"Uncletopia | S√£o Paulo | 2 | All Maps | STV","players":null},{"server_id":7,"name":"Uncletopia | Seattle | 1 | All Maps","name_short":"sea-1","host":"sea-1.us.uncletopia.com","port":27015,"enabled":true,"region":"us-west","cc":"us","latitude":47.608013,"longitude":-122.33517,"reserved":0,"last_update":"0001-01-01T00:00:00Z","name_a2s":"Uncletopia | Seattle | 1 | All Maps","protocol":17,"map":"pl_barnblitz","folder":"tf","game":"Team Fortress","app_id":440,"player_count":24,"max_players":24,"Bots":0,"server_type":"Dedicated","server_os":"Linux","password":true,"vac":true,"version":"7757534","steam_id":85568392924469997,"keywords":["nocrits","nodmgspread","payload","uncletopia"],"game_id":440,"stv_port":27016,"stv_name":"Uncletopia | Seattle | 1 | All Maps | STV","players":[{"user_id":774,"name":"Level 99 Mudcrab","steam_id":76561198077452771,"connected_time":12721000000000,"state":"active","ping":52},{"user_id":895,"name":"NotThatGuyPal","steam_id":76561199127607812,"connected_time":887000000000,"state":"active","ping":76},{"user_id":889,"name":"Duty Enjoyer","steam_id":76561198831760421,"connected_time":2244000000000,"state":"active","ping":141},{"user_id":860,"name":"pt","steam_id":76561198143023330,"connected_time":4605000000000,"state":"active","ping":74},{"user_id":871,"name":"÷Ü…®∆à”Ñ÷Ö ç÷Ö…ñ…õ","steam_id":76561198064668286,"connected_time":3790000000000,"state":"active","ping":120},{"user_id":865,"name":"Oniko","steam_id":76561198087703138,"connected_time":3920000000000,"state":"active","ping":72},{"user_id":851,"name":"thealphabetsoup","steam_id":76561198028148682,"connected_time":5545000000000,"state":"active","ping":51},{"user_id":894,"name":"Octo","steam_id":76561198024056355,"connected_time":1050000000000,"state":"active","ping":75},{"user_id":861,"name":"MegumiTame","steam_id":76561198450280686,"connected_time":4192000000000,"state":"active","ping":48},{"user_id":891,"name":"Panckakebro","steam_id":76561198106419992,"connected_time":1410000000000,"state":"active","ping":120},{"user_id":862,"name":"blizz","steam_id":76561199139715539,"connected_time":4191000000000,"state":"active","ping":70},{"user_id":844,"name":"Aqua Tofana","steam_id":76561198351183381,"connected_time":5636000000000,"state":"active","ping":55},{"user_id":873,"name":"CoolGuy","steam_id":76561198864528445,"connected_time":3636000000000,"state":"active","ping":67},{"user_id":867,"name":"MotherlyMistress","steam_id":76561199049881551,"connected_time":3835000000000,"state":"active","ping":107},{"user_id":903,"name":"sapphrodite","steam_id":76561198279341789,"connected_time":576000000000,"state":"active","ping":138},{"user_id":771,"name":"Flesh Eating Turtle","steam_id":76561198116742139,"connected_time":12972000000000,"state":"active","ping":57},{"user_id":868,"name":"I AM GOING TO EAT YOUR FACE","steam_id":76561198277449857,"connected_time":3830000000000,"state":"active","ping":82},{"user_id":902,"name":"gary_sauce","steam_id":76561199092242889,"connected_time":662000000000,"state":"active","ping":119},{"user_id":900,"name":"muffinman12126","steam_id":76561199471924109,"connected_time":729000000000,"state":"active","ping":69},{"user_id":901,"name":"Bingleton","steam_id":76561197998930473,"connected_time":706000000000,"state":"active","ping":34},{"user_id":886,"name":"Potatofamine Carbomb","steam_id":76561198424248616,"connected_time":2614000000000,"state":"active","ping":78},{"user_id":794,"name":"‚ò†Death Himself‚ò†","steam_id":76561199118070947,"connected_time":9359000000000,"state":"active","ping":86},{"user_id":870,"name":"murph","steam_id":76561197973805634,"connected_time":3798000000000,"state":"active","ping":97},{"user_id":905,"name":"rice white","steam_id":76561198320732910,"connected_time":511000000000,"state":"active","ping":123}]},{"server_id":119,"name":"Uncletopia | Seattle | 2 | All Maps","name_short":"sea-2","host":"sea-1.us.uncletopia.com","port":27025,"enabled":true,"region":"us-west","cc":"us","latitude":47.608013,"longitude":-122.33517,"reserved":0,"last_update":"0001-01-01T00:00:00Z","name_a2s":"Uncletopia | Seattle | 2 | All Maps","protocol":17,"map":"pl_frontier_final","folder":"tf","game":"Team Fortress","app_id":440,"player_count":23,"max_players":24,"Bots":0,"server_type":"Dedicated","server_os":"Linux","password":true,"vac":true,"version":"7757534","steam_id":85568392924469998,"keywords":["nocrits","nodmgspread","payload","uncletopia"],"game_id":440,"stv_port":27026,"stv_name":"Uncletopia | Seattle | 2 | All Maps | STV","players":[{"user_id":947,"name":"Knooper","steam_id":76561198096149824,"connected_time":491000000000,"state":"active","ping":52},{"user_id":758,"name":"Drainbow","steam_id":76561198421913648,"connected_time":15037000000000,"state":"active","ping":49},{"user_id":912,"name":"Crom","steam_id":76561198132031007,"connected_time":2583000000000,"state":"active","ping":60},{"user_id":941,"name":"They/Them Rattussy","steam_id":76561198238186628,"connected_time":744000000000,"state":"active","ping":81},{"user_id":953,"name":"sleepy boo","steam_id":76561198072879485,"connected_time":82000000000,"state":"active","ping":76},{"user_id":899,"name":"Rain","steam_id":76561198065612273,"connected_time":4357000000000,"state":"active","ping":45},{"user_id":911,"name":"Akustin","steam_id":76561198110015463,"connected_time":2641000000000,"state":"active","ping":80},{"user_id":946,"name":"Casual Vore","steam_id":76561197999045683,"connected_time":522000000000,"state":"active","ping":40},{"user_id":943,"name":"flimsy","steam_id":76561198059968576,"connected_time":626000000000,"state":"active","ping":128},{"user_id":921,"name":"ElChrisTrejo","steam_id":76561199112274182,"connected_time":2181000000000,"state":"active","ping":132},{"user_id":914,"name":"ttv/whiteboyst0ner1997","steam_id":76561198064558316,"connected_time":2515000000000,"state":"active","ping":78},{"user_id":888,"name":"SpongeBucket","steam_id":76561198393553085,"connected_time":5196000000000,"state":"active","ping":88},{"user_id":944,"name":"MK chill","steam_id":76561198362669318,"connected_time":584000000000,"state":"active","ping":67},{"user_id":902,"name":"lights","steam_id":76561198049192689,"connected_time":4200000000000,"state":"active","ping":73},{"user_id":919,"name":"GuyGoom","steam_id":76561198254522178,"connected_time":2397000000000,"state":"active","ping":105},{"user_id":903,"name":"yungevilbruh","steam_id":76561198127631900,"connected_time":4149000000000,"state":"active","ping":60},{"user_id":950,"name":"MILK","steam_id":76561198040861810,"connected_time":420000000000,"state":"active","ping":118},{"user_id":861,"name":"Mokaaaa","steam_id":76561198043659301,"connected_time":7099000000000,"state":"active","ping":90},{"user_id":917,"name":"spheal","steam_id":76561198060867317,"connected_time":2450000000000,"state":"active","ping":69},{"user_id":923,"name":"El Duderino","steam_id":76561199427900685,"connected_time":2107000000000,"state":"active","ping":90},{"user_id":952,"name":"RED","steam_id":76561198030282308,"connected_time":184000000000,"state":"active","ping":64},{"user_id":924,"name":"Spartan 1337","steam_id":76561198125064187,"connected_time":2097000000000,"state":"active","ping":172},{"user_id":938,"name":"Travis 52","steam_id":76561198834124751,"connected_time":1613000000000,"state":"active","ping":132}]},{"server_id":406,"name":"Uncletopia | Seattle | 3 | Stopwatch Beta","name_short":"sea-3","host":"sea-1.us.uncletopia.com","port":27035,"enabled":true,"region":"us-west","cc":"us","latitude":47.608013,"longitude":-122.33517,"reserved":0,"last_update":"0001-01-01T00:00:00Z","name_a2s":"Uncletopia | Seattle | 3 | Stopwatch Beta","protocol":17,"map":"workshop/koth_clearcut_b15.ugc2107050255","folder":"tf","game":"Team Fortress","app_id":440,"player_count":0,"max_players":24,"Bots":0,"server_type":"Dedicated","server_os":"Linux","password":true,"vac":true,"version":"7757534","steam_id":85568392924515217,"keywords":["cp","nocrits","nodmgspread","uncletopia"],"game_id":440,"stv_port":27036,"stv_name":"Uncletopia | Seattle | 3 | Stopwatch Beta | STV","players":null},{"server_id":17,"name":"Uncletopia | San Francisco | 1 | All Maps","name_short":"sfo-1","host":"sfo-1.us.uncletopia.com","port":27015,"enabled":true,"region":"us-west","cc":"us","latitude":37.77397,"longitude":-122.4313,"reserved":0,"last_update":"0001-01-01T00:00:00Z","name_a2s":"Uncletopia | San Francisco | 1 | All Maps","protocol":17,"map":"cp_dustbowl","folder":"tf","game":"Team Fortress","app_id":440,"player_count":24,"max_players":24,"Bots":0,"server_type":"Dedicated","server_os":"Linux","password":true,"vac":true,"version":"7757534","steam_id":85568392924469999,"keywords":["cp","nocrits","nodmgspread","uncletopia"],"game_id":440,"stv_port":27016,"stv_name":"Uncletopia | San Francisco | 1 | All Maps | STV","players":[{"user_id":698,"name":"Handsome Pete","steam_id":76561198003224229,"connected_time":2627000000000,"state":"active","ping":62},{"user_id":708,"name":"smiley","steam_id":76561198240116276,"connected_time":1608000000000,"state":"active","ping":91},{"user_id":717,"name":"DontRunWithScissors","steam_id":76561198079662757,"connected_time":1299000000000,"state":"active","ping":50},{"user_id":694,"name":"themartians","steam_id":76561197970434054,"connected_time":2896000000000,"state":"active","ping":67},{"user_id":696,"name":"RamHam","steam_id":76561198128466236,"connected_time":2649000000000,"state":"active","ping":43},{"user_id":727,"name":"deer man of dark woods","steam_id":76561198239821432,"connected_time":181000000000,"state":"active","ping":63},{"user_id":595,"name":"Arinaco","steam_id":76561198346783136,"connected_time":11475000000000,"state":"active","ping":72},{"user_id":725,"name":"zapato","steam_id":76561198142278437,"connected_time":314000000000,"state":"active","ping":102},{"user_id":718,"name":"Cynicalrage #TF2center","steam_id":76561198085805532,"connected_time":1215000000000,"state":"active","ping":83},{"user_id":719,"name":"whyamialive","steam_id":76561199070008862,"connected_time":1040000000000,"state":"active","ping":185},{"user_id":701,"name":"...","steam_id":76561198312298321,"connected_time":2369000000000,"state":"active","ping":116},{"user_id":705,"name":"LIAM","steam_id":76561198324691143,"connected_time":1925000000000,"state":"active","ping":72},{"user_id":706,"name":"Johnson, Navin R.","steam_id":76561197961107982,"connected_time":1908000000000,"state":"active","ping":88},{"user_id":722,"name":"floop","steam_id":76561198993264207,"connected_time":637000000000,"state":"active","ping":69},{"user_id":709,"name":"The IT Guy","steam_id":76561198071790583,"connected_time":1556000000000,"state":"active","ping":97},{"user_id":731,"name":"DOMO_MR_ROBOTO","steam_id":76561198077108345,"connected_time":19000000000,"state":"spawning","ping":88},{"user_id":721,"name":"nella","steam_id":76561198079349621,"connected_time":744000000000,"state":"active","ping":60},{"user_id":677,"name":"Miro","steam_id":76561198936412406,"connected_time":5266000000000,"state":"active","ping":129},{"user_id":712,"name":"dubba (‚Ä¢ÃÄ_‚Ä¢ÃÅ )","steam_id":76561199428471192,"connected_time":1503000000000,"state":"active","ping":78},{"user_id":723,"name":"yes, i am on controller","steam_id":76561198977523626,"connected_time":628000000000,"state":"active","ping":67},{"user_id":726,"name":"twin","steam_id":76561198055626638,"connected_time":281000000000,"state":"active","ping":150},{"user_id":728,"name":"Quindeli","steam_id":76561198082765254,"connected_time":111000000000,"state":"active","ping":90},{"user_id":730,"name":"Goob","steam_id":76561198256918638,"connected_time":93000000000,"state":"active","ping":46},{"user_id":732,"name":"raphaim #bb","steam_id":76561198089649422,"connected_time":15000000000,"state":"active","ping":47}]},{"server_id":18,"name":"Uncletopia | San Francisco | 2 | All Maps","name_short":"sfo-2","host":"sfo-1.us.uncletopia.com","port":27025,"enabled":true,"region":"us-west","cc":"us","latitude":37.77397,"longitude":-122.4313,"reserved":0,"last_update":"0001-01-01T00:00:00Z","name_a2s":"Uncletopia | San Francisco | 2 | All Maps","protocol":17,"map":"plr_hightower","folder":"tf","game":"Team Fortress","app_id":440,"player_count":0,"max_players":24,"Bots":0,"server_type":"Dedicated","server_os":"Linux","password":true,"vac":true,"version":"7757534","steam_id":85568392924470000,"keywords":["nocrits","nodmgspread","payload","uncletopia"],"game_id":440,"stv_port":27026,"stv_name":"Uncletopia | San Francisco | 2 | All Maps | STV","players":null},{"server_id":19,"name":"Uncletopia | San Francisco | 3 | Stopwatch Beta","name_short":"sfo-3","host":"sfo-1.us.uncletopia.com","port":27035,"enabled":true,"region":"us-west","cc":"us","latitude":37.77397,"longitude":-122.4313,"reserved":0,"last_update":"0001-01-01T00:00:00Z","name_a2s":"Uncletopia | San Francisco | 3 | Stopwatch Beta","protocol":17,"map":"koth_highpass","folder":"tf","game":"Team Fortress","app_id":440,"player_count":0,"max_players":24,"Bots":0,"server_type":"Dedicated","server_os":"Linux","password":true,"vac":true,"version":"7757534","steam_id":85568392924742824,"keywords":["cp","nocrits","nodmgspread","uncletopia"],"game_id":440,"stv_port":27036,"stv_name":"Uncletopia | San Francisco | 3 | Stopwatch Beta | STV","players":null},{"server_id":20,"name":"Uncletopia | San Francisco | 4 | Community","name_short":"sfo-4","host":"sfo-1.us.uncletopia.com","port":27045,"enabled":true,"region":"us-west","cc":"us","latitude":37.77397,"longitude":-122.4313,"reserved":0,"last_update":"0001-01-01T00:00:00Z","name_a2s":"Uncletopia | San Francisco | 4 | Community","protocol":17,"map":"workshop/koth_trenchfoot_b1a.ugc731436616","folder":"tf","game":"Team Fortress","app_id":440,"player_count":0,"max_players":24,"Bots":0,"server_type":"Dedicated","server_os":"Linux","password":true,"vac":true,"version":"7757534","steam_id":85568392924742826,"keywords":["cp","nocrits","nodmgspread","uncletopia"],"game_id":440,"stv_port":27046,"stv_name":"Uncletopia | San Francisco | 4 | Community | STV","players":null},{"server_id":141,"name":"Uncletopia | Sydney | 1 | All Maps","name_short":"syd-1","host":"syd-1.au.uncletopia.com","port":27015,"enabled":true,"region":"au","cc":"au","latitude":-33.865143,"longitude":151.2099,"reserved":0,"last_update":"0001-01-01T00:00:00Z","name_a2s":"Uncletopia | Sydney | 1 | All Maps","protocol":17,"map":"koth_lakeside_final","folder":"tf","game":"Team Fortress","app_id":440,"player_count":0,"max_players":24,"Bots":0,"server_type":"Dedicated","server_os":"Linux","password":true,"vac":true,"version":"7757534","steam_id":85568392924470001,"keywords":["cp","nocrits","nodmgspread","uncletopia"],"game_id":440,"stv_port":27016,"stv_name":"Uncletopia | Sydney | 1 | All Maps | STV","players":null},{"server_id":123,"name":"Uncletopia | Sydney | 2 | All Maps","name_short":"syd-2","host":"syd-1.au.uncletopia.com","port":27025,"enabled":true,"region":"au","cc":"au","latitude":-33.865143,"longitude":151.2099,"reserved":0,"last_update":"0001-01-01T00:00:00Z","name_a2s":"Uncletopia | Sydney | 2 | All Maps","protocol":17,"map":"pl_upward","folder":"tf","game":"Team Fortress","app_id":440,"player_count":24,"max_players":24,"Bots":0,"server_type":"Dedicated","server_os":"Linux","password":true,"vac":true,"version":"7757534","steam_id":85568392924470002,"keywords":["nocrits","nodmgspread","payload","uncletopia"],"game_id":440,"stv_port":27026,"stv_name":"Uncletopia | Sydney | 2 | All Maps | STV","players":[{"user_id":632,"name":"T–Ω√ª–∏‚àÇ—É—è—ï‚àÇ.","steam_id":76561197992346511,"connected_time":1525000000000,"state":"active","ping":45},{"user_id":619,"name":"Pebuis","steam_id":76561198315666723,"connected_time":2789000000000,"state":"active","ping":62},{"user_id":623,"name":"Soru","steam_id":76561198010844786,"connected_time":2454000000000,"state":"active","ping":72},{"user_id":571,"name":"Phibs","steam_id":76561199323730865,"connected_time":5303000000000,"state":"active","ping":41},{"user_id":650,"name":"huncho","steam_id":76561198162196243,"connected_time":572000000000,"state":"active","ping":34},{"user_id":655,"name":"MikkyD","steam_id":76561198043452962,"connected_time":10000000000,"state":"active","ping":162},{"user_id":625,"name":"MineSweeper2048","steam_id":76561198338746543,"connected_time":2306000000000,"state":"active","ping":57},{"user_id":653,"name":"Kilking","steam_id":76561198843968881,"connected_time":28000000000,"state":"spawning","ping":55},{"user_id":627,"name":"El Chupacabra","steam_id":76561198070641651,"connected_time":1688000000000,"state":"active","ping":45},{"user_id":652,"name":"BruceWillis235","steam_id":76561198884324029,"connected_time":424000000000,"state":"active","ping":155},{"user_id":649,"name":"SassnCheeky","steam_id":76561197993875592,"connected_time":688000000000,"state":"active","ping":50},{"user_id":612,"name":"punchtoy","steam_id":76561198118772528,"connected_time":2993000000000,"state":"active","ping":57},{"user_id":614,"name":"yakuza_enjoyer","steam_id":76561198444685551,"connected_time":2936000000000,"state":"active","ping":103},{"user_id":593,"name":"Jodelk√∂nig Franzl Lang","steam_id":76561198007667830,"connected_time":4258000000000,"state":"active","ping":53},{"user_id":638,"name":"distraction","steam_id":76561198119112358,"connected_time":1190000000000,"state":"active","ping":45},{"user_id":607,"name":"Pile of Sneed","steam_id":76561198143537391,"connected_time":3360000000000,"state":"active","ping":57},{"user_id":633,"name":"Arbitrary Arbiter","steam_id":76561199178964453,"connected_time":1499000000000,"state":"active","ping":173},{"user_id":564,"name":"Ratbagus","steam_id":76561197993827486,"connected_time":5621000000000,"state":"active","ping":74},{"user_id":628,"name":"you have been deemed, Gilbert","steam_id":76561198301282416,"connected_time":1677000000000,"state":"active","ping":54},{"user_id":648,"name":"East","steam_id":76561197998179587,"connected_time":777000000000,"state":"active","ping":101},{"user_id":626,"name":"mushroom","steam_id":76561197992336470,"connected_time":2216000000000,"state":"active","ping":93},{"user_id":617,"name":"Frexinet","steam_id":76561198071230826,"connected_time":2903000000000,"state":"active","ping":66},{"user_id":578,"name":"mc.sleek","steam_id":76561198057602720,"connected_time":4909000000000,"state":"active","ping":77},{"user_id":651,"name":"Matt","steam_id":76561198006791420,"connected_time":521000000000,"state":"active","ping":97}]},{"server_id":395,"name":"Uncletopia | Sydney | 3 | All Maps","name_short":"syd-3","host":"syd-1.au.uncletopia.com","port":27035,"enabled":true,"region":"au","cc":"au","latitude":-33.865143,"longitude":151.2099,"reserved":0,"last_update":"0001-01-01T00:00:00Z","name_a2s":"Uncletopia | Sydney | 3 | All Maps","protocol":17,"map":"pl_frontier_final","folder":"tf","game":"Team Fortress","app_id":440,"player_count":2,"max_players":24,"Bots":0,"server_type":"Dedicated","server_os":"Linux","password":true,"vac":true,"version":"7757534","steam_id":85568392925194467,"keywords":["nocrits","nodmgspread","payload","uncletopia"],"game_id":440,"stv_port":27036,"stv_name":"Uncletopia | Sydney | 3 | All Maps | STV","players":[{"user_id":126,"name":"P'pot","steam_id":76561198117278590,"connected_time":431000000000,"state":"active","ping":53},{"user_id":66,"name":"Turret","steam_id":76561198054728921,"connected_time":4493000000000,"state":"active","ping":39}]},{"server_id":396,"name":"Uncletopia | Sydney | 4 | All Maps","name_short":"syd-4","host":"syd-1.au.uncletopia.com","port":27045,"enabled":true,"region":"au","cc":"au","latitude":-33.865143,"longitude":151.2099,"reserved":0,"last_update":"0001-01-01T00:00:00Z","name_a2s":"Uncletopia | Sydney | 4 | All Maps","protocol":17,"map":"pl_barnblitz","folder":"tf","game":"Team Fortress","app_id":440,"player_count":0,"max_players":24,"Bots":0,"server_type":"Dedicated","server_os":"Linux","password":true,"vac":true,"version":"7757534","steam_id":85568392925397958,"keywords":["nocrits","nodmgspread","payload","uncletopia"],"game_id":440,"stv_port":27046,"stv_name":"Uncletopia | Sydney | 4 | All Maps | STV","players":null},{"server_id":58,"name":"Uncletopia | Sydney | 5 | Stopwatch Beta","name_short":"syd-5","host":"syd-1.au.uncletopia.com","port":27055,"enabled":true,"region":"au","cc":"au","latitude":-33.865143,"longitude":151.2099,"reserved":0,"last_update":"0001-01-01T00:00:00Z","name_a2s":"Uncletopia | Sydney | 5 | Stopwatch Beta","protocol":17,"map":"workshop/pl_summercoast_rc8e.ugc1761528829","folder":"tf","game":"Team Fortress","app_id":440,"player_count":0,"max_players":24,"Bots":0,"server_type":"Dedicated","server_os":"Linux","password":true,"vac":true,"version":"7757534","steam_id":85568392925397959,"keywords":["nocrits","nodmgspread","payload","uncletopia"],"game_id":440,"stv_port":27056,"stv_name":"Uncletopia | Sydney | 5 | Stopwatch Beta | STV","players":null},{"server_id":59,"name":"Uncletopia | Sydney | 6 | Community","name_short":"syd-6","host":"syd-1.au.uncletopia.com","port":27065,"enabled":true,"region":"au","cc":"au","latitude":-33.865143,"longitude":151.2099,"reserved":0,"last_update":"0001-01-01T00:00:00Z","name_a2s":"Uncletopia | Sydney | 6 | Community","protocol":17,"map":"workshop/cp_snowbase_b18.ugc2081770490","folder":"tf","game":"Team Fortress","app_id":440,"player_count":0,"max_players":24,"Bots":0,"server_type":"Dedicated","server_os":"Linux","password":true,"vac":true,"version":"7757534","steam_id":85568392925397960,"keywords":["cp","nocrits","nodmgspread","uncletopia"],"game_id":440,"stv_port":27066,"stv_name":"Uncletopia | Sydney | 6 | Community | STV","players":null},{"server_id":49,"name":"Uncletopia | Warsaw | 1 | All Maps","name_short":"waw-1","host":"waw-1.pl.uncletopia.com","port":27015,"enabled":true,"region":"eu","cc":"pl","latitude":52.2297,"longitude":21.017532,"reserved":0,"last_update":"0001-01-01T00:00:00Z","name_a2s":"","protocol":0,"map":"","folder":"","game":"","app_id":0,"player_count":0,"max_players":0,"Bots":0,"server_type":"","server_os":"","password":false,"vac":false,"version":"","steam_id":0,"keywords":null,"game_id":0,"stv_port":0,"stv_name":"","players":null},{"server_id":50,"name":"Uncletopia | Warsaw | 2 | All Maps","name_short":"waw-2","host":"waw-1.pl.uncletopia.com","port":27025,"enabled":true,"region":"eu","cc":"pl","latitude":52.2297,"longitude":21.017532,"reserved":0,"last_update":"0001-01-01T00:00:00Z","name_a2s":"Uncletopia | Warsaw | 2 | All Maps","protocol":17,"map":"koth_viaduct","folder":"tf","game":"Team Fortress","app_id":440,"player_count":0,"max_players":24,"Bots":0,"server_type":"Dedicated","server_os":"Linux","password":true,"vac":true,"version":"7757534","steam_id":85568392925397851,"keywords":["cp","nocrits","nodmgspread","uncletopia"],"game_id":440,"stv_port":27026,"stv_name":"Uncletopia | Warsaw | 2 | All Maps | STV","players":null},{"server_id":51,"name":"Uncletopia | Warsaw | 3 | All Maps","name_short":"waw-3","host":"waw-1.pl.uncletopia.com","port":27035,"enabled":true,"region":"eu","cc":"pl","latitude":52.2297,"longitude":21.017532,"reserved":0,"last_update":"0001-01-01T00:00:00Z","name_a2s":"Uncletopia | Warsaw | 3 | All Maps","protocol":17,"map":"pl_badwater","folder":"tf","game":"Team Fortress","app_id":440,"player_count":0,"max_players":24,"Bots":0,"server_type":"Dedicated","server_os":"Linux","password":true,"vac":true,"version":"7757534","steam_id":85568392925397852,"keywords":["nocrits","nodmgspread","payload","uncletopia"],"game_id":440,"stv_port":27036,"stv_name":"Uncletopia | Warsaw | 3 | All Maps | STV","players":null},{"server_id":52,"name":"Uncletopia | Warsaw | 4 | All Maps","name_short":"waw-4","host":"waw-1.pl.uncletopia.com","port":27045,"enabled":true,"region":"eu","cc":"pl","latitude":52.2297,"longitude":21.017532,"reserved":0,"last_update":"0001-01-01T00:00:00Z","name_a2s":"Uncletopia | Warsaw | 4 | All Maps","protocol":17,"map":"koth_lakeside_final","folder":"tf","game":"Team Fortress","app_id":440,"player_count":0,"max_players":24,"Bots":0,"server_type":"Dedicated","server_os":"Linux","password":true,"vac":true,"version":"7757534","steam_id":85568392925397853,"keywords":["cp","nocrits","nodmgspread","uncletopia"],"game_id":440,"stv_port":27046,"stv_name":"Uncletopia | Warsaw | 4 | All Maps | STV","players":null},{"server_id":53,"name":"Uncletopia | Warsaw | 5 | Stopwatch Beta","name_short":"waw-5","host":"waw-1.pl.uncletopia.com","port":27055,"enabled":true,"region":"eu","cc":"pl","latitude":52.2297,"longitude":21.017532,"reserved":0,"last_update":"0001-01-01T00:00:00Z","name_a2s":"Uncletopia | Warsaw | 5 | Stopwatch Beta","protocol":17,"map":"pl_borneo","folder":"tf","game":"Team Fortress","app_id":440,"player_count":0,"max_players":24,"Bots":0,"server_type":"Dedicated","server_os":"Linux","password":true,"vac":true,"version":"7757534","steam_id":85568392925397854,"keywords":["nocrits","nodmgspread","payload","uncletopia"],"game_id":440,"stv_port":27056,"stv_name":"Uncletopia | Warsaw | 5 | Stopwatch Beta | STV","players":null},{"server_id":54,"name":"Uncletopia | Warsaw | 6 | Community","name_short":"waw-6","host":"waw-1.pl.uncletopia.com","port":27065,"enabled":true,"region":"eu","cc":"pl","latitude":52.2297,"longitude":21.017532,"reserved":0,"last_update":"0001-01-01T00:00:00Z","name_a2s":"Uncletopia | Warsaw | 6 | Community","protocol":17,"map":"koth_lakeside_final","folder":"tf","game":"Team Fortress","app_id":440,"player_count":0,"max_players":24,"Bots":0,"server_type":"Dedicated","server_os":"Linux","password":true,"vac":true,"version":"7757534","steam_id":85568392925397856,"keywords":["cp","nocrits","nodmgspread","uncletopia"],"game_id":440,"stv_port":27066,"stv_name":"Uncletopia | Warsaw | 6 | Community | STV","players":null}]}