{"status":true,"message":"","result":[{"server_id":9,"name":"Uncletopia | Atlanta | 1 | All Maps","name_short":"atl-1","host":"atl-1.us.uncletopia.com","port":27015,"enabled":true,"region":"us-east","cc":"us","latitude":33.753746,"longitude":-84.38633,"reserved":0,"last_update":"0001-01-01T00:00:00Z","name_a2s":"Uncletopia | Atlanta | 1 | All Maps","protocol":17,"map":"cp_mountainlab","folder":"tf","game":"Team Fortress","app_id":440,"player_count":0,"max_players":24,"Bots":0,"server_type":"Dedicated","server_os":"Linux","password":true,"vac":true,"version":"7961495","steam_id":85568392924469982,"keywords":["cp","nocrits","nodmgspread","uncletopia"],"game_id":440,"stv_port":27016,"stv_name":"Uncletopia | Atlanta | 1 | All Maps | STV","players":null},{"server_id":104,"name":"Uncletopia | Atlanta | 2 | All Maps","name_short":"atl-2","host":"atl-1.us.uncletopia.com","port":27025,"enabled":true,"region":"us-east","cc":"us","latitude":33.753746,"longitude":-84.38633,"reserved":0,"last_update":"0001-01-01T00:00:00Z","name_a2s":"","protocol":0,"map":"","folder":"","game":"","app_id":0,"player_count":0,"max_players":0,"Bots":0,"server_type":"","server_os":"","password":false,"vac":false,"version":"","steam_id":0,"keywords":null,"game_id":0,"stv_port":0,"stv_name":"","players":null},{"server_id":400,"name":"Uncletopia | Atlanta | 3 | All Maps","name_short":"atl-3","host":"atl-1.us.uncletopia.com","port":27035,"enabled":true,"region":"us-east","cc":"us","latitude":33.753746,"longitude":-84.38633,"reserved":0,"last_update":"0001-01-01T00:00:00Z","name_a2s":"","protocol":0,"map":"","folder":"","game":"","app_id":0,"player_count":0,"max_players":0,"Bots":0,"server_type":"","server_os":"","password":false,"vac":false,"version":"","steam_id":0,"keywords":null,"game_id":0,"stv_port":0,"stv_name":"","players":null},{"server_id":401,"name":"Uncletopia | Atlanta | 4 | Community","name_short":"atl-4","host":"atl-1.us.uncletopia.com","port":27045,"enabled":true,"region":"us-east","cc":"us","latitude":33.753746,"longitude":-84.38633,"reserved":0,"last_update":"0001-01-01T00:00:00Z","name_a2s":"","protocol":0,"map":"","folder":"","game":"","app_id":0,"player_count":0,"max_players":0,"Bots":0,"server_type":"","server_os":"","password":false,"vac":false,"version":"","steam_id":0,"keywords":null,"game_id":0,"stv_port":0,"stv_name":"","players":null},{"server_id":2,"name":"Uncletopia | Chicago | 1 | All Maps","name_short":"chi-1","host":"chi-1.us.uncletopia.com","port":27015,"enabled":true,"region":"us-central","cc":"us","latitude":41.881832,"longitude":-87.62318,"reserved":0,"last_update":"0001-01-01T00:00:00Z","name_a2s":"Uncletopia | Chicago | 1 | All Maps","protocol":17,"map":"pl_snowycoast","folder":"tf","game":"Team Fortress","app_id":440,"player_count":24,"max_players":24,"Bots":0,"server_type":"Dedicated","server_os":"Linux","password":true,"vac":true,"version":"7961495","steam_id":85568392924469984,"keywords":["nocrits","nodmgspread","payload","uncletopia"],"game_id":440,"stv_port":27016,"stv_name":"Uncletopia | Chicago | 1 | All Maps | STV","players":[{"user_id":335,"name":"PocketTieAMPLFY","steam_id":76561199080485881,"connected_time":2382000000000,"state":"active","ping":367},{"user_id":357,"name":"5mech","steam_id":76561198979167520,"connected_time":416000000000,"state":"active","ping":58},{"user_id":336,"name":"William Wallace","steam_id":76561199343316814,"connected_time":2319000000000,"state":"active","ping":71},{"user_id":358,"name":"Mr. Green","steam_id":76561198037778253,"connected_time":312000000000,"state":"active","ping":67},{"user_id":351,"name":"blob","steam_id":76561198122375328,"connected_time":1034000000000,"state":"active","ping":56},{"user_id":344,"name":"glankinator","steam_id":76561198354077256,"connected_time":1272000000000,"state":"active","ping":47},{"user_id":304,"name":"blazzeh","steam_id":76561198053407069,"connected_time":4559000000000,"state":"active","ping":122},{"user_id":243,"name":"Obelisk","steam_id":76561198049416866,"connected_time":8389000000000,"state":"active","ping":78},{"user_id":361,"name":"girlpeen supreme","steam_id":76561198031242903,"connected_time":154000000000,"state":"active","ping":68},{"user_id":338,"name":"StormyBoyo","steam_id":76561198273482774,"connected_time":1832000000000,"state":"active","ping":86},{"user_id":343,"name":"Dzhoshua","steam_id":76561198071915251,"connected_time":1293000000000,"state":"active","ping":67},{"user_id":345,"name":"BIGGEST MAC","steam_id":76561198847517098,"connected_time":1233000000000,"state":"active","ping":85},{"user_id":334,"name":"Dragus","steam_id":76561198032967285,"connected_time":2602000000000,"state":"active","ping":52},{"user_id":341,"name":"McGruble","steam_id":76561198136317340,"connected_time":1782000000000,"state":"active","ping":91},{"user_id":326,"name":"NovusOrdoDux","steam_id":76561198271936289,"connected_time":3336000000000,"state":"active","ping":131},{"user_id":360,"name":"Father Jon","steam_id":76561198324730919,"connected_time":300000000000,"state":"active","ping":88},{"user_id":347,"name":"Shalom","steam_id":76561198410005222,"connected_time":1189000000000,"state":"active","ping":67},{"user_id":348,"name":"b","steam_id":76561198208094321,"connected_time":1170000000000,"state":"active","ping":95},{"user_id":306,"name":"Ashes!","steam_id":76561197998475441,"connected_time":4168000000000,"state":"active","ping":89},{"user_id":352,"name":"Thunder","steam_id":76561199434110716,"connected_time":1030000000000,"state":"active","ping":67},{"user_id":331,"name":"Mecha","steam_id":76561198014927379,"connected_time":3059000000000,"state":"active","ping":69},{"user_id":328,"name":"BNT","steam_id":76561198044064831,"connected_time":3117000000000,"state":"active","ping":61},{"user_id":350,"name":"Willem Dafoe","steam_id":76561198037453253,"connected_time":1149000000000,"state":"active","ping":66},{"user_id":355,"name":"LooseCannon Main","steam_id":76561198169352967,"connected_time":698000000000,"state":"active","ping":56}]},{"server_id":106,"name":"Uncletopia | Chicago | 2 | All Maps","name_short":"chi-2","host":"chi-1.us.uncletopia.com","port":27025,"enabled":true,"region":"us-central","cc":"us","latitude":41.881832,"longitude":-87.62318,"reserved":0,"last_update":"0001-01-01T00:00:00Z","name_a2s":"Uncletopia | Chicago | 2 | All Maps","protocol":17,"map":"pl_swiftwater_final1","folder":"tf","game":"Team Fortress","app_id":440,"player_count":19,"max_players":24,"Bots":0,"server_type":"Dedicated","server_os":"Linux","password":true,"vac":true,"version":"7961495","steam_id":85568392924469985,"keywords":["nocrits","nodmgspread","payload","uncletopia"],"game_id":440,"stv_port":27026,"stv_name":"Uncletopia | Chicago | 2 | All Maps | STV","players":[{"user_id":296,"name":"Glue Gulper","steam_id":76561198158014525,"connected_time":107000000000,"state":"spawning","ping":47},{"user_id":281,"name":"Poorkitten","steam_id":76561197995468170,"connected_time":889000000000,"state":"spawning","ping":46},{"user_id":292,"name":"plokmijnuhbygvtfcrdxeszwaq","steam_id":76561198175741741,"connected_time":466000000000,"state":"spawning","ping":81},{"user_id":265,"name":"Obama","steam_id":76561198194065283,"connected_time":1941000000000,"state":"spawning","ping":100},{"user_id":293,"name":"Lank","steam_id":76561198272712400,"connected_time":416000000000,"state":"spawning","ping":116},{"user_id":297,"name":"millersamarri","steam_id":76561199492235982,"connected_time":3000000000,"state":"spawning","ping":56},{"user_id":260,"name":"1-800-GHOST-DANCE","steam_id":76561198835430429,"connected_time":2622000000000,"state":"spawning","ping":81},{"user_id":294,"name":"Sporp","steam_id":76561197987957133,"connected_time":398000000000,"state":"spawning","ping":68},{"user_id":279,"name":"Scorpie Doodle","steam_id":76561198021845763,"connected_time":1065000000000,"state":"spawning","ping":47},{"user_id":274,"name":"God","steam_id":76561198131089513,"connected_time":1350000000000,"state":"spawning","ping":44},{"user_id":291,"name":"Fiendish Frog","steam_id":76561198029478821,"connected_time":474000000000,"state":"spawning","ping":165},{"user_id":262,"name":"snubcube","steam_id":76561198135880806,"connected_time":2429000000000,"state":"spawning","ping":57},{"user_id":156,"name":"ThatGamingKiwi","steam_id":76561199170522237,"connected_time":9579000000000,"state":"spawning","ping":66},{"user_id":278,"name":"Ejaculation Zach","steam_id":76561198203765200,"connected_time":1133000000000,"state":"spawning","ping":48},{"user_id":288,"name":"a table","steam_id":76561198158461279,"connected_time":627000000000,"state":"spawning","ping":33},{"user_id":286,"name":"Deborp","steam_id":76561198118868430,"connected_time":711000000000,"state":"spawning","ping":80},{"user_id":289,"name":"lizardlord06","steam_id":76561198321340506,"connected_time":617000000000,"state":"spawning","ping":68},{"user_id":290,"name":"ohhhl0rd","steam_id":76561199066793578,"connected_time":589000000000,"state":"spawning","ping":75}]},{"server_id":402,"name":"Uncletopia | Chicago | 3 | All Maps","name_short":"chi-3","host":"chi-1.us.uncletopia.com","port":27035,"enabled":true,"region":"us-central","cc":"us","latitude":41.881832,"longitude":-87.62318,"reserved":0,"last_update":"0001-01-01T00:00:00Z","name_a2s":"Uncletopia | Chicago | 3 | All Maps","protocol":17,"map":"koth_lakeside_final","folder":"tf","game":"Team Fortress","app_id":440,"player_count":23,"max_players":24,"Bots":0,"server_type":"Dedicated","server_os":"Linux","password":true,"vac":true,"version":"7961495","steam_id":85568392924515191,"keywords":["cp","nocrits","nodmgspread","uncletopia"],"game_id":440,"stv_port":27036,"stv_name":"Uncletopia | Chicago | 3 | All Maps | STV","players":[{"user_id":161,"name":"honeycrisp","steam_id":76561198215442741,"connected_time":2305000000000,"state":"active","ping":80},{"user_id":181,"name":"Truck-kun2107","steam_id":76561199161417910,"connected_time":1018000000000,"state":"active","ping":83},{"user_id":145,"name":"kinky n stinky","steam_id":76561198145366579,"connected_time":3313000000000,"state":"active","ping":76},{"user_id":178,"name":"anonpain","steam_id":76561198081317092,"connected_time":1099000000000,"state":"active","ping":50},{"user_id":159,"name":"intelligent explosive solutions","steam_id":76561198057076267,"connected_time":2495000000000,"state":"active","ping":73},{"user_id":192,"name":"makmak","steam_id":76561198065314851,"connected_time":83000000000,"state":"active","ping":117},{"user_id":108,"name":"Eyeless","steam_id":76561198094772431,"connected_time":6904000000000,"state":"active","ping":59},{"user_id":176,"name":"Yukon Cornelius","steam_id":76561198261512781,"connected_time":1674000000000,"state":"active","ping":67},{"user_id":190,"name":"Chuhak","steam_id":76561198071964800,"connected_time":129000000000,"state":"active","ping":92},{"user_id":130,"name":"Incoming","steam_id":76561199020244051,"connected_time":5165000000000,"state":"active","ping":99},{"user_id":167,"name":"Phshteve18","steam_id":76561198378835410,"connected_time":2007000000000,"state":"active","ping":68},{"user_id":162,"name":"TheFryingDutchman","steam_id":76561199193784099,"connected_time":2304000000000,"state":"active","ping":89},{"user_id":160,"name":"MontellWilliams","steam_id":76561198172143015,"connected_time":2382000000000,"state":"active","ping":56},{"user_id":179,"name":"John Coltrane","steam_id":76561198037789297,"connected_time":1095000000000,"state":"active","ping":120},{"user_id":189,"name":"chaffy","steam_id":76561198021754567,"connected_time":192000000000,"state":"active","ping":57},{"user_id":172,"name":"Brob Zombie","steam_id":76561198149795942,"connected_time":1892000000000,"state":"active","ping":67},{"user_id":188,"name":"Stoutgut","steam_id":76561198029361735,"connected_time":207000000000,"state":"active","ping":61},{"user_id":193,"name":"el wiwi","steam_id":76561198857304367,"connected_time":33000000000,"state":"active","ping":71},{"user_id":163,"name":"TheSnipersHat","steam_id":76561198057684066,"connected_time":2300000000000,"state":"active","ping":54},{"user_id":164,"name":"Natsuki the Scunt","steam_id":76561199175922684,"connected_time":2286000000000,"state":"active","ping":111},{"user_id":74,"name":"strangejune","steam_id":76561198272400016,"connected_time":10221000000000,"state":"active","ping":76},{"user_id":187,"name":"stall","steam_id":76561199152861652,"connected_time":222000000000,"state":"active","ping":48},{"user_id":191,"name":"Mephistopheles","steam_id":76561198253731826,"connected_time":92000000000,"state":"active","ping":112}]},{"server_id":403,"name":"Uncletopia | Chicago | 4 | All Maps","name_short":"chi-4","host":"chi-1.us.uncletopia.com","port":27045,"enabled":true,"region":"us-central","cc":"us","latitude":41.881832,"longitude":-87.62318,"reserved":0,"last_update":"0001-01-01T00:00:00Z","name_a2s":"Uncletopia | Chicago | 4 | All Maps","protocol":17,"map":"koth_cascade","folder":"tf","game":"Team Fortress","app_id":440,"player_count":0,"max_players":24,"Bots":0,"server_type":"Dedicated","server_os":"Linux","password":true,"vac":true,"version":"7961495","steam_id":85568392924515193,"keywords":["cp","nocrits","nodmgspread","uncletopia"],"game_id":440,"stv_port":27046,"stv_name":"Uncletopia | Chicago | 4 | All Maps | STV","players":null},{"server_id":36,"name":"Uncletopia | Chicago | 5 | All Maps","name_short":"chi-5","host":"chi-2.us.uncletopia.com","port":27015,"enabled":true,"region":"us-central","cc":"us","latitude":41.881832,"longitude":-87.62318,"reserved":0,"last_update":"0001-01-01T00:00:00Z","name_a2s":"Uncletopia | Chicago | 5 | All Maps","protocol":17,"map":"cp_snakewater_final1","folder":"tf","game":"Team Fortress","app_id":440,"player_count":0,"max_players":24,"Bots":0,"server_type":"Dedicated","server_os":"Linux","password":true,"vac":true,"version":"7961495","steam_id":85568392924866362,"keywords":["cp","nocrits","nodmgspread","uncletopia"],"game_id":440,"stv_port":27016,"stv_name":"Uncletopia | Chicago | 5 | All Maps | STV","players":null},{"server_id":37,"name":"Uncletopia | Chicago | 6 | All Maps","name_short":"chi-6","host":"chi-2.us.uncletopia.com","port":27025,"enabled":true,"region":"us-central","cc":"us","latitude":41.881832,"longitude":-87.62318,"reserved":0,"last_update":"0001-01-01T00:00:00Z","name_a2s":"Uncletopia | Chicago | 6 | All Maps","protocol":17,"map":"cp_altitude","folder":"tf","game":"Team Fortress","app_id":440,"player_count":0,"max_players":24,"Bots":0,"server_type":"Dedicated","server_os":"Linux","password":true,"vac":true,"version":"7961495","steam_id":85568392924866363,"keywords":["cp","nocrits","nodmgspread","uncletopia"],"game_id":440,"stv_port":27026,"stv_name":"Uncletopia | Chicago | 6 | All Maps | STV","players":null},{"server_id":38,"name":"Uncletopia | Chicago | 7 | Stopwatch Beta","name_short":"chi-7","host":"chi-2.us.uncletopia.com","port":27035,"enabled":true,"region":"us-central","cc":"us","latitude":41.881832,"longitude":-87.62318,"reserved":0,"last_update":"0001-01-01T00:00:00Z","name_a2s":"Uncletopia | Chicago | 7 | Stopwatch Beta","protocol":17,"map":"pl_badwater","folder":"tf","game":"Team Fortress","app_id":440,"player_count":0,"max_players":24,"Bots":0,"server_type":"Dedicated","server_os":"Linux","password":true,"vac":true,"version":"7961495","steam_id":85568392924866364,"keywords":["nocrits","nodmgspread","payload","uncletopia"],"game_id":440,"stv_port":27036,"stv_name":"Uncletopia | Chicago | 7 | Stopwatch Beta | STV","players":null},{"server_id":39,"name":"Uncletopia | Chicago | 8 | Community","name_short":"chi-8","host":"chi-2.us.uncletopia.com","port":27045,"enabled":true,"region":"us-central","cc":"us","latitude":41.881832,"longitude":-87.62318,"reserved":0,"last_update":"0001-01-01T00:00:00Z","name_a2s":"Uncletopia | Chicago | 8 | Community","protocol":17,"map":"koth_cascade","folder":"tf","game":"Team Fortress","app_id":440,"player_count":0,"max_players":24,"Bots":0,"server_type":"Dedicated","server_os":"Linux","password":true,"vac":true,"version":"7961495","steam_id":85568392924866365,"keywords":["cp","nocrits","nodmgspread","uncletopia"],"game_id":440,"stv_port":27046,"stv_name":"Uncletopia | Chicago | 8 | Community | STV","players":null},{"server_id":8,"name":"Uncletopia | Dallas | 1 | All Maps","name_short":"dal-1","host":"dal-1.us.uncletopia.com","port":27015,"enabled":true,"region":"us-central","cc":"us","latitude":32.779167,"longitude":-96.80889,"reserved":0,"last_update":"0001-01-01T00:00:00Z","name_a2s":"Uncletopia | Dallas | 1 | All Maps","protocol":17,"map":"pl_upward","folder":"tf","game":"Team Fortress","app_id":440,"player_count":24,"max_players":24,"Bots":0,"server_type":"Dedicated","server_os":"Linux","password":true,"vac":true,"version":"7961495","steam_id":85568392924469986,"keywords":["nocrits","nodmgspread","payload","uncletopia"],"game_id":440,"stv_port":27016,"stv_name":"Uncletopia | Dallas | 1 | All Maps | STV","players":[{"user_id":255,"name":"Jango","steam_id":76561198084589742,"connected_time":1725000000000,"state":"active","ping":75},{"user_id":273,"name":"Cogsworth","steam_id":76561198101859889,"connected_time":222000000000,"state":"active","ping":88},{"user_id":256,"name":"David De Bergerac","steam_id":76561198010306294,"connected_time":1691000000000,"state":"active","ping":91},{"user_id":233,"name":"Mellou","steam_id":76561198212048740,"connected_time":3463000000000,"state":"active","ping":47},{"user_id":262,"name":"Gordon Ramsay","steam_id":76561198123893900,"connected_time":810000000000,"state":"active","ping":100},{"user_id":274,"name":"Rodgedan","steam_id":76561198226236524,"connected_time":209000000000,"state":"active","ping":101},{"user_id":275,"name":"François Viète","steam_id":76561198072975518,"connected_time":196000000000,"state":"active","ping":76},{"user_id":264,"name":"Choppah","steam_id":76561198269193530,"connected_time":686000000000,"state":"active","ping":48},{"user_id":245,"name":"Palpy","steam_id":76561198165608201,"connected_time":2486000000000,"state":"active","ping":45},{"user_id":259,"name":"dang it darn it crap","steam_id":76561198204593875,"connected_time":1058000000000,"state":"active","ping":60},{"user_id":272,"name":"breathing meat donut","steam_id":76561198123566649,"connected_time":333000000000,"state":"active","ping":57},{"user_id":276,"name":"scout gaming","steam_id":76561199314496252,"connected_time":194000000000,"state":"active","ping":100},{"user_id":265,"name":"ehs","steam_id":76561198431048339,"connected_time":672000000000,"state":"active","ping":95},{"user_id":186,"name":"nunu and willump stan","steam_id":76561198155872356,"connected_time":7099000000000,"state":"active","ping":76},{"user_id":246,"name":"Dr Oshawott","steam_id":76561198042021629,"connected_time":2479000000000,"state":"active","ping":88},{"user_id":277,"name":"imng","steam_id":76561198014988031,"connected_time":180000000000,"state":"active","ping":76},{"user_id":230,"name":"The Engineer","steam_id":76561198104086771,"connected_time":3916000000000,"state":"active","ping":75},{"user_id":266,"name":"nosound","steam_id":76561198092135570,"connected_time":639000000000,"state":"active","ping":46},{"user_id":252,"name":"furrein","steam_id":76561198318777982,"connected_time":2001000000000,"state":"active","ping":61},{"user_id":239,"name":"Legless Amphibian","steam_id":76561198880476222,"connected_time":3079000000000,"state":"active","ping":59},{"user_id":187,"name":"peep! qki","steam_id":76561198056198168,"connected_time":7077000000000,"state":"active","ping":57},{"user_id":254,"name":"SLOPMASTER_69","steam_id":76561198080130096,"connected_time":1909000000000,"state":"active","ping":96},{"user_id":270,"name":"schmuck","steam_id":76561198143789773,"connected_time":400000000000,"state":"active","ping":55},{"user_id":242,"name":"Sahbi ʕ •ᴥ•ʔ (she/they)","steam_id":76561199196292242,"connected_time":2534000000000,"state":"active","ping":65}]},{"server_id":108,"name":"Uncletopia | Dallas | 2 | All Maps","name_short":"dal-2","host":"dal-1.us.uncletopia.com","port":27025,"enabled":true,"region":"us-central","cc":"us","latitude":32.779167,"longitude":-96.80889,"reserved":0,"last_update":"0001-01-01T00:00:00Z","name_a2s":"Uncletopia | Dallas | 2 | All Maps","protocol":17,"map":"cp_dustbowl","folder":"tf","game":"Team Fortress","app_id":440,"player_count":24,"max_players":24,"Bots":0,"server_type":"Dedicated","server_os":"Linux","password":true,"vac":true,"version":"7961495","steam_id":85568392924469988,"keywords":["cp","nocrits","nodmgspread","uncletopia"],"game_id":440,"stv_port":27026,"stv_name":"Uncletopia | Dallas | 2 | All Maps | STV","players":[{"user_id":4,"name":"Ceo of Anti-Racism","steam_id":76561198831997540,"connected_time":11993000000000,"state":"active","ping":67},{"user_id":127,"name":"alset333","steam_id":76561198405345260,"connected_time":1615000000000,"state":"active","ping":85},{"user_id":124,"name":"Quinton Beef","steam_id":76561198117825609,"connected_time":1642000000000,"state":"active","ping":98},{"user_id":123,"name":"Fake21","steam_id":76561198282065071,"connected_time":1663000000000,"state":"active","ping":52},{"user_id":132,"name":"Brown_Dream","steam_id":76561198975766145,"connected_time":1417000000000,"state":"active","ping":85},{"user_id":135,"name":"Jae","steam_id":76561198060026844,"connected_time":1012000000000,"state":"active","ping":61},{"user_id":121,"name":"GoldtoothFour","steam_id":76561198055529332,"connected_time":1677000000000,"state":"active","ping":73},{"user_id":117,"name":"Michaelpc1","steam_id":76561198088365519,"connected_time":2776000000000,"state":"active","ping":90},{"user_id":140,"name":"Kazmirl","steam_id":76561198116008410,"connected_time":448000000000,"state":"active","ping":106},{"user_id":122,"name":"DragonFluffy","steam_id":76561198077511010,"connected_time":1672000000000,"state":"active","ping":71},{"user_id":125,"name":"snasgaming","steam_id":76561199210168303,"connected_time":1631000000000,"state":"active","ping":134},{"user_id":64,"name":"Satori Komeiji","steam_id":76561198158211423,"connected_time":7014000000000,"state":"active","ping":83},{"user_id":145,"name":"shiny","steam_id":76561198172286358,"connected_time":46000000000,"state":"active","ping":68},{"user_id":128,"name":"evil tiger","steam_id":76561198152818418,"connected_time":1589000000000,"state":"active","ping":55},{"user_id":143,"name":"mr poop","steam_id":76561199195196632,"connected_time":159000000000,"state":"active","ping":66},{"user_id":107,"name":"Raine","steam_id":76561198055761141,"connected_time":3346000000000,"state":"active","ping":101},{"user_id":111,"name":"Snoopy","steam_id":76561198273735974,"connected_time":3190000000000,"state":"active","ping":73},{"user_id":130,"name":"Healerblade","steam_id":76561197999816472,"connected_time":1588000000000,"state":"active","ping":67},{"user_id":137,"name":"Fightin Cow","steam_id":76561198080941486,"connected_time":623000000000,"state":"active","ping":57},{"user_id":134,"name":"Kirby.exe","steam_id":76561198242714582,"connected_time":1222000000000,"state":"active","ping":53},{"user_id":141,"name":"yomommasabitch","steam_id":76561198323217150,"connected_time":252000000000,"state":"active","ping":38},{"user_id":112,"name":"Walmus","steam_id":76561198111416393,"connected_time":3184000000000,"state":"active","ping":77},{"user_id":82,"name":"{SCG} Jon the Friendly Fox \u003c3","steam_id":76561198021136606,"connected_time":6009000000000,"state":"active","ping":48},{"user_id":89,"name":"motherfucker 2.0","steam_id":76561198141189209,"connected_time":5789000000000,"state":"active","ping":44}]},{"server_id":404,"name":"Uncletopia | Dallas | 3 | All Maps","name_short":"dal-3","host":"dal-1.us.uncletopia.com","port":27035,"enabled":true,"region":"us-central","cc":"us","latitude":32.779167,"longitude":-96.80889,"reserved":0,"last_update":"0001-01-01T00:00:00Z","name_a2s":"Uncletopia | Dallas | 3 | All Maps","protocol":17,"map":"koth_highpass","folder":"tf","game":"Team Fortress","app_id":440,"player_count":8,"max_players":24,"Bots":0,"server_type":"Dedicated","server_os":"Linux","password":true,"vac":true,"version":"7961495","steam_id":85568392924515219,"keywords":["cp","nocrits","nodmgspread","uncletopia"],"game_id":440,"stv_port":27036,"stv_name":"Uncletopia | Dallas | 3 | All Maps | STV","players":[{"user_id":6,"name":"Lord Commissar Drac","steam_id":76561198030371218,"connected_time":1499000000000,"state":"active","ping":163},{"user_id":7,"name":"[hoodie]","steam_id":76561198105408624,"connected_time":1412000000000,"state":"active","ping":83},{"user_id":8,"name":"GezmeRR TF2","steam_id":76561198043814532,"connected_time":1242000000000,"state":"active","ping":150},{"user_id":9,"name":"Lord","steam_id":76561198065021271,"connected_time":862000000000,"state":"active","ping":161},{"user_id":10,"name":"ifOrdinary","steam_id":76561199162862298,"connected_time":705000000000,"state":"active","ping":64},{"user_id":12,"name":"lucky","steam_id":76561198323426623,"connected_time":323000000000,"state":"active","ping":97},{"user_id":13,"name":"Jeramosa","steam_id":76561198811000094,"connected_time":245000000000,"state":"active","ping":69},{"user_id":15,"name":"purpledrake08","steam_id":76561199155657280,"connected_time":65000000000,"state":"active","ping":138}]},{"server_id":405,"name":"Uncletopia | Dallas | 4 | Community","name_short":"dal-4","host":"dal-1.us.uncletopia.com","port":27045,"enabled":true,"region":"us-central","cc":"us","latitude":32.779167,"longitude":-96.80889,"reserved":0,"last_update":"0001-01-01T00:00:00Z","name_a2s":"Uncletopia | Dallas | 4 | Community","protocol":17,"map":"workshop/pl_barnblitz_pro7.ugc582280235","folder":"tf","game":"Team Fortress","app_id":440,"player_count":0,"max_players":24,"Bots":0,"server_type":"Dedicated","server_os":"Linux","password":true,"vac":true,"version":"7961495","steam_id":85568392924515220,"keywords":["nocrits","nodmgspread","payload","uncletopia"],"game_id":440,"stv_port":27046,"stv_name":"Uncletopia | Dallas | 4 | Community | STV","players":null},{"server_id":5,"name":"Uncletopia | Frankfurt | 1 | All Maps","name_short":"frk-1","host":"frk-1.de.uncletopia.com","port":27015,"enabled":true,"region":"eu","cc":"de","latitude":50.110924,"longitude":8.682127,"reserved":0,"last_update":"0001-01-01T00:00:00Z","name_a2s":"Uncletopia | Frankfurt | 1 | All Maps","protocol":17,"map":"pl_upward","folder":"tf","game":"Team Fortress","app_id":440,"player_count":24,"max_players":24,"Bots":0,"server_type":"Dedicated","server_os":"Linux","password":true,"vac":true,"version":"7961495","steam_id":85568392924469989,"keywords":["nocrits","nodmgspread","payload","uncletopia"],"game_id":440,"stv_port":27016,"stv_name":"Uncletopia | Frankfurt | 1 | All Maps | STV","players":[{"user_id":645,"name":"Fiurius","steam_id":76561198151910950,"connected_time":1418000000000,"state":"active","ping":72},{"user_id":649,"name":"Xriasp","steam_id":76561198104721321,"connected_time":1335000000000,"state":"active","ping":68},{"user_id":621,"name":"RAINZ","steam_id":76561198335370929,"connected_time":2835000000000,"state":"active","ping":129},{"user_id":638,"name":"Kolomaster","steam_id":76561198143356545,"connected_time":1814000000000,"state":"active","ping":74},{"user_id":604,"name":"Walter Black","steam_id":76561198309194819,"connected_time":4113000000000,"state":"active","ping":78},{"user_id":673,"name":"Noob_with_source","steam_id":76561198870362103,"connected_time":158000000000,"state":"active","ping":59},{"user_id":670,"name":"CRWND","steam_id":76561198329810027,"connected_time":230000000000,"state":"active","ping":52},{"user_id":651,"name":"Femboy","steam_id":76561198384909993,"connected_time":1155000000000,"state":"active","ping":100},{"user_id":666,"name":"pablo","steam_id":76561198089285014,"connected_time":488000000000,"state":"active","ping":73},{"user_id":606,"name":"♂ Animan ♂ Studios ♂","steam_id":76561198308302932,"connected_time":4029000000000,"state":"active","ping":91},{"user_id":646,"name":"cof","steam_id":76561199128417805,"connected_time":1408000000000,"state":"active","ping":80},{"user_id":674,"name":"waffle toaster","steam_id":76561198799089628,"connected_time":24000000000,"state":"active","ping":69},{"user_id":663,"name":"Kotlonizator","steam_id":76561198993830128,"connected_time":527000000000,"state":"active","ping":77},{"user_id":514,"name":"halow","steam_id":76561198061505163,"connected_time":10647000000000,"state":"active","ping":89},{"user_id":667,"name":"Fyi.I.Am.A.Spy","steam_id":76561197989509144,"connected_time":408000000000,"state":"active","ping":73},{"user_id":624,"name":"rwota","steam_id":76561198385769722,"connected_time":2767000000000,"state":"active","ping":98},{"user_id":652,"name":"The Captain","steam_id":76561198136877350,"connected_time":1154000000000,"state":"active","ping":75},{"user_id":647,"name":"Daruun","steam_id":76561198019068781,"connected_time":1405000000000,"state":"active","ping":72},{"user_id":627,"name":"MoistMomMauler","steam_id":76561198069359049,"connected_time":2680000000000,"state":"active","ping":77},{"user_id":640,"name":"jerf(estrogen needer)","steam_id":76561199213901239,"connected_time":1667000000000,"state":"active","ping":60},{"user_id":668,"name":"Лысый из кухни","steam_id":76561199072741842,"connected_time":314000000000,"state":"active","ping":86},{"user_id":671,"name":"obi☭","steam_id":76561198040154461,"connected_time":203000000000,"state":"active","ping":69},{"user_id":648,"name":"the catboy","steam_id":76561198236015506,"connected_time":1394000000000,"state":"active","ping":96},{"user_id":654,"name":"screenshot2020-25-09","steam_id":76561198255275650,"connected_time":763000000000,"state":"active","ping":48}]},{"server_id":110,"name":"Uncletopia | Frankfurt | 2 | All Maps","name_short":"frk-2","host":"frk-1.de.uncletopia.com","port":27025,"enabled":true,"region":"eu","cc":"de","latitude":50.110924,"longitude":8.682127,"reserved":0,"last_update":"0001-01-01T00:00:00Z","name_a2s":"Uncletopia | Frankfurt | 2 | All Maps","protocol":17,"map":"pl_barnblitz","folder":"tf","game":"Team Fortress","app_id":440,"player_count":6,"max_players":24,"Bots":0,"server_type":"Dedicated","server_os":"Linux","password":true,"vac":true,"version":"7961495","steam_id":85568392924469990,"keywords":["nocrits","nodmgspread","payload","uncletopia"],"game_id":440,"stv_port":27026,"stv_name":"Uncletopia | Frankfurt | 2 | All Maps | STV","players":[{"user_id":386,"name":"chair 2.0","steam_id":76561199233470150,"connected_time":792000000000,"state":"active","ping":58},{"user_id":387,"name":"American_biscuit","steam_id":76561198392173427,"connected_time":770000000000,"state":"active","ping":169},{"user_id":392,"name":"Badrock 1","steam_id":76561198368513115,"connected_time":212000000000,"state":"active","ping":108},{"user_id":396,"name":"Magiccomplex","steam_id":76561199203555188,"connected_time":24000000000,"state":"active","ping":40},{"user_id":390,"name":"Mr. Master","steam_id":76561199198569317,"connected_time":462000000000,"state":"active","ping":60},{"user_id":395,"name":"The J","steam_id":76561199018341123,"connected_time":45000000000,"state":"active","ping":68}]},{"server_id":308,"name":"Uncletopia | Frankfurt | 3 | All Maps","name_short":"frk-3","host":"frk-1.de.uncletopia.com","port":27035,"enabled":true,"region":"eu","cc":"de","latitude":50.110924,"longitude":8.682127,"reserved":0,"last_update":"0001-01-01T00:00:00Z","name_a2s":"Uncletopia | Frankfurt | 3 | All Maps","protocol":17,"map":"cp_dustbowl","folder":"tf","game":"Team Fortress","app_id":440,"player_count":24,"max_players":24,"Bots":0,"server_type":"Dedicated","server_os":"Linux","password":true,"vac":true,"version":"7961495","steam_id":85568392924504274,"keywords":["cp","nocrits","nodmgspread","uncletopia"],"game_id":440,"stv_port":27036,"stv_name":"Uncletopia | Frankfurt | 3 | All Maps | STV","players":[{"user_id":109,"name":"Josh","steam_id":76561198274546904,"connected_time":973000000000,"state":"active","ping":137},{"user_id":40,"name":"Olvustin","steam_id":76561198272011453,"connected_time":5484000000000,"state":"active","ping":98},{"user_id":108,"name":"Puss in Boots","steam_id":76561198211599767,"connected_time":992000000000,"state":"active","ping":65},{"user_id":122,"name":"Gender Offender","steam_id":76561198369227367,"connected_time":769000000000,"state":"active","ping":87},{"user_id":118,"name":"Artificial.Ignorance","steam_id":76561198453090180,"connected_time":836000000000,"state":"active","ping":174},{"user_id":99,"name":"fish","steam_id":76561198092096689,"connected_time":1919000000000,"state":"active","ping":49},{"user_id":120,"name":"quarks and stuff","steam_id":76561198137869662,"connected_time":789000000000,"state":"active","ping":48},{"user_id":100,"name":"Killcam","steam_id":76561198060307235,"connected_time":1916000000000,"state":"active","ping":69},{"user_id":47,"name":"stefanbejenari","steam_id":76561199466718294,"connected_time":4901000000000,"state":"active","ping":88},{"user_id":87,"name":"Pain in a Box","steam_id":76561197990777173,"connected_time":2784000000000,"state":"active","ping":100},{"user_id":117,"name":"dinorno","steam_id":76561198146276830,"connected_time":873000000000,"state":"active","ping":66},{"user_id":113,"name":"Favi","steam_id":76561198013236935,"connected_time":936000000000,"state":"active","ping":66},{"user_id":114,"name":"Tomfool","steam_id":76561197993256481,"connected_time":934000000000,"state":"active","ping":72},{"user_id":131,"name":"Truegear","steam_id":76561198059511386,"connected_time":364000000000,"state":"active","ping":72},{"user_id":129,"name":"Michael","steam_id":76561198003146906,"connected_time":597000000000,"state":"active","ping":58},{"user_id":134,"name":"SnowShot","steam_id":76561198004766638,"connected_time":23000000000,"state":"active","ping":118},{"user_id":132,"name":"s6","steam_id":76561198301060023,"connected_time":337000000000,"state":"active","ping":70},{"user_id":105,"name":"F4.exe","steam_id":76561198278822807,"connected_time":1277000000000,"state":"active","ping":56},{"user_id":103,"name":"GabGame","steam_id":76561198105631808,"connected_time":1492000000000,"state":"active","ping":73},{"user_id":133,"name":"ChilledCatz","steam_id":76561198166046621,"connected_time":332000000000,"state":"active","ping":51},{"user_id":126,"name":"akela","steam_id":76561198122010232,"connected_time":704000000000,"state":"active","ping":65},{"user_id":76,"name":"WomenBeardLike","steam_id":76561198390184314,"connected_time":3262000000000,"state":"active","ping":61},{"user_id":130,"name":"Time-Green","steam_id":76561198133937444,"connected_time":433000000000,"state":"active","ping":70},{"user_id":79,"name":"Cheers Mate!","steam_id":76561198265192382,"connected_time":3203000000000,"state":"active","ping":67}]},{"server_id":309,"name":"Uncletopia | Frankfurt | 4 | All Maps","name_short":"frk-4","host":"frk-1.de.uncletopia.com","port":27045,"enabled":true,"region":"eu","cc":"de","latitude":50.110924,"longitude":8.682127,"reserved":0,"last_update":"0001-01-01T00:00:00Z","name_a2s":"Uncletopia | Frankfurt | 4 | All Maps","protocol":17,"map":"pl_borneo","folder":"tf","game":"Team Fortress","app_id":440,"player_count":24,"max_players":24,"Bots":0,"server_type":"Dedicated","server_os":"Linux","password":true,"vac":true,"version":"7961495","steam_id":85568392924504275,"keywords":["nocrits","nodmgspread","payload","uncletopia"],"game_id":440,"stv_port":27046,"stv_name":"Uncletopia | Frankfurt | 4 | All Maps | STV","players":[{"user_id":282,"name":"sHIFTINGvORTEX","steam_id":76561198231648332,"connected_time":3560000000000,"state":"active","ping":77},{"user_id":326,"name":"simon","steam_id":76561198880361394,"connected_time":184000000000,"state":"active","ping":48},{"user_id":322,"name":"LivEssense","steam_id":76561198052476979,"connected_time":256000000000,"state":"active","ping":78},{"user_id":329,"name":"demoman","steam_id":76561198046170435,"connected_time":165000000000,"state":"active","ping":61},{"user_id":316,"name":"Koli","steam_id":76561197992428783,"connected_time":1225000000000,"state":"active","ping":46},{"user_id":325,"name":"crazed gunman","steam_id":76561198836246326,"connected_time":190000000000,"state":"active","ping":79},{"user_id":327,"name":"Wafflesky","steam_id":76561198109973821,"connected_time":182000000000,"state":"active","ping":64},{"user_id":328,"name":"TINY!!!!","steam_id":76561199005484047,"connected_time":182000000000,"state":"active","ping":97},{"user_id":320,"name":"YuraGreek","steam_id":76561198050182252,"connected_time":413000000000,"state":"active","ping":80},{"user_id":298,"name":"Štěpán","steam_id":76561198275742101,"connected_time":1985000000000,"state":"active","ping":56},{"user_id":300,"name":"Rin-Nakaret","steam_id":76561197971051188,"connected_time":1880000000000,"state":"active","ping":71},{"user_id":313,"name":"[SQ UA] MartianDill","steam_id":76561198405382822,"connected_time":1290000000000,"state":"active","ping":76},{"user_id":285,"name":"ANGELFISH","steam_id":76561198027536466,"connected_time":3443000000000,"state":"active","ping":105},{"user_id":286,"name":"TrollSechsMann1941","steam_id":76561198150569669,"connected_time":3437000000000,"state":"active","ping":96},{"user_id":293,"name":"etc","steam_id":76561197998394797,"connected_time":2555000000000,"state":"active","ping":54},{"user_id":314,"name":"N","steam_id":76561198257342972,"connected_time":1257000000000,"state":"active","ping":60},{"user_id":323,"name":"willem dafoe fan","steam_id":76561198795590054,"connected_time":207000000000,"state":"active","ping":89},{"user_id":324,"name":"Lemon","steam_id":76561198093765664,"connected_time":200000000000,"state":"active","ping":68},{"user_id":257,"name":"tequila sunset","steam_id":76561198315969106,"connected_time":5168000000000,"state":"active","ping":96},{"user_id":317,"name":"peso enjoyer","steam_id":76561198798177799,"connected_time":1087000000000,"state":"active","ping":82},{"user_id":330,"name":"poopoocum","steam_id":76561198180641206,"connected_time":160000000000,"state":"active","ping":66},{"user_id":319,"name":"Irgend so n Trottel","steam_id":76561197997126444,"connected_time":903000000000,"state":"active","ping":62},{"user_id":331,"name":"Door","steam_id":76561198111462976,"connected_time":159000000000,"state":"active","ping":75},{"user_id":312,"name":"7oid","steam_id":76561198142074232,"connected_time":1430000000000,"state":"active","ping":94}]},{"server_id":310,"name":"Uncletopia | Frankfurt | 5 | All Maps","name_short":"frk-5","host":"frk-1.de.uncletopia.com","port":27055,"enabled":true,"region":"eu","cc":"de","latitude":50.110924,"longitude":8.682127,"reserved":0,"last_update":"0001-01-01T00:00:00Z","name_a2s":"Uncletopia | Frankfurt | 5 | All Maps","protocol":17,"map":"pl_badwater","folder":"tf","game":"Team Fortress","app_id":440,"player_count":24,"max_players":24,"Bots":0,"server_type":"Dedicated","server_os":"Linux","password":true,"vac":true,"version":"7961495","steam_id":85568392924504277,"keywords":["nocrits","nodmgspread","payload","uncletopia"],"game_id":440,"stv_port":27056,"stv_name":"Uncletopia | Frankfurt | 5 | All Maps | STV","players":[{"user_id":279,"name":"Kin","steam_id":76561198161931698,"connected_time":5939000000000,"state":"active","ping":89},{"user_id":181,"name":"ehehehehehhe","steam_id":76561198044502435,"connected_time":13854000000000,"state":"active","ping":80},{"user_id":338,"name":"Toasty5050","steam_id":76561198073540881,"connected_time":1232000000000,"state":"active","ping":43},{"user_id":315,"name":"Cagnus Marlsen","steam_id":76561198077859721,"connected_time":3142000000000,"state":"active","ping":47},{"user_id":351,"name":"._.","steam_id":76561198300316801,"connected_time":358000000000,"state":"active","ping":126},{"user_id":358,"name":"Borat","steam_id":76561198122226417,"connected_time":13000000000,"state":"active","ping":52},{"user_id":337,"name":"Deckard","steam_id":76561198004704647,"connected_time":1247000000000,"state":"active","ping":75},{"user_id":357,"name":"Astolfo","steam_id":76561198354584982,"connected_time":67000000000,"state":"active","ping":49},{"user_id":321,"name":"Dictatorial Karelian","steam_id":76561198196736457,"connected_time":3112000000000,"state":"active","ping":63},{"user_id":313,"name":"Alekk","steam_id":76561198093533143,"connected_time":3175000000000,"state":"active","ping":65},{"user_id":340,"name":"disposablesuperbread","steam_id":76561199074703607,"connected_time":1139000000000,"state":"active","ping":68},{"user_id":329,"name":"Creative","steam_id":76561198835034247,"connected_time":2323000000000,"state":"active","ping":82},{"user_id":307,"name":"Hussain_144","steam_id":76561198346029208,"connected_time":3397000000000,"state":"active","ping":165},{"user_id":341,"name":"dotdotdot","steam_id":76561198057628751,"connected_time":1128000000000,"state":"active","ping":64},{"user_id":355,"name":"Spotmonkey","steam_id":76561198003994092,"connected_time":238000000000,"state":"active","ping":69},{"user_id":343,"name":"Mario Moretti [BR]","steam_id":76561198179299606,"connected_time":1117000000000,"state":"active","ping":77},{"user_id":344,"name":"Matteo Besho","steam_id":76561199159657855,"connected_time":1107000000000,"state":"active","ping":71},{"user_id":359,"name":"wesneusvanneuzenland","steam_id":76561198083423351,"connected_time":7000000000,"state":"spawning","ping":67},{"user_id":347,"name":"VolcanicArts","steam_id":76561198063453246,"connected_time":974000000000,"state":"active","ping":65},{"user_id":345,"name":"Punker","steam_id":76561198255964089,"connected_time":1085000000000,"state":"active","ping":108},{"user_id":333,"name":"Marabosha","steam_id":76561198137599173,"connected_time":1889000000000,"state":"active","ping":101},{"user_id":349,"name":"an idiot","steam_id":76561198172542535,"connected_time":848000000000,"state":"active","ping":69},{"user_id":335,"name":"Rimx","steam_id":76561198053034840,"connected_time":1697000000000,"state":"active","ping":94},{"user_id":356,"name":"Maru","steam_id":76561198030931030,"connected_time":215000000000,"state":"active","ping":64}]},{"server_id":311,"name":"Uncletopia | Frankfurt | 6 | All Maps","name_short":"frk-6","host":"frk-1.de.uncletopia.com","port":27065,"enabled":true,"region":"eu","cc":"de","latitude":50.110924,"longitude":8.682127,"reserved":0,"last_update":"0001-01-01T00:00:00Z","name_a2s":"Uncletopia | Frankfurt | 6 | All Maps","protocol":17,"map":"cp_dustbowl","folder":"tf","game":"Team Fortress","app_id":440,"player_count":0,"max_players":24,"Bots":0,"server_type":"Dedicated","server_os":"Linux","password":true,"vac":true,"version":"7961495","steam_id":85568392924504278,"keywords":["cp","nocrits","nodmgspread","uncletopia"],"game_id":440,"stv_port":27066,"stv_name":"Uncletopia | Frankfurt | 6 | All Maps | STV","players":null},{"server_id":23,"name":"Uncletopia | Frankfurt | 7 | Stopwatch Beta","name_short":"frk-7","host":"frk-1.de.uncletopia.com","port":27075,"enabled":true,"region":"eu","cc":"de","latitude":50.110924,"longitude":8.682127,"reserved":0,"last_update":"0001-01-01T00:00:00Z","name_a2s":"Uncletopia | Frankfurt | 7 | Stopwatch Beta","protocol":17,"map":"koth_cascade","folder":"tf","game":"Team Fortress","app_id":440,"player_count":0,"max_players":24,"Bots":0,"server_type":"Dedicated","server_os":"Linux","password":true,"vac":true,"version":"7961495","steam_id":85568392924742827,"keywords":["cp","nocrits","nodmgspread","uncletopia"],"game_id":440,"stv_port":27076,"stv_name":"Uncletopia | Frankfurt | 7 | Stopwatch Beta | STV","players":null},{"server_id":24,"name":"Uncletopia | Frankfurt | 8 | Community","name_short":"frk-8","host":"frk-1.de.uncletopia.com","port":27085,"enabled":true,"region":"eu","cc":"de","latitude":50.110924,"longitude":8.682127,"reserved":0,"last_update":"0001-01-01T00:00:00Z","name_a2s":"Uncletopia | Frankfurt | 8 | Community","protocol":17,"map":"workshop/pl_boundary_final1.ugc456799153","folder":"tf","game":"Team Fortress","app_id":440,"player_count":0,"max_players":24,"Bots":0,"server_type":"Dedicated","server_os":"Linux","password":true,"vac":true,"version":"7961495","steam_id":85568392924742828,"keywords":["nocrits","nodmgspread","payload","uncletopia"],"game_id":440,"stv_port":27086,"stv_name":"Uncletopia | Frankfurt | 8 | Community | STV","players":null},{"server_id":202,"name":"Uncletopia | Hong Kong | 1 | All Maps","name_short":"hgk-1","host":"hgk-1.hk.uncletopia.com","port":27015,"enabled":true,"region":"asia","cc":"hk","latitude":22.302711,"longitude":114.177216,"reserved":0,"last_update":"0001-01-01T00:00:00Z","name_a2s":"Uncletopia | Hong Kong | 1 | All Maps","protocol":17,"map":"koth_lakeside_final","folder":"tf","game":"Team Fortress","app_id":440,"player_count":0,"max_players":24,"Bots":0,"server_type":"Dedicated","server_os":"Linux","password":true,"vac":true,"version":"7961495","steam_id":85568392924494504,"keywords":["cp","nocrits","nodmgspread","uncletopia"],"game_id":440,"stv_port":27016,"stv_name":"Uncletopia | Hong Kong | 1 | All Maps | STV","players":null},{"server_id":1,"name":"Uncletopia | Los Angeles | 1 | All Maps","name_short":"lax-1","host":"lax-1.us.uncletopia.com","port":27015,"enabled":true,"region":"us-west","cc":"us","latitude":33.94279,"longitude":-118.41004,"reserved":0,"last_update":"0001-01-01T00:00:00Z","name_a2s":"Uncletopia | Los Angeles | 1 | All Maps","protocol":17,"map":"pl_borneo","folder":"tf","game":"Team Fortress","app_id":440,"player_count":0,"max_players":24,"Bots":0,"server_type":"Dedicated","server_os":"Linux","password":true,"vac":true,"version":"7961495","steam_id":85568392924469991,"keywords":["nocrits","nodmgspread","payload","uncletopia"],"game_id":440,"stv_port":27016,"stv_name":"Uncletopia | Los Angeles | 1 | All Maps | STV","players":null},{"server_id":112,"name":"Uncletopia | Los Angeles | 2 | All Maps","name_short":"lax-2","host":"lax-1.us.uncletopia.com","port":27025,"enabled":true,"region":"us-west","cc":"us","latitude":33.94279,"longitude":-118.41004,"reserved":0,"last_update":"0001-01-01T00:00:00Z","name_a2s":"Uncletopia | Los Angeles | 2 | All Maps","protocol":17,"map":"pl_borneo","folder":"tf","game":"Team Fortress","app_id":440,"player_count":1,"max_players":24,"Bots":0,"server_type":"Dedicated","server_os":"Linux","password":true,"vac":true,"version":"7961495","steam_id":85568392924469992,"keywords":["nocrits","nodmgspread","payload","uncletopia"],"game_id":440,"stv_port":27026,"stv_name":"Uncletopia | Los Angeles | 2 | All Maps | STV","players":[{"user_id":9,"name":"SadChicken λ","steam_id":76561198082458968,"connected_time":82000000000,"state":"active","ping":54}]},{"server_id":324,"name":"Uncletopia | Los Angeles | 3 | All Maps","name_short":"lax-3","host":"lax-1.us.uncletopia.com","port":27035,"enabled":true,"region":"us-west","cc":"us","latitude":33.94279,"longitude":-118.41004,"reserved":0,"last_update":"0001-01-01T00:00:00Z","name_a2s":"Uncletopia | Los Angeles | 3 | All Maps","protocol":17,"map":"cp_process_final","folder":"tf","game":"Team Fortress","app_id":440,"player_count":0,"max_players":24,"Bots":0,"server_type":"Dedicated","server_os":"Linux","password":true,"vac":true,"version":"7961495","steam_id":85568392924510198,"keywords":["cp","nocrits","nodmgspread","uncletopia"],"game_id":440,"stv_port":27036,"stv_name":"Uncletopia | Los Angeles | 3 | All Maps | STV","players":null},{"server_id":25,"name":"Uncletopia | Los Angeles | 4 | Stopwatch Beta","name_short":"lax-4","host":"lax-1.us.uncletopia.com","port":27045,"enabled":true,"region":"us-west","cc":"us","latitude":33.94279,"longitude":-118.41004,"reserved":0,"last_update":"0001-01-01T00:00:00Z","name_a2s":"Uncletopia | Los Angeles | 4 | Stopwatch Beta","protocol":17,"map":"pl_upward","folder":"tf","game":"Team Fortress","app_id":440,"player_count":0,"max_players":24,"Bots":0,"server_type":"Dedicated","server_os":"Linux","password":true,"vac":true,"version":"7961495","steam_id":85568392924510199,"keywords":["nocrits","nodmgspread","payload","uncletopia"],"game_id":440,"stv_port":27046,"stv_name":"Uncletopia | Los Angeles | 4 | Stopwatch Beta | STV","players":null},{"server_id":11,"name":"Uncletopia | London | 1 | All Maps","name_short":"lon-1","host":"lon-1.uk.uncletopia.com","port":27015,"enabled":true,"region":"eu","cc":"gb","latitude":51.509865,"longitude":-0.118092,"reserved":0,"last_update":"0001-01-01T00:00:00Z","name_a2s":"Uncletopia | London | 1 | All Maps","protocol":17,"map":"pl_pier","folder":"tf","game":"Team Fortress","app_id":440,"player_count":24,"max_players":24,"Bots":0,"server_type":"Dedicated","server_os":"Linux","password":true,"vac":true,"version":"7961495","steam_id":85568392924367362,"keywords":["nocrits","nodmgspread","payload","uncletopia"],"game_id":440,"stv_port":27016,"stv_name":"Uncletopia | London | 1 | All Maps | STV","players":[{"user_id":403,"name":"Sir William Gaming","steam_id":76561198037676472,"connected_time":1127000000000,"state":"active","ping":70},{"user_id":368,"name":"silicon based life form","steam_id":76561199127121346,"connected_time":3845000000000,"state":"active","ping":53},{"user_id":354,"name":"Vilhelm","steam_id":76561198157521187,"connected_time":4002000000000,"state":"active","ping":87},{"user_id":407,"name":"RockFrenzy","steam_id":76561198005428050,"connected_time":716000000000,"state":"active","ping":74},{"user_id":411,"name":"fshfkr","steam_id":76561198095979282,"connected_time":365000000000,"state":"active","ping":39},{"user_id":381,"name":"Rai_to","steam_id":76561199013720618,"connected_time":2672000000000,"state":"active","ping":89},{"user_id":386,"name":"jermany","steam_id":76561198126599355,"connected_time":2492000000000,"state":"active","ping":57},{"user_id":387,"name":"WonderOfU","steam_id":76561199172036471,"connected_time":2372000000000,"state":"active","ping":56},{"user_id":400,"name":"ArtaKir","steam_id":76561198291746440,"connected_time":1521000000000,"state":"active","ping":88},{"user_id":405,"name":"static","steam_id":76561198836825741,"connected_time":791000000000,"state":"active","ping":56},{"user_id":399,"name":"Cap","steam_id":76561197993692648,"connected_time":1553000000000,"state":"active","ping":104},{"user_id":394,"name":"quickfast","steam_id":76561199438900919,"connected_time":2132000000000,"state":"active","ping":45},{"user_id":362,"name":"Morty","steam_id":76561198227437620,"connected_time":3927000000000,"state":"active","ping":82},{"user_id":369,"name":"Kekster","steam_id":76561198302448192,"connected_time":3830000000000,"state":"active","ping":36},{"user_id":302,"name":"Snake-chan","steam_id":76561199044755854,"connected_time":7565000000000,"state":"active","ping":74},{"user_id":404,"name":"wormson","steam_id":76561198836754631,"connected_time":802000000000,"state":"active","ping":53},{"user_id":359,"name":"Kenny","steam_id":76561198070731150,"connected_time":3973000000000,"state":"active","ping":92},{"user_id":401,"name":"Zombie Chicken gaming","steam_id":76561199356990346,"connected_time":1382000000000,"state":"active","ping":108},{"user_id":360,"name":"Larry","steam_id":76561198051333590,"connected_time":3957000000000,"state":"active","ping":108},{"user_id":175,"name":"krayy (she/her)","steam_id":76561198035037830,"connected_time":11846000000000,"state":"active","ping":53},{"user_id":392,"name":"Woman (Real)","steam_id":76561199151823932,"connected_time":2206000000000,"state":"active","ping":89},{"user_id":402,"name":"\"w\"esley \"s\"o","steam_id":76561199415989636,"connected_time":1357000000000,"state":"active","ping":91},{"user_id":385,"name":"Silverbolt","steam_id":76561198153165763,"connected_time":2567000000000,"state":"active","ping":63},{"user_id":410,"name":"Losre","steam_id":76561198071393125,"connected_time":389000000000,"state":"active","ping":58}]},{"server_id":114,"name":"Uncletopia | London | 2 | All Maps","name_short":"lon-2","host":"lon-1.uk.uncletopia.com","port":27025,"enabled":true,"region":"eu","cc":"gb","latitude":51.509865,"longitude":-0.118092,"reserved":0,"last_update":"0001-01-01T00:00:00Z","name_a2s":"Uncletopia | London | 2 | All Maps","protocol":17,"map":"cp_mountainlab","folder":"tf","game":"Team Fortress","app_id":440,"player_count":24,"max_players":24,"Bots":0,"server_type":"Dedicated","server_os":"Linux","password":true,"vac":true,"version":"7961495","steam_id":85568392924470941,"keywords":["cp","nocrits","nodmgspread","uncletopia"],"game_id":440,"stv_port":27026,"stv_name":"Uncletopia | London | 2 | All Maps | STV","players":[{"user_id":221,"name":"Dispenser(Dispenser)","steam_id":76561199211831658,"connected_time":1597000000000,"state":"active","ping":62},{"user_id":246,"name":"Marcus","steam_id":76561198205027963,"connected_time":273000000000,"state":"active","ping":64},{"user_id":226,"name":"DoctorTopLeL","steam_id":76561198088533595,"connected_time":892000000000,"state":"active","ping":107},{"user_id":227,"name":"qcHeavy","steam_id":76561198072218040,"connected_time":891000000000,"state":"active","ping":64},{"user_id":232,"name":"randem_","steam_id":76561198338793755,"connected_time":752000000000,"state":"active","ping":46},{"user_id":234,"name":"I Don't Know","steam_id":76561198841011430,"connected_time":711000000000,"state":"active","ping":73},{"user_id":229,"name":"Urfangonultasadana","steam_id":76561199389286151,"connected_time":839000000000,"state":"active","ping":102},{"user_id":230,"name":"Amon Gus","steam_id":76561199094540960,"connected_time":812000000000,"state":"active","ping":69},{"user_id":249,"name":"Warren","steam_id":76561197991735900,"connected_time":8000000000,"state":"spawning","ping":896},{"user_id":196,"name":"huskey","steam_id":76561198152392309,"connected_time":2772000000000,"state":"active","ping":47},{"user_id":208,"name":"Interdimensional box","steam_id":76561198217473121,"connected_time":2480000000000,"state":"active","ping":89},{"user_id":231,"name":"GenericBonk","steam_id":76561198999099584,"connected_time":776000000000,"state":"active","ping":86},{"user_id":134,"name":"Spikà","steam_id":76561197999582114,"connected_time":5611000000000,"state":"active","ping":75},{"user_id":168,"name":"jge","steam_id":76561198123186387,"connected_time":4050000000000,"state":"active","ping":60},{"user_id":244,"name":"Ferrariracer5f1","steam_id":76561199229815098,"connected_time":481000000000,"state":"active","ping":61},{"user_id":247,"name":"scott steiners strongest warrio","steam_id":76561198148888622,"connected_time":205000000000,"state":"active","ping":56},{"user_id":197,"name":"noot","steam_id":76561198148074472,"connected_time":2757000000000,"state":"active","ping":59},{"user_id":198,"name":"ra ra raz","steam_id":76561198147277460,"connected_time":2751000000000,"state":"active","ping":61},{"user_id":235,"name":"Blobbaz","steam_id":76561198031076278,"connected_time":699000000000,"state":"active","ping":57},{"user_id":245,"name":"cringey name","steam_id":76561198163244605,"connected_time":315000000000,"state":"active","ping":84},{"user_id":236,"name":"wooper","steam_id":76561198953870572,"connected_time":686000000000,"state":"active","ping":161},{"user_id":170,"name":"Penis Contortionist","steam_id":76561198073663784,"connected_time":4009000000000,"state":"active","ping":36},{"user_id":243,"name":"Wellink","steam_id":76561198854204494,"connected_time":496000000000,"state":"active","ping":74},{"user_id":217,"name":"Topia","steam_id":76561198163571788,"connected_time":2082000000000,"state":"active","ping":87}]},{"server_id":320,"name":"Uncletopia | London | 3 | All Maps","name_short":"lon-3","host":"lon-1.uk.uncletopia.com","port":27035,"enabled":true,"region":"eu","cc":"gb","latitude":51.509865,"longitude":-0.118092,"reserved":0,"last_update":"0001-01-01T00:00:00Z","name_a2s":"Uncletopia | London | 3 | All Maps","protocol":17,"map":"pl_swiftwater_final1","folder":"tf","game":"Team Fortress","app_id":440,"player_count":24,"max_players":24,"Bots":0,"server_type":"Dedicated","server_os":"Linux","password":true,"vac":true,"version":"7961495","steam_id":85568392924510192,"keywords":["nocrits","nodmgspread","payload","uncletopia"],"game_id":440,"stv_port":27036,"stv_name":"Uncletopia | London | 3 | All Maps | STV","players":[{"user_id":86,"name":"robu","steam_id":76561198113874116,"connected_time":3821000000000,"state":"active","ping":92},{"user_id":169,"name":"premature burial","steam_id":76561199195628354,"connected_time":1281000000000,"state":"active","ping":106},{"user_id":167,"name":"EagleFire","steam_id":76561198352938403,"connected_time":1296000000000,"state":"active","ping":61},{"user_id":158,"name":"Skuld","steam_id":76561198064734905,"connected_time":1748000000000,"state":"active","ping":118},{"user_id":49,"name":"nyanezt","steam_id":76561198253734265,"connected_time":5094000000000,"state":"active","ping":111},{"user_id":168,"name":"Mint","steam_id":76561198105502303,"connected_time":1295000000000,"state":"active","ping":63},{"user_id":144,"name":"Milca_11 Bow user","steam_id":76561198848650365,"connected_time":2739000000000,"state":"active","ping":95},{"user_id":187,"name":"cool guy","steam_id":76561199244543995,"connected_time":5000000000,"state":"spawning","ping":202},{"user_id":170,"name":"jeezource 2","steam_id":76561198123592400,"connected_time":1280000000000,"state":"active","ping":99},{"user_id":186,"name":"unpronounceable","steam_id":76561198271860748,"connected_time":465000000000,"state":"active","ping":54},{"user_id":143,"name":"najed","steam_id":76561198107767664,"connected_time":2775000000000,"state":"active","ping":61},{"user_id":172,"name":"Mike","steam_id":76561198228455736,"connected_time":1268000000000,"state":"active","ping":64},{"user_id":183,"name":"Ewelinka Zniszczenia","steam_id":76561198307374456,"connected_time":492000000000,"state":"active","ping":93},{"user_id":175,"name":"GMsU | AuxiliusM","steam_id":76561198071903356,"connected_time":1225000000000,"state":"active","ping":61},{"user_id":173,"name":"Riky95","steam_id":76561198095289436,"connected_time":1267000000000,"state":"active","ping":68},{"user_id":185,"name":"bAdmon","steam_id":76561197961785793,"connected_time":474000000000,"state":"active","ping":67},{"user_id":62,"name":"Bottle O' Scrumpy","steam_id":76561199244250562,"connected_time":4833000000000,"state":"active","ping":106},{"user_id":161,"name":"Michal jordan","steam_id":76561199106262610,"connected_time":1711000000000,"state":"active","ping":79},{"user_id":165,"name":"えななん","steam_id":76561199427679148,"connected_time":1392000000000,"state":"active","ping":176},{"user_id":68,"name":"AnalBypass1989","steam_id":76561198052356557,"connected_time":4733000000000,"state":"active","ping":86},{"user_id":179,"name":"useless windows applications","steam_id":76561198410066304,"connected_time":631000000000,"state":"active","ping":65},{"user_id":155,"name":"vol borger","steam_id":76561198118137434,"connected_time":1972000000000,"state":"active","ping":70},{"user_id":174,"name":"DelT","steam_id":76561198204007537,"connected_time":1246000000000,"state":"active","ping":72},{"user_id":184,"name":"[PKBG] Pipera","steam_id":76561197998280567,"connected_time":483000000000,"state":"active","ping":60}]},{"server_id":321,"name":"Uncletopia | London | 4 | All Maps","name_short":"lon-4","host":"lon-1.uk.uncletopia.com","port":27045,"enabled":true,"region":"eu","cc":"gb","latitude":51.509865,"longitude":-0.118092,"reserved":0,"last_update":"0001-01-01T00:00:00Z","name_a2s":"Uncletopia | London | 4 | All Maps","protocol":17,"map":"cp_mercenarypark","folder":"tf","game":"Team Fortress","app_id":440,"player_count":24,"max_players":24,"Bots":0,"server_type":"Dedicated","server_os":"Linux","password":true,"vac":true,"version":"7961495","steam_id":85568392924510193,"keywords":["cp","nocrits","nodmgspread","uncletopia"],"game_id":440,"stv_port":27046,"stv_name":"Uncletopia | London | 4 | All Maps | STV","players":[{"user_id":229,"name":"fartcollector","steam_id":76561198048304703,"connected_time":4011000000000,"state":"active","ping":46},{"user_id":283,"name":"silly little goober","steam_id":76561198066287297,"connected_time":1052000000000,"state":"active","ping":45},{"user_id":257,"name":"Firestarter","steam_id":76561197960538156,"connected_time":2271000000000,"state":"active","ping":42},{"user_id":241,"name":"Mono","steam_id":76561198114569493,"connected_time":3616000000000,"state":"active","ping":72},{"user_id":286,"name":"Grub","steam_id":76561198174510235,"connected_time":920000000000,"state":"active","ping":62},{"user_id":253,"name":"jimmy kane","steam_id":76561197984425891,"connected_time":2444000000000,"state":"active","ping":46},{"user_id":289,"name":"Cotton Eye Joe","steam_id":76561198080594207,"connected_time":234000000000,"state":"active","ping":52},{"user_id":254,"name":"veki177","steam_id":76561199059047474,"connected_time":2443000000000,"state":"active","ping":87},{"user_id":284,"name":"dafydd","steam_id":76561198052200325,"connected_time":978000000000,"state":"active","ping":86},{"user_id":263,"name":"God's Goofiest Goober","steam_id":76561198103175187,"connected_time":2117000000000,"state":"active","ping":76},{"user_id":287,"name":"IveEatenFour6x2Legos","steam_id":76561199135268446,"connected_time":873000000000,"state":"active","ping":109},{"user_id":264,"name":"Plague","steam_id":76561198882829206,"connected_time":2018000000000,"state":"active","ping":86},{"user_id":244,"name":"ByggeSimon","steam_id":76561198134789176,"connected_time":3018000000000,"state":"active","ping":75},{"user_id":285,"name":"ROX","steam_id":76561198272289320,"connected_time":953000000000,"state":"active","ping":59},{"user_id":270,"name":"Wario","steam_id":76561198356089255,"connected_time":1831000000000,"state":"active","ping":68},{"user_id":271,"name":"3igen3ggy","steam_id":76561197989548015,"connected_time":1780000000000,"state":"active","ping":70},{"user_id":245,"name":"sticks","steam_id":76561198127099299,"connected_time":2922000000000,"state":"active","ping":151},{"user_id":275,"name":"Average meme enjoyer","steam_id":76561199087566663,"connected_time":1554000000000,"state":"active","ping":94},{"user_id":266,"name":"tinkernator23","steam_id":76561198970457224,"connected_time":1993000000000,"state":"active","ping":49},{"user_id":282,"name":"Gobhar","steam_id":76561198112689672,"connected_time":1270000000000,"state":"active","ping":38},{"user_id":281,"name":"Obama","steam_id":76561198094993151,"connected_time":1317000000000,"state":"active","ping":43},{"user_id":237,"name":"fence_","steam_id":76561198150386379,"connected_time":3918000000000,"state":"active","ping":49},{"user_id":288,"name":"Oak","steam_id":76561198067315672,"connected_time":297000000000,"state":"active","ping":50},{"user_id":276,"name":"WolfmanCZ","steam_id":76561199157141414,"connected_time":1554000000000,"state":"active","ping":78}]},{"server_id":21,"name":"Uncletopia | London | 5 | All Maps","name_short":"lon-5","host":"lon-1.uk.uncletopia.com","port":27055,"enabled":true,"region":"eu","cc":"gb","latitude":51.509865,"longitude":-0.118092,"reserved":0,"last_update":"0001-01-01T00:00:00Z","name_a2s":"Uncletopia | London | 5 | All Maps","protocol":17,"map":"pl_upward","folder":"tf","game":"Team Fortress","app_id":440,"player_count":24,"max_players":24,"Bots":0,"server_type":"Dedicated","server_os":"Linux","password":true,"vac":true,"version":"7961495","steam_id":85568392924742829,"keywords":["nocrits","nodmgspread","payload","uncletopia"],"game_id":440,"stv_port":27056,"stv_name":"Uncletopia | London | 5 | All Maps | STV","players":[{"user_id":25,"name":"ultra lox","steam_id":76561199427318825,"connected_time":3013000000000,"state":"active","ping":179},{"user_id":43,"name":"K","steam_id":76561198144604444,"connected_time":804000000000,"state":"active","ping":59},{"user_id":42,"name":"f","steam_id":76561198215559840,"connected_time":838000000000,"state":"active","ping":143},{"user_id":33,"name":"ran is running","steam_id":76561199443185667,"connected_time":1299000000000,"state":"active","ping":131},{"user_id":34,"name":"Atomiccorn","steam_id":76561198298316720,"connected_time":1281000000000,"state":"active","ping":63},{"user_id":64,"name":"Gimli","steam_id":76561198004149706,"connected_time":257000000000,"state":"active","ping":63},{"user_id":44,"name":"chris","steam_id":76561198075600806,"connected_time":768000000000,"state":"active","ping":74},{"user_id":36,"name":"piss man (real)","steam_id":76561198839843428,"connected_time":1261000000000,"state":"active","ping":116},{"user_id":66,"name":"LJ","steam_id":76561198026723805,"connected_time":108000000000,"state":"spawning","ping":89},{"user_id":46,"name":"Intruder","steam_id":76561198156128173,"connected_time":571000000000,"state":"active","ping":74},{"user_id":67,"name":"mr kiwi","steam_id":76561198069714550,"connected_time":65000000000,"state":"active","ping":64},{"user_id":49,"name":"Toogler","steam_id":76561198172334113,"connected_time":489000000000,"state":"active","ping":61},{"user_id":50,"name":"Milk","steam_id":76561198125876588,"connected_time":482000000000,"state":"active","ping":43},{"user_id":52,"name":"bignazzer","steam_id":76561199472149697,"connected_time":463000000000,"state":"active","ping":56},{"user_id":53,"name":"Craig Crusade","steam_id":76561199225918086,"connected_time":462000000000,"state":"active","ping":63},{"user_id":56,"name":"Julian","steam_id":76561199060272542,"connected_time":413000000000,"state":"active","ping":51},{"user_id":55,"name":"Dr_Hix","steam_id":76561198068120857,"connected_time":437000000000,"state":"active","ping":60},{"user_id":57,"name":"zelda","steam_id":76561198273358760,"connected_time":411000000000,"state":"active","ping":72},{"user_id":58,"name":"Tohseno","steam_id":76561197995813008,"connected_time":409000000000,"state":"active","ping":53},{"user_id":59,"name":"Zembis","steam_id":76561198008017918,"connected_time":407000000000,"state":"active","ping":104},{"user_id":65,"name":"GEP Gun","steam_id":76561197981821003,"connected_time":199000000000,"state":"active","ping":56},{"user_id":61,"name":"Birdseye","steam_id":76561198025852216,"connected_time":396000000000,"state":"active","ping":59},{"user_id":62,"name":"🦐 Tust 🦐","steam_id":76561198045694677,"connected_time":395000000000,"state":"active","ping":46},{"user_id":63,"name":"legalvitamins","steam_id":76561198160202087,"connected_time":395000000000,"state":"active","ping":67}]},{"server_id":22,"name":"Uncletopia | London | 6 | All Maps","name_short":"lon-6","host":"lon-1.uk.uncletopia.com","port":27065,"enabled":true,"region":"eu","cc":"gb","latitude":51.509865,"longitude":-0.118092,"reserved":0,"last_update":"0001-01-01T00:00:00Z","name_a2s":"Uncletopia | London | 6 | All Maps","protocol":17,"map":"pl_borneo","folder":"tf","game":"Team Fortress","app_id":440,"player_count":24,"max_players":24,"Bots":0,"server_type":"Dedicated","server_os":"Linux","password":true,"vac":true,"version":"7961495","steam_id":85568392924742830,"keywords":["nocrits","nodmgspread","payload","uncletopia"],"game_id":440,"stv_port":27066,"stv_name":"Uncletopia | London | 6 | All Maps | STV","players":[{"user_id":333,"name":"kallerannar","steam_id":76561199095701143,"connected_time":1066000000000,"state":"active","ping":85},{"user_id":334,"name":"red texan","steam_id":76561199193957264,"connected_time":848000000000,"state":"active","ping":44},{"user_id":332,"name":"McMonty","steam_id":76561198028973788,"connected_time":1126000000000,"state":"active","ping":58},{"user_id":301,"name":"After8","steam_id":76561198090750865,"connected_time":3029000000000,"state":"active","ping":75},{"user_id":309,"name":"Combat Wombat","steam_id":76561197994720068,"connected_time":2303000000000,"state":"active","ping":56},{"user_id":319,"name":"Waltcha","steam_id":76561198007691468,"connected_time":2177000000000,"state":"active","ping":74},{"user_id":299,"name":"Lord Lem0ns!","steam_id":76561198323174893,"connected_time":3075000000000,"state":"active","ping":85},{"user_id":300,"name":"Geoff the Oracle","steam_id":76561198053759965,"connected_time":3072000000000,"state":"active","ping":52},{"user_id":339,"name":"Lukas","steam_id":76561198009118452,"connected_time":196000000000,"state":"active","ping":68},{"user_id":310,"name":"Kamanie","steam_id":76561198135448255,"connected_time":2270000000000,"state":"active","ping":66},{"user_id":311,"name":"eMcP!","steam_id":76561198382509396,"connected_time":2251000000000,"state":"active","ping":57},{"user_id":326,"name":"The Sun in Rags","steam_id":76561198169990975,"connected_time":1426000000000,"state":"active","ping":53},{"user_id":329,"name":"ROB","steam_id":76561198982164150,"connected_time":1236000000000,"state":"active","ping":87},{"user_id":338,"name":"generic alias","steam_id":76561198271607226,"connected_time":257000000000,"state":"active","ping":90},{"user_id":315,"name":"MaRo","steam_id":76561198992286676,"connected_time":2232000000000,"state":"active","ping":49},{"user_id":341,"name":"Bobo","steam_id":76561198052308399,"connected_time":154000000000,"state":"active","ping":73},{"user_id":263,"name":"A Table","steam_id":76561198130963095,"connected_time":5129000000000,"state":"active","ping":67},{"user_id":342,"name":"Vinhal Keller","steam_id":76561198145589528,"connected_time":128000000000,"state":"active","ping":61},{"user_id":343,"name":"Setiago","steam_id":76561198060770498,"connected_time":125000000000,"state":"active","ping":62},{"user_id":287,"name":"P1nnnnnnnn","steam_id":76561198382749493,"connected_time":3851000000000,"state":"active","ping":90},{"user_id":258,"name":"night.s","steam_id":76561198326287823,"connected_time":5304000000000,"state":"active","ping":81},{"user_id":324,"name":"MemeLord","steam_id":76561198135115524,"connected_time":1470000000000,"state":"active","ping":57},{"user_id":337,"name":"wheelchair emperor","steam_id":76561198076084824,"connected_time":707000000000,"state":"active","ping":67},{"user_id":344,"name":"Elijah","steam_id":76561198104772540,"connected_time":116000000000,"state":"active","ping":50}]},{"server_id":40,"name":"Uncletopia | London | 7 | No Payload","name_short":"lon-7","host":"lon-1.uk.uncletopia.com","port":27075,"enabled":true,"region":"eu","cc":"gb","latitude":51.509865,"longitude":-0.118092,"reserved":0,"last_update":"0001-01-01T00:00:00Z","name_a2s":"Uncletopia | London | 7 | No Payload","protocol":17,"map":"cp_vanguard","folder":"tf","game":"Team Fortress","app_id":440,"player_count":24,"max_players":24,"Bots":0,"server_type":"Dedicated","server_os":"Linux","password":true,"vac":true,"version":"7961495","steam_id":85568392924964314,"keywords":["cp","nocrits","nodmgspread","uncletopia"],"game_id":440,"stv_port":27076,"stv_name":"Uncletopia | London | 7 | No Payload | STV","players":[{"user_id":250,"name":"Aspartus","steam_id":76561198101385763,"connected_time":1733000000000,"state":"active","ping":45},{"user_id":232,"name":"TSx* Osa__PL","steam_id":76561198027016799,"connected_time":2716000000000,"state":"active","ping":76},{"user_id":259,"name":"mt","steam_id":76561197961319303,"connected_time":1318000000000,"state":"active","ping":63},{"user_id":218,"name":"Lorenzo Lovers","steam_id":76561198073973581,"connected_time":3647000000000,"state":"active","ping":88},{"user_id":270,"name":"Enkloth!","steam_id":76561198115106008,"connected_time":354000000000,"state":"active","ping":59},{"user_id":257,"name":"Ziy???","steam_id":76561197995765491,"connected_time":1346000000000,"state":"active","ping":58},{"user_id":246,"name":"TSx* Dante","steam_id":76561198139309331,"connected_time":2041000000000,"state":"active","ping":63},{"user_id":261,"name":"TheMasterOfTheZaZa","steam_id":76561197994310420,"connected_time":1239000000000,"state":"active","ping":73},{"user_id":262,"name":"PĬŁǾŦ","steam_id":76561198175090465,"connected_time":1238000000000,"state":"active","ping":106},{"user_id":274,"name":"khan","steam_id":76561198099245500,"connected_time":39000000000,"state":"active","ping":56},{"user_id":256,"name":"Krager","steam_id":76561198137077041,"connected_time":1538000000000,"state":"active","ping":60},{"user_id":233,"name":"TSx* Naxer","steam_id":76561198011986779,"connected_time":2651000000000,"state":"active","ping":72},{"user_id":272,"name":"I drink 3D printer ink","steam_id":76561198056434693,"connected_time":259000000000,"state":"active","ping":60},{"user_id":212,"name":"pad6z23h8s","steam_id":76561198880756741,"connected_time":4080000000000,"state":"active","ping":84},{"user_id":266,"name":"Operable2694","steam_id":76561199486377532,"connected_time":731000000000,"state":"active","ping":67},{"user_id":235,"name":"akakez","steam_id":76561198095432821,"connected_time":2576000000000,"state":"active","ping":115},{"user_id":254,"name":"A stripper","steam_id":76561198034865891,"connected_time":1576000000000,"state":"active","ping":59},{"user_id":271,"name":"Knee Grows","steam_id":76561198185004023,"connected_time":342000000000,"state":"active","ping":60},{"user_id":264,"name":"ddchdrn","steam_id":76561198024358566,"connected_time":1110000000000,"state":"active","ping":75},{"user_id":241,"name":"Wata","steam_id":76561198098418814,"connected_time":2280000000000,"state":"active","ping":48},{"user_id":265,"name":"Loitsu","steam_id":76561198098177012,"connected_time":1108000000000,"state":"active","ping":106},{"user_id":273,"name":"stonebum","steam_id":76561198057004606,"connected_time":43000000000,"state":"active","ping":59},{"user_id":224,"name":"Redline","steam_id":76561198336794034,"connected_time":3413000000000,"state":"active","ping":206},{"user_id":269,"name":"I bombed the Donetsk children","steam_id":76561198831766743,"connected_time":382000000000,"state":"active","ping":87}]},{"server_id":41,"name":"Uncletopia | London | 8 | Community","name_short":"lon-8","host":"lon-1.uk.uncletopia.com","port":27085,"enabled":true,"region":"eu","cc":"gb","latitude":51.509865,"longitude":-0.118092,"reserved":0,"last_update":"0001-01-01T00:00:00Z","name_a2s":"Uncletopia | London | 8 | Community","protocol":17,"map":"workshop/koth_ramjam_rc1.ugc459778887","folder":"tf","game":"Team Fortress","app_id":440,"player_count":0,"max_players":24,"Bots":0,"server_type":"Dedicated","server_os":"Linux","password":true,"vac":true,"version":"7961495","steam_id":85568392924964315,"keywords":["cp","nocrits","nodmgspread","uncletopia"],"game_id":440,"stv_port":27086,"stv_name":"Uncletopia | London | 8 | Community | STV","players":null},{"server_id":300,"name":"Uncletopia | Montréal | 1 | All Maps","name_short":"mtl-1","host":"mtl-1.ca.uncletopia.com","port":27015,"enabled":true,"region":"us-east","cc":"ca","latitude":45.50889,"longitude":-73.56167,"reserved":0,"last_update":"0001-01-01T00:00:00Z","name_a2s":"Uncletopia | Montréal | 1 | All Maps","protocol":17,"map":"koth_harvest_final","folder":"tf","game":"Team Fortress","app_id":440,"player_count":2,"max_players":24,"Bots":0,"server_type":"Dedicated","server_os":"Linux","password":true,"vac":true,"version":"7961495","steam_id":85568392924500087,"keywords":["cp","nocrits","nodmgspread","uncletopia"],"game_id":440,"stv_port":27016,"stv_name":"Uncletopia | Montréal | 1 | All Maps | STV","players":[{"user_id":6,"name":"lachlanoptional","steam_id":76561199492629042,"connected_time":3182000000000,"state":"active","ping":63},{"user_id":10,"name":"bobthebuilder3y","steam_id":76561199490681815,"connected_time":123000000000,"state":"active","ping":102}]},{"server_id":301,"name":"Uncletopia | Montréal | 2 | All Maps","name_short":"mtl-2","host":"mtl-1.ca.uncletopia.com","port":27025,"enabled":true,"region":"us-east","cc":"ca","latitude":45.50889,"longitude":-73.56167,"reserved":0,"last_update":"0001-01-01T00:00:00Z","name_a2s":"Uncletopia | Montréal | 2 | All Maps","protocol":17,"map":"cp_dustbowl","folder":"tf","game":"Team Fortress","app_id":440,"player_count":0,"max_players":24,"Bots":0,"server_type":"Dedicated","server_os":"Linux","password":true,"vac":true,"version":"7961495","steam_id":85568392924500088,"keywords":["cp","nocrits","nodmgspread","uncletopia"],"game_id":440,"stv_port":27026,"stv_name":"Uncletopia | Montréal | 2 | All Maps | STV","players":null},{"server_id":302,"name":"Uncletopia | Montréal | 3 | All Maps","name_short":"mtl-3","host":"mtl-1.ca.uncletopia.com","port":27035,"enabled":true,"region":"us-east","cc":"ca","latitude":45.50889,"longitude":-73.56167,"reserved":0,"last_update":"0001-01-01T00:00:00Z","name_a2s":"Uncletopia | Montréal | 3 | All Maps","protocol":17,"map":"koth_cascade","folder":"tf","game":"Team Fortress","app_id":440,"player_count":0,"max_players":24,"Bots":0,"server_type":"Dedicated","server_os":"Linux","password":true,"vac":true,"version":"7961495","steam_id":85568392924500089,"keywords":["cp","nocrits","nodmgspread","uncletopia"],"game_id":440,"stv_port":27036,"stv_name":"Uncletopia | Montréal | 3 | All Maps | STV","players":null},{"server_id":303,"name":"Uncletopia | Montréal | 4 | No Payload","name_short":"mtl-4","host":"mtl-1.ca.uncletopia.com","port":27045,"enabled":true,"region":"us-east","cc":"ca","latitude":45.50889,"longitude":-73.56167,"reserved":0,"last_update":"0001-01-01T00:00:00Z","name_a2s":"Uncletopia | Montréal | 4 | No Payload","protocol":17,"map":"koth_lakeside_final","folder":"tf","game":"Team Fortress","app_id":440,"player_count":0,"max_players":24,"Bots":0,"server_type":"Dedicated","server_os":"Linux","password":true,"vac":true,"version":"7961495","steam_id":85568392924500090,"keywords":["cp","nocrits","nodmgspread","uncletopia"],"game_id":440,"stv_port":27046,"stv_name":"Uncletopia | Montréal | 4 | No Payload | STV","players":null},{"server_id":13,"name":"Uncletopia | New York City | 1 | All Maps","name_short":"nyc-1","host":"nyc-1.us.uncletopia.com","port":27015,"enabled":true,"region":"us-east","cc":"us","latitude":40.73061,"longitude":-73.93524,"reserved":0,"last_update":"0001-01-01T00:00:00Z","name_a2s":"Uncletopia | New York City | 1 | All Maps","protocol":17,"map":"cp_sunshine","folder":"tf","game":"Team Fortress","app_id":440,"player_count":24,"max_players":24,"Bots":0,"server_type":"Dedicated","server_os":"Linux","password":true,"vac":true,"version":"7961495","steam_id":85568392924469993,"keywords":["cp","nocrits","nodmgspread","uncletopia"],"game_id":440,"stv_port":27016,"stv_name":"Uncletopia | New York City | 1 | All Maps | STV","players":[{"user_id":88,"name":"Blitzy","steam_id":76561198149472890,"connected_time":1297000000000,"state":"active","ping":95},{"user_id":97,"name":"BirBinGo","steam_id":76561198356529600,"connected_time":102000000000,"state":"active","ping":61},{"user_id":51,"name":"laddie","steam_id":76561198063029230,"connected_time":4153000000000,"state":"active","ping":55},{"user_id":67,"name":"[NAME-REDACTED]","steam_id":76561198035682975,"connected_time":2718000000000,"state":"active","ping":58},{"user_id":93,"name":"Zaid","steam_id":76561199142840666,"connected_time":958000000000,"state":"active","ping":144},{"user_id":94,"name":"FLORAL COMPUTING","steam_id":76561199056492130,"connected_time":908000000000,"state":"active","ping":56},{"user_id":64,"name":"Les Claypool","steam_id":76561198237827742,"connected_time":2939000000000,"state":"active","ping":45},{"user_id":73,"name":"🅜🅔🅔🅚🅢🅣🅔\ufffd\ufffd\ufffd","steam_id":76561197999748343,"connected_time":2359000000000,"state":"active","ping":87},{"user_id":76,"name":"bone hurting juice","steam_id":76561198095452955,"connected_time":1858000000000,"state":"active","ping":61},{"user_id":32,"name":"Mika  Laakso","steam_id":76561198115035132,"connected_time":4688000000000,"state":"active","ping":73},{"user_id":84,"name":"fortnite god","steam_id":76561199492727315,"connected_time":1485000000000,"state":"active","ping":39},{"user_id":85,"name":"Jin Mu-Won","steam_id":76561198414122318,"connected_time":1481000000000,"state":"active","ping":67},{"user_id":92,"name":"Vem","steam_id":76561198117273112,"connected_time":1021000000000,"state":"active","ping":86},{"user_id":80,"name":"Zomboboi_","steam_id":76561198139401380,"connected_time":1537000000000,"state":"active","ping":79},{"user_id":66,"name":"TLG, Certified Gamer Mom","steam_id":76561198076669951,"connected_time":2778000000000,"state":"active","ping":65},{"user_id":74,"name":"yougotsauled","steam_id":76561198880754695,"connected_time":1993000000000,"state":"active","ping":46},{"user_id":40,"name":"rivera","steam_id":76561198051058706,"connected_time":4566000000000,"state":"active","ping":40},{"user_id":86,"name":"we're so back","steam_id":76561198058485742,"connected_time":1476000000000,"state":"active","ping":65},{"user_id":42,"name":"Generator","steam_id":76561198011762257,"connected_time":4506000000000,"state":"active","ping":148},{"user_id":89,"name":"Mr.ToasterOven","steam_id":76561199120586450,"connected_time":1274000000000,"state":"active","ping":73},{"user_id":96,"name":"dipp","steam_id":76561198395577807,"connected_time":363000000000,"state":"active","ping":46},{"user_id":49,"name":"toastman","steam_id":76561198207073088,"connected_time":4186000000000,"state":"active","ping":84},{"user_id":59,"name":"Mr. Boogedy","steam_id":76561198963180673,"connected_time":3156000000000,"state":"active","ping":58}]},{"server_id":14,"name":"Uncletopia | New York City | 2 | All Maps","name_short":"nyc-2","host":"nyc-1.us.uncletopia.com","port":27025,"enabled":true,"region":"us-east","cc":"us","latitude":40.73061,"longitude":-73.93524,"reserved":0,"last_update":"0001-01-01T00:00:00Z","name_a2s":"Uncletopia | New York City | 2 | All Maps","protocol":17,"map":"koth_lakeside_final","folder":"tf","game":"Team Fortress","app_id":440,"player_count":0,"max_players":24,"Bots":0,"server_type":"Dedicated","server_os":"Linux","password":true,"vac":true,"version":"7961495","steam_id":85568392924469994,"keywords":["cp","nocrits","nodmgspread","uncletopia"],"game_id":440,"stv_port":27026,"stv_name":"Uncletopia | New York City | 2 | All Maps | STV","players":null},{"server_id":15,"name":"Uncletopia | New York City | 3 | Stopwatch Beta","name_short":"nyc-3","host":"nyc-1.us.uncletopia.com","port":27035,"enabled":true,"region":"us-east","cc":"us","latitude":40.73061,"longitude":-73.93524,"reserved":0,"last_update":"0001-01-01T00:00:00Z","name_a2s":"Uncletopia | New York City | 3 | Stopwatch Beta","protocol":17,"map":"cp_mountainlab","folder":"tf","game":"Team Fortress","app_id":440,"player_count":0,"max_players":24,"Bots":0,"server_type":"Dedicated","server_os":"Linux","password":true,"vac":true,"version":"7961495","steam_id":85568392924742820,"keywords":["cp","nocrits","nodmgspread","uncletopia"],"game_id":440,"stv_port":27036,"stv_name":"Uncletopia | New York City | 3 | Stopwatch Beta | STV","players":null},{"server_id":16,"name":"Uncletopia | New York City | 4 | Community","name_short":"nyc-4","host":"nyc-1.us.uncletopia.com","port":27045,"enabled":true,"region":"us-east","cc":"us","latitude":40.73061,"longitude":-73.93524,"reserved":0,"last_update":"0001-01-01T00:00:00Z","name_a2s":"Uncletopia | New York City | 4 | Community","protocol":17,"map":"workshop/koth_trenchfoot_b1a.ugc731436616","folder":"tf","game":"Team Fortress","app_id":440,"player_count":24,"max_players":24,"Bots":0,"server_type":"Dedicated","server_os":"Linux","password":true,"vac":true,"version":"7961495","steam_id":85568392924742821,"keywords":["cp","nocrits","nodmgspread","uncletopia"],"game_id":440,"stv_port":27046,"stv_name":"Uncletopia | New York City | 4 | Community | STV","players":[{"user_id":76,"name":"artichoke","steam_id":76561198980994364,"connected_time":348000000000,"state":"active","ping":117},{"user_id":69,"name":"Lindir","steam_id":76561198330755050,"connected_time":1039000000000,"state":"active","ping":59},{"user_id":26,"name":"exlhk7","steam_id":76561199468136783,"connected_time":3493000000000,"state":"active","ping":81},{"user_id":70,"name":"Zhong Xina","steam_id":76561198048157121,"connected_time":1007000000000,"state":"active","ping":65},{"user_id":32,"name":"Jellin","steam_id":76561198093616984,"connected_time":2452000000000,"state":"active","ping":55},{"user_id":30,"name":"T12a55","steam_id":76561199228993903,"connected_time":2658000000000,"state":"active","ping":156},{"user_id":33,"name":"MR.DED, THE 2FORT FINAL BOSS","steam_id":76561199102310318,"connected_time":2451000000000,"state":"active","ping":78},{"user_id":34,"name":"businessman minly","steam_id":76561199078991134,"connected_time":2450000000000,"state":"active","ping":75},{"user_id":78,"name":"Freewave","steam_id":76561198156282541,"connected_time":297000000000,"state":"active","ping":59},{"user_id":74,"name":"eryn 🗺","steam_id":76561198004433070,"connected_time":598000000000,"state":"active","ping":83},{"user_id":77,"name":"turd ferguson","steam_id":76561198071620782,"connected_time":342000000000,"state":"active","ping":69},{"user_id":38,"name":"TheFryGuy","steam_id":76561198091683182,"connected_time":2342000000000,"state":"active","ping":76},{"user_id":65,"name":"Grilled Jizo","steam_id":76561199250875340,"connected_time":1399000000000,"state":"active","ping":96},{"user_id":60,"name":"Virtual Insanity","steam_id":76561198095245223,"connected_time":1519000000000,"state":"active","ping":49},{"user_id":43,"name":"RuinLucky","steam_id":76561199481172481,"connected_time":2205000000000,"state":"active","ping":94},{"user_id":58,"name":"Reim","steam_id":76561198131572527,"connected_time":1606000000000,"state":"active","ping":70},{"user_id":45,"name":"WitchBomb_7","steam_id":76561198247320334,"connected_time":2166000000000,"state":"active","ping":73},{"user_id":72,"name":"Cheeki","steam_id":76561198024375176,"connected_time":979000000000,"state":"active","ping":33},{"user_id":73,"name":"tntkiller","steam_id":76561198067401676,"connected_time":956000000000,"state":"active","ping":64},{"user_id":61,"name":"❤[S'more]❤","steam_id":76561198817361963,"connected_time":1489000000000,"state":"active","ping":140},{"user_id":50,"name":"Mr. Durian","steam_id":76561198093813212,"connected_time":2020000000000,"state":"active","ping":47},{"user_id":54,"name":"4jess20","steam_id":76561199488852383,"connected_time":1868000000000,"state":"active","ping":42},{"user_id":57,"name":"jsmith","steam_id":76561198119160313,"connected_time":1800000000000,"state":"active","ping":54},{"user_id":75,"name":"meowfang","steam_id":76561198123056791,"connected_time":598000000000,"state":"active","ping":46}]},{"server_id":142,"name":"Uncletopia | São Paulo | 1 | All Maps","name_short":"sao-1","host":"sao-1.br.uncletopia.com","port":27015,"enabled":true,"region":"sa","cc":"br","latitude":-23.533773,"longitude":-46.62529,"reserved":0,"last_update":"0001-01-01T00:00:00Z","name_a2s":"Uncletopia | São Paulo | 1 | All Maps","protocol":17,"map":"koth_highpass","folder":"tf","game":"Team Fortress","app_id":440,"player_count":0,"max_players":24,"Bots":0,"server_type":"Dedicated","server_os":"Linux","password":true,"vac":true,"version":"7961495","steam_id":85568392924469996,"keywords":["cp","nocrits","nodmgspread","uncletopia"],"game_id":440,"stv_port":27016,"stv_name":"Uncletopia | São Paulo | 1 | All Maps | STV","players":null},{"server_id":143,"name":"Uncletopia | São Paulo | 2 | Community","name_short":"sao-2","host":"sao-2.br.uncletopia.com","port":27015,"enabled":true,"region":"sa","cc":"br","latitude":-23.533773,"longitude":-46.62529,"reserved":0,"last_update":"0001-01-01T00:00:00Z","name_a2s":"Uncletopia | São Paulo | 2 | Community","protocol":17,"map":"workshop/pl_divulgence_b4b.ugc2884808746","folder":"tf","game":"Team Fortress","app_id":440,"player_count":0,"max_players":24,"Bots":0,"server_type":"Dedicated","server_os":"Linux","password":true,"vac":true,"version":"7961495","steam_id":85568392924485349,"keywords":["nocrits","nodmgspread","payload","uncletopia"],"game_id":440,"stv_port":27016,"stv_name":"Uncletopia | São Paulo | 2 | Community | STV","players":null},{"server_id":7,"name":"Uncletopia | Seattle | 1 | All Maps","name_short":"sea-1","host":"sea-1.us.uncletopia.com","port":27015,"enabled":true,"region":"us-west","cc":"us","latitude":47.608013,"longitude":-122.33517,"reserved":0,"last_update":"0001-01-01T00:00:00Z","name_a2s":"Uncletopia | Seattle | 1 | All Maps","protocol":17,"map":"pl_upward","folder":"tf","game":"Team Fortress","app_id":440,"player_count":24,"max_players":24,"Bots":0,"server_type":"Dedicated","server_os":"Linux","password":true,"vac":true,"version":"7961495","steam_id":85568392924469997,"keywords":["nocrits","nodmgspread","payload","uncletopia"],"game_id":440,"stv_port":27016,"stv_name":"Uncletopia | Seattle | 1 | All Maps | STV","players":[{"user_id":60,"name":"TimTam Tom","steam_id":76561198045988062,"connected_time":904000000000,"state":"active","ping":99},{"user_id":12,"name":"blanch","steam_id":76561198850629951,"connected_time":3954000000000,"state":"active","ping":129},{"user_id":13,"name":"EXTREME FEVER","steam_id":76561198282764599,"connected_time":3768000000000,"state":"active","ping":102},{"user_id":81,"name":"The Entire Population of Canada","steam_id":76561198090187112,"connected_time":143000000000,"state":"active","ping":123},{"user_id":70,"name":"Röntgen","steam_id":76561197993492325,"connected_time":676000000000,"state":"active","ping":74},{"user_id":78,"name":"awesomebrololo","steam_id":76561198374283489,"connected_time":191000000000,"state":"active","ping":78},{"user_id":22,"name":"Space Tank","steam_id":76561198118794852,"connected_time":2122000000000,"state":"active","ping":71},{"user_id":66,"name":"CasemanTheBlondeBear","steam_id":76561198144862404,"connected_time":757000000000,"state":"active","ping":56},{"user_id":79,"name":"Soda","steam_id":76561198219209367,"connected_time":191000000000,"state":"active","ping":48},{"user_id":80,"name":"Serene Salamander","steam_id":76561198001094770,"connected_time":172000000000,"state":"active","ping":89},{"user_id":26,"name":"Lana","steam_id":76561198127693473,"connected_time":1970000000000,"state":"active","ping":68},{"user_id":27,"name":"Mr. Pockets","steam_id":76561198053657771,"connected_time":1863000000000,"state":"active","ping":83},{"user_id":33,"name":"Cambonieboo","steam_id":76561198139174433,"connected_time":1541000000000,"state":"active","ping":90},{"user_id":29,"name":"jacix3 [silly doggie :3]","steam_id":76561198205004165,"connected_time":1762000000000,"state":"active","ping":64},{"user_id":32,"name":"De Monki","steam_id":76561198964210411,"connected_time":1577000000000,"state":"active","ping":86},{"user_id":67,"name":"Sol","steam_id":76561198121500201,"connected_time":741000000000,"state":"active","ping":105},{"user_id":63,"name":"Noodle Princess [Dexgod]","steam_id":76561198017130786,"connected_time":867000000000,"state":"active","ping":121},{"user_id":68,"name":"lil boogie","steam_id":76561198064059721,"connected_time":723000000000,"state":"active","ping":47},{"user_id":55,"name":"5869","steam_id":76561198799616739,"connected_time":1016000000000,"state":"active","ping":95},{"user_id":40,"name":"KillerRhodes","steam_id":76561198082550654,"connected_time":1366000000000,"state":"active","ping":105},{"user_id":62,"name":"Puppyjawz","steam_id":76561198146226478,"connected_time":882000000000,"state":"active","ping":133},{"user_id":71,"name":"Mediocre Gaming","steam_id":76561199230467980,"connected_time":581000000000,"state":"active","ping":113},{"user_id":77,"name":"meatballfreak","steam_id":76561198374236066,"connected_time":252000000000,"state":"active","ping":121},{"user_id":44,"name":"Chiki","steam_id":76561198063590320,"connected_time":1305000000000,"state":"active","ping":112}]},{"server_id":119,"name":"Uncletopia | Seattle | 2 | All Maps","name_short":"sea-2","host":"sea-1.us.uncletopia.com","port":27025,"enabled":true,"region":"us-west","cc":"us","latitude":47.608013,"longitude":-122.33517,"reserved":0,"last_update":"0001-01-01T00:00:00Z","name_a2s":"Uncletopia | Seattle | 2 | All Maps","protocol":17,"map":"koth_highpass","folder":"tf","game":"Team Fortress","app_id":440,"player_count":20,"max_players":24,"Bots":0,"server_type":"Dedicated","server_os":"Linux","password":true,"vac":true,"version":"7961495","steam_id":85568392924469998,"keywords":["cp","nocrits","nodmgspread","uncletopia"],"game_id":440,"stv_port":27026,"stv_name":"Uncletopia | Seattle | 2 | All Maps | STV","players":[{"user_id":325,"name":"Bot Maxwell","steam_id":76561198040781615,"connected_time":910000000000,"state":"active","ping":42},{"user_id":260,"name":"Username","steam_id":76561198198918781,"connected_time":3972000000000,"state":"active","ping":88},{"user_id":305,"name":"Three(3)SlicesOfBread","steam_id":76561199386210740,"connected_time":1787000000000,"state":"active","ping":92},{"user_id":306,"name":"check2you","steam_id":76561198027144507,"connected_time":1785000000000,"state":"active","ping":75},{"user_id":319,"name":"silly jester","steam_id":76561198079609974,"connected_time":1292000000000,"state":"active","ping":86},{"user_id":330,"name":"Tmiracle","steam_id":76561198052375275,"connected_time":460000000000,"state":"active","ping":74},{"user_id":303,"name":"Cael Thavain","steam_id":76561198136789464,"connected_time":1840000000000,"state":"active","ping":61},{"user_id":338,"name":"Jazpy","steam_id":76561198036872545,"connected_time":31000000000,"state":"active","ping":107},{"user_id":283,"name":"Purchase","steam_id":76561198821991700,"connected_time":2642000000000,"state":"active","ping":102},{"user_id":225,"name":"The Ball Mangler","steam_id":76561198090419068,"connected_time":5313000000000,"state":"active","ping":69},{"user_id":318,"name":"Irritated Duck","steam_id":76561198247792076,"connected_time":1387000000000,"state":"active","ping":115},{"user_id":323,"name":"RIP Old Man Chico :(","steam_id":76561198865172720,"connected_time":1022000000000,"state":"active","ping":99},{"user_id":332,"name":"Laney","steam_id":76561199048555878,"connected_time":341000000000,"state":"active","ping":61},{"user_id":329,"name":"moxxie","steam_id":76561198893111808,"connected_time":532000000000,"state":"active","ping":73},{"user_id":285,"name":"MondoDong","steam_id":76561197991400109,"connected_time":2610000000000,"state":"active","ping":113},{"user_id":333,"name":"James The Juicer","steam_id":76561198153248257,"connected_time":319000000000,"state":"active","ping":35},{"user_id":308,"name":"fruit brute fiend","steam_id":76561198811500361,"connected_time":1717000000000,"state":"active","ping":42},{"user_id":335,"name":"lukethepumpkin","steam_id":76561198204158335,"connected_time":308000000000,"state":"active","ping":128},{"user_id":316,"name":"The Balls Scratcher","steam_id":76561198878732910,"connected_time":1540000000000,"state":"active","ping":163},{"user_id":321,"name":"no vc no c","steam_id":76561197989503095,"connected_time":1213000000000,"state":"active","ping":152}]},{"server_id":406,"name":"Uncletopia | Seattle | 3 | Stopwatch Beta","name_short":"sea-3","host":"sea-1.us.uncletopia.com","port":27035,"enabled":true,"region":"us-west","cc":"us","latitude":47.608013,"longitude":-122.33517,"reserved":0,"last_update":"0001-01-01T00:00:00Z","name_a2s":"Uncletopia | Seattle | 3 | Stopwatch Beta","protocol":17,"map":"koth_lakeside_final","folder":"tf","game":"Team Fortress","app_id":440,"player_count":0,"max_players":24,"Bots":0,"server_type":"Dedicated","server_os":"Linux","password":true,"vac":true,"version":"7961495","steam_id":85568392924515217,"keywords":["cp","nocrits","nodmgspread","uncletopia"],"game_id":440,"stv_port":27036,"stv_name":"Uncletopia | Seattle | 3 | Stopwatch Beta | STV","players":null},{"server_id":17,"name":"Uncletopia | San Francisco | 1 | All Maps","name_short":"sfo-1","host":"sfo-1.us.uncletopia.com","port":27015,"enabled":true,"region":"us-west","cc":"us","latitude":37.77397,"longitude":-122.4313,"reserved":0,"last_update":"0001-01-01T00:00:00Z","name_a2s":"Uncletopia | San Francisco | 1 | All Maps","protocol":17,"map":"pl_snowycoast","folder":"tf","game":"Team Fortress","app_id":440,"player_count":0,"max_players":24,"Bots":0,"server_type":"Dedicated","server_os":"Linux","password":true,"vac":true,"version":"7961495","steam_id":85568392924469999,"keywords":["nocrits","nodmgspread","payload","uncletopia"],"game_id":440,"stv_port":27016,"stv_name":"Uncletopia | San Francisco | 1 | All Maps | STV","players":null},{"server_id":18,"name":"Uncletopia | San Francisco | 2 | All Maps","name_short":"sfo-2","host":"sfo-1.us.uncletopia.com","port":27025,"enabled":true,"region":"us-west","cc":"us","latitude":37.77397,"longitude":-122.4313,"reserved":0,"last_update":"0001-01-01T00:00:00Z","name_a2s":"Uncletopia | San Francisco | 2 | All Maps","protocol":17,"map":"cp_process_final","folder":"tf","game":"Team Fortress","app_id":440,"player_count":0,"max_players":24,"Bots":0,"server_type":"Dedicated","server_os":"Linux","password":true,"vac":true,"version":"7961495","steam_id":85568392924470000,"keywords":["cp","nocrits","nodmgspread","uncletopia"],"game_id":440,"stv_port":27026,"stv_name":"Uncletopia | San Francisco | 2 | All Maps | STV","players":null},{"server_id":19,"name":"Uncletopia | San Francisco | 3 | Stopwatch Beta","name_short":"sfo-3","host":"sfo-1.us.uncletopia.com","port":27035,"enabled":true,"region":"us-west","cc":"us","latitude":37.77397,"longitude":-122.4313,"reserved":0,"last_update":"0001-01-01T00:00:00Z","name_a2s":"Uncletopia | San Francisco | 3 | Stopwatch Beta","protocol":17,"map":"pl_borneo","folder":"tf","game":"Team Fortress","app_id":440,"player_count":0,"max_players":24,"Bots":0,"server_type":"Dedicated","server_os":"Linux","password":true,"vac":true,"version":"7961495","steam_id":85568392924742824,"keywords":["nocrits","nodmgspread","payload","uncletopia"],"game_id":440,"stv_port":27036,"stv_name":"Uncletopia | San Francisco | 3 | Stopwatch Beta | STV","players":null},{"server_id":20,"name":"Uncletopia | San Francisco | 4 | Community","name_short":"sfo-4","host":"sfo-1.us.uncletopia.com","port":27045,"enabled":true,"region":"us-west","cc":"us","latitude":37.77397,"longitude":-122.4313,"reserved":0,"last_update":"0001-01-01T00:00:00Z","name_a2s":"Uncletopia | San Francisco | 4 | Community","protocol":17,"map":"koth_viaduct","folder":"tf","game":"Team Fortress","app_id":440,"player_count":0,"max_players":24,"Bots":0,"server_type":"Dedicated","server_os":"Linux","password":true,"vac":true,"version":"7961495","steam_id":85568392924742826,"keywords":["cp","nocrits","nodmgspread","uncletopia"],"game_id":440,"stv_port":27046,"stv_name":"Uncletopia | San Francisco | 4 | Community | STV","players":null},{"server_id":141,"name":"Uncletopia | Sydney | 1 | All Maps","name_short":"syd-1","host":"syd-1.au.uncletopia.com","port":27015,"enabled":true,"region":"au","cc":"au","latitude":-33.865143,"longitude":151.2099,"reserved":0,"last_update":"0001-01-01T00:00:00Z","name_a2s":"Uncletopia | Sydney | 1 | All Maps","protocol":17,"map":"cp_dustbowl","folder":"tf","game":"Team Fortress","app_id":440,"player_count":0,"max_players":24,"Bots":0,"server_type":"Dedicated","server_os":"Linux","password":true,"vac":true,"version":"7961495","steam_id":85568392924470001,"keywords":["cp","nocrits","nodmgspread","uncletopia"],"game_id":440,"stv_port":27016,"stv_name":"Uncletopia | Sydney | 1 | All Maps | STV","players":null},{"server_id":123,"name":"Uncletopia | Sydney | 2 | All Maps","name_short":"syd-2","host":"syd-1.au.uncletopia.com","port":27025,"enabled":true,"region":"au","cc":"au","latitude":-33.865143,"longitude":151.2099,"reserved":0,"last_update":"0001-01-01T00:00:00Z","name_a2s":"Uncletopia | Sydney | 2 | All Maps","protocol":17,"map":"cp_altitude","folder":"tf","game":"Team Fortress","app_id":440,"player_count":0,"max_players":24,"Bots":0,"server_type":"Dedicated","server_os":"Linux","password":true,"vac":true,"version":"7961495","steam_id":85568392924470002,"keywords":["cp","nocrits","nodmgspread","uncletopia"],"game_id":440,"stv_port":27026,"stv_name":"Uncletopia | Sydney | 2 | All Maps | STV","players":null},{"server_id":395,"name":"Uncletopia | Sydney | 3 | All Maps","name_short":"syd-3","host":"syd-1.au.uncletopia.com","port":27035,"enabled":true,"region":"au","cc":"au","latitude":-33.865143,"longitude":151.2099,"reserved":0,"last_update":"0001-01-01T00:00:00Z","name_a2s":"Uncletopia | Sydney | 3 | All Maps","protocol":17,"map":"pl_borneo","folder":"tf","game":"Team Fortress","app_id":440,"player_count":0,"max_players":24,"Bots":0,"server_type":"Dedicated","server_os":"Linux","password":true,"vac":true,"version":"7961495","steam_id":85568392925194467,"keywords":["nocrits","nodmgspread","payload","uncletopia"],"game_id":440,"stv_port":27036,"stv_name":"Uncletopia | Sydney | 3 | All Maps | STV","players":null},{"server_id":396,"name":"Uncletopia | Sydney | 4 | All Maps","name_short":"syd-4","host":"syd-1.au.uncletopia.com","port":27045,"enabled":true,"region":"au","cc":"au","latitude":-33.865143,"longitude":151.2099,"reserved":0,"last_update":"0001-01-01T00:00:00Z","name_a2s":"Uncletopia | Sydney | 4 | All Maps","protocol":17,"map":"koth_highpass","folder":"tf","game":"Team Fortress","app_id":440,"player_count":0,"max_players":24,"Bots":0,"server_type":"Dedicated","server_os":"Linux","password":true,"vac":true,"version":"7961495","steam_id":85568392925397958,"keywords":["cp","nocrits","nodmgspread","uncletopia"],"game_id":440,"stv_port":27046,"stv_name":"Uncletopia | Sydney | 4 | All Maps | STV","players":null},{"server_id":58,"name":"Uncletopia | Sydney | 5 | Stopwatch Beta","name_short":"syd-5","host":"syd-1.au.uncletopia.com","port":27055,"enabled":true,"region":"au","cc":"au","latitude":-33.865143,"longitude":151.2099,"reserved":0,"last_update":"0001-01-01T00:00:00Z","name_a2s":"Uncletopia | Sydney | 5 | Stopwatch Beta","protocol":17,"map":"koth_viaduct","folder":"tf","game":"Team Fortress","app_id":440,"player_count":0,"max_players":24,"Bots":0,"server_type":"Dedicated","server_os":"Linux","password":true,"vac":true,"version":"7961495","steam_id":85568392925397959,"keywords":["cp","nocrits","nodmgspread","uncletopia"],"game_id":440,"stv_port":27056,"stv_name":"Uncletopia | Sydney | 5 | Stopwatch Beta | STV","players":null},{"server_id":59,"name":"Uncletopia | Sydney | 6 | Community","name_short":"syd-6","host":"syd-1.au.uncletopia.com","port":27065,"enabled":true,"region":"au","cc":"au","latitude":-33.865143,"longitude":151.2099,"reserved":0,"last_update":"0001-01-01T00:00:00Z","name_a2s":"Uncletopia | Sydney | 6 | Community","protocol":17,"map":"koth_cascade","folder":"tf","game":"Team Fortress","app_id":440,"player_count":0,"max_players":24,"Bots":0,"server_type":"Dedicated","server_os":"Linux","password":true,"vac":true,"version":"7961495","steam_id":85568392925397960,"keywords":["cp","nocrits","nodmgspread","uncletopia"],"game_id":440,"stv_port":27066,"stv_name":"Uncletopia | Sydney | 6 | Community | STV","players":null},{"server_id":49,"name":"Uncletopia | Warsaw | 1 | All Maps","name_short":"waw-1","host":"waw-1.pl.uncletopia.com","port":27015,"enabled":true,"region":"eu","cc":"pl","latitude":52.2297,"longitude":21.017532,"reserved":0,"last_update":"0001-01-01T00:00:00Z","name_a2s":"Uncletopia | Warsaw | 1 | All Maps","protocol":17,"map":"koth_cascade","folder":"tf","game":"Team Fortress","app_id":440,"player_count":0,"max_players":24,"Bots":0,"server_type":"Dedicated","server_os":"Linux","password":true,"vac":true,"version":"7961495","steam_id":85568392925397850,"keywords":["cp","nocrits","nodmgspread","uncletopia"],"game_id":440,"stv_port":27016,"stv_name":"Uncletopia | Warsaw | 1 | All Maps | STV","players":null},{"server_id":50,"name":"Uncletopia | Warsaw | 2 | All Maps","name_short":"waw-2","host":"waw-1.pl.uncletopia.com","port":27025,"enabled":true,"region":"eu","cc":"pl","latitude":52.2297,"longitude":21.017532,"reserved":0,"last_update":"0001-01-01T00:00:00Z","name_a2s":"Uncletopia | Warsaw | 2 | All Maps","protocol":17,"map":"koth_lakeside_final","folder":"tf","game":"Team Fortress","app_id":440,"player_count":2,"max_players":24,"Bots":0,"server_type":"Dedicated","server_os":"Linux","password":true,"vac":true,"version":"7961495","steam_id":85568392925397851,"keywords":["cp","nocrits","nodmgspread","uncletopia"],"game_id":440,"stv_port":27026,"stv_name":"Uncletopia | Warsaw | 2 | All Maps | STV","players":[{"user_id":4,"name":"fexxor","steam_id":76561198030051719,"connected_time":3088000000000,"state":"active","ping":84},{"user_id":5,"name":"Lundback","steam_id":76561198256021018,"connected_time":2842000000000,"state":"active","ping":94}]},{"server_id":51,"name":"Uncletopia | Warsaw | 3 | All Maps","name_short":"waw-3","host":"waw-1.pl.uncletopia.com","port":27035,"enabled":true,"region":"eu","cc":"pl","latitude":52.2297,"longitude":21.017532,"reserved":0,"last_update":"0001-01-01T00:00:00Z","name_a2s":"Uncletopia | Warsaw | 3 | All Maps","protocol":17,"map":"pl_swiftwater_final1","folder":"tf","game":"Team Fortress","app_id":440,"player_count":0,"max_players":24,"Bots":0,"server_type":"Dedicated","server_os":"Linux","password":true,"vac":true,"version":"7961495","steam_id":85568392925397852,"keywords":["nocrits","nodmgspread","payload","uncletopia"],"game_id":440,"stv_port":27036,"stv_name":"Uncletopia | Warsaw | 3 | All Maps | STV","players":null},{"server_id":52,"name":"Uncletopia | Warsaw | 4 | All Maps","name_short":"waw-4","host":"waw-1.pl.uncletopia.com","port":27045,"enabled":true,"region":"eu","cc":"pl","latitude":52.2297,"longitude":21.017532,"reserved":0,"last_update":"0001-01-01T00:00:00Z","name_a2s":"Uncletopia | Warsaw | 4 | All Maps","protocol":17,"map":"koth_viaduct","folder":"tf","game":"Team Fortress","app_id":440,"player_count":0,"max_players":24,"Bots":0,"server_type":"Dedicated","server_os":"Linux","password":true,"vac":true,"version":"7961495","steam_id":85568392925397853,"keywords":["cp","nocrits","nodmgspread","uncletopia"],"game_id":440,"stv_port":27046,"stv_name":"Uncletopia | Warsaw | 4 | All Maps | STV","players":null},{"server_id":53,"name":"Uncletopia | Warsaw | 5 | Stopwatch Beta","name_short":"waw-5","host":"waw-1.pl.uncletopia.com","port":27055,"enabled":true,"region":"eu","cc":"pl","latitude":52.2297,"longitude":21.017532,"reserved":0,"last_update":"0001-01-01T00:00:00Z","name_a2s":"Uncletopia | Warsaw | 5 | Stopwatch Beta","protocol":17,"map":"pl_swiftwater_final1","folder":"tf","game":"Team Fortress","app_id":440,"player_count":0,"max_players":24,"Bots":0,"server_type":"Dedicated","server_os":"Linux","password":true,"vac":true,"version":"7961495","steam_id":85568392925397854,"keywords":["nocrits","nodmgspread","payload","uncletopia"],"game_id":440,"stv_port":27056,"stv_name":"Uncletopia | Warsaw | 5 | Stopwatch Beta | STV","players":null},{"server_id":54,"name":"Uncletopia | Warsaw | 6 | Community","name_short":"waw-6","host":"waw-1.pl.uncletopia.com","port":27065,"enabled":true,"region":"eu","cc":"pl","latitude":52.2297,"longitude":21.017532,"reserved":0,"last_update":"0001-01-01T00:00:00Z","name_a2s":"Uncletopia | Warsaw | 6 | Community","protocol":17,"map":"workshop/cp_glacier_rc6.ugc2905735376","folder":"tf","game":"Team Fortress","app_id":440,"player_count":0,"max_players":24,"Bots":0,"server_type":"Dedicated","server_os":"Linux","password":true,"vac":true,"version":"7961495","steam_id":85568392925397856,"keywords":["cp","nocrits","nodmgspread","uncletopia"],"game_id":440,"stv_port":27066,"stv_name":"Uncletopia | Warsaw | 6 | Community | STV","players":null}]}