{"status":true,"message":"","result":[{"server_id":9,"name":"Uncletopia | Atlanta | 1 | All Maps","name_short":"atl-1","host":"atl-1.us.uncletopia.com","port":27015,"enabled":true,"region":"us-east","cc":"us","latitude":33.753746,"longitude":-84.38633,"reserved":0,"last_update":"0001-01-01T00:00:00Z","name_a2s":"Uncletopia | Atlanta | 1 | All Maps","protocol":17,"map":"pl_badwater","folder":"tf","game":"Team Fortress","app_id":440,"player_count":24,"max_players":24,"Bots":0,"server_type":"Dedicated","server_os":"Linux","password":true,"vac":true,"version":"7961495","steam_id":85568392924469982,"keywords":["nocrits","nodmgspread","payload","uncletopia"],"game_id":440,"stv_port":27016,"stv_name":"Uncletopia | Atlanta | 1 | All Maps | STV","players":null},{"server_id":104,"name":"Uncletopia | Atlanta | 2 | All Maps","name_short":"atl-2","host":"atl-1.us.uncletopia.com","port":27025,"enabled":true,"region":"us-east","cc":"us","latitude":33.753746,"longitude":-84.38633,"reserved":0,"last_update":"0001-01-01T00:00:00Z","name_a2s":"Uncletopia | Atlanta | 2 | All Maps","protocol":17,"map":"koth_highpass","folder":"tf","game":"Team Fortress","app_id":440,"player_count":0,"max_players":24,"Bots":0,"server_type":"Dedicated","server_os":"Linux","password":true,"vac":true,"version":"7961495","steam_id":85568392924469983,"keywords":["cp","nocrits","nodmgspread","uncletopia"],"game_id":440,"stv_port":27026,"stv_name":"Uncletopia | Atlanta | 2 | All Maps | STV","players":null},{"server_id":400,"name":"Uncletopia | Atlanta | 3 | All Maps","name_short":"atl-3","host":"atl-1.us.uncletopia.com","port":27035,"enabled":true,"region":"us-east","cc":"us","latitude":33.753746,"longitude":-84.38633,"reserved":0,"last_update":"0001-01-01T00:00:00Z","name_a2s":"Uncletopia | Atlanta | 3 | All Maps","protocol":17,"map":"koth_highpass","folder":"tf","game":"Team Fortress","app_id":440,"player_count":3,"max_players":24,"Bots":0,"server_type":"Dedicated","server_os":"Linux","password":true,"vac":true,"version":"7961495","steam_id":85568392924515187,"keywords":["cp","nocrits","nodmgspread","uncletopia"],"game_id":440,"stv_port":27036,"stv_name":"Uncletopia | Atlanta | 3 | All Maps | STV","players":null},{"server_id":401,"name":"Uncletopia | Atlanta | 4 | Community","name_short":"atl-4","host":"atl-1.us.uncletopia.com","port":27045,"enabled":true,"region":"us-east","cc":"us","latitude":33.753746,"longitude":-84.38633,"reserved":0,"last_update":"0001-01-01T00:00:00Z","name_a2s":"Uncletopia | Atlanta | 4 | Community","protocol":17,"map":"rd_asteroid_redux_b1","folder":"tf","game":"Team Fortress","app_id":440,"player_count":0,"max_players":24,"Bots":0,"server_type":"Dedicated","server_os":"Linux","password":true,"vac":true,"version":"7961495","steam_id":85568392924515188,"keywords":["beta","nocrits","nodmgspread","rd","uncletopia"],"game_id":440,"stv_port":27046,"stv_name":"Uncletopia | Atlanta | 4 | Community | STV","players":null},{"server_id":2,"name":"Uncletopia | Chicago | 1 | All Maps","name_short":"chi-1","host":"chi-1.us.uncletopia.com","port":27015,"enabled":true,"region":"us-central","cc":"us","latitude":41.881832,"longitude":-87.62318,"reserved":0,"last_update":"0001-01-01T00:00:00Z","name_a2s":"Uncletopia | Chicago | 1 | All Maps","protocol":17,"map":"pl_upward","folder":"tf","game":"Team Fortress","app_id":440,"player_count":24,"max_players":24,"Bots":0,"server_type":"Dedicated","server_os":"Linux","password":true,"vac":true,"version":"7961495","steam_id":85568392924469984,"keywords":["nocrits","nodmgspread","payload","uncletopia"],"game_id":440,"stv_port":27016,"stv_name":"Uncletopia | Chicago | 1 | All Maps | STV","players":[{"user_id":372,"name":"eat Pant","steam_id":76561197974965536,"connected_time":1123000000000,"state":"active","ping":59},{"user_id":363,"name":"Penis Chopper","steam_id":76561199016999537,"connected_time":1700000000000,"state":"active","ping":116},{"user_id":390,"name":"CinnamonBoy","steam_id":76561198882330338,"connected_time":200000000000,"state":"active","ping":70},{"user_id":380,"name":"Xebbey","steam_id":76561198880415976,"connected_time":909000000000,"state":"active","ping":72},{"user_id":375,"name":"Dual Baguetta","steam_id":76561198179829841,"connected_time":1024000000000,"state":"active","ping":127},{"user_id":371,"name":"88","steam_id":76561198165212575,"connected_time":1133000000000,"state":"active","ping":70},{"user_id":381,"name":"CheesyNacho","steam_id":76561198350445456,"connected_time":890000000000,"state":"active","ping":69},{"user_id":272,"name":"Just a baby","steam_id":76561198018660838,"connected_time":8859000000000,"state":"active","ping":94},{"user_id":377,"name":"MrHoesMad","steam_id":76561198799232698,"connected_time":983000000000,"state":"active","ping":54},{"user_id":388,"name":"TheGhostThatWas","steam_id":76561198055836483,"connected_time":237000000000,"state":"active","ping":62},{"user_id":387,"name":"Notsocreative","steam_id":76561198236372202,"connected_time":413000000000,"state":"active","ping":83},{"user_id":383,"name":"CuSO4","steam_id":76561199278147589,"connected_time":793000000000,"state":"active","ping":65},{"user_id":378,"name":"Wat","steam_id":76561198031951787,"connected_time":978000000000,"state":"active","ping":67},{"user_id":392,"name":"Dura","steam_id":76561198081086998,"connected_time":27000000000,"state":"active","ping":104},{"user_id":351,"name":"James","steam_id":76561198081313916,"connected_time":2516000000000,"state":"active","ping":73},{"user_id":389,"name":"PKBEAST_7","steam_id":76561198177136537,"connected_time":234000000000,"state":"active","ping":92},{"user_id":348,"name":"Rockgraham101","steam_id":76561198171740458,"connected_time":2540000000000,"state":"active","ping":60},{"user_id":359,"name":"Yam Jazzy Jim","steam_id":76561198000788950,"connected_time":2347000000000,"state":"active","ping":71},{"user_id":368,"name":"vv","steam_id":76561198134813102,"connected_time":1230000000000,"state":"active","ping":68},{"user_id":391,"name":"Person","steam_id":76561198093244204,"connected_time":97000000000,"state":"active","ping":75},{"user_id":382,"name":"Esteban Delsin","steam_id":76561198433519639,"connected_time":842000000000,"state":"active","ping":121},{"user_id":362,"name":"steve","steam_id":76561198124791670,"connected_time":2011000000000,"state":"active","ping":50},{"user_id":355,"name":"_cza","steam_id":76561198079793576,"connected_time":2465000000000,"state":"active","ping":94},{"user_id":384,"name":"evilclownattack","steam_id":76561198001627114,"connected_time":722000000000,"state":"active","ping":75}]},{"server_id":106,"name":"Uncletopia | Chicago | 2 | All Maps","name_short":"chi-2","host":"chi-1.us.uncletopia.com","port":27025,"enabled":true,"region":"us-central","cc":"us","latitude":41.881832,"longitude":-87.62318,"reserved":0,"last_update":"0001-01-01T00:00:00Z","name_a2s":"Uncletopia | Chicago | 2 | All Maps","protocol":17,"map":"pl_frontier_final","folder":"tf","game":"Team Fortress","app_id":440,"player_count":24,"max_players":24,"Bots":0,"server_type":"Dedicated","server_os":"Linux","password":true,"vac":true,"version":"7961495","steam_id":85568392924469985,"keywords":["nocrits","nodmgspread","payload","uncletopia"],"game_id":440,"stv_port":27026,"stv_name":"Uncletopia | Chicago | 2 | All Maps | STV","players":[{"user_id":338,"name":"branflakess","steam_id":76561198115832989,"connected_time":3639000000000,"state":"active","ping":113},{"user_id":381,"name":"MadeYouLook247","steam_id":76561199274740829,"connected_time":907000000000,"state":"active","ping":76},{"user_id":373,"name":"Church","steam_id":76561199214866732,"connected_time":1266000000000,"state":"active","ping":69},{"user_id":374,"name":"Okami","steam_id":76561198174632634,"connected_time":1190000000000,"state":"active","ping":124},{"user_id":380,"name":"Draven","steam_id":76561198074776388,"connected_time":915000000000,"state":"active","ping":77},{"user_id":382,"name":"oh god i'm gonna CHUM","steam_id":76561198019210187,"connected_time":900000000000,"state":"active","ping":51},{"user_id":355,"name":"Dreamzapp","steam_id":76561199084936632,"connected_time":2659000000000,"state":"active","ping":119},{"user_id":383,"name":"seeyouauntie","steam_id":76561198045852999,"connected_time":875000000000,"state":"active","ping":62},{"user_id":386,"name":"Nite","steam_id":76561199014777092,"connected_time":724000000000,"state":"active","ping":58},{"user_id":375,"name":"Crustacean Daddy","steam_id":76561198993807061,"connected_time":998000000000,"state":"active","ping":91},{"user_id":284,"name":"Homosexual Warmachine","steam_id":76561198040425096,"connected_time":8216000000000,"state":"active","ping":64},{"user_id":387,"name":"hey buddy","steam_id":76561198066521617,"connected_time":640000000000,"state":"active","ping":63},{"user_id":368,"name":"Sheev Palpatine","steam_id":76561198252332430,"connected_time":1766000000000,"state":"active","ping":73},{"user_id":388,"name":"Cheemaii","steam_id":76561198855694206,"connected_time":636000000000,"state":"active","ping":46},{"user_id":389,"name":"benxdc","steam_id":76561198048279397,"connected_time":471000000000,"state":"active","ping":77},{"user_id":384,"name":"retror","steam_id":76561198846863157,"connected_time":839000000000,"state":"active","ping":45},{"user_id":366,"name":"autisthicc","steam_id":76561198003918928,"connected_time":1864000000000,"state":"active","ping":132},{"user_id":328,"name":"Lucon","steam_id":76561198067147724,"connected_time":4937000000000,"state":"active","ping":55},{"user_id":248,"name":"Domswish","steam_id":76561198331444240,"connected_time":10063000000000,"state":"active","ping":61},{"user_id":391,"name":"no. 1 xm fan","steam_id":76561198364485830,"connected_time":366000000000,"state":"active","ping":69},{"user_id":365,"name":"barney","steam_id":76561198166433332,"connected_time":2032000000000,"state":"active","ping":105},{"user_id":334,"name":"Chestnnut","steam_id":76561198077782729,"connected_time":4412000000000,"state":"active","ping":73},{"user_id":390,"name":"Rock (R)","steam_id":76561198367981283,"connected_time":424000000000,"state":"active","ping":85},{"user_id":385,"name":"CrazyKermitRubes","steam_id":76561198009065204,"connected_time":833000000000,"state":"active","ping":83}]},{"server_id":402,"name":"Uncletopia | Chicago | 3 | All Maps","name_short":"chi-3","host":"chi-1.us.uncletopia.com","port":27035,"enabled":true,"region":"us-central","cc":"us","latitude":41.881832,"longitude":-87.62318,"reserved":0,"last_update":"0001-01-01T00:00:00Z","name_a2s":"Uncletopia | Chicago | 3 | All Maps","protocol":17,"map":"pl_frontier_final","folder":"tf","game":"Team Fortress","app_id":440,"player_count":24,"max_players":24,"Bots":0,"server_type":"Dedicated","server_os":"Linux","password":true,"vac":true,"version":"7961495","steam_id":85568392924515191,"keywords":["nocrits","nodmgspread","payload","uncletopia"],"game_id":440,"stv_port":27036,"stv_name":"Uncletopia | Chicago | 3 | All Maps | STV","players":[{"user_id":310,"name":"AverageGloop","steam_id":76561198243395378,"connected_time":198000000000,"state":"active","ping":57},{"user_id":297,"name":"CabbageMan","steam_id":76561198216980671,"connected_time":694000000000,"state":"active","ping":80},{"user_id":295,"name":"Pyromainiac","steam_id":76561199259867180,"connected_time":1183000000000,"state":"active","ping":93},{"user_id":244,"name":"Vorpas Jabwak","steam_id":76561198112186064,"connected_time":4003000000000,"state":"active","ping":74},{"user_id":265,"name":"Mortal Flame","steam_id":76561198130698418,"connected_time":3203000000000,"state":"active","ping":98},{"user_id":304,"name":"iluvtopoo","steam_id":76561198843522498,"connected_time":383000000000,"state":"active","ping":128},{"user_id":302,"name":"salt water sand","steam_id":76561198188110989,"connected_time":451000000000,"state":"active","ping":61},{"user_id":305,"name":"cognitiveAfflatus","steam_id":76561198295181426,"connected_time":328000000000,"state":"active","ping":68},{"user_id":236,"name":"retinazer","steam_id":76561198089852954,"connected_time":5323000000000,"state":"active","ping":81},{"user_id":307,"name":"Sussin'","steam_id":76561198059813696,"connected_time":276000000000,"state":"active","ping":75},{"user_id":156,"name":"FoxStrike","steam_id":76561198218232011,"connected_time":11144000000000,"state":"active","ping":86},{"user_id":294,"name":"Candy Sparkles","steam_id":76561198126871264,"connected_time":1220000000000,"state":"active","ping":83},{"user_id":308,"name":"biggietgaming101","steam_id":76561199466309068,"connected_time":219000000000,"state":"active","ping":51},{"user_id":309,"name":"Provocator","steam_id":76561197961830410,"connected_time":214000000000,"state":"active","ping":76},{"user_id":141,"name":"[82DK] Ike","steam_id":76561198135256526,"connected_time":12532000000000,"state":"active","ping":87},{"user_id":273,"name":"AwakenedLaser","steam_id":76561198881657823,"connected_time":2686000000000,"state":"active","ping":112},{"user_id":250,"name":"spazmatism","steam_id":76561198066114874,"connected_time":3585000000000,"state":"active","ping":103},{"user_id":291,"name":"Zombiehunter11","steam_id":76561198237517830,"connected_time":1408000000000,"state":"active","ping":75},{"user_id":301,"name":"Girly Teengirl","steam_id":76561198081220016,"connected_time":620000000000,"state":"active","ping":54},{"user_id":263,"name":"Jayne Cobb","steam_id":76561198080585050,"connected_time":3351000000000,"state":"active","ping":90},{"user_id":292,"name":"Lorberry","steam_id":76561198023706058,"connected_time":1312000000000,"state":"active","ping":44},{"user_id":289,"name":"FunGi","steam_id":76561198881418662,"connected_time":1481000000000,"state":"active","ping":89},{"user_id":311,"name":"Jose.2007","steam_id":76561199110079270,"connected_time":178000000000,"state":"active","ping":70},{"user_id":300,"name":"m4rc","steam_id":76561199083479139,"connected_time":656000000000,"state":"active","ping":118}]},{"server_id":403,"name":"Uncletopia | Chicago | 4 | All Maps","name_short":"chi-4","host":"chi-1.us.uncletopia.com","port":27045,"enabled":true,"region":"us-central","cc":"us","latitude":41.881832,"longitude":-87.62318,"reserved":0,"last_update":"0001-01-01T00:00:00Z","name_a2s":"Uncletopia | Chicago | 4 | All Maps","protocol":17,"map":"cp_junction_final","folder":"tf","game":"Team Fortress","app_id":440,"player_count":24,"max_players":24,"Bots":0,"server_type":"Dedicated","server_os":"Linux","password":true,"vac":true,"version":"7961495","steam_id":85568392924515193,"keywords":["cp","nocrits","nodmgspread","uncletopia"],"game_id":440,"stv_port":27046,"stv_name":"Uncletopia | Chicago | 4 | All Maps | STV","players":[{"user_id":319,"name":"SouperBad","steam_id":76561198116690686,"connected_time":4159000000000,"state":"active","ping":48},{"user_id":383,"name":"artixes","steam_id":76561198379574232,"connected_time":135000000000,"state":"active","ping":50},{"user_id":373,"name":"Bandit","steam_id":76561198285889962,"connected_time":569000000000,"state":"active","ping":82},{"user_id":337,"name":"Okpar","steam_id":76561199221067945,"connected_time":3346000000000,"state":"active","ping":97},{"user_id":385,"name":"GreatTimBones","steam_id":76561198409145748,"connected_time":123000000000,"state":"active","ping":72},{"user_id":382,"name":"Lawnmower","steam_id":76561198186680197,"connected_time":199000000000,"state":"active","ping":75},{"user_id":318,"name":"0100101101100001011100100110110","steam_id":76561198034028769,"connected_time":4532000000000,"state":"active","ping":56},{"user_id":340,"name":"captainskullet","steam_id":76561198314597170,"connected_time":2974000000000,"state":"active","ping":61},{"user_id":364,"name":"theholyhealer99","steam_id":76561199045905872,"connected_time":852000000000,"state":"active","ping":59},{"user_id":384,"name":"wafflehamster2000","steam_id":76561198849161820,"connected_time":129000000000,"state":"active","ping":88},{"user_id":258,"name":"King of Ping","steam_id":76561198278737470,"connected_time":8565000000000,"state":"active","ping":63},{"user_id":377,"name":"andre","steam_id":76561198071201544,"connected_time":504000000000,"state":"active","ping":71},{"user_id":327,"name":"Big Ballâ„¢","steam_id":76561198065637690,"connected_time":3766000000000,"state":"active","ping":73},{"user_id":360,"name":"Stapler","steam_id":76561198099295077,"connected_time":1109000000000,"state":"active","ping":90},{"user_id":347,"name":"Nut Commander","steam_id":76561198065989058,"connected_time":2834000000000,"state":"active","ping":68},{"user_id":365,"name":"The Hermit Spycrab","steam_id":76561198046370290,"connected_time":814000000000,"state":"active","ping":75},{"user_id":386,"name":"Bucket Hat Trick","steam_id":76561198381785132,"connected_time":113000000000,"state":"active","ping":86},{"user_id":387,"name":"chaubao1292003","steam_id":76561198367579426,"connected_time":96000000000,"state":"active","ping":282},{"user_id":372,"name":"Hepi","steam_id":76561199171919713,"connected_time":603000000000,"state":"active","ping":59},{"user_id":388,"name":"Phantom","steam_id":76561199200400404,"connected_time":65000000000,"state":"active","ping":111},{"user_id":389,"name":"Kerbal01","steam_id":76561198080296298,"connected_time":62000000000,"state":"active","ping":58},{"user_id":381,"name":"Chad","steam_id":76561198222313772,"connected_time":481000000000,"state":"active","ping":72},{"user_id":369,"name":"BlazingBuizel7","steam_id":76561199026199596,"connected_time":778000000000,"state":"active","ping":69},{"user_id":390,"name":"SlowestSundew7","steam_id":76561198158548701,"connected_time":40000000000,"state":"active","ping":99}]},{"server_id":36,"name":"Uncletopia | Chicago | 5 | All Maps","name_short":"chi-5","host":"chi-2.us.uncletopia.com","port":27015,"enabled":true,"region":"us-central","cc":"us","latitude":41.881832,"longitude":-87.62318,"reserved":0,"last_update":"0001-01-01T00:00:00Z","name_a2s":"Uncletopia | Chicago | 5 | All Maps","protocol":17,"map":"koth_king","folder":"tf","game":"Team Fortress","app_id":440,"player_count":23,"max_players":24,"Bots":0,"server_type":"Dedicated","server_os":"Linux","password":true,"vac":true,"version":"7961495","steam_id":85568392924866362,"keywords":["cp","nocrits","nodmgspread","uncletopia"],"game_id":440,"stv_port":27016,"stv_name":"Uncletopia | Chicago | 5 | All Maps | STV","players":[{"user_id":205,"name":"Kagi","steam_id":76561198117400696,"connected_time":1174000000000,"state":"active","ping":70},{"user_id":229,"name":"Trotsky Gaming","steam_id":76561199101638460,"connected_time":27000000000,"state":"active","ping":74},{"user_id":206,"name":"as_skilled_as_a_box","steam_id":76561199121970114,"connected_time":1154000000000,"state":"active","ping":143},{"user_id":200,"name":"Blade Racer","steam_id":76561198155896703,"connected_time":1516000000000,"state":"active","ping":69},{"user_id":230,"name":"Crake","steam_id":76561198037375652,"connected_time":9000000000,"state":"spawning","ping":100},{"user_id":227,"name":"Smalstro","steam_id":76561199227819604,"connected_time":172000000000,"state":"active","ping":90},{"user_id":209,"name":"Dwane Johnson From Amogus","steam_id":76561199091290729,"connected_time":1052000000000,"state":"active","ping":83},{"user_id":224,"name":"Cocaine Bear","steam_id":76561199191602348,"connected_time":341000000000,"state":"active","ping":96},{"user_id":173,"name":"Brawling Bouse","steam_id":76561198030271278,"connected_time":3512000000000,"state":"active","ping":70},{"user_id":199,"name":"Puke Skyfucker","steam_id":76561198012846213,"connected_time":1832000000000,"state":"active","ping":78},{"user_id":190,"name":"--_Cook_--","steam_id":76561198080855748,"connected_time":2733000000000,"state":"active","ping":48},{"user_id":221,"name":"Tony hawks pro skater 2 dlc","steam_id":76561198243387974,"connected_time":605000000000,"state":"active","ping":73},{"user_id":211,"name":"Goose of Wisdom","steam_id":76561198233465044,"connected_time":948000000000,"state":"active","ping":73},{"user_id":228,"name":"eryn ðŸ—º","steam_id":76561198004433070,"connected_time":163000000000,"state":"active","ping":82},{"user_id":120,"name":"rays 162-0 (for real)","steam_id":76561198142756572,"connected_time":7707000000000,"state":"active","ping":60},{"user_id":193,"name":"-W3E- grim10465","steam_id":76561198045698581,"connected_time":2336000000000,"state":"active","ping":50},{"user_id":160,"name":"THE FLUMPSTER","steam_id":76561198060911025,"connected_time":5054000000000,"state":"active","ping":45},{"user_id":212,"name":"FiddyFoMike","steam_id":76561198057072581,"connected_time":920000000000,"state":"active","ping":101},{"user_id":215,"name":"Broilovetf2","steam_id":76561199482995411,"connected_time":846000000000,"state":"active","ping":102},{"user_id":225,"name":"Kyzerity","steam_id":76561198384861057,"connected_time":333000000000,"state":"active","ping":80},{"user_id":93,"name":"b3afy","steam_id":76561198084208649,"connected_time":9445000000000,"state":"active","ping":93},{"user_id":191,"name":"LincolnShio_","steam_id":76561198831123552,"connected_time":2699000000000,"state":"active","ping":64}]},{"server_id":37,"name":"Uncletopia | Chicago | 6 | All Maps","name_short":"chi-6","host":"chi-2.us.uncletopia.com","port":27025,"enabled":true,"region":"us-central","cc":"us","latitude":41.881832,"longitude":-87.62318,"reserved":0,"last_update":"0001-01-01T00:00:00Z","name_a2s":"Uncletopia | Chicago | 6 | All Maps","protocol":17,"map":"cp_process_final","folder":"tf","game":"Team Fortress","app_id":440,"player_count":24,"max_players":24,"Bots":0,"server_type":"Dedicated","server_os":"Linux","password":true,"vac":true,"version":"7961495","steam_id":85568392924866363,"keywords":["cp","nocrits","nodmgspread","uncletopia"],"game_id":440,"stv_port":27026,"stv_name":"Uncletopia | Chicago | 6 | All Maps | STV","players":[{"user_id":312,"name":"DuragGod69","steam_id":76561198067814426,"connected_time":693000000000,"state":"active","ping":70},{"user_id":251,"name":"AJTarcza","steam_id":76561198070800190,"connected_time":5691000000000,"state":"active","ping":87},{"user_id":247,"name":"Flowers","steam_id":76561198031669899,"connected_time":5715000000000,"state":"active","ping":83},{"user_id":323,"name":"Rhutebeer","steam_id":76561198018302761,"connected_time":208000000000,"state":"active","ping":99},{"user_id":242,"name":"jolo","steam_id":76561198042831480,"connected_time":6089000000000,"state":"active","ping":68},{"user_id":258,"name":"Pukei-Pukei","steam_id":76561197992722546,"connected_time":5458000000000,"state":"active","ping":108},{"user_id":324,"name":"KnightRider5000","steam_id":76561198150044298,"connected_time":14000000000,"state":"active","ping":106},{"user_id":313,"name":"envy","steam_id":76561198099470277,"connected_time":680000000000,"state":"active","ping":86},{"user_id":314,"name":"Scum Knight | T.I.D.K.","steam_id":76561198282444763,"connected_time":661000000000,"state":"active","ping":61},{"user_id":267,"name":"pinky","steam_id":76561199109784776,"connected_time":4364000000000,"state":"active","ping":56},{"user_id":309,"name":"WrongThing","steam_id":76561199057330766,"connected_time":1336000000000,"state":"active","ping":61},{"user_id":140,"name":"Sockhead","steam_id":76561198253181773,"connected_time":11789000000000,"state":"active","ping":79},{"user_id":305,"name":"thatguy_luigi","steam_id":76561198968055462,"connected_time":1623000000000,"state":"active","ping":102},{"user_id":250,"name":"Wayan","steam_id":76561198354695464,"connected_time":5705000000000,"state":"active","ping":68},{"user_id":294,"name":"Doof","steam_id":76561198034031819,"connected_time":2879000000000,"state":"active","ping":60},{"user_id":302,"name":"ElChuchoXf","steam_id":76561199235124146,"connected_time":1997000000000,"state":"active","ping":148},{"user_id":290,"name":"MR SKELTAL","steam_id":76561198031089598,"connected_time":2910000000000,"state":"active","ping":68},{"user_id":317,"name":"feliser","steam_id":76561198084336096,"connected_time":546000000000,"state":"active","ping":59},{"user_id":284,"name":"Fightin Cow","steam_id":76561198080941486,"connected_time":3037000000000,"state":"active","ping":77},{"user_id":256,"name":"Ninety","steam_id":76561198114257183,"connected_time":5585000000000,"state":"active","ping":67},{"user_id":321,"name":"bladees realest, saddest verse","steam_id":76561198098099826,"connected_time":322000000000,"state":"active","ping":102},{"user_id":285,"name":"FlammenwerferPanzer","steam_id":76561199096682977,"connected_time":2972000000000,"state":"active","ping":154},{"user_id":310,"name":"ChebJeb","steam_id":76561198981377081,"connected_time":1312000000000,"state":"active","ping":86},{"user_id":307,"name":"Burf","steam_id":76561198019341161,"connected_time":1572000000000,"state":"active","ping":65}]},{"server_id":38,"name":"Uncletopia | Chicago | 7 | Stopwatch Beta","name_short":"chi-7","host":"chi-2.us.uncletopia.com","port":27035,"enabled":true,"region":"us-central","cc":"us","latitude":41.881832,"longitude":-87.62318,"reserved":0,"last_update":"0001-01-01T00:00:00Z","name_a2s":"Uncletopia | Chicago | 7 | Stopwatch Beta","protocol":17,"map":"workshop/koth_bagel_rc6.ugc2514036946","folder":"tf","game":"Team Fortress","app_id":440,"player_count":0,"max_players":24,"Bots":0,"server_type":"Dedicated","server_os":"Linux","password":true,"vac":true,"version":"7961495","steam_id":85568392924866364,"keywords":["cp","nocrits","nodmgspread","uncletopia"],"game_id":440,"stv_port":27036,"stv_name":"Uncletopia | Chicago | 7 | Stopwatch Beta | STV","players":null},{"server_id":39,"name":"Uncletopia | Chicago | 8 | Community","name_short":"chi-8","host":"chi-2.us.uncletopia.com","port":27045,"enabled":true,"region":"us-central","cc":"us","latitude":41.881832,"longitude":-87.62318,"reserved":0,"last_update":"0001-01-01T00:00:00Z","name_a2s":"Uncletopia | Chicago | 8 | Community","protocol":17,"map":"workshop/pl_barnblitz_pro7.ugc582280235","folder":"tf","game":"Team Fortress","app_id":440,"player_count":24,"max_players":24,"Bots":0,"server_type":"Dedicated","server_os":"Linux","password":true,"vac":true,"version":"7961495","steam_id":85568392924866365,"keywords":["nocrits","nodmgspread","payload","uncletopia"],"game_id":440,"stv_port":27046,"stv_name":"Uncletopia | Chicago | 8 | Community | STV","players":[{"user_id":52,"name":"Gad","steam_id":76561198020792373,"connected_time":805000000000,"state":"active","ping":45},{"user_id":15,"name":"Mr lazy pants 72","steam_id":76561198396412589,"connected_time":3582000000000,"state":"active","ping":121},{"user_id":17,"name":"zDy-Caro","steam_id":76561198826557853,"connected_time":3292000000000,"state":"active","ping":99},{"user_id":59,"name":"solipsism","steam_id":76561198063457494,"connected_time":84000000000,"state":"active","ping":74},{"user_id":21,"name":"Wolly","steam_id":76561198229680832,"connected_time":2531000000000,"state":"active","ping":45},{"user_id":54,"name":"shmood","steam_id":76561198241948526,"connected_time":546000000000,"state":"active","ping":61},{"user_id":60,"name":"Stranger in a Strange Land","steam_id":76561198049843671,"connected_time":42000000000,"state":"active","ping":67},{"user_id":61,"name":"Local Gamer","steam_id":76561198063463200,"connected_time":27000000000,"state":"active","ping":76},{"user_id":26,"name":"milk.","steam_id":76561198475060900,"connected_time":1765000000000,"state":"active","ping":60},{"user_id":48,"name":"Mae","steam_id":76561198085815757,"connected_time":1048000000000,"state":"active","ping":69},{"user_id":29,"name":"top10skater","steam_id":76561199471507997,"connected_time":1618000000000,"state":"active","ping":119},{"user_id":31,"name":"Kermit","steam_id":76561198034559979,"connected_time":1510000000000,"state":"active","ping":85},{"user_id":32,"name":"Petebros","steam_id":76561198892196829,"connected_time":1509000000000,"state":"active","ping":69},{"user_id":33,"name":"KnifeySpoon","steam_id":76561198142442493,"connected_time":1499000000000,"state":"active","ping":75},{"user_id":53,"name":"Jrock","steam_id":76561198045715996,"connected_time":733000000000,"state":"active","ping":91},{"user_id":35,"name":"breathing meat donut","steam_id":76561198123566649,"connected_time":1456000000000,"state":"active","ping":79},{"user_id":37,"name":"PintSized","steam_id":76561199077031492,"connected_time":1452000000000,"state":"active","ping":87},{"user_id":38,"name":"crusader","steam_id":76561199123832253,"connected_time":1444000000000,"state":"active","ping":90},{"user_id":49,"name":"Zimil","steam_id":76561199187045818,"connected_time":950000000000,"state":"active","ping":90},{"user_id":40,"name":"mechiimi","steam_id":76561198321627268,"connected_time":1411000000000,"state":"active","ping":125},{"user_id":50,"name":"Whompert","steam_id":76561198042939624,"connected_time":941000000000,"state":"active","ping":87},{"user_id":42,"name":"NFT(non functioning testicle)","steam_id":76561198092435966,"connected_time":1355000000000,"state":"active","ping":74},{"user_id":58,"name":"Dude","steam_id":76561199058616824,"connected_time":135000000000,"state":"active","ping":70},{"user_id":45,"name":"boys don't cry","steam_id":76561198392539722,"connected_time":1263000000000,"state":"active","ping":78}]},{"server_id":8,"name":"Uncletopia | Dallas | 1 | All Maps","name_short":"dal-1","host":"dal-1.us.uncletopia.com","port":27015,"enabled":true,"region":"us-central","cc":"us","latitude":32.779167,"longitude":-96.80889,"reserved":0,"last_update":"0001-01-01T00:00:00Z","name_a2s":"Uncletopia | Dallas | 1 | All Maps","protocol":17,"map":"pl_badwater","folder":"tf","game":"Team Fortress","app_id":440,"player_count":24,"max_players":24,"Bots":0,"server_type":"Dedicated","server_os":"Linux","password":true,"vac":true,"version":"7961495","steam_id":85568392924469986,"keywords":["nocrits","nodmgspread","payload","uncletopia"],"game_id":440,"stv_port":27016,"stv_name":"Uncletopia | Dallas | 1 | All Maps | STV","players":[{"user_id":395,"name":"Brain Magic","steam_id":76561198010201477,"connected_time":872000000000,"state":"active","ping":83},{"user_id":393,"name":"Soupcan","steam_id":76561198012807915,"connected_time":1042000000000,"state":"active","ping":72},{"user_id":386,"name":"Krustytoepaste","steam_id":76561198320265524,"connected_time":1333000000000,"state":"active","ping":71},{"user_id":400,"name":"Zetta","steam_id":76561198045710113,"connected_time":140000000000,"state":"active","ping":76},{"user_id":398,"name":"1998 Mazda b2500","steam_id":76561198883172857,"connected_time":655000000000,"state":"active","ping":97},{"user_id":387,"name":"Mail Delivery","steam_id":76561198290046318,"connected_time":1296000000000,"state":"active","ping":60},{"user_id":379,"name":"Rodgedan","steam_id":76561198226236524,"connected_time":1829000000000,"state":"active","ping":100},{"user_id":350,"name":"Maurdakar","steam_id":76561197983420976,"connected_time":3618000000000,"state":"active","ping":95},{"user_id":339,"name":"mkl","steam_id":76561197986401685,"connected_time":4323000000000,"state":"active","ping":60},{"user_id":341,"name":"De MonkE","steam_id":76561198140626221,"connected_time":4318000000000,"state":"active","ping":31},{"user_id":397,"name":"ChoiBoi9001","steam_id":76561199401392691,"connected_time":775000000000,"state":"active","ping":78},{"user_id":394,"name":"Doubleounce","steam_id":76561198307041690,"connected_time":1039000000000,"state":"active","ping":67},{"user_id":399,"name":"banana gaming","steam_id":76561198334907218,"connected_time":409000000000,"state":"active","ping":62},{"user_id":388,"name":"FanaticSalt","steam_id":76561199380123059,"connected_time":1252000000000,"state":"active","ping":53},{"user_id":354,"name":"james may","steam_id":76561198043857339,"connected_time":3513000000000,"state":"active","ping":79},{"user_id":385,"name":"artichoke","steam_id":76561198980994364,"connected_time":1373000000000,"state":"active","ping":102},{"user_id":362,"name":"EverythingZen","steam_id":76561198257384503,"connected_time":2920000000000,"state":"active","ping":69},{"user_id":370,"name":"flippercurve","steam_id":76561199238295034,"connected_time":2377000000000,"state":"active","ping":71},{"user_id":377,"name":"jailbreak","steam_id":76561198802085218,"connected_time":1893000000000,"state":"active","ping":59},{"user_id":357,"name":"CALsHero09","steam_id":76561198155881095,"connected_time":3477000000000,"state":"active","ping":121},{"user_id":390,"name":"Critical","steam_id":76561198123744966,"connected_time":1183000000000,"state":"active","ping":95},{"user_id":369,"name":"Kirby.exe","steam_id":76561198242714582,"connected_time":2782000000000,"state":"active","ping":49},{"user_id":391,"name":"Vladimir Puddin","steam_id":76561198139674520,"connected_time":1133000000000,"state":"active","ping":83},{"user_id":396,"name":"muck","steam_id":76561198120437909,"connected_time":856000000000,"state":"active","ping":44}]},{"server_id":108,"name":"Uncletopia | Dallas | 2 | All Maps","name_short":"dal-2","host":"dal-1.us.uncletopia.com","port":27025,"enabled":true,"region":"us-central","cc":"us","latitude":32.779167,"longitude":-96.80889,"reserved":0,"last_update":"0001-01-01T00:00:00Z","name_a2s":"Uncletopia | Dallas | 2 | All Maps","protocol":17,"map":"pl_thundermountain","folder":"tf","game":"Team Fortress","app_id":440,"player_count":24,"max_players":24,"Bots":0,"server_type":"Dedicated","server_os":"Linux","password":true,"vac":true,"version":"7961495","steam_id":85568392924469988,"keywords":["nocrits","nodmgspread","payload","uncletopia"],"game_id":440,"stv_port":27026,"stv_name":"Uncletopia | Dallas | 2 | All Maps | STV","players":[{"user_id":128,"name":"prospike569","steam_id":76561199491903111,"connected_time":2596000000000,"state":"active","ping":101},{"user_id":154,"name":"Special Agent Dale Cooper","steam_id":76561198084230569,"connected_time":931000000000,"state":"active","ping":84},{"user_id":146,"name":"Burny Sanders","steam_id":76561197961879048,"connected_time":1456000000000,"state":"active","ping":44},{"user_id":141,"name":"A Straw","steam_id":76561199367935846,"connected_time":1818000000000,"state":"active","ping":71},{"user_id":150,"name":"ClayTougher (Winter Version)","steam_id":76561199135235387,"connected_time":1097000000000,"state":"active","ping":70},{"user_id":109,"name":"North","steam_id":76561198814844969,"connected_time":3834000000000,"state":"active","ping":72},{"user_id":72,"name":"rbstat","steam_id":76561198050169034,"connected_time":5658000000000,"state":"active","ping":104},{"user_id":30,"name":"CeLeb144","steam_id":76561199089907740,"connected_time":8811000000000,"state":"active","ping":61},{"user_id":120,"name":"Green Mario","steam_id":76561198922644496,"connected_time":3459000000000,"state":"active","ping":93},{"user_id":157,"name":"TheGirthquake","steam_id":76561198238895056,"connected_time":482000000000,"state":"active","ping":96},{"user_id":129,"name":"rad killl raccoon","steam_id":76561198980975595,"connected_time":2589000000000,"state":"active","ping":126},{"user_id":87,"name":"Sage","steam_id":76561198143101697,"connected_time":5350000000000,"state":"active","ping":112},{"user_id":159,"name":"menonamed","steam_id":76561198199564382,"connected_time":62000000000,"state":"active","ping":86},{"user_id":158,"name":"I hate MiG-15s","steam_id":76561198976521735,"connected_time":411000000000,"state":"active","ping":75},{"user_id":121,"name":"???","steam_id":76561198200155343,"connected_time":3406000000000,"state":"active","ping":44},{"user_id":131,"name":"Smug","steam_id":76561198448205229,"connected_time":2584000000000,"state":"active","ping":74},{"user_id":152,"name":"Smalls","steam_id":76561198046081504,"connected_time":979000000000,"state":"active","ping":47},{"user_id":132,"name":"ONION BAGGER","steam_id":76561198128363064,"connected_time":2568000000000,"state":"active","ping":81},{"user_id":135,"name":"Deltaco","steam_id":76561198094572694,"connected_time":2542000000000,"state":"active","ping":126},{"user_id":143,"name":"bubba simp club","steam_id":76561199338554815,"connected_time":1673000000000,"state":"active","ping":84},{"user_id":155,"name":"Rob","steam_id":76561199187786660,"connected_time":906000000000,"state":"active","ping":53},{"user_id":156,"name":"Hawkborne","steam_id":76561198107249245,"connected_time":761000000000,"state":"active","ping":78},{"user_id":149,"name":"-L","steam_id":76561198046074220,"connected_time":1173000000000,"state":"active","ping":83},{"user_id":92,"name":"Alf Creepypasta","steam_id":76561198841844093,"connected_time":5067000000000,"state":"active","ping":82}]},{"server_id":404,"name":"Uncletopia | Dallas | 3 | All Maps","name_short":"dal-3","host":"dal-1.us.uncletopia.com","port":27035,"enabled":true,"region":"us-central","cc":"us","latitude":32.779167,"longitude":-96.80889,"reserved":0,"last_update":"0001-01-01T00:00:00Z","name_a2s":"Uncletopia | Dallas | 3 | All Maps","protocol":17,"map":"cp_sunshine","folder":"tf","game":"Team Fortress","app_id":440,"player_count":19,"max_players":24,"Bots":0,"server_type":"Dedicated","server_os":"Linux","password":true,"vac":true,"version":"7961495","steam_id":85568392924515219,"keywords":["cp","nocrits","nodmgspread","uncletopia"],"game_id":440,"stv_port":27036,"stv_name":"Uncletopia | Dallas | 3 | All Maps | STV","players":[{"user_id":63,"name":"Trakmer","steam_id":76561198049501416,"connected_time":209000000000,"state":"active","ping":182},{"user_id":59,"name":"BoyKisser","steam_id":76561199200969139,"connected_time":272000000000,"state":"active","ping":106},{"user_id":64,"name":"Mr. Prince","steam_id":76561199004154031,"connected_time":202000000000,"state":"active","ping":161},{"user_id":62,"name":"Bullwinkle J. Moose","steam_id":76561198075977196,"connected_time":238000000000,"state":"active","ping":57},{"user_id":49,"name":"DizzyMelon","steam_id":76561198202087282,"connected_time":1154000000000,"state":"active","ping":81},{"user_id":67,"name":"Zaid","steam_id":76561199142840666,"connected_time":65000000000,"state":"active","ping":154},{"user_id":44,"name":"dogface","steam_id":76561198074407897,"connected_time":1601000000000,"state":"active","ping":95},{"user_id":18,"name":"Snivy","steam_id":76561198135488292,"connected_time":2792000000000,"state":"active","ping":75},{"user_id":66,"name":"DrFlapJack","steam_id":76561199075410469,"connected_time":126000000000,"state":"active","ping":74},{"user_id":22,"name":"Dalsmo","steam_id":76561198062947397,"connected_time":2367000000000,"state":"active","ping":67},{"user_id":69,"name":"LudicrousRed","steam_id":76561199047437703,"connected_time":44000000000,"state":"active","ping":57},{"user_id":24,"name":"awsome man 369","steam_id":76561198090729853,"connected_time":2320000000000,"state":"active","ping":67},{"user_id":57,"name":"danielarmvt","steam_id":76561198799723201,"connected_time":527000000000,"state":"active","ping":73},{"user_id":46,"name":"2_Kan","steam_id":76561199456801899,"connected_time":1490000000000,"state":"active","ping":73},{"user_id":70,"name":"Huntpk","steam_id":76561198340591674,"connected_time":20000000000,"state":"active","ping":65},{"user_id":31,"name":"Black Bear.","steam_id":76561198806203328,"connected_time":2150000000000,"state":"active","ping":90},{"user_id":51,"name":"âœª Y V E S","steam_id":76561198299479796,"connected_time":1139000000000,"state":"active","ping":73},{"user_id":43,"name":"cycoone","steam_id":76561198059745285,"connected_time":1801000000000,"state":"active","ping":74},{"user_id":56,"name":"TechnoBear2099","steam_id":76561198238863596,"connected_time":627000000000,"state":"active","ping":55}]},{"server_id":405,"name":"Uncletopia | Dallas | 4 | Community","name_short":"dal-4","host":"dal-1.us.uncletopia.com","port":27045,"enabled":true,"region":"us-central","cc":"us","latitude":32.779167,"longitude":-96.80889,"reserved":0,"last_update":"0001-01-01T00:00:00Z","name_a2s":"Uncletopia | Dallas | 4 | Community","protocol":17,"map":"pl_badwater","folder":"tf","game":"Team Fortress","app_id":440,"player_count":0,"max_players":24,"Bots":0,"server_type":"Dedicated","server_os":"Linux","password":true,"vac":true,"version":"7961495","steam_id":85568392924515220,"keywords":["nocrits","nodmgspread","payload","uncletopia"],"game_id":440,"stv_port":27046,"stv_name":"Uncletopia | Dallas | 4 | Community | STV","players":null},{"server_id":5,"name":"Uncletopia | Frankfurt | 1 | All Maps","name_short":"frk-1","host":"frk-1.de.uncletopia.com","port":27015,"enabled":true,"region":"eu","cc":"de","latitude":50.110924,"longitude":8.682127,"reserved":0,"last_update":"0001-01-01T00:00:00Z","name_a2s":"Uncletopia | Frankfurt | 1 | All Maps","protocol":17,"map":"pl_barnblitz","folder":"tf","game":"Team Fortress","app_id":440,"player_count":24,"max_players":24,"Bots":0,"server_type":"Dedicated","server_os":"Linux","password":true,"vac":true,"version":"7961495","steam_id":85568392924469989,"keywords":["nocrits","nodmgspread","payload","uncletopia"],"game_id":440,"stv_port":27016,"stv_name":"Uncletopia | Frankfurt | 1 | All Maps | STV","players":[{"user_id":865,"name":"Engie's best friend","steam_id":76561197961707932,"connected_time":394000000000,"state":"active","ping":47},{"user_id":866,"name":"realness","steam_id":76561199129226935,"connected_time":391000000000,"state":"active","ping":94},{"user_id":859,"name":"Driver's drunkest God","steam_id":76561198969373800,"connected_time":738000000000,"state":"active","ping":70},{"user_id":846,"name":"Nikoanker","steam_id":76561198090336068,"connected_time":2017000000000,"state":"active","ping":52},{"user_id":869,"name":"Seargant Snagge","steam_id":76561198055227276,"connected_time":356000000000,"state":"active","ping":89},{"user_id":823,"name":"_420_StopItDudeCmon","steam_id":76561197997146481,"connected_time":3330000000000,"state":"active","ping":56},{"user_id":870,"name":"Lorenzo Lovers","steam_id":76561198073973581,"connected_time":350000000000,"state":"active","ping":75},{"user_id":868,"name":"Dandolive","steam_id":76561199436592277,"connected_time":366000000000,"state":"active","ping":70},{"user_id":871,"name":"Ñ‚Ñ€ÑƒÐ´Ð¾Ð²Ð¾Ð¹ Ð¼Ð¸Ð³Ñ€Ð°Ð½Ñ‚","steam_id":76561198060963051,"connected_time":343000000000,"state":"active","ping":99},{"user_id":872,"name":"Porongo","steam_id":76561198133133753,"connected_time":323000000000,"state":"active","ping":72},{"user_id":873,"name":"Poly","steam_id":76561198116441257,"connected_time":300000000000,"state":"active","ping":55},{"user_id":848,"name":"Spotmonkey","steam_id":76561198003994092,"connected_time":1941000000000,"state":"active","ping":71},{"user_id":820,"name":"Strangerdanger","steam_id":76561198206728500,"connected_time":3532000000000,"state":"active","ping":64},{"user_id":825,"name":"cister0","steam_id":76561198130195469,"connected_time":3247000000000,"state":"active","ping":72},{"user_id":858,"name":"generic alias","steam_id":76561198271607226,"connected_time":933000000000,"state":"active","ping":101},{"user_id":816,"name":"kelm","steam_id":76561198027166144,"connected_time":3977000000000,"state":"active","ping":83},{"user_id":843,"name":"TheStonkorFart","steam_id":76561199334136586,"connected_time":2446000000000,"state":"active","ping":162},{"user_id":874,"name":"-gunripp0r^be / Obelix^","steam_id":76561197999306879,"connected_time":284000000000,"state":"active","ping":102},{"user_id":861,"name":"Ø§Ù„Ø´Ø¬Ø§Ø¹","steam_id":76561198210249832,"connected_time":666000000000,"state":"active","ping":59},{"user_id":793,"name":"Jake","steam_id":76561198842243984,"connected_time":5140000000000,"state":"active","ping":54},{"user_id":875,"name":"Drip-O-bama","steam_id":76561199135631057,"connected_time":211000000000,"state":"active","ping":67},{"user_id":847,"name":"Arno","steam_id":76561198025329937,"connected_time":1955000000000,"state":"active","ping":57},{"user_id":845,"name":"FoOzTV","steam_id":76561197998636728,"connected_time":2239000000000,"state":"active","ping":75},{"user_id":863,"name":"Glitch","steam_id":76561198801335846,"connected_time":522000000000,"state":"active","ping":44}]},{"server_id":110,"name":"Uncletopia | Frankfurt | 2 | All Maps","name_short":"frk-2","host":"frk-1.de.uncletopia.com","port":27025,"enabled":true,"region":"eu","cc":"de","latitude":50.110924,"longitude":8.682127,"reserved":0,"last_update":"0001-01-01T00:00:00Z","name_a2s":"Uncletopia | Frankfurt | 2 | All Maps","protocol":17,"map":"pl_upward","folder":"tf","game":"Team Fortress","app_id":440,"player_count":24,"max_players":24,"Bots":0,"server_type":"Dedicated","server_os":"Linux","password":true,"vac":true,"version":"7961495","steam_id":85568392924469990,"keywords":["nocrits","nodmgspread","payload","uncletopia"],"game_id":440,"stv_port":27026,"stv_name":"Uncletopia | Frankfurt | 2 | All Maps | STV","players":[{"user_id":725,"name":"I am currently being deepfried","steam_id":76561199132088006,"connected_time":1863000000000,"state":"active","ping":64},{"user_id":738,"name":"cecko","steam_id":76561198798721254,"connected_time":739000000000,"state":"active","ping":70},{"user_id":671,"name":"JoFF","steam_id":76561198048623866,"connected_time":4032000000000,"state":"active","ping":75},{"user_id":654,"name":"Sham!","steam_id":76561198050434275,"connected_time":4358000000000,"state":"active","ping":50},{"user_id":748,"name":"Kolanciasty â™¥","steam_id":76561198020042179,"connected_time":534000000000,"state":"active","ping":77},{"user_id":740,"name":"Syd","steam_id":76561198020515027,"connected_time":662000000000,"state":"active","ping":64},{"user_id":750,"name":"rat exturmenaitor","steam_id":76561199278252995,"connected_time":113000000000,"state":"active","ping":73},{"user_id":730,"name":"Bobo","steam_id":76561198052308399,"connected_time":1612000000000,"state":"active","ping":56},{"user_id":741,"name":"Hercules","steam_id":76561198041164170,"connected_time":642000000000,"state":"active","ping":50},{"user_id":742,"name":"limbicsystem","steam_id":76561198025612680,"connected_time":622000000000,"state":"active","ping":70},{"user_id":685,"name":"Towig","steam_id":76561197995201474,"connected_time":3804000000000,"state":"active","ping":77},{"user_id":686,"name":"kalumuna","steam_id":76561197996957462,"connected_time":3791000000000,"state":"active","ping":87},{"user_id":614,"name":"Owlet","steam_id":76561198065613974,"connected_time":7219000000000,"state":"active","ping":74},{"user_id":743,"name":"Toxic_Cicity","steam_id":76561198165753440,"connected_time":619000000000,"state":"active","ping":96},{"user_id":733,"name":"Praise the sun","steam_id":76561198354671849,"connected_time":1500000000000,"state":"active","ping":85},{"user_id":723,"name":"Edge","steam_id":76561198065735485,"connected_time":2107000000000,"state":"active","ping":77},{"user_id":528,"name":"bigwish | bmod.tf","steam_id":76561197997859723,"connected_time":14983000000000,"state":"active","ping":83},{"user_id":746,"name":"the joy of recycling","steam_id":76561198415564349,"connected_time":589000000000,"state":"active","ping":72},{"user_id":745,"name":"pentium gaming","steam_id":76561198806968871,"connected_time":609000000000,"state":"active","ping":87},{"user_id":749,"name":"smallGIGACHAD","steam_id":76561198047359132,"connected_time":473000000000,"state":"active","ping":60},{"user_id":747,"name":"SinShep","steam_id":76561198040646629,"connected_time":581000000000,"state":"active","ping":78},{"user_id":664,"name":"TriRÐ˜ÐŒ","steam_id":76561198119622375,"connected_time":4166000000000,"state":"active","ping":74},{"user_id":737,"name":"xeri","steam_id":76561198058928752,"connected_time":1285000000000,"state":"active","ping":63},{"user_id":657,"name":"El_Kommadante","steam_id":76561198079551685,"connected_time":4313000000000,"state":"active","ping":86}]},{"server_id":308,"name":"Uncletopia | Frankfurt | 3 | All Maps","name_short":"frk-3","host":"frk-1.de.uncletopia.com","port":27035,"enabled":true,"region":"eu","cc":"de","latitude":50.110924,"longitude":8.682127,"reserved":0,"last_update":"0001-01-01T00:00:00Z","name_a2s":"Uncletopia | Frankfurt | 3 | All Maps","protocol":17,"map":"pl_swiftwater_final1","folder":"tf","game":"Team Fortress","app_id":440,"player_count":24,"max_players":24,"Bots":0,"server_type":"Dedicated","server_os":"Linux","password":true,"vac":true,"version":"7961495","steam_id":85568392924504274,"keywords":["nocrits","nodmgspread","payload","uncletopia"],"game_id":440,"stv_port":27036,"stv_name":"Uncletopia | Frankfurt | 3 | All Maps | STV","players":[{"user_id":513,"name":"Mr. Luigi","steam_id":76561198167312951,"connected_time":2130000000000,"state":"active","ping":54},{"user_id":481,"name":"CuJIA_TPAHCJIuTA","steam_id":76561198149654361,"connected_time":5390000000000,"state":"active","ping":56},{"user_id":521,"name":"Federal Republic of Yugoslavia","steam_id":76561198883033062,"connected_time":1043000000000,"state":"active","ping":92},{"user_id":531,"name":"mook","steam_id":76561198175543442,"connected_time":17000000000,"state":"active","ping":81},{"user_id":487,"name":"mick","steam_id":76561199473954060,"connected_time":4273000000000,"state":"active","ping":106},{"user_id":530,"name":"edward cullen from twilight","steam_id":76561198038827937,"connected_time":264000000000,"state":"active","ping":71},{"user_id":529,"name":"Comical Bird","steam_id":76561198023534657,"connected_time":395000000000,"state":"active","ping":63},{"user_id":517,"name":"Spinya","steam_id":76561198086653667,"connected_time":1284000000000,"state":"active","ping":67},{"user_id":524,"name":"randompixel","steam_id":76561198003941207,"connected_time":810000000000,"state":"active","ping":71},{"user_id":505,"name":"Noob_with_source","steam_id":76561198870362103,"connected_time":2715000000000,"state":"active","ping":60},{"user_id":461,"name":"Cookies and Bakies","steam_id":76561198017442928,"connected_time":6638000000000,"state":"active","ping":91},{"user_id":528,"name":"corralled","steam_id":76561198028648627,"connected_time":445000000000,"state":"active","ping":69},{"user_id":523,"name":"harrison","steam_id":76561198990132243,"connected_time":949000000000,"state":"active","ping":86},{"user_id":497,"name":"Target locked","steam_id":76561198862785207,"connected_time":3989000000000,"state":"active","ping":72},{"user_id":491,"name":"Urfangonultasadana","steam_id":76561199389286151,"connected_time":4184000000000,"state":"active","ping":92},{"user_id":484,"name":"Nid","steam_id":76561198023371922,"connected_time":4512000000000,"state":"active","ping":68},{"user_id":468,"name":"squillisky","steam_id":76561198083569327,"connected_time":6051000000000,"state":"active","ping":66},{"user_id":456,"name":"etc","steam_id":76561197998394797,"connected_time":7503000000000,"state":"active","ping":57},{"user_id":520,"name":"youhave2mothers","steam_id":76561198416536990,"connected_time":1116000000000,"state":"active","ping":345},{"user_id":525,"name":"MISTER SUIIII","steam_id":76561198018330092,"connected_time":771000000000,"state":"active","ping":84},{"user_id":467,"name":"Philosophos_Alpha","steam_id":76561198951264580,"connected_time":6367000000000,"state":"active","ping":106},{"user_id":331,"name":"Noam","steam_id":76561198057789807,"connected_time":12987000000000,"state":"active","ping":99},{"user_id":519,"name":"xPim","steam_id":76561198071273549,"connected_time":1244000000000,"state":"active","ping":63},{"user_id":486,"name":"Juhkuu","steam_id":76561198079326000,"connected_time":4318000000000,"state":"active","ping":69}]},{"server_id":309,"name":"Uncletopia | Frankfurt | 4 | All Maps","name_short":"frk-4","host":"frk-1.de.uncletopia.com","port":27045,"enabled":true,"region":"eu","cc":"de","latitude":50.110924,"longitude":8.682127,"reserved":0,"last_update":"0001-01-01T00:00:00Z","name_a2s":"Uncletopia | Frankfurt | 4 | All Maps","protocol":17,"map":"pl_swiftwater_final1","folder":"tf","game":"Team Fortress","app_id":440,"player_count":24,"max_players":24,"Bots":0,"server_type":"Dedicated","server_os":"Linux","password":true,"vac":true,"version":"7961495","steam_id":85568392924504275,"keywords":["nocrits","nodmgspread","payload","uncletopia"],"game_id":440,"stv_port":27046,"stv_name":"Uncletopia | Frankfurt | 4 | All Maps | STV","players":[{"user_id":535,"name":"Benzo Fury","steam_id":76561198025259336,"connected_time":353000000000,"state":"active","ping":54},{"user_id":551,"name":"Silver","steam_id":76561198175238807,"connected_time":75000000000,"state":"active","ping":61},{"user_id":436,"name":"Finnish Farmer","steam_id":76561198205366043,"connected_time":8456000000000,"state":"active","ping":83},{"user_id":505,"name":"Ixsus\u003c3","steam_id":76561198094756869,"connected_time":2148000000000,"state":"active","ping":60},{"user_id":548,"name":"Vyllckart","steam_id":76561198119172997,"connected_time":164000000000,"state":"active","ping":87},{"user_id":536,"name":"\u003c blank \u003e","steam_id":76561198059375315,"connected_time":353000000000,"state":"active","ping":68},{"user_id":537,"name":"QR code 78","steam_id":76561198073749509,"connected_time":339000000000,"state":"active","ping":67},{"user_id":538,"name":"dinorno","steam_id":76561198146276830,"connected_time":334000000000,"state":"active","ping":74},{"user_id":529,"name":"DeterminedXD[HUN]","steam_id":76561199469006453,"connected_time":1034000000000,"state":"active","ping":81},{"user_id":507,"name":"gothmoth","steam_id":76561198386910896,"connected_time":2060000000000,"state":"active","ping":67},{"user_id":520,"name":"Dragon / Blue","steam_id":76561198153453055,"connected_time":1610000000000,"state":"active","ping":50},{"user_id":534,"name":"Killer Bean","steam_id":76561198072567787,"connected_time":574000000000,"state":"active","ping":71},{"user_id":532,"name":"heavy sings (real)","steam_id":76561199023804405,"connected_time":753000000000,"state":"active","ping":75},{"user_id":539,"name":"Garry_G","steam_id":76561198362834902,"connected_time":316000000000,"state":"active","ping":68},{"user_id":540,"name":"Punker","steam_id":76561198255964089,"connected_time":299000000000,"state":"active","ping":119},{"user_id":521,"name":"Japie06","steam_id":76561198005877406,"connected_time":1562000000000,"state":"active","ping":56},{"user_id":549,"name":"CINE191","steam_id":76561198182777486,"connected_time":142000000000,"state":"active","ping":86},{"user_id":523,"name":"NeonPixel","steam_id":76561198165901066,"connected_time":1384000000000,"state":"active","ping":75},{"user_id":550,"name":"mattua","steam_id":76561197966534457,"connected_time":96000000000,"state":"active","ping":84},{"user_id":497,"name":"Popop","steam_id":76561198004793795,"connected_time":2726000000000,"state":"active","ping":45},{"user_id":515,"name":"Kfer","steam_id":76561198809708638,"connected_time":1902000000000,"state":"active","ping":75},{"user_id":544,"name":"Teathling","steam_id":76561198061580505,"connected_time":238000000000,"state":"active","ping":57},{"user_id":545,"name":"â™‚ Animan â™‚ Studios â™‚","steam_id":76561198308302932,"connected_time":238000000000,"state":"active","ping":103},{"user_id":547,"name":"TomRistpt","steam_id":76561198968817946,"connected_time":182000000000,"state":"active","ping":45}]},{"server_id":310,"name":"Uncletopia | Frankfurt | 5 | All Maps","name_short":"frk-5","host":"frk-1.de.uncletopia.com","port":27055,"enabled":true,"region":"eu","cc":"de","latitude":50.110924,"longitude":8.682127,"reserved":0,"last_update":"0001-01-01T00:00:00Z","name_a2s":"Uncletopia | Frankfurt | 5 | All Maps","protocol":17,"map":"pl_hoodoo_final","folder":"tf","game":"Team Fortress","app_id":440,"player_count":22,"max_players":24,"Bots":0,"server_type":"Dedicated","server_os":"Linux","password":true,"vac":true,"version":"7961495","steam_id":85568392924504277,"keywords":["nocrits","nodmgspread","payload","uncletopia"],"game_id":440,"stv_port":27056,"stv_name":"Uncletopia | Frankfurt | 5 | All Maps | STV","players":[{"user_id":493,"name":"Rock..","steam_id":76561198004641963,"connected_time":667000000000,"state":"active","ping":85},{"user_id":500,"name":"MassiveL","steam_id":76561198120243019,"connected_time":246000000000,"state":"active","ping":110},{"user_id":499,"name":"fabacher","steam_id":76561198057905272,"connected_time":271000000000,"state":"active","ping":60},{"user_id":485,"name":"Femboy Melooni","steam_id":76561199035732179,"connected_time":1096000000000,"state":"active","ping":87},{"user_id":477,"name":"DJ L3G3ND","steam_id":76561198186112647,"connected_time":1430000000000,"state":"active","ping":79},{"user_id":467,"name":"Very Original Name","steam_id":76561199159833013,"connected_time":1919000000000,"state":"active","ping":58},{"user_id":491,"name":"RuinLucky","steam_id":76561199481172481,"connected_time":845000000000,"state":"active","ping":178},{"user_id":501,"name":"Lammet","steam_id":76561198149409729,"connected_time":227000000000,"state":"active","ping":70},{"user_id":488,"name":"KOSOVO \u003c3","steam_id":76561199226874371,"connected_time":948000000000,"state":"active","ping":113},{"user_id":502,"name":"Spooky Daddy","steam_id":76561198359279278,"connected_time":215000000000,"state":"active","ping":193},{"user_id":495,"name":"ThatKetos","steam_id":76561198989682540,"connected_time":533000000000,"state":"active","ping":46},{"user_id":498,"name":"Marky","steam_id":76561199474556920,"connected_time":342000000000,"state":"active","ping":124},{"user_id":439,"name":"Kin","steam_id":76561198161931698,"connected_time":4294000000000,"state":"active","ping":90},{"user_id":482,"name":"Tichyâ˜†","steam_id":76561198026218934,"connected_time":1200000000000,"state":"active","ping":54},{"user_id":457,"name":"ehehehehehhe","steam_id":76561198044502435,"connected_time":2862000000000,"state":"active","ping":84},{"user_id":450,"name":"Team Fortress","steam_id":76561198058722801,"connected_time":3738000000000,"state":"active","ping":53},{"user_id":503,"name":"H2n9","steam_id":76561198055811259,"connected_time":199000000000,"state":"active","ping":67},{"user_id":496,"name":"Our Hero","steam_id":76561198132047538,"connected_time":495000000000,"state":"active","ping":81},{"user_id":481,"name":"Average meme enjoyer","steam_id":76561199087566663,"connected_time":1321000000000,"state":"active","ping":84},{"user_id":431,"name":"1couver","steam_id":76561198168553215,"connected_time":4848000000000,"state":"active","ping":92},{"user_id":396,"name":"Archive","steam_id":76561198071255385,"connected_time":7155000000000,"state":"active","ping":87},{"user_id":473,"name":"Gorlami","steam_id":76561199003079242,"connected_time":1681000000000,"state":"active","ping":75}]},{"server_id":311,"name":"Uncletopia | Frankfurt | 6 | All Maps","name_short":"frk-6","host":"frk-1.de.uncletopia.com","port":27065,"enabled":true,"region":"eu","cc":"de","latitude":50.110924,"longitude":8.682127,"reserved":0,"last_update":"0001-01-01T00:00:00Z","name_a2s":"Uncletopia | Frankfurt | 6 | All Maps","protocol":17,"map":"pl_snowycoast","folder":"tf","game":"Team Fortress","app_id":440,"player_count":13,"max_players":24,"Bots":0,"server_type":"Dedicated","server_os":"Linux","password":true,"vac":true,"version":"7961495","steam_id":85568392924504278,"keywords":["nocrits","nodmgspread","payload","uncletopia"],"game_id":440,"stv_port":27066,"stv_name":"Uncletopia | Frankfurt | 6 | All Maps | STV","players":[{"user_id":348,"name":"chair 2.0","steam_id":76561199233470150,"connected_time":747000000000,"state":"active","ping":50},{"user_id":349,"name":"FavBet ua","steam_id":76561198273199378,"connected_time":740000000000,"state":"active","ping":65},{"user_id":341,"name":"Shepherd'sPie","steam_id":76561198125171983,"connected_time":1742000000000,"state":"active","ping":143},{"user_id":350,"name":"Vriska Serket","steam_id":76561198201870332,"connected_time":497000000000,"state":"active","ping":58},{"user_id":355,"name":"Brinier","steam_id":76561199012604288,"connected_time":341000000000,"state":"active","ping":56},{"user_id":347,"name":"Sheen (Khang)","steam_id":76561198371062974,"connected_time":838000000000,"state":"active","ping":86},{"user_id":352,"name":"Pistix","steam_id":76561198314660912,"connected_time":448000000000,"state":"active","ping":85},{"user_id":334,"name":"Pvt. Prinny","steam_id":76561198030278562,"connected_time":2563000000000,"state":"active","ping":49},{"user_id":356,"name":"UwUlric","steam_id":76561198136794751,"connected_time":103000000000,"state":"active","ping":81},{"user_id":354,"name":"Fenrys","steam_id":76561198353946813,"connected_time":420000000000,"state":"active","ping":61},{"user_id":357,"name":"Ozymandias","steam_id":76561198986806645,"connected_time":96000000000,"state":"active","ping":120},{"user_id":358,"name":"JÃ¥nuary","steam_id":76561198272259060,"connected_time":69000000000,"state":"active","ping":95},{"user_id":276,"name":"Der Herr Doktor","steam_id":76561198119476089,"connected_time":6349000000000,"state":"active","ping":51}]},{"server_id":23,"name":"Uncletopia | Frankfurt | 7 | Stopwatch Beta","name_short":"frk-7","host":"frk-1.de.uncletopia.com","port":27075,"enabled":true,"region":"eu","cc":"de","latitude":50.110924,"longitude":8.682127,"reserved":0,"last_update":"0001-01-01T00:00:00Z","name_a2s":"Uncletopia | Frankfurt | 7 | Stopwatch Beta","protocol":17,"map":"workshop/koth_ramjam_rc1.ugc459778887","folder":"tf","game":"Team Fortress","app_id":440,"player_count":15,"max_players":24,"Bots":0,"server_type":"Dedicated","server_os":"Linux","password":true,"vac":true,"version":"7961495","steam_id":85568392924742827,"keywords":["cp","nocrits","nodmgspread","uncletopia"],"game_id":440,"stv_port":27076,"stv_name":"Uncletopia | Frankfurt | 7 | Stopwatch Beta | STV","players":[{"user_id":173,"name":"avanaR","steam_id":76561198132062124,"connected_time":3208000000000,"state":"active","ping":60},{"user_id":231,"name":"she swallowed burning coals","steam_id":76561197993508562,"connected_time":168000000000,"state":"active","ping":64},{"user_id":209,"name":"Nobody","steam_id":76561198151116796,"connected_time":1505000000000,"state":"active","ping":82},{"user_id":203,"name":"Douglas MacDrip The Second","steam_id":76561198865364180,"connected_time":1747000000000,"state":"active","ping":56},{"user_id":222,"name":"Fat Pigeon","steam_id":76561198817940142,"connected_time":726000000000,"state":"active","ping":48},{"user_id":226,"name":"Huskey","steam_id":76561198152392309,"connected_time":641000000000,"state":"active","ping":45},{"user_id":223,"name":"fart poo penis","steam_id":76561199008015028,"connected_time":725000000000,"state":"active","ping":51},{"user_id":224,"name":"Egor Pomidor","steam_id":76561199175688390,"connected_time":724000000000,"state":"active","ping":75},{"user_id":216,"name":"Edgy Name","steam_id":76561198378270820,"connected_time":1116000000000,"state":"active","ping":61},{"user_id":207,"name":"DÃ¥vid","steam_id":76561198184135755,"connected_time":1636000000000,"state":"active","ping":57},{"user_id":210,"name":"I have no duck and I must quack","steam_id":76561198061920656,"connected_time":1463000000000,"state":"active","ping":75},{"user_id":227,"name":"arya sh","steam_id":76561199139537113,"connected_time":638000000000,"state":"active","ping":152},{"user_id":228,"name":"Void","steam_id":76561198841011453,"connected_time":637000000000,"state":"active","ping":76},{"user_id":229,"name":"Seberster","steam_id":76561198136958624,"connected_time":584000000000,"state":"active","ping":144},{"user_id":213,"name":"kubanamaxa","steam_id":76561198154315656,"connected_time":1406000000000,"state":"active","ping":93}]},{"server_id":24,"name":"Uncletopia | Frankfurt | 8 | Community","name_short":"frk-8","host":"frk-1.de.uncletopia.com","port":27085,"enabled":true,"region":"eu","cc":"de","latitude":50.110924,"longitude":8.682127,"reserved":0,"last_update":"0001-01-01T00:00:00Z","name_a2s":"Uncletopia | Frankfurt | 8 | Community","protocol":17,"map":"workshop/pl_fifthcurve_rc1.ugc648227046","folder":"tf","game":"Team Fortress","app_id":440,"player_count":4,"max_players":24,"Bots":0,"server_type":"Dedicated","server_os":"Linux","password":true,"vac":true,"version":"7961495","steam_id":85568392924742828,"keywords":["nocrits","nodmgspread","payload","uncletopia"],"game_id":440,"stv_port":27086,"stv_name":"Uncletopia | Frankfurt | 8 | Community | STV","players":[{"user_id":59,"name":"Z.","steam_id":76561198367362266,"connected_time":1284000000000,"state":"active","ping":87},{"user_id":60,"name":"=Xal=","steam_id":76561198052622095,"connected_time":1268000000000,"state":"active","ping":60},{"user_id":61,"name":"QEWIN","steam_id":76561198032209851,"connected_time":1228000000000,"state":"active","ping":87},{"user_id":66,"name":"End My Suffering And Knuckles","steam_id":76561198171844685,"connected_time":1015000000000,"state":"active","ping":154}]},{"server_id":202,"name":"Uncletopia | Hong Kong | 1 | All Maps","name_short":"hgk-1","host":"hgk-1.hk.uncletopia.com","port":27015,"enabled":true,"region":"asia","cc":"hk","latitude":22.302711,"longitude":114.177216,"reserved":0,"last_update":"0001-01-01T00:00:00Z","name_a2s":"Uncletopia | Hong Kong | 1 | All Maps","protocol":17,"map":"koth_viaduct","folder":"tf","game":"Team Fortress","app_id":440,"player_count":0,"max_players":24,"Bots":0,"server_type":"Dedicated","server_os":"Linux","password":true,"vac":true,"version":"7961495","steam_id":85568392924494504,"keywords":["cp","nocrits","nodmgspread","uncletopia"],"game_id":440,"stv_port":27016,"stv_name":"Uncletopia | Hong Kong | 1 | All Maps | STV","players":null},{"server_id":1,"name":"Uncletopia | Los Angeles | 1 | All Maps","name_short":"lax-1","host":"lax-1.us.uncletopia.com","port":27015,"enabled":true,"region":"us-west","cc":"us","latitude":33.94279,"longitude":-118.41004,"reserved":0,"last_update":"0001-01-01T00:00:00Z","name_a2s":"Uncletopia | Los Angeles | 1 | All Maps","protocol":17,"map":"cp_sunshine","folder":"tf","game":"Team Fortress","app_id":440,"player_count":0,"max_players":24,"Bots":0,"server_type":"Dedicated","server_os":"Linux","password":true,"vac":true,"version":"7961495","steam_id":85568392924469991,"keywords":["cp","nocrits","nodmgspread","uncletopia"],"game_id":440,"stv_port":27016,"stv_name":"Uncletopia | Los Angeles | 1 | All Maps | STV","players":null},{"server_id":112,"name":"Uncletopia | Los Angeles | 2 | All Maps","name_short":"lax-2","host":"lax-1.us.uncletopia.com","port":27025,"enabled":true,"region":"us-west","cc":"us","latitude":33.94279,"longitude":-118.41004,"reserved":0,"last_update":"0001-01-01T00:00:00Z","name_a2s":"Uncletopia | Los Angeles | 2 | All Maps","protocol":17,"map":"pl_barnblitz","folder":"tf","game":"Team Fortress","app_id":440,"player_count":24,"max_players":24,"Bots":0,"server_type":"Dedicated","server_os":"Linux","password":true,"vac":true,"version":"7961495","steam_id":85568392924469992,"keywords":["nocrits","nodmgspread","payload","uncletopia"],"game_id":440,"stv_port":27026,"stv_name":"Uncletopia | Los Angeles | 2 | All Maps | STV","players":[{"user_id":317,"name":"Bodhi","steam_id":76561198043199143,"connected_time":1944000000000,"state":"active","ping":64},{"user_id":329,"name":"Seshreb","steam_id":76561198846614634,"connected_time":870000000000,"state":"active","ping":57},{"user_id":325,"name":"Ryle","steam_id":76561198216682264,"connected_time":1563000000000,"state":"active","ping":43},{"user_id":253,"name":"Tang","steam_id":76561198121340574,"connected_time":5948000000000,"state":"active","ping":61},{"user_id":333,"name":"cool beans","steam_id":76561198045758072,"connected_time":244000000000,"state":"active","ping":55},{"user_id":334,"name":"don't get mad","steam_id":76561198064662875,"connected_time":192000000000,"state":"active","ping":56},{"user_id":312,"name":"emusaurus rex","steam_id":76561198991938829,"connected_time":2215000000000,"state":"active","ping":55},{"user_id":335,"name":"Sandwich","steam_id":76561199048558029,"connected_time":170000000000,"state":"active","ping":124},{"user_id":314,"name":"Silvermace","steam_id":76561198090696843,"connected_time":2074000000000,"state":"active","ping":45},{"user_id":313,"name":"duncaidan","steam_id":76561199013510313,"connected_time":2201000000000,"state":"active","ping":49},{"user_id":303,"name":"Timewaves","steam_id":76561198000186054,"connected_time":2808000000000,"state":"active","ping":48},{"user_id":336,"name":"Cam","steam_id":76561198139174433,"connected_time":167000000000,"state":"active","ping":50},{"user_id":316,"name":"l u n a r .","steam_id":76561198075773796,"connected_time":1946000000000,"state":"active","ping":64},{"user_id":337,"name":"MR.cow","steam_id":76561198169998506,"connected_time":89000000000,"state":"active","ping":68},{"user_id":338,"name":"the big Mako","steam_id":76561199108551816,"connected_time":49000000000,"state":"active","ping":55},{"user_id":291,"name":"American freedom bird","steam_id":76561198366142388,"connected_time":3330000000000,"state":"active","ping":59},{"user_id":279,"name":"Mediocre","steam_id":76561198056352693,"connected_time":4027000000000,"state":"active","ping":54},{"user_id":339,"name":"goofy","steam_id":76561198193457726,"connected_time":36000000000,"state":"active","ping":51},{"user_id":331,"name":"ShadowZiki","steam_id":76561198145930013,"connected_time":624000000000,"state":"active","ping":46},{"user_id":340,"name":"ningelo","steam_id":76561198133057951,"connected_time":22000000000,"state":"spawning","ping":83},{"user_id":341,"name":"klopse","steam_id":76561198314981454,"connected_time":22000000000,"state":"spawning","ping":86},{"user_id":327,"name":"elephant thumb","steam_id":76561198118859752,"connected_time":1383000000000,"state":"active","ping":63},{"user_id":295,"name":"LEAN \u003c3","steam_id":76561198185286203,"connected_time":3222000000000,"state":"active","ping":58},{"user_id":323,"name":"DragonFluffy","steam_id":76561198077511010,"connected_time":1778000000000,"state":"active","ping":89}]},{"server_id":324,"name":"Uncletopia | Los Angeles | 3 | All Maps","name_short":"lax-3","host":"lax-1.us.uncletopia.com","port":27035,"enabled":true,"region":"us-west","cc":"us","latitude":33.94279,"longitude":-118.41004,"reserved":0,"last_update":"0001-01-01T00:00:00Z","name_a2s":"Uncletopia | Los Angeles | 3 | All Maps","protocol":17,"map":"cp_process_final","folder":"tf","game":"Team Fortress","app_id":440,"player_count":23,"max_players":24,"Bots":0,"server_type":"Dedicated","server_os":"Linux","password":true,"vac":true,"version":"7961495","steam_id":85568392924510198,"keywords":["cp","nocrits","nodmgspread","uncletopia"],"game_id":440,"stv_port":27036,"stv_name":"Uncletopia | Los Angeles | 3 | All Maps | STV","players":[{"user_id":164,"name":"SuperEvilPasta","steam_id":76561198078258907,"connected_time":541000000000,"state":"active","ping":48},{"user_id":169,"name":"nonagon infinity","steam_id":76561198397662124,"connected_time":112000000000,"state":"active","ping":92},{"user_id":135,"name":"Hyguy","steam_id":76561198193608742,"connected_time":3099000000000,"state":"active","ping":86},{"user_id":166,"name":"rmx^-^","steam_id":76561197961779026,"connected_time":391000000000,"state":"active","ping":52},{"user_id":170,"name":"bottom pride burger","steam_id":76561198322247602,"connected_time":88000000000,"state":"active","ping":55},{"user_id":171,"name":"calculating every move","steam_id":76561198196998007,"connected_time":34000000000,"state":"active","ping":52},{"user_id":161,"name":"SolarusD","steam_id":76561198029279861,"connected_time":1217000000000,"state":"active","ping":49},{"user_id":104,"name":"Star_Mann_Jr.","steam_id":76561198071148924,"connected_time":4643000000000,"state":"active","ping":68},{"user_id":160,"name":"knight of light","steam_id":76561198025551646,"connected_time":1259000000000,"state":"active","ping":94},{"user_id":137,"name":"Thequirka","steam_id":76561198968058652,"connected_time":3079000000000,"state":"active","ping":76},{"user_id":155,"name":"Mugen","steam_id":76561198411174773,"connected_time":1568000000000,"state":"active","ping":49},{"user_id":139,"name":"Sacknana","steam_id":76561199001811226,"connected_time":3072000000000,"state":"active","ping":94},{"user_id":156,"name":"nae nae goblin68","steam_id":76561199115259028,"connected_time":1568000000000,"state":"active","ping":124},{"user_id":129,"name":"[El Fail] MR.BadassMCLee","steam_id":76561198043787818,"connected_time":3803000000000,"state":"active","ping":59},{"user_id":149,"name":"no vc no c","steam_id":76561197989503095,"connected_time":1777000000000,"state":"active","ping":159},{"user_id":159,"name":"Name","steam_id":76561199111748012,"connected_time":1406000000000,"state":"active","ping":113},{"user_id":120,"name":"Booba Feet","steam_id":76561198072094942,"connected_time":4287000000000,"state":"active","ping":89},{"user_id":145,"name":"hoOmIN","steam_id":76561198334947079,"connected_time":2625000000000,"state":"active","ping":44},{"user_id":157,"name":"color gibus enjoyer","steam_id":76561198253531160,"connected_time":1528000000000,"state":"active","ping":60},{"user_id":163,"name":"It's a Doggydog World","steam_id":76561198018232414,"connected_time":753000000000,"state":"active","ping":68},{"user_id":132,"name":"Helloppl65","steam_id":76561198272420658,"connected_time":3349000000000,"state":"active","ping":71},{"user_id":143,"name":"Hound From Heck","steam_id":76561198087764017,"connected_time":2683000000000,"state":"active","ping":80},{"user_id":168,"name":"Majestic-A","steam_id":76561198988062101,"connected_time":208000000000,"state":"active","ping":63}]},{"server_id":25,"name":"Uncletopia | Los Angeles | 4 | Stopwatch Beta","name_short":"lax-4","host":"lax-1.us.uncletopia.com","port":27045,"enabled":true,"region":"us-west","cc":"us","latitude":33.94279,"longitude":-118.41004,"reserved":0,"last_update":"0001-01-01T00:00:00Z","name_a2s":"Uncletopia | Los Angeles | 4 | Stopwatch Beta","protocol":17,"map":"pl_upward","folder":"tf","game":"Team Fortress","app_id":440,"player_count":0,"max_players":24,"Bots":0,"server_type":"Dedicated","server_os":"Linux","password":true,"vac":true,"version":"7961495","steam_id":85568392924510199,"keywords":["nocrits","nodmgspread","payload","uncletopia"],"game_id":440,"stv_port":27046,"stv_name":"Uncletopia | Los Angeles | 4 | Stopwatch Beta | STV","players":null},{"server_id":11,"name":"Uncletopia | London | 1 | All Maps","name_short":"lon-1","host":"lon-1.uk.uncletopia.com","port":27015,"enabled":true,"region":"eu","cc":"gb","latitude":51.509865,"longitude":-0.118092,"reserved":0,"last_update":"0001-01-01T00:00:00Z","name_a2s":"Uncletopia | London | 1 | All Maps","protocol":17,"map":"pl_snowycoast","folder":"tf","game":"Team Fortress","app_id":440,"player_count":24,"max_players":24,"Bots":0,"server_type":"Dedicated","server_os":"Linux","password":true,"vac":true,"version":"7961495","steam_id":85568392924367362,"keywords":["nocrits","nodmgspread","payload","uncletopia"],"game_id":440,"stv_port":27016,"stv_name":"Uncletopia | London | 1 | All Maps | STV","players":[{"user_id":532,"name":"quickfast","steam_id":76561199438900919,"connected_time":101000000000,"state":"active","ping":42},{"user_id":509,"name":"â™¥à¶žlilyà¶žâ™¥","steam_id":76561198049840460,"connected_time":764000000000,"state":"active","ping":57},{"user_id":500,"name":"halow","steam_id":76561198061505163,"connected_time":1038000000000,"state":"active","ping":100},{"user_id":533,"name":"cez","steam_id":76561198361380956,"connected_time":33000000000,"state":"active","ping":80},{"user_id":503,"name":"Nessieling","steam_id":76561198083556891,"connected_time":1018000000000,"state":"active","ping":89},{"user_id":492,"name":"SOPHIIEE","steam_id":76561198443798981,"connected_time":2181000000000,"state":"active","ping":49},{"user_id":505,"name":"svepitos","steam_id":76561198287351235,"connected_time":967000000000,"state":"active","ping":70},{"user_id":518,"name":"Tort","steam_id":76561198329646769,"connected_time":645000000000,"state":"active","ping":54},{"user_id":516,"name":"Transbian mommy GF","steam_id":76561198153233822,"connected_time":683000000000,"state":"active","ping":155},{"user_id":454,"name":"gnarly business","steam_id":76561198832688767,"connected_time":4867000000000,"state":"active","ping":56},{"user_id":514,"name":"O'brien","steam_id":76561198289339403,"connected_time":705000000000,"state":"active","ping":163},{"user_id":449,"name":"Fobiwa","steam_id":76561198081968812,"connected_time":5026000000000,"state":"active","ping":82},{"user_id":489,"name":"AWildTamim","steam_id":76561198048060652,"connected_time":2300000000000,"state":"active","ping":44},{"user_id":517,"name":"IMAP USAY","steam_id":76561199401283123,"connected_time":659000000000,"state":"active","ping":45},{"user_id":519,"name":"smoking hash till the ashes","steam_id":76561198273358760,"connected_time":622000000000,"state":"active","ping":59},{"user_id":520,"name":"ein","steam_id":76561198152162834,"connected_time":581000000000,"state":"active","ping":103},{"user_id":525,"name":"CINO","steam_id":76561198363841749,"connected_time":559000000000,"state":"active","ping":88},{"user_id":530,"name":"jonesy","steam_id":76561198073975078,"connected_time":142000000000,"state":"active","ping":57},{"user_id":528,"name":"Rai_to","steam_id":76561199013720618,"connected_time":306000000000,"state":"active","ping":89},{"user_id":499,"name":"123","steam_id":76561198113733477,"connected_time":1042000000000,"state":"active","ping":64},{"user_id":524,"name":"Ch4bby","steam_id":76561198058792875,"connected_time":560000000000,"state":"active","ping":50},{"user_id":475,"name":"RedFog","steam_id":76561198284713081,"connected_time":3660000000000,"state":"active","ping":48},{"user_id":527,"name":"janvaljen","steam_id":76561198017781450,"connected_time":549000000000,"state":"active","ping":109},{"user_id":531,"name":"Aaron","steam_id":76561197990046953,"connected_time":142000000000,"state":"active","ping":60}]},{"server_id":114,"name":"Uncletopia | London | 2 | All Maps","name_short":"lon-2","host":"lon-1.uk.uncletopia.com","port":27025,"enabled":true,"region":"eu","cc":"gb","latitude":51.509865,"longitude":-0.118092,"reserved":0,"last_update":"0001-01-01T00:00:00Z","name_a2s":"Uncletopia | London | 2 | All Maps","protocol":17,"map":"pl_borneo","folder":"tf","game":"Team Fortress","app_id":440,"player_count":24,"max_players":24,"Bots":0,"server_type":"Dedicated","server_os":"Linux","password":true,"vac":true,"version":"7961495","steam_id":85568392924470941,"keywords":["nocrits","nodmgspread","payload","uncletopia"],"game_id":440,"stv_port":27026,"stv_name":"Uncletopia | London | 2 | All Maps | STV","players":[{"user_id":247,"name":"After8","steam_id":76561198090750865,"connected_time":8506000000000,"state":"active","ping":71},{"user_id":318,"name":"fodace","steam_id":76561198442803577,"connected_time":1869000000000,"state":"active","ping":71},{"user_id":204,"name":"Snake-chan","steam_id":76561199044755854,"connected_time":10527000000000,"state":"active","ping":75},{"user_id":319,"name":"r06u3","steam_id":76561198254099253,"connected_time":1828000000000,"state":"active","ping":171},{"user_id":301,"name":"Vermin","steam_id":76561198045527771,"connected_time":3261000000000,"state":"active","ping":82},{"user_id":268,"name":"Plep","steam_id":76561198840259819,"connected_time":7347000000000,"state":"active","ping":59},{"user_id":315,"name":"CHAOTIC UGLY MIX 001 (DJ MIX)","steam_id":76561198193357946,"connected_time":1997000000000,"state":"active","ping":103},{"user_id":310,"name":"rets","steam_id":76561198061551392,"connected_time":2561000000000,"state":"active","ping":62},{"user_id":322,"name":"fence_","steam_id":76561198150386379,"connected_time":1690000000000,"state":"active","ping":46},{"user_id":320,"name":"sBLOCKER  85","steam_id":76561198939078994,"connected_time":1761000000000,"state":"active","ping":150},{"user_id":317,"name":"krayy (she/her)","steam_id":76561198035037830,"connected_time":1982000000000,"state":"active","ping":53},{"user_id":267,"name":"Vratis","steam_id":76561198062957725,"connected_time":7442000000000,"state":"active","ping":81},{"user_id":339,"name":"î­ Sir-Ignyr î®","steam_id":76561198043828572,"connected_time":647000000000,"state":"active","ping":44},{"user_id":333,"name":"Sam","steam_id":76561198203070687,"connected_time":924000000000,"state":"active","ping":91},{"user_id":303,"name":"Starach","steam_id":76561198084530972,"connected_time":3074000000000,"state":"active","ping":58},{"user_id":335,"name":"IS3BITEL","steam_id":76561199178060325,"connected_time":737000000000,"state":"active","ping":78},{"user_id":324,"name":"Ash","steam_id":76561198148738525,"connected_time":1665000000000,"state":"active","ping":100},{"user_id":325,"name":"Xriasp","steam_id":76561198104721321,"connected_time":1627000000000,"state":"active","ping":105},{"user_id":340,"name":"cora","steam_id":76561199474154775,"connected_time":225000000000,"state":"active","ping":57},{"user_id":332,"name":"MaeMae","steam_id":76561198252524452,"connected_time":1074000000000,"state":"active","ping":46},{"user_id":331,"name":"Lyell","steam_id":76561198350329389,"connected_time":1457000000000,"state":"active","ping":85},{"user_id":330,"name":"big al","steam_id":76561198800662675,"connected_time":1482000000000,"state":"active","ping":60},{"user_id":276,"name":"zek","steam_id":76561198862763731,"connected_time":6147000000000,"state":"active","ping":65},{"user_id":242,"name":"Boki","steam_id":76561198044553351,"connected_time":8903000000000,"state":"active","ping":61}]},{"server_id":320,"name":"Uncletopia | London | 3 | All Maps","name_short":"lon-3","host":"lon-1.uk.uncletopia.com","port":27035,"enabled":true,"region":"eu","cc":"gb","latitude":51.509865,"longitude":-0.118092,"reserved":0,"last_update":"0001-01-01T00:00:00Z","name_a2s":"Uncletopia | London | 3 | All Maps","protocol":17,"map":"pl_snowycoast","folder":"tf","game":"Team Fortress","app_id":440,"player_count":5,"max_players":24,"Bots":0,"server_type":"Dedicated","server_os":"Linux","password":true,"vac":true,"version":"7961495","steam_id":85568392924510192,"keywords":["nocrits","nodmgspread","payload","uncletopia"],"game_id":440,"stv_port":27036,"stv_name":"Uncletopia | London | 3 | All Maps | STV","players":[{"user_id":257,"name":"Character Development","steam_id":76561198164877219,"connected_time":72000000000,"state":"active","ping":38},{"user_id":256,"name":"Hot._.Chocopops","steam_id":76561199025668594,"connected_time":200000000000,"state":"active","ping":86},{"user_id":258,"name":"Andale","steam_id":76561198326236983,"connected_time":57000000000,"state":"active","ping":56},{"user_id":245,"name":"EPTTV","steam_id":76561198284169096,"connected_time":703000000000,"state":"active","ping":65},{"user_id":248,"name":"Hydra","steam_id":76561198090614881,"connected_time":602000000000,"state":"active","ping":74}]},{"server_id":321,"name":"Uncletopia | London | 4 | All Maps","name_short":"lon-4","host":"lon-1.uk.uncletopia.com","port":27045,"enabled":true,"region":"eu","cc":"gb","latitude":51.509865,"longitude":-0.118092,"reserved":0,"last_update":"0001-01-01T00:00:00Z","name_a2s":"Uncletopia | London | 4 | All Maps","protocol":17,"map":"cp_snakewater_final1","folder":"tf","game":"Team Fortress","app_id":440,"player_count":23,"max_players":24,"Bots":0,"server_type":"Dedicated","server_os":"Linux","password":true,"vac":true,"version":"7961495","steam_id":85568392924510193,"keywords":["cp","nocrits","nodmgspread","uncletopia"],"game_id":440,"stv_port":27046,"stv_name":"Uncletopia | London | 4 | All Maps | STV","players":[{"user_id":572,"name":"ArcX","steam_id":76561198805049375,"connected_time":365000000000,"state":"active","ping":61},{"user_id":551,"name":"Maximilian1359","steam_id":76561198152439608,"connected_time":1968000000000,"state":"active","ping":66},{"user_id":483,"name":"wasto-/-â„¢","steam_id":76561198102888038,"connected_time":7282000000000,"state":"active","ping":60},{"user_id":577,"name":"SPOOKY_","steam_id":76561198073395404,"connected_time":220000000000,"state":"active","ping":76},{"user_id":566,"name":"t0ast","steam_id":76561198141722573,"connected_time":1118000000000,"state":"active","ping":30},{"user_id":579,"name":"Emerald","steam_id":76561199141384216,"connected_time":16000000000,"state":"active","ping":51},{"user_id":575,"name":"Linguini","steam_id":76561198327750625,"connected_time":276000000000,"state":"active","ping":35},{"user_id":556,"name":"Perci","steam_id":76561198097789669,"connected_time":1297000000000,"state":"active","ping":69},{"user_id":546,"name":"cheeky little scran","steam_id":76561198981087092,"connected_time":2118000000000,"state":"active","ping":66},{"user_id":549,"name":"Oak","steam_id":76561198067315672,"connected_time":2008000000000,"state":"active","ping":47},{"user_id":568,"name":"One-Face","steam_id":76561197999384826,"connected_time":819000000000,"state":"active","ping":61},{"user_id":578,"name":"MILK cheyk","steam_id":76561198035380064,"connected_time":162000000000,"state":"active","ping":48},{"user_id":570,"name":"armadillo","steam_id":76561198324656652,"connected_time":653000000000,"state":"active","ping":50},{"user_id":563,"name":"lemon pene","steam_id":76561198206954985,"connected_time":1165000000000,"state":"active","ping":120},{"user_id":529,"name":"yer_nerd","steam_id":76561199435454093,"connected_time":3554000000000,"state":"active","ping":130},{"user_id":532,"name":"KnugenIV","steam_id":76561198127091993,"connected_time":3460000000000,"state":"active","ping":58},{"user_id":569,"name":"e36 1.8","steam_id":76561198134203031,"connected_time":801000000000,"state":"active","ping":59},{"user_id":559,"name":"I333I","steam_id":76561198969286813,"connected_time":1259000000000,"state":"active","ping":71},{"user_id":574,"name":"U1F","steam_id":76561198053700703,"connected_time":316000000000,"state":"active","ping":44},{"user_id":576,"name":"(no monitor) ayylien","steam_id":76561198042127970,"connected_time":272000000000,"state":"active","ping":139},{"user_id":571,"name":"akakez","steam_id":76561198095432821,"connected_time":601000000000,"state":"active","ping":118},{"user_id":560,"name":"DepressedOnion79","steam_id":76561198025771360,"connected_time":1216000000000,"state":"active","ping":72},{"user_id":565,"name":"Petight","steam_id":76561197999438798,"connected_time":1159000000000,"state":"active","ping":32}]},{"server_id":21,"name":"Uncletopia | London | 5 | All Maps","name_short":"lon-5","host":"lon-1.uk.uncletopia.com","port":27055,"enabled":true,"region":"eu","cc":"gb","latitude":51.509865,"longitude":-0.118092,"reserved":0,"last_update":"0001-01-01T00:00:00Z","name_a2s":"Uncletopia | London | 5 | All Maps","protocol":17,"map":"pl_rumford_event","folder":"tf","game":"Team Fortress","app_id":440,"player_count":24,"max_players":24,"Bots":0,"server_type":"Dedicated","server_os":"Linux","password":true,"vac":true,"version":"7961495","steam_id":85568392924742829,"keywords":["nocrits","nodmgspread","payload","uncletopia"],"game_id":440,"stv_port":27056,"stv_name":"Uncletopia | London | 5 | All Maps | STV","players":[{"user_id":280,"name":"Xpload","steam_id":76561198188505089,"connected_time":4296000000000,"state":"active","ping":45},{"user_id":358,"name":"Welder","steam_id":76561198355300561,"connected_time":73000000000,"state":"active","ping":71},{"user_id":341,"name":"Skittles","steam_id":76561198024077569,"connected_time":643000000000,"state":"active","ping":82},{"user_id":282,"name":"Stern","steam_id":76561198065421312,"connected_time":4272000000000,"state":"active","ping":43},{"user_id":292,"name":"The Muffin Returns","steam_id":76561198040621212,"connected_time":4075000000000,"state":"active","ping":83},{"user_id":356,"name":"dgz","steam_id":76561197979345019,"connected_time":118000000000,"state":"active","ping":98},{"user_id":351,"name":"TJ1212","steam_id":76561199013575313,"connected_time":161000000000,"state":"active","ping":74},{"user_id":276,"name":"Rodak","steam_id":76561199135986344,"connected_time":4486000000000,"state":"active","ping":74},{"user_id":352,"name":"sosor","steam_id":76561199121520983,"connected_time":156000000000,"state":"active","ping":125},{"user_id":353,"name":"Interclintonental","steam_id":76561198286824203,"connected_time":148000000000,"state":"active","ping":46},{"user_id":363,"name":"Wensleydale","steam_id":76561198163571196,"connected_time":21000000000,"state":"active","ping":56},{"user_id":349,"name":"qcHeavy","steam_id":76561198072218040,"connected_time":226000000000,"state":"active","ping":70},{"user_id":344,"name":"Salih","steam_id":76561198287934839,"connected_time":528000000000,"state":"active","ping":65},{"user_id":345,"name":"Greenbeans","steam_id":76561197962599085,"connected_time":518000000000,"state":"active","ping":54},{"user_id":360,"name":"â™¥ImWithMilk","steam_id":76561198269577569,"connected_time":50000000000,"state":"active","ping":49},{"user_id":332,"name":"Tout Petit Cerveau","steam_id":76561198120837915,"connected_time":1215000000000,"state":"active","ping":41},{"user_id":359,"name":"zherny","steam_id":76561198027033926,"connected_time":69000000000,"state":"active","ping":46},{"user_id":355,"name":"Rectal Nectar","steam_id":76561198077975012,"connected_time":142000000000,"state":"active","ping":45},{"user_id":361,"name":"[503. ]captain swiftfingers","steam_id":76561198043684517,"connected_time":38000000000,"state":"spawning","ping":59},{"user_id":315,"name":"ÅEPEK02","steam_id":76561198230715748,"connected_time":2597000000000,"state":"active","ping":109},{"user_id":348,"name":"Max Power","steam_id":76561198019269089,"connected_time":250000000000,"state":"active","ping":59},{"user_id":316,"name":"Sommelier_","steam_id":76561198354180808,"connected_time":2592000000000,"state":"active","ping":75},{"user_id":362,"name":"Jayem","steam_id":76561198076470685,"connected_time":25000000000,"state":"spawning","ping":45},{"user_id":333,"name":"Nittugai","steam_id":76561198067366462,"connected_time":997000000000,"state":"active","ping":71}]},{"server_id":22,"name":"Uncletopia | London | 6 | All Maps","name_short":"lon-6","host":"lon-1.uk.uncletopia.com","port":27065,"enabled":true,"region":"eu","cc":"gb","latitude":51.509865,"longitude":-0.118092,"reserved":0,"last_update":"0001-01-01T00:00:00Z","name_a2s":"Uncletopia | London | 6 | All Maps","protocol":17,"map":"ctf_turbine","folder":"tf","game":"Team Fortress","app_id":440,"player_count":24,"max_players":24,"Bots":0,"server_type":"Dedicated","server_os":"Linux","password":true,"vac":true,"version":"7961495","steam_id":85568392924742830,"keywords":["ctf","nocrits","nodmgspread","uncletopia"],"game_id":440,"stv_port":27066,"stv_name":"Uncletopia | London | 6 | All Maps | STV","players":[{"user_id":615,"name":"InvaderCow","steam_id":76561199236771558,"connected_time":3078000000000,"state":"active","ping":154},{"user_id":617,"name":"Aarquus","steam_id":76561198006689878,"connected_time":2527000000000,"state":"active","ping":57},{"user_id":626,"name":"Faustino","steam_id":76561198061771785,"connected_time":2400000000000,"state":"active","ping":82},{"user_id":610,"name":"Dogdigger","steam_id":76561198032893130,"connected_time":3329000000000,"state":"active","ping":98},{"user_id":616,"name":"alan","steam_id":76561198306947435,"connected_time":2995000000000,"state":"active","ping":58},{"user_id":639,"name":"Jack","steam_id":76561198107539027,"connected_time":516000000000,"state":"active","ping":70},{"user_id":636,"name":"L","steam_id":76561198120728436,"connected_time":794000000000,"state":"active","ping":87},{"user_id":635,"name":"Fredde5","steam_id":76561198102482063,"connected_time":989000000000,"state":"active","ping":76},{"user_id":643,"name":"Grillem Dafoe","steam_id":76561198306874574,"connected_time":468000000000,"state":"active","ping":65},{"user_id":594,"name":"The Subway Scientist","steam_id":76561198193757646,"connected_time":4569000000000,"state":"active","ping":57},{"user_id":653,"name":"Michael","steam_id":76561198003146906,"connected_time":97000000000,"state":"active","ping":40},{"user_id":650,"name":"i am bread","steam_id":76561199180277321,"connected_time":187000000000,"state":"active","ping":56},{"user_id":623,"name":"Mike Wazowski","steam_id":76561198060313793,"connected_time":2428000000000,"state":"active","ping":70},{"user_id":624,"name":"George","steam_id":76561199056889980,"connected_time":2427000000000,"state":"active","ping":75},{"user_id":645,"name":"Adam","steam_id":76561198259467867,"connected_time":439000000000,"state":"active","ping":96},{"user_id":607,"name":"Mrbluuub","steam_id":76561199273847084,"connected_time":3445000000000,"state":"active","ping":84},{"user_id":629,"name":"Castellan","steam_id":76561197994861142,"connected_time":2289000000000,"state":"active","ping":70},{"user_id":648,"name":"I.C. Wiener","steam_id":76561197999912254,"connected_time":388000000000,"state":"active","ping":100},{"user_id":654,"name":"twitch.tv/zxcghoul2007","steam_id":76561198349648942,"connected_time":84000000000,"state":"active","ping":75},{"user_id":625,"name":"Basmatty","steam_id":76561198026752222,"connected_time":2423000000000,"state":"active","ping":54},{"user_id":652,"name":"Diggity","steam_id":76561198297157085,"connected_time":126000000000,"state":"active","ping":44},{"user_id":613,"name":"Niko","steam_id":76561198436817109,"connected_time":3237000000000,"state":"active","ping":59},{"user_id":588,"name":"Where Funny?","steam_id":76561199061519126,"connected_time":5125000000000,"state":"active","ping":149},{"user_id":649,"name":"SÊŸÉªá´˜EÉ´OÊ€","steam_id":76561197967931911,"connected_time":382000000000,"state":"active","ping":108}]},{"server_id":40,"name":"Uncletopia | London | 7 | No Payload","name_short":"lon-7","host":"lon-1.uk.uncletopia.com","port":27075,"enabled":true,"region":"eu","cc":"gb","latitude":51.509865,"longitude":-0.118092,"reserved":0,"last_update":"0001-01-01T00:00:00Z","name_a2s":"Uncletopia | London | 7 | No Payload","protocol":17,"map":"plr_nightfall_final","folder":"tf","game":"Team Fortress","app_id":440,"player_count":0,"max_players":24,"Bots":0,"server_type":"Dedicated","server_os":"Linux","password":true,"vac":true,"version":"7961495","steam_id":85568392924964314,"keywords":["nocrits","nodmgspread","payload","uncletopia"],"game_id":440,"stv_port":27076,"stv_name":"Uncletopia | London | 7 | No Payload | STV","players":null},{"server_id":41,"name":"Uncletopia | London | 8 | Community","name_short":"lon-8","host":"lon-1.uk.uncletopia.com","port":27085,"enabled":true,"region":"eu","cc":"gb","latitude":51.509865,"longitude":-0.118092,"reserved":0,"last_update":"0001-01-01T00:00:00Z","name_a2s":"Uncletopia | London | 8 | Community","protocol":17,"map":"workshop/cp_indulge.ugc528106646","folder":"tf","game":"Team Fortress","app_id":440,"player_count":2,"max_players":24,"Bots":0,"server_type":"Dedicated","server_os":"Linux","password":true,"vac":true,"version":"7961495","steam_id":85568392924964315,"keywords":["cp","nocrits","nodmgspread","uncletopia"],"game_id":440,"stv_port":27086,"stv_name":"Uncletopia | London | 8 | Community | STV","players":[{"user_id":27,"name":"Silverstorm","steam_id":76561198118175267,"connected_time":2618000000000,"state":"active","ping":65},{"user_id":28,"name":"NalastorNull","steam_id":76561199053001015,"connected_time":2525000000000,"state":"active","ping":61}]},{"server_id":300,"name":"Uncletopia | MontrÃ©al | 1 | All Maps","name_short":"mtl-1","host":"mtl-1.ca.uncletopia.com","port":27015,"enabled":true,"region":"us-east","cc":"ca","latitude":45.50889,"longitude":-73.56167,"reserved":0,"last_update":"0001-01-01T00:00:00Z","name_a2s":"","protocol":0,"map":"","folder":"","game":"","app_id":0,"player_count":0,"max_players":0,"Bots":0,"server_type":"","server_os":"","password":false,"vac":false,"version":"","steam_id":0,"keywords":null,"game_id":0,"stv_port":0,"stv_name":"","players":null},{"server_id":301,"name":"Uncletopia | MontrÃ©al | 2 | All Maps","name_short":"mtl-2","host":"mtl-1.ca.uncletopia.com","port":27025,"enabled":true,"region":"us-east","cc":"ca","latitude":45.50889,"longitude":-73.56167,"reserved":0,"last_update":"0001-01-01T00:00:00Z","name_a2s":"","protocol":0,"map":"","folder":"","game":"","app_id":0,"player_count":3,"max_players":0,"Bots":0,"server_type":"","server_os":"","password":false,"vac":false,"version":"","steam_id":0,"keywords":null,"game_id":0,"stv_port":0,"stv_name":"","players":[{"user_id":86,"name":"vertice","steam_id":76561199117182718,"connected_time":1774000000000,"state":"active","ping":120},{"user_id":83,"name":"baguette","steam_id":76561198209813328,"connected_time":2093000000000,"state":"active","ping":74},{"user_id":88,"name":"Evillou","steam_id":76561198010395648,"connected_time":1720000000000,"state":"active","ping":52}]},{"server_id":302,"name":"Uncletopia | MontrÃ©al | 3 | All Maps","name_short":"mtl-3","host":"mtl-1.ca.uncletopia.com","port":27035,"enabled":true,"region":"us-east","cc":"ca","latitude":45.50889,"longitude":-73.56167,"reserved":0,"last_update":"0001-01-01T00:00:00Z","name_a2s":"","protocol":0,"map":"","folder":"","game":"","app_id":0,"player_count":0,"max_players":0,"Bots":0,"server_type":"","server_os":"","password":false,"vac":false,"version":"","steam_id":0,"keywords":null,"game_id":0,"stv_port":0,"stv_name":"","players":null},{"server_id":303,"name":"Uncletopia | MontrÃ©al | 4 | No Payload","name_short":"mtl-4","host":"mtl-1.ca.uncletopia.com","port":27045,"enabled":true,"region":"us-east","cc":"ca","latitude":45.50889,"longitude":-73.56167,"reserved":0,"last_update":"0001-01-01T00:00:00Z","name_a2s":"","protocol":0,"map":"","folder":"","game":"","app_id":0,"player_count":5,"max_players":0,"Bots":0,"server_type":"","server_os":"","password":false,"vac":false,"version":"","steam_id":0,"keywords":null,"game_id":0,"stv_port":0,"stv_name":"","players":[{"user_id":72,"name":"ShadowWasUhOh","steam_id":76561198400361935,"connected_time":1389000000000,"state":"active","ping":77},{"user_id":69,"name":"BL4CKPL4T3","steam_id":76561198983185163,"connected_time":2083000000000,"state":"active","ping":164},{"user_id":73,"name":"ptxskywalker","steam_id":76561198982308940,"connected_time":1377000000000,"state":"active","ping":100},{"user_id":75,"name":"tools","steam_id":76561199010542612,"connected_time":1207000000000,"state":"active","ping":60},{"user_id":48,"name":"Your Local Festive Furry","steam_id":76561199030190462,"connected_time":4064000000000,"state":"active","ping":58}]},{"server_id":13,"name":"Uncletopia | New York City | 1 | All Maps","name_short":"nyc-1","host":"nyc-1.us.uncletopia.com","port":27015,"enabled":true,"region":"us-east","cc":"us","latitude":40.73061,"longitude":-73.93524,"reserved":0,"last_update":"0001-01-01T00:00:00Z","name_a2s":"Uncletopia | New York City | 1 | All Maps","protocol":17,"map":"pl_upward","folder":"tf","game":"Team Fortress","app_id":440,"player_count":24,"max_players":24,"Bots":0,"server_type":"Dedicated","server_os":"Linux","password":true,"vac":true,"version":"7961495","steam_id":85568392924469993,"keywords":["nocrits","nodmgspread","payload","uncletopia"],"game_id":440,"stv_port":27016,"stv_name":"Uncletopia | New York City | 1 | All Maps | STV","players":[{"user_id":257,"name":"Where's my Laptop?","steam_id":76561198860068961,"connected_time":1233000000000,"state":"active","ping":40},{"user_id":265,"name":"THE WALL","steam_id":76561199084320480,"connected_time":864000000000,"state":"active","ping":46},{"user_id":271,"name":"RoyuGO","steam_id":76561198317110281,"connected_time":11000000000,"state":"spawning","ping":89},{"user_id":266,"name":"x","steam_id":76561198966980576,"connected_time":656000000000,"state":"active","ping":45},{"user_id":200,"name":"Mecha","steam_id":76561198014927379,"connected_time":6088000000000,"state":"active","ping":70},{"user_id":201,"name":"Devoid","steam_id":76561198254039012,"connected_time":5883000000000,"state":"active","ping":32},{"user_id":255,"name":"Connection","steam_id":76561199230740231,"connected_time":1623000000000,"state":"active","ping":55},{"user_id":248,"name":"Mayor McCheese","steam_id":76561198095788861,"connected_time":2801000000000,"state":"active","ping":73},{"user_id":258,"name":"._.","steam_id":76561198300316801,"connected_time":1208000000000,"state":"active","ping":34},{"user_id":133,"name":"Ejaculation Zach","steam_id":76561198203765200,"connected_time":11663000000000,"state":"active","ping":74},{"user_id":270,"name":"Gir Gaming","steam_id":76561198156782359,"connected_time":398000000000,"state":"active","ping":52},{"user_id":264,"name":"VioletSpecs","steam_id":76561198089366466,"connected_time":1006000000000,"state":"active","ping":69},{"user_id":188,"name":"TheGingerOne","steam_id":76561198354203847,"connected_time":7580000000000,"state":"active","ping":85},{"user_id":235,"name":"GooseorMoose","steam_id":76561198128886267,"connected_time":3136000000000,"state":"active","ping":83},{"user_id":268,"name":"Grebnedulgo The Elder","steam_id":76561199123285878,"connected_time":565000000000,"state":"active","ping":65},{"user_id":250,"name":"MaidofLight","steam_id":76561198069010944,"connected_time":2398000000000,"state":"active","ping":85},{"user_id":260,"name":"EASTER APPLE","steam_id":76561199445100850,"connected_time":1147000000000,"state":"active","ping":65},{"user_id":157,"name":"Myn","steam_id":76561198055438857,"connected_time":10562000000000,"state":"active","ping":57},{"user_id":262,"name":"\"that\" guy","steam_id":76561198079434304,"connected_time":1094000000000,"state":"active","ping":74},{"user_id":246,"name":"concrete_car","steam_id":76561198388207363,"connected_time":2966000000000,"state":"active","ping":66},{"user_id":263,"name":"Nic0","steam_id":76561198305690218,"connected_time":1049000000000,"state":"active","ping":58},{"user_id":223,"name":"HuntBunt","steam_id":76561199055381357,"connected_time":4095000000000,"state":"active","ping":99},{"user_id":229,"name":"The State of Yo","steam_id":76561198057420746,"connected_time":3302000000000,"state":"active","ping":83},{"user_id":253,"name":"CRAZY engineer","steam_id":76561198887937902,"connected_time":2173000000000,"state":"active","ping":49}]},{"server_id":14,"name":"Uncletopia | New York City | 2 | All Maps","name_short":"nyc-2","host":"nyc-1.us.uncletopia.com","port":27025,"enabled":true,"region":"us-east","cc":"us","latitude":40.73061,"longitude":-73.93524,"reserved":0,"last_update":"0001-01-01T00:00:00Z","name_a2s":"Uncletopia | New York City | 2 | All Maps","protocol":17,"map":"cp_steel","folder":"tf","game":"Team Fortress","app_id":440,"player_count":24,"max_players":24,"Bots":0,"server_type":"Dedicated","server_os":"Linux","password":true,"vac":true,"version":"7961495","steam_id":85568392924469994,"keywords":["cp","nocrits","nodmgspread","uncletopia"],"game_id":440,"stv_port":27026,"stv_name":"Uncletopia | New York City | 2 | All Maps | STV","players":[{"user_id":308,"name":"tiananmensquare1989","steam_id":76561199076837870,"connected_time":146000000000,"state":"active","ping":84},{"user_id":299,"name":"Telomerase","steam_id":76561198095792685,"connected_time":755000000000,"state":"active","ping":74},{"user_id":309,"name":"sugoiboi48","steam_id":76561198060056280,"connected_time":128000000000,"state":"active","ping":63},{"user_id":292,"name":"Judge Holden","steam_id":76561198322479866,"connected_time":1463000000000,"state":"active","ping":36},{"user_id":310,"name":"boe jiden","steam_id":76561198041048289,"connected_time":94000000000,"state":"active","ping":41},{"user_id":311,"name":"NoodlesAndMore","steam_id":76561199485977993,"connected_time":88000000000,"state":"active","ping":79},{"user_id":301,"name":"serialnumber435","steam_id":76561199466187650,"connected_time":643000000000,"state":"active","ping":163},{"user_id":260,"name":"vyx","steam_id":76561198037205391,"connected_time":5344000000000,"state":"active","ping":65},{"user_id":315,"name":"HIDEN","steam_id":76561199024853268,"connected_time":33000000000,"state":"active","ping":104},{"user_id":313,"name":"Epickario","steam_id":76561199068338969,"connected_time":73000000000,"state":"active","ping":120},{"user_id":293,"name":"Sire Salty","steam_id":76561198079639072,"connected_time":1219000000000,"state":"active","ping":50},{"user_id":302,"name":"Deph Pyro","steam_id":76561198065033546,"connected_time":529000000000,"state":"active","ping":84},{"user_id":241,"name":"grub","steam_id":76561198366984642,"connected_time":6543000000000,"state":"active","ping":109},{"user_id":314,"name":"Chezaus","steam_id":76561198317397837,"connected_time":71000000000,"state":"active","ping":75},{"user_id":305,"name":"FUCK LOVE","steam_id":76561198993732551,"connected_time":405000000000,"state":"active","ping":48},{"user_id":316,"name":"froge","steam_id":76561198304959766,"connected_time":12000000000,"state":"active","ping":223},{"user_id":273,"name":"ThePlagueDucktor","steam_id":76561198155884968,"connected_time":4889000000000,"state":"active","ping":72},{"user_id":317,"name":"all_classics","steam_id":76561198012738913,"connected_time":6000000000,"state":"spawning","ping":44},{"user_id":291,"name":"gÃ¶tÃ³ttir sokkar","steam_id":76561197999657118,"connected_time":1496000000000,"state":"active","ping":66},{"user_id":289,"name":"0","steam_id":76561198057101042,"connected_time":2277000000000,"state":"active","ping":77},{"user_id":276,"name":"space man","steam_id":76561198066333670,"connected_time":4769000000000,"state":"active","ping":71},{"user_id":318,"name":"Thanatos","steam_id":76561198263049260,"connected_time":1000000000,"state":"spawning","ping":30},{"user_id":268,"name":"Professor Sen","steam_id":76561199366084780,"connected_time":5057000000000,"state":"active","ping":68},{"user_id":306,"name":"CockPuncher","steam_id":76561198014899181,"connected_time":384000000000,"state":"active","ping":55}]},{"server_id":15,"name":"Uncletopia | New York City | 3 | Stopwatch Beta","name_short":"nyc-3","host":"nyc-1.us.uncletopia.com","port":27035,"enabled":true,"region":"us-east","cc":"us","latitude":40.73061,"longitude":-73.93524,"reserved":0,"last_update":"0001-01-01T00:00:00Z","name_a2s":"Uncletopia | New York City | 3 | Stopwatch Beta","protocol":17,"map":"koth_lakeside_final","folder":"tf","game":"Team Fortress","app_id":440,"player_count":0,"max_players":24,"Bots":0,"server_type":"Dedicated","server_os":"Linux","password":true,"vac":true,"version":"7961495","steam_id":85568392924742820,"keywords":["cp","nocrits","nodmgspread","uncletopia"],"game_id":440,"stv_port":27036,"stv_name":"Uncletopia | New York City | 3 | Stopwatch Beta | STV","players":null},{"server_id":16,"name":"Uncletopia | New York City | 4 | Community","name_short":"nyc-4","host":"nyc-1.us.uncletopia.com","port":27045,"enabled":true,"region":"us-east","cc":"us","latitude":40.73061,"longitude":-73.93524,"reserved":0,"last_update":"0001-01-01T00:00:00Z","name_a2s":"Uncletopia | New York City | 4 | Community","protocol":17,"map":"workshop/koth_ashville_final.ugc2130459942","folder":"tf","game":"Team Fortress","app_id":440,"player_count":5,"max_players":24,"Bots":0,"server_type":"Dedicated","server_os":"Linux","password":true,"vac":true,"version":"7961495","steam_id":85568392924742821,"keywords":["cp","nocrits","nodmgspread","uncletopia"],"game_id":440,"stv_port":27046,"stv_name":"Uncletopia | New York City | 4 | Community | STV","players":[{"user_id":209,"name":"Tailsmonster12","steam_id":76561198399989261,"connected_time":649000000000,"state":"active","ping":45},{"user_id":211,"name":"holymolee","steam_id":76561198894230126,"connected_time":609000000000,"state":"active","ping":126},{"user_id":212,"name":"NewKidTheKappa","steam_id":76561198883414469,"connected_time":584000000000,"state":"active","ping":58},{"user_id":166,"name":"Fella","steam_id":76561198373886887,"connected_time":3274000000000,"state":"active","ping":84},{"user_id":192,"name":"| L O S T |","steam_id":76561198062620333,"connected_time":1643000000000,"state":"active","ping":70}]},{"server_id":142,"name":"Uncletopia | SÃ£o Paulo | 1 | All Maps","name_short":"sao-1","host":"sao-1.br.uncletopia.com","port":27015,"enabled":true,"region":"sa","cc":"br","latitude":-23.533773,"longitude":-46.62529,"reserved":0,"last_update":"0001-01-01T00:00:00Z","name_a2s":"Uncletopia | SÃ£o Paulo | 1 | All Maps","protocol":17,"map":"cp_dustbowl","folder":"tf","game":"Team Fortress","app_id":440,"player_count":0,"max_players":24,"Bots":0,"server_type":"Dedicated","server_os":"Linux","password":true,"vac":true,"version":"7961495","steam_id":85568392924469996,"keywords":["cp","nocrits","nodmgspread","uncletopia"],"game_id":440,"stv_port":27016,"stv_name":"Uncletopia | SÃ£o Paulo | 1 | All Maps | STV","players":null},{"server_id":143,"name":"Uncletopia | SÃ£o Paulo | 2 | Community","name_short":"sao-2","host":"sao-2.br.uncletopia.com","port":27015,"enabled":true,"region":"sa","cc":"br","latitude":-23.533773,"longitude":-46.62529,"reserved":0,"last_update":"0001-01-01T00:00:00Z","name_a2s":"Uncletopia | SÃ£o Paulo | 2 | Community","protocol":17,"map":"workshop/koth_product_final.ugc454272353","folder":"tf","game":"Team Fortress","app_id":440,"player_count":0,"max_players":24,"Bots":0,"server_type":"Dedicated","server_os":"Linux","password":true,"vac":true,"version":"7961495","steam_id":85568392924485349,"keywords":["cp","nocrits","nodmgspread","uncletopia"],"game_id":440,"stv_port":27016,"stv_name":"Uncletopia | SÃ£o Paulo | 2 | Community | STV","players":null},{"server_id":7,"name":"Uncletopia | Seattle | 1 | All Maps","name_short":"sea-1","host":"sea-1.us.uncletopia.com","port":27015,"enabled":true,"region":"us-west","cc":"us","latitude":47.608013,"longitude":-122.33517,"reserved":0,"last_update":"0001-01-01T00:00:00Z","name_a2s":"Uncletopia | Seattle | 1 | All Maps","protocol":17,"map":"pl_upward","folder":"tf","game":"Team Fortress","app_id":440,"player_count":24,"max_players":24,"Bots":0,"server_type":"Dedicated","server_os":"Linux","password":true,"vac":true,"version":"7961495","steam_id":85568392924469997,"keywords":["nocrits","nodmgspread","payload","uncletopia"],"game_id":440,"stv_port":27016,"stv_name":"Uncletopia | Seattle | 1 | All Maps | STV","players":[{"user_id":75,"name":"River Rat","steam_id":76561198116383976,"connected_time":5019000000000,"state":"active","ping":66},{"user_id":63,"name":"HAT-WEARINGâ„¢ Maggot Gamer Cat","steam_id":76561197973992705,"connected_time":6078000000000,"state":"active","ping":82},{"user_id":116,"name":"BlazedBunny","steam_id":76561198243610560,"connected_time":808000000000,"state":"active","ping":82},{"user_id":93,"name":"[COS]SonneyDonkeh","steam_id":76561198091284496,"connected_time":2983000000000,"state":"active","ping":89},{"user_id":68,"name":"THE_DARK_TRICKSTER","steam_id":76561198870649125,"connected_time":5818000000000,"state":"active","ping":84},{"user_id":107,"name":"ShackerJack","steam_id":76561198118017448,"connected_time":1726000000000,"state":"active","ping":52},{"user_id":61,"name":"Fh","steam_id":76561198000903511,"connected_time":6500000000000,"state":"active","ping":74},{"user_id":89,"name":"LunchTray Â©","steam_id":76561197993337109,"connected_time":3062000000000,"state":"active","ping":52},{"user_id":117,"name":"jayeskae","steam_id":76561198144220801,"connected_time":776000000000,"state":"active","ping":50},{"user_id":122,"name":"ð•®ð–†ð–’ð–Šð–—ð–”ð–“ \ufffd\ufffd","steam_id":76561198045826628,"connected_time":242000000000,"state":"active","ping":83},{"user_id":104,"name":"pepe warlord","steam_id":76561198080819197,"connected_time":1943000000000,"state":"active","ping":80},{"user_id":115,"name":"â™¥ President Shitfart â™¥","steam_id":76561198141819053,"connected_time":882000000000,"state":"active","ping":67},{"user_id":118,"name":"LÃ© Mon","steam_id":76561198078626283,"connected_time":772000000000,"state":"active","ping":34},{"user_id":120,"name":"NoobCesar","steam_id":76561198095250755,"connected_time":536000000000,"state":"active","ping":109},{"user_id":67,"name":"TheCowledWiz","steam_id":76561198016735868,"connected_time":5833000000000,"state":"active","ping":48},{"user_id":109,"name":"Space360","steam_id":76561198106743284,"connected_time":1672000000000,"state":"active","ping":54},{"user_id":90,"name":"BolognaWithOlives","steam_id":76561198101262668,"connected_time":3058000000000,"state":"active","ping":105},{"user_id":110,"name":"Qwal0x","steam_id":76561198298324396,"connected_time":1659000000000,"state":"active","ping":69},{"user_id":101,"name":"myunicorn","steam_id":76561199391478575,"connected_time":2330000000000,"state":"active","ping":67},{"user_id":81,"name":"Saint Pablo","steam_id":76561198083300159,"connected_time":4830000000000,"state":"active","ping":72},{"user_id":121,"name":"Rx","steam_id":76561198018599636,"connected_time":482000000000,"state":"active","ping":93},{"user_id":80,"name":"Underscorn","steam_id":76561198374209415,"connected_time":4863000000000,"state":"active","ping":114},{"user_id":114,"name":"camp3r","steam_id":76561197992870439,"connected_time":1413000000000,"state":"active","ping":34},{"user_id":111,"name":"XxWeeDSmokER420xX","steam_id":76561199127423378,"connected_time":1621000000000,"state":"active","ping":85}]},{"server_id":119,"name":"Uncletopia | Seattle | 2 | All Maps","name_short":"sea-2","host":"sea-1.us.uncletopia.com","port":27025,"enabled":true,"region":"us-west","cc":"us","latitude":47.608013,"longitude":-122.33517,"reserved":0,"last_update":"0001-01-01T00:00:00Z","name_a2s":"Uncletopia | Seattle | 2 | All Maps","protocol":17,"map":"cp_sunshine","folder":"tf","game":"Team Fortress","app_id":440,"player_count":24,"max_players":24,"Bots":0,"server_type":"Dedicated","server_os":"Linux","password":true,"vac":true,"version":"7961495","steam_id":85568392924469998,"keywords":["cp","nocrits","nodmgspread","uncletopia"],"game_id":440,"stv_port":27026,"stv_name":"Uncletopia | Seattle | 2 | All Maps | STV","players":[{"user_id":159,"name":"exephur","steam_id":76561198135763234,"connected_time":2107000000000,"state":"active","ping":59},{"user_id":187,"name":"Dynoscord","steam_id":76561199172777455,"connected_time":514000000000,"state":"active","ping":76},{"user_id":183,"name":"numa","steam_id":76561198856016840,"connected_time":655000000000,"state":"active","ping":114},{"user_id":170,"name":"ThePriceIsRice","steam_id":76561198079069543,"connected_time":1094000000000,"state":"active","ping":57},{"user_id":103,"name":"bangs and fangs","steam_id":76561198102681457,"connected_time":6320000000000,"state":"active","ping":119},{"user_id":185,"name":"WhoÂ³?","steam_id":76561198105373801,"connected_time":542000000000,"state":"active","ping":121},{"user_id":148,"name":"dougrocks421","steam_id":76561198165063918,"connected_time":3303000000000,"state":"active","ping":35},{"user_id":155,"name":"Fligh","steam_id":76561198075483011,"connected_time":2374000000000,"state":"active","ping":76},{"user_id":175,"name":"jack airshots","steam_id":76561198252328518,"connected_time":905000000000,"state":"active","ping":105},{"user_id":192,"name":"too many fives","steam_id":76561198128465482,"connected_time":179000000000,"state":"active","ping":90},{"user_id":144,"name":"tr","steam_id":76561198046944222,"connected_time":3645000000000,"state":"active","ping":45},{"user_id":173,"name":"Gary P","steam_id":76561198149108488,"connected_time":1034000000000,"state":"active","ping":65},{"user_id":105,"name":"TheMaskedDingo","steam_id":76561198039022700,"connected_time":6276000000000,"state":"active","ping":84},{"user_id":163,"name":"Tibetan Pop Star","steam_id":76561198844903984,"connected_time":1824000000000,"state":"active","ping":86},{"user_id":186,"name":"â™¥ur :3 medic gfâ™¥ (51ref/hr)","steam_id":76561198816778484,"connected_time":541000000000,"state":"active","ping":136},{"user_id":193,"name":"Strikerbolt","steam_id":76561199095622897,"connected_time":143000000000,"state":"active","ping":75},{"user_id":182,"name":"Sqooky","steam_id":76561198838054669,"connected_time":679000000000,"state":"active","ping":124},{"user_id":188,"name":"Flops","steam_id":76561197961030141,"connected_time":502000000000,"state":"active","ping":48},{"user_id":184,"name":"Lonestar827","steam_id":76561198035533639,"connected_time":617000000000,"state":"active","ping":54},{"user_id":168,"name":"sqomboashous snickerdoodle","steam_id":76561198346001637,"connected_time":1236000000000,"state":"active","ping":104},{"user_id":177,"name":"Xnopyt","steam_id":76561198052516404,"connected_time":889000000000,"state":"active","ping":68},{"user_id":179,"name":"Rustyorion","steam_id":76561198439186347,"connected_time":862000000000,"state":"active","ping":63},{"user_id":191,"name":"Bowen","steam_id":76561198193020834,"connected_time":261000000000,"state":"active","ping":63},{"user_id":130,"name":"Corbezy","steam_id":76561197993398349,"connected_time":4712000000000,"state":"active","ping":125}]},{"server_id":406,"name":"Uncletopia | Seattle | 3 | Stopwatch Beta","name_short":"sea-3","host":"sea-1.us.uncletopia.com","port":27035,"enabled":true,"region":"us-west","cc":"us","latitude":47.608013,"longitude":-122.33517,"reserved":0,"last_update":"0001-01-01T00:00:00Z","name_a2s":"Uncletopia | Seattle | 3 | Stopwatch Beta","protocol":17,"map":"cp_metalworks","folder":"tf","game":"Team Fortress","app_id":440,"player_count":0,"max_players":24,"Bots":0,"server_type":"Dedicated","server_os":"Linux","password":true,"vac":true,"version":"7961495","steam_id":85568392924515217,"keywords":["cp","nocrits","nodmgspread","uncletopia"],"game_id":440,"stv_port":27036,"stv_name":"Uncletopia | Seattle | 3 | Stopwatch Beta | STV","players":null},{"server_id":17,"name":"Uncletopia | San Francisco | 1 | All Maps","name_short":"sfo-1","host":"sfo-1.us.uncletopia.com","port":27015,"enabled":true,"region":"us-west","cc":"us","latitude":37.77397,"longitude":-122.4313,"reserved":0,"last_update":"0001-01-01T00:00:00Z","name_a2s":"Uncletopia | San Francisco | 1 | All Maps","protocol":17,"map":"cp_dustbowl","folder":"tf","game":"Team Fortress","app_id":440,"player_count":24,"max_players":24,"Bots":0,"server_type":"Dedicated","server_os":"Linux","password":true,"vac":true,"version":"7961495","steam_id":85568392924469999,"keywords":["cp","nocrits","nodmgspread","uncletopia"],"game_id":440,"stv_port":27016,"stv_name":"Uncletopia | San Francisco | 1 | All Maps | STV","players":[{"user_id":95,"name":"God's Drunkest Driver","steam_id":76561198983844606,"connected_time":574000000000,"state":"active","ping":86},{"user_id":96,"name":"Sax","steam_id":76561198055425123,"connected_time":532000000000,"state":"active","ping":81},{"user_id":97,"name":"Konnor","steam_id":76561199136300254,"connected_time":502000000000,"state":"active","ping":45},{"user_id":16,"name":"K2f","steam_id":76561198049600563,"connected_time":5279000000000,"state":"active","ping":53},{"user_id":17,"name":"Tyranitar9999","steam_id":76561198071637331,"connected_time":5276000000000,"state":"active","ping":120},{"user_id":103,"name":"Soda","steam_id":76561198219209367,"connected_time":253000000000,"state":"active","ping":67},{"user_id":66,"name":"Spicey","steam_id":76561198039548756,"connected_time":2872000000000,"state":"active","ping":116},{"user_id":53,"name":"[GUT] RiDiKÂ®","steam_id":76561197969756446,"connected_time":3435000000000,"state":"active","ping":100},{"user_id":67,"name":"danny","steam_id":76561198185057642,"connected_time":2827000000000,"state":"active","ping":95},{"user_id":25,"name":"UnsafeDragoon","steam_id":76561198392233683,"connected_time":4570000000000,"state":"active","ping":52},{"user_id":26,"name":"â€ºâ€º  taktiks","steam_id":76561198065248152,"connected_time":4569000000000,"state":"active","ping":65},{"user_id":98,"name":"GH578","steam_id":76561199493262585,"connected_time":477000000000,"state":"active","ping":84},{"user_id":87,"name":"what da dog doin","steam_id":76561198090573639,"connected_time":1856000000000,"state":"active","ping":54},{"user_id":100,"name":"territori64 simp","steam_id":76561198385250944,"connected_time":410000000000,"state":"active","ping":44},{"user_id":80,"name":"......","steam_id":76561198067612741,"connected_time":2543000000000,"state":"active","ping":65},{"user_id":63,"name":"Green eggs and ham","steam_id":76561198043507340,"connected_time":3101000000000,"state":"active","ping":85},{"user_id":71,"name":"A UsedNom","steam_id":76561198402832756,"connected_time":2725000000000,"state":"active","ping":41},{"user_id":88,"name":"SpamTheAlien","steam_id":76561199122290968,"connected_time":1816000000000,"state":"active","ping":98},{"user_id":92,"name":"Serene Salamander","steam_id":76561198001094770,"connected_time":1116000000000,"state":"active","ping":68},{"user_id":94,"name":"choi","steam_id":76561198053669887,"connected_time":933000000000,"state":"active","ping":74},{"user_id":104,"name":"ãµã‚ãµã‚æ¯›å¸ƒ","steam_id":76561198088403016,"connected_time":233000000000,"state":"active","ping":150},{"user_id":101,"name":"territori64","steam_id":76561199206483682,"connected_time":405000000000,"state":"active","ping":54},{"user_id":82,"name":"Derp :p","steam_id":76561198303081758,"connected_time":2528000000000,"state":"active","ping":59},{"user_id":106,"name":"Caspian","steam_id":76561199041466962,"connected_time":5000000000,"state":"spawning","ping":66}]},{"server_id":18,"name":"Uncletopia | San Francisco | 2 | All Maps","name_short":"sfo-2","host":"sfo-1.us.uncletopia.com","port":27025,"enabled":true,"region":"us-west","cc":"us","latitude":37.77397,"longitude":-122.4313,"reserved":0,"last_update":"0001-01-01T00:00:00Z","name_a2s":"Uncletopia | San Francisco | 2 | All Maps","protocol":17,"map":"koth_viaduct","folder":"tf","game":"Team Fortress","app_id":440,"player_count":0,"max_players":24,"Bots":0,"server_type":"Dedicated","server_os":"Linux","password":true,"vac":true,"version":"7961495","steam_id":85568392924470000,"keywords":["cp","nocrits","nodmgspread","uncletopia"],"game_id":440,"stv_port":27026,"stv_name":"Uncletopia | San Francisco | 2 | All Maps | STV","players":null},{"server_id":19,"name":"Uncletopia | San Francisco | 3 | Stopwatch Beta","name_short":"sfo-3","host":"sfo-1.us.uncletopia.com","port":27035,"enabled":true,"region":"us-west","cc":"us","latitude":37.77397,"longitude":-122.4313,"reserved":0,"last_update":"0001-01-01T00:00:00Z","name_a2s":"Uncletopia | San Francisco | 3 | Stopwatch Beta","protocol":17,"map":"pl_borneo","folder":"tf","game":"Team Fortress","app_id":440,"player_count":0,"max_players":24,"Bots":0,"server_type":"Dedicated","server_os":"Linux","password":true,"vac":true,"version":"7961495","steam_id":85568392924742824,"keywords":["nocrits","nodmgspread","payload","uncletopia"],"game_id":440,"stv_port":27036,"stv_name":"Uncletopia | San Francisco | 3 | Stopwatch Beta | STV","players":null},{"server_id":20,"name":"Uncletopia | San Francisco | 4 | Community","name_short":"sfo-4","host":"sfo-1.us.uncletopia.com","port":27045,"enabled":true,"region":"us-west","cc":"us","latitude":37.77397,"longitude":-122.4313,"reserved":0,"last_update":"0001-01-01T00:00:00Z","name_a2s":"Uncletopia | San Francisco | 4 | Community","protocol":17,"map":"koth_viaduct","folder":"tf","game":"Team Fortress","app_id":440,"player_count":0,"max_players":24,"Bots":0,"server_type":"Dedicated","server_os":"Linux","password":true,"vac":true,"version":"7961495","steam_id":85568392924742826,"keywords":["cp","nocrits","nodmgspread","uncletopia"],"game_id":440,"stv_port":27046,"stv_name":"Uncletopia | San Francisco | 4 | Community | STV","players":null},{"server_id":141,"name":"Uncletopia | Sydney | 1 | All Maps","name_short":"syd-1","host":"syd-1.au.uncletopia.com","port":27015,"enabled":true,"region":"au","cc":"au","latitude":-33.865143,"longitude":151.2099,"reserved":0,"last_update":"0001-01-01T00:00:00Z","name_a2s":"Uncletopia | Sydney | 1 | All Maps","protocol":17,"map":"cp_snakewater_final1","folder":"tf","game":"Team Fortress","app_id":440,"player_count":0,"max_players":24,"Bots":0,"server_type":"Dedicated","server_os":"Linux","password":true,"vac":true,"version":"7961495","steam_id":85568392924470001,"keywords":["cp","nocrits","nodmgspread","uncletopia"],"game_id":440,"stv_port":27016,"stv_name":"Uncletopia | Sydney | 1 | All Maps | STV","players":null},{"server_id":123,"name":"Uncletopia | Sydney | 2 | All Maps","name_short":"syd-2","host":"syd-1.au.uncletopia.com","port":27025,"enabled":true,"region":"au","cc":"au","latitude":-33.865143,"longitude":151.2099,"reserved":0,"last_update":"0001-01-01T00:00:00Z","name_a2s":"Uncletopia | Sydney | 2 | All Maps","protocol":17,"map":"pl_snowycoast","folder":"tf","game":"Team Fortress","app_id":440,"player_count":0,"max_players":24,"Bots":0,"server_type":"Dedicated","server_os":"Linux","password":true,"vac":true,"version":"7961495","steam_id":85568392924470002,"keywords":["nocrits","nodmgspread","payload","uncletopia"],"game_id":440,"stv_port":27026,"stv_name":"Uncletopia | Sydney | 2 | All Maps | STV","players":null},{"server_id":395,"name":"Uncletopia | Sydney | 3 | All Maps","name_short":"syd-3","host":"syd-1.au.uncletopia.com","port":27035,"enabled":true,"region":"au","cc":"au","latitude":-33.865143,"longitude":151.2099,"reserved":0,"last_update":"0001-01-01T00:00:00Z","name_a2s":"Uncletopia | Sydney | 3 | All Maps","protocol":17,"map":"cp_dustbowl","folder":"tf","game":"Team Fortress","app_id":440,"player_count":0,"max_players":24,"Bots":0,"server_type":"Dedicated","server_os":"Linux","password":true,"vac":true,"version":"7961495","steam_id":85568392925194467,"keywords":["cp","nocrits","nodmgspread","uncletopia"],"game_id":440,"stv_port":27036,"stv_name":"Uncletopia | Sydney | 3 | All Maps | STV","players":null},{"server_id":396,"name":"Uncletopia | Sydney | 4 | All Maps","name_short":"syd-4","host":"syd-1.au.uncletopia.com","port":27045,"enabled":true,"region":"au","cc":"au","latitude":-33.865143,"longitude":151.2099,"reserved":0,"last_update":"0001-01-01T00:00:00Z","name_a2s":"Uncletopia | Sydney | 4 | All Maps","protocol":17,"map":"cp_dustbowl","folder":"tf","game":"Team Fortress","app_id":440,"player_count":0,"max_players":24,"Bots":0,"server_type":"Dedicated","server_os":"Linux","password":true,"vac":true,"version":"7961495","steam_id":85568392925397958,"keywords":["cp","nocrits","nodmgspread","uncletopia"],"game_id":440,"stv_port":27046,"stv_name":"Uncletopia | Sydney | 4 | All Maps | STV","players":null},{"server_id":58,"name":"Uncletopia | Sydney | 5 | Stopwatch Beta","name_short":"syd-5","host":"syd-1.au.uncletopia.com","port":27055,"enabled":true,"region":"au","cc":"au","latitude":-33.865143,"longitude":151.2099,"reserved":0,"last_update":"0001-01-01T00:00:00Z","name_a2s":"Uncletopia | Sydney | 5 | Stopwatch Beta","protocol":17,"map":"koth_viaduct","folder":"tf","game":"Team Fortress","app_id":440,"player_count":0,"max_players":24,"Bots":0,"server_type":"Dedicated","server_os":"Linux","password":true,"vac":true,"version":"7961495","steam_id":85568392925397959,"keywords":["cp","nocrits","nodmgspread","uncletopia"],"game_id":440,"stv_port":27056,"stv_name":"Uncletopia | Sydney | 5 | Stopwatch Beta | STV","players":null},{"server_id":59,"name":"Uncletopia | Sydney | 6 | Community","name_short":"syd-6","host":"syd-1.au.uncletopia.com","port":27065,"enabled":true,"region":"au","cc":"au","latitude":-33.865143,"longitude":151.2099,"reserved":0,"last_update":"0001-01-01T00:00:00Z","name_a2s":"Uncletopia | Sydney | 6 | Community","protocol":17,"map":"koth_cascade","folder":"tf","game":"Team Fortress","app_id":440,"player_count":0,"max_players":24,"Bots":0,"server_type":"Dedicated","server_os":"Linux","password":true,"vac":true,"version":"7961495","steam_id":85568392925397960,"keywords":["cp","nocrits","nodmgspread","uncletopia"],"game_id":440,"stv_port":27066,"stv_name":"Uncletopia | Sydney | 6 | Community | STV","players":null},{"server_id":49,"name":"Uncletopia | Warsaw | 1 | All Maps","name_short":"waw-1","host":"waw-1.pl.uncletopia.com","port":27015,"enabled":true,"region":"eu","cc":"pl","latitude":52.2297,"longitude":21.017532,"reserved":0,"last_update":"0001-01-01T00:00:00Z","name_a2s":"Uncletopia | Warsaw | 1 | All Maps","protocol":17,"map":"koth_highpass","folder":"tf","game":"Team Fortress","app_id":440,"player_count":4,"max_players":24,"Bots":0,"server_type":"Dedicated","server_os":"Linux","password":true,"vac":true,"version":"7961495","steam_id":85568392925397850,"keywords":["cp","nocrits","nodmgspread","uncletopia"],"game_id":440,"stv_port":27016,"stv_name":"Uncletopia | Warsaw | 1 | All Maps | STV","players":[{"user_id":36,"name":"miclejacskon","steam_id":76561199238833234,"connected_time":2839000000000,"state":"active","ping":96},{"user_id":35,"name":"dzefersons","steam_id":76561199210767484,"connected_time":2911000000000,"state":"active","ping":107},{"user_id":38,"name":"Horny_Furry\u003c3","steam_id":76561199372236636,"connected_time":901000000000,"state":"active","ping":68},{"user_id":40,"name":"THE MAN","steam_id":76561199227815674,"connected_time":419000000000,"state":"active","ping":81}]},{"server_id":50,"name":"Uncletopia | Warsaw | 2 | All Maps","name_short":"waw-2","host":"waw-1.pl.uncletopia.com","port":27025,"enabled":true,"region":"eu","cc":"pl","latitude":52.2297,"longitude":21.017532,"reserved":0,"last_update":"0001-01-01T00:00:00Z","name_a2s":"Uncletopia | Warsaw | 2 | All Maps","protocol":17,"map":"pl_pier","folder":"tf","game":"Team Fortress","app_id":440,"player_count":0,"max_players":24,"Bots":0,"server_type":"Dedicated","server_os":"Linux","password":true,"vac":true,"version":"7961495","steam_id":85568392925397851,"keywords":["nocrits","nodmgspread","payload","uncletopia"],"game_id":440,"stv_port":27026,"stv_name":"Uncletopia | Warsaw | 2 | All Maps | STV","players":null},{"server_id":51,"name":"Uncletopia | Warsaw | 3 | All Maps","name_short":"waw-3","host":"waw-1.pl.uncletopia.com","port":27035,"enabled":true,"region":"eu","cc":"pl","latitude":52.2297,"longitude":21.017532,"reserved":0,"last_update":"0001-01-01T00:00:00Z","name_a2s":"Uncletopia | Warsaw | 3 | All Maps","protocol":17,"map":"koth_lakeside_final","folder":"tf","game":"Team Fortress","app_id":440,"player_count":0,"max_players":24,"Bots":0,"server_type":"Dedicated","server_os":"Linux","password":true,"vac":true,"version":"7961495","steam_id":85568392925397852,"keywords":["cp","nocrits","nodmgspread","uncletopia"],"game_id":440,"stv_port":27036,"stv_name":"Uncletopia | Warsaw | 3 | All Maps | STV","players":null},{"server_id":52,"name":"Uncletopia | Warsaw | 4 | All Maps","name_short":"waw-4","host":"waw-1.pl.uncletopia.com","port":27045,"enabled":true,"region":"eu","cc":"pl","latitude":52.2297,"longitude":21.017532,"reserved":0,"last_update":"0001-01-01T00:00:00Z","name_a2s":"Uncletopia | Warsaw | 4 | All Maps","protocol":17,"map":"pl_badwater","folder":"tf","game":"Team Fortress","app_id":440,"player_count":2,"max_players":24,"Bots":0,"server_type":"Dedicated","server_os":"Linux","password":true,"vac":true,"version":"7961495","steam_id":85568392925397853,"keywords":["nocrits","nodmgspread","payload","uncletopia"],"game_id":440,"stv_port":27046,"stv_name":"Uncletopia | Warsaw | 4 | All Maps | STV","players":[{"user_id":26,"name":"Jakbson","steam_id":76561199158083207,"connected_time":1586000000000,"state":"active","ping":72},{"user_id":27,"name":"Vaderek561","steam_id":76561198425934688,"connected_time":1473000000000,"state":"active","ping":80}]},{"server_id":53,"name":"Uncletopia | Warsaw | 5 | Stopwatch Beta","name_short":"waw-5","host":"waw-1.pl.uncletopia.com","port":27055,"enabled":true,"region":"eu","cc":"pl","latitude":52.2297,"longitude":21.017532,"reserved":0,"last_update":"0001-01-01T00:00:00Z","name_a2s":"Uncletopia | Warsaw | 5 | Stopwatch Beta","protocol":17,"map":"workshop/koth_ramjam_rc1.ugc459778887","folder":"tf","game":"Team Fortress","app_id":440,"player_count":0,"max_players":24,"Bots":0,"server_type":"Dedicated","server_os":"Linux","password":true,"vac":true,"version":"7961495","steam_id":85568392925397854,"keywords":["cp","nocrits","nodmgspread","uncletopia"],"game_id":440,"stv_port":27056,"stv_name":"Uncletopia | Warsaw | 5 | Stopwatch Beta | STV","players":null},{"server_id":54,"name":"Uncletopia | Warsaw | 6 | Community","name_short":"waw-6","host":"waw-1.pl.uncletopia.com","port":27065,"enabled":true,"region":"eu","cc":"pl","latitude":52.2297,"longitude":21.017532,"reserved":0,"last_update":"0001-01-01T00:00:00Z","name_a2s":"Uncletopia | Warsaw | 6 | Community","protocol":17,"map":"workshop/cp_caldera_rc2.ugc2834196889","folder":"tf","game":"Team Fortress","app_id":440,"player_count":0,"max_players":24,"Bots":0,"server_type":"Dedicated","server_os":"Linux","password":true,"vac":true,"version":"7961495","steam_id":85568392925397856,"keywords":["cp","nocrits","nodmgspread","uncletopia"],"game_id":440,"stv_port":27066,"stv_name":"Uncletopia | Warsaw | 6 | Community | STV","players":null}]}