{"status":true,"message":"","result":[{"server_id":9,"name":"Uncletopia | Atlanta | 1 | All Maps","name_short":"atl-1","host":"atl-1.us.uncletopia.com","port":27015,"enabled":true,"region":"us-east","cc":"us","latitude":33.753746,"longitude":-84.38633,"reserved":0,"last_update":"0001-01-01T00:00:00Z","name_a2s":"Uncletopia | Atlanta | 1 | All Maps","protocol":17,"map":"plr_hightower","folder":"tf","game":"Team Fortress","app_id":440,"player_count":24,"max_players":24,"Bots":0,"server_type":"Dedicated","server_os":"Linux","password":true,"vac":true,"version":"7757534","steam_id":85568392924469982,"keywords":["nocrits","nodmgspread","payload","uncletopia"],"game_id":440,"stv_port":27016,"stv_name":"Uncletopia | Atlanta | 1 | All Maps | STV","players":[{"user_id":597,"name":"BIG HOG","steam_id":76561198079923652,"connected_time":7116000000000,"state":"active","ping":63},{"user_id":664,"name":"Throckmorton627","steam_id":76561199147734259,"connected_time":630000000000,"state":"active","ping":85},{"user_id":590,"name":"lil hog","steam_id":76561199230929836,"connected_time":7431000000000,"state":"active","ping":69},{"user_id":637,"name":"Wingm4n","steam_id":76561198064127012,"connected_time":2759000000000,"state":"active","ping":48},{"user_id":657,"name":"OrangeCrab","steam_id":76561198982248872,"connected_time":1241000000000,"state":"active","ping":61},{"user_id":655,"name":"FutabaUchiha","steam_id":76561199436467630,"connected_time":1299000000000,"state":"active","ping":78},{"user_id":609,"name":"ATL 1 | Save your wifi","steam_id":76561198286147372,"connected_time":5714000000000,"state":"active","ping":59},{"user_id":648,"name":"Caught a Thundah","steam_id":76561198054495572,"connected_time":1926000000000,"state":"active","ping":75},{"user_id":627,"name":"Bottom Trans Cowgirl","steam_id":76561198304239680,"connected_time":3404000000000,"state":"active","ping":73},{"user_id":650,"name":"Stargriefer190","steam_id":76561198996425356,"connected_time":1794000000000,"state":"active","ping":73},{"user_id":606,"name":"Broken Cereal‚àö","steam_id":76561198087489795,"connected_time":5735000000000,"state":"active","ping":65},{"user_id":665,"name":"G_Bob","steam_id":76561198098133233,"connected_time":87000000000,"state":"active","ping":57},{"user_id":647,"name":"Epic Gamer GUy","steam_id":76561199086366003,"connected_time":2069000000000,"state":"active","ping":85},{"user_id":662,"name":"cass","steam_id":76561198074502046,"connected_time":979000000000,"state":"active","ping":56},{"user_id":608,"name":"shaderoses","steam_id":76561198070800500,"connected_time":5728000000000,"state":"active","ping":61},{"user_id":663,"name":"ATL1 | LuckyZero-_-","steam_id":76561198139891051,"connected_time":775000000000,"state":"active","ping":72},{"user_id":639,"name":"cola","steam_id":76561198374390458,"connected_time":2662000000000,"state":"active","ping":57},{"user_id":632,"name":"ATL1 | Bandi","steam_id":76561198432036026,"connected_time":3133000000000,"state":"active","ping":55},{"user_id":646,"name":"WOB WOB WOB WUOUOUOUOUOOUB","steam_id":76561198822069026,"connected_time":2125000000000,"state":"active","ping":92},{"user_id":649,"name":"Morgan","steam_id":76561198113977970,"connected_time":1925000000000,"state":"active","ping":61},{"user_id":622,"name":"I\u003c3 DUSTBOWL STEEL AND VANGUARD","steam_id":76561198333513882,"connected_time":3979000000000,"state":"active","ping":72},{"user_id":628,"name":"BotchyAlarm8","steam_id":76561198092682129,"connected_time":3404000000000,"state":"active","ping":88},{"user_id":634,"name":"Tay1Qr","steam_id":76561198082809935,"connected_time":3131000000000,"state":"active","ping":69},{"user_id":580,"name":"BambuBabyPackRunner","steam_id":76561198320866421,"connected_time":9618000000000,"state":"active","ping":48}]},{"server_id":400,"name":"Uncletopia | Atlanta | 3 | Community","name_short":"atl-3","host":"atl-1.us.uncletopia.com","port":27035,"enabled":true,"region":"us-east","cc":"us","latitude":33.753746,"longitude":-84.38633,"reserved":0,"last_update":"0001-01-01T00:00:00Z","name_a2s":"Uncletopia | Atlanta | 3 | Community","protocol":17,"map":"workshop/koth_bagel_rc6.ugc2514036946","folder":"tf","game":"Team Fortress","app_id":440,"player_count":23,"max_players":24,"Bots":0,"server_type":"Dedicated","server_os":"Linux","password":true,"vac":true,"version":"7757534","steam_id":85568392924515187,"keywords":["cp","nocrits","nodmgspread","uncletopia"],"game_id":440,"stv_port":27036,"stv_name":"Uncletopia | Atlanta | 3 | Community | STV","players":[{"user_id":239,"name":"Kaluka","steam_id":76561198036861445,"connected_time":1519000000000,"state":"active","ping":60},{"user_id":188,"name":"Klav02","steam_id":76561199109999974,"connected_time":6212000000000,"state":"active","ping":124},{"user_id":234,"name":"Flux","steam_id":76561198332266632,"connected_time":1973000000000,"state":"active","ping":42},{"user_id":186,"name":"Artificial Unintelligence","steam_id":76561199056745987,"connected_time":6334000000000,"state":"active","ping":130},{"user_id":235,"name":"floofy","steam_id":76561198389769098,"connected_time":1904000000000,"state":"active","ping":82},{"user_id":259,"name":"Autism the clown","steam_id":76561198973190030,"connected_time":473000000000,"state":"active","ping":114},{"user_id":243,"name":"the grungler!","steam_id":76561198058485742,"connected_time":1329000000000,"state":"active","ping":31},{"user_id":244,"name":"Ghostmeal","steam_id":76561198042380299,"connected_time":1313000000000,"state":"active","ping":70},{"user_id":266,"name":"can my wife use your toilet","steam_id":76561198120973162,"connected_time":334000000000,"state":"active","ping":79},{"user_id":245,"name":"FruicyJuit","steam_id":76561198080704911,"connected_time":1186000000000,"state":"active","ping":82},{"user_id":246,"name":"fruitymario","steam_id":76561198047190430,"connected_time":1182000000000,"state":"active","ping":57},{"user_id":219,"name":"the inventor of Sex, Pisslord","steam_id":76561198074624639,"connected_time":3077000000000,"state":"active","ping":76},{"user_id":261,"name":"Nickson1","steam_id":76561198175839309,"connected_time":398000000000,"state":"active","ping":75},{"user_id":267,"name":"Jay","steam_id":76561198084129048,"connected_time":166000000000,"state":"active","ping":89},{"user_id":208,"name":"Hard Soap","steam_id":76561198267905614,"connected_time":3476000000000,"state":"active","ping":73},{"user_id":247,"name":"substance","steam_id":76561198050103868,"connected_time":1180000000000,"state":"active","ping":106},{"user_id":248,"name":"schizophrenicGhost","steam_id":76561198126341923,"connected_time":1144000000000,"state":"active","ping":55},{"user_id":230,"name":"fuckoff","steam_id":76561198078738531,"connected_time":2266000000000,"state":"active","ping":99},{"user_id":263,"name":"gaysex14","steam_id":76561198096737300,"connected_time":383000000000,"state":"active","ping":65},{"user_id":256,"name":"engie","steam_id":76561199229629045,"connected_time":830000000000,"state":"active","ping":127},{"user_id":264,"name":"strain","steam_id":76561198201446799,"connected_time":381000000000,"state":"active","ping":74},{"user_id":265,"name":"knip","steam_id":76561198147061182,"connected_time":379000000000,"state":"active","ping":90},{"user_id":253,"name":"Big kahuna","steam_id":76561198142024812,"connected_time":1000000000000,"state":"active","ping":80}]},{"server_id":401,"name":"Uncletopia | Atlanta | 4 | No Payload","name_short":"atl-4","host":"atl-1.us.uncletopia.com","port":27045,"enabled":true,"region":"us-east","cc":"us","latitude":33.753746,"longitude":-84.38633,"reserved":0,"last_update":"0001-01-01T00:00:00Z","name_a2s":"","protocol":0,"map":"","folder":"","game":"","app_id":0,"player_count":0,"max_players":0,"Bots":0,"server_type":"","server_os":"","password":false,"vac":false,"version":"","steam_id":0,"keywords":null,"game_id":0,"stv_port":0,"stv_name":"","players":null},{"server_id":2,"name":"Uncletopia | Chicago | 1 | All Maps","name_short":"chi-1","host":"chi-1.us.uncletopia.com","port":27015,"enabled":true,"region":"us-central","cc":"us","latitude":41.881832,"longitude":-87.62318,"reserved":0,"last_update":"0001-01-01T00:00:00Z","name_a2s":"Uncletopia | Chicago | 1 | All Maps","protocol":17,"map":"pl_pier","folder":"tf","game":"Team Fortress","app_id":440,"player_count":24,"max_players":24,"Bots":0,"server_type":"Dedicated","server_os":"Linux","password":true,"vac":true,"version":"7757534","steam_id":85568392924469984,"keywords":["nocrits","nodmgspread","payload","uncletopia"],"game_id":440,"stv_port":27016,"stv_name":"Uncletopia | Chicago | 1 | All Maps | STV","players":[{"user_id":444,"name":"jayzak24","steam_id":76561198354267509,"connected_time":4585000000000,"state":"active","ping":89},{"user_id":410,"name":"Monsterjessy","steam_id":76561198035630985,"connected_time":7656000000000,"state":"active","ping":60},{"user_id":489,"name":"Gredc100","steam_id":76561198398494357,"connected_time":695000000000,"state":"active","ping":64},{"user_id":483,"name":"Pinto","steam_id":76561199105386998,"connected_time":1304000000000,"state":"active","ping":76},{"user_id":492,"name":"doctor large","steam_id":76561199195836752,"connected_time":375000000000,"state":"active","ping":68},{"user_id":424,"name":"uhooter","steam_id":76561198007829078,"connected_time":5871000000000,"state":"active","ping":54},{"user_id":491,"name":"esper","steam_id":76561198200002859,"connected_time":440000000000,"state":"active","ping":59},{"user_id":475,"name":"otto","steam_id":76561198029585065,"connected_time":1815000000000,"state":"active","ping":49},{"user_id":499,"name":"CaptainRedbeard","steam_id":76561198058647430,"connected_time":203000000000,"state":"active","ping":119},{"user_id":460,"name":"Spygie","steam_id":76561198218573049,"connected_time":3417000000000,"state":"active","ping":54},{"user_id":494,"name":"HanakoToast","steam_id":76561198045233131,"connected_time":333000000000,"state":"active","ping":103},{"user_id":495,"name":"surfer","steam_id":76561198068409067,"connected_time":327000000000,"state":"active","ping":79},{"user_id":481,"name":"Dancio142","steam_id":76561198982410592,"connected_time":1338000000000,"state":"active","ping":101},{"user_id":469,"name":"Dabicus Vile","steam_id":76561198272413758,"connected_time":2634000000000,"state":"active","ping":55},{"user_id":490,"name":"Mythikal „ÉÑ","steam_id":76561198032883071,"connected_time":582000000000,"state":"active","ping":83},{"user_id":432,"name":"Temujin","steam_id":76561198030936583,"connected_time":5755000000000,"state":"active","ping":53},{"user_id":478,"name":"Randy \"the Man\" Johnson","steam_id":76561198039124445,"connected_time":1736000000000,"state":"active","ping":91},{"user_id":482,"name":"Sveniven","steam_id":76561198118864411,"connected_time":1322000000000,"state":"active","ping":75},{"user_id":496,"name":"The local hobo","steam_id":76561198289650060,"connected_time":314000000000,"state":"active","ping":96},{"user_id":488,"name":"magical_mage0","steam_id":76561198213271916,"connected_time":800000000000,"state":"active","ping":75},{"user_id":497,"name":"Tommy Coolatta","steam_id":76561198098788416,"connected_time":272000000000,"state":"active","ping":69},{"user_id":498,"name":"frogburger","steam_id":76561198092004980,"connected_time":222000000000,"state":"active","ping":142},{"user_id":484,"name":"Deliverance2me","steam_id":76561198093825175,"connected_time":1253000000000,"state":"active","ping":86},{"user_id":473,"name":"Cyclaw","steam_id":76561198076045689,"connected_time":1882000000000,"state":"active","ping":61}]},{"server_id":106,"name":"Uncletopia | Chicago | 2 | All Maps","name_short":"chi-2","host":"chi-1.us.uncletopia.com","port":27025,"enabled":true,"region":"us-central","cc":"us","latitude":41.881832,"longitude":-87.62318,"reserved":0,"last_update":"0001-01-01T00:00:00Z","name_a2s":"Uncletopia | Chicago | 2 | All Maps","protocol":17,"map":"pl_swiftwater_final1","folder":"tf","game":"Team Fortress","app_id":440,"player_count":19,"max_players":24,"Bots":0,"server_type":"Dedicated","server_os":"Linux","password":true,"vac":true,"version":"7757534","steam_id":85568392924469985,"keywords":["nocrits","nodmgspread","payload","uncletopia"],"game_id":440,"stv_port":27026,"stv_name":"Uncletopia | Chicago | 2 | All Maps | STV","players":[{"user_id":748,"name":"Bimbli","steam_id":76561198058948629,"connected_time":1668000000000,"state":"active","ping":102},{"user_id":775,"name":"onion","steam_id":76561198242311084,"connected_time":837000000000,"state":"active","ping":60},{"user_id":785,"name":"Dr Smeggman","steam_id":76561197966614845,"connected_time":385000000000,"state":"active","ping":136},{"user_id":778,"name":"Juice","steam_id":76561198142054236,"connected_time":668000000000,"state":"active","ping":78},{"user_id":773,"name":"Ace Chromatica","steam_id":76561198042211131,"connected_time":930000000000,"state":"active","ping":55},{"user_id":750,"name":"Elizabeth truss","steam_id":76561198058250979,"connected_time":1628000000000,"state":"active","ping":69},{"user_id":786,"name":"RussianVesper","steam_id":76561198263326607,"connected_time":287000000000,"state":"active","ping":74},{"user_id":788,"name":"Silly Goofball 4000","steam_id":76561198069814977,"connected_time":163000000000,"state":"active","ping":75},{"user_id":777,"name":"gettysburg","steam_id":76561198016157051,"connected_time":774000000000,"state":"active","ping":75},{"user_id":789,"name":"tr","steam_id":76561198046944222,"connected_time":153000000000,"state":"active","ping":91},{"user_id":790,"name":"F_L Vision Spire","steam_id":76561198095923905,"connected_time":136000000000,"state":"active","ping":50},{"user_id":791,"name":"SGT OwO","steam_id":76561198038480911,"connected_time":131000000000,"state":"active","ping":86},{"user_id":648,"name":"cotton candy thief","steam_id":76561198058998371,"connected_time":9489000000000,"state":"active","ping":70},{"user_id":784,"name":"TTV/ArcticFlesh","steam_id":76561198099678868,"connected_time":471000000000,"state":"active","ping":48},{"user_id":752,"name":"Lord Mirror","steam_id":76561198166324507,"connected_time":1579000000000,"state":"active","ping":57},{"user_id":759,"name":"ItsTanleyCrunch","steam_id":76561198037915942,"connected_time":1458000000000,"state":"active","ping":80},{"user_id":782,"name":"heats","steam_id":76561198029719720,"connected_time":572000000000,"state":"active","ping":88},{"user_id":783,"name":"Dillon","steam_id":76561198191469611,"connected_time":562000000000,"state":"active","ping":105}]},{"server_id":402,"name":"Uncletopia | Chicago | 3 | All Maps","name_short":"chi-3","host":"chi-1.us.uncletopia.com","port":27035,"enabled":true,"region":"us-central","cc":"us","latitude":41.881832,"longitude":-87.62318,"reserved":0,"last_update":"0001-01-01T00:00:00Z","name_a2s":"Uncletopia | Chicago | 3 | All Maps","protocol":17,"map":"pl_swiftwater_final1","folder":"tf","game":"Team Fortress","app_id":440,"player_count":24,"max_players":24,"Bots":0,"server_type":"Dedicated","server_os":"Linux","password":true,"vac":true,"version":"7757534","steam_id":85568392924515191,"keywords":["nocrits","nodmgspread","payload","uncletopia"],"game_id":440,"stv_port":27036,"stv_name":"Uncletopia | Chicago | 3 | All Maps | STV","players":[{"user_id":442,"name":"Fumpo","steam_id":76561198206873365,"connected_time":398000000000,"state":"active","ping":62},{"user_id":422,"name":"cringy","steam_id":76561198323000455,"connected_time":1451000000000,"state":"active","ping":99},{"user_id":441,"name":"RabidSoda","steam_id":76561198115416316,"connected_time":413000000000,"state":"active","ping":89},{"user_id":434,"name":"[‚ù§]RainbowGryphon420","steam_id":76561198097007697,"connected_time":928000000000,"state":"active","ping":76},{"user_id":443,"name":"Vinnask","steam_id":76561199473081779,"connected_time":382000000000,"state":"active","ping":63},{"user_id":444,"name":"DoomoPelota","steam_id":76561198326462587,"connected_time":245000000000,"state":"active","ping":99},{"user_id":440,"name":"Sprinklingmydoughnut","steam_id":76561198168009092,"connected_time":438000000000,"state":"active","ping":78},{"user_id":445,"name":"Deep Peepus","steam_id":76561198205395757,"connected_time":188000000000,"state":"active","ping":89},{"user_id":425,"name":"Sprucelass","steam_id":76561197998391724,"connected_time":1266000000000,"state":"active","ping":50},{"user_id":409,"name":"JHLO","steam_id":76561198074359967,"connected_time":2465000000000,"state":"active","ping":77},{"user_id":433,"name":"[‚ù§] Bread Dog","steam_id":76561198864544549,"connected_time":1156000000000,"state":"active","ping":115},{"user_id":374,"name":"Nephs","steam_id":76561198136763403,"connected_time":4973000000000,"state":"active","ping":86},{"user_id":419,"name":"Poptart From Mars","steam_id":76561197979930960,"connected_time":1843000000000,"state":"active","ping":72},{"user_id":446,"name":"Oixo","steam_id":76561198076035468,"connected_time":182000000000,"state":"active","ping":50},{"user_id":432,"name":"[‚ù§] Adry Kitty ‚ô•","steam_id":76561198081975268,"connected_time":1203000000000,"state":"active","ping":97},{"user_id":447,"name":"workin on my chakras","steam_id":76561198135559825,"connected_time":172000000000,"state":"active","ping":60},{"user_id":420,"name":"monsterkill4567","steam_id":76561198272986367,"connected_time":1788000000000,"state":"active","ping":112},{"user_id":393,"name":"[DEEP] Danmar33","steam_id":76561198056453091,"connected_time":3976000000000,"state":"active","ping":52},{"user_id":413,"name":"Enchanced","steam_id":76561198797393854,"connected_time":2438000000000,"state":"active","ping":125},{"user_id":436,"name":"[‚ù§]BackupDoe!","steam_id":76561198185392131,"connected_time":690000000000,"state":"active","ping":78},{"user_id":438,"name":"Some Loser","steam_id":76561198155350034,"connected_time":552000000000,"state":"active","ping":101},{"user_id":439,"name":"Hentai Mentai","steam_id":76561198333128330,"connected_time":552000000000,"state":"active","ping":38},{"user_id":431,"name":"[‚ù§] A Red Folfo","steam_id":76561198291724249,"connected_time":1248000000000,"state":"active","ping":111},{"user_id":320,"name":"shadow wizard","steam_id":76561198165212575,"connected_time":8486000000000,"state":"active","ping":68}]},{"server_id":403,"name":"Uncletopia | Chicago | 4 | All Maps","name_short":"chi-4","host":"chi-1.us.uncletopia.com","port":27045,"enabled":true,"region":"us-central","cc":"us","latitude":41.881832,"longitude":-87.62318,"reserved":0,"last_update":"0001-01-01T00:00:00Z","name_a2s":"Uncletopia | Chicago | 4 | All Maps","protocol":17,"map":"pl_pier","folder":"tf","game":"Team Fortress","app_id":440,"player_count":24,"max_players":24,"Bots":0,"server_type":"Dedicated","server_os":"Linux","password":true,"vac":true,"version":"7757534","steam_id":85568392924515193,"keywords":["nocrits","nodmgspread","payload","uncletopia"],"game_id":440,"stv_port":27046,"stv_name":"Uncletopia | Chicago | 4 | All Maps | STV","players":[{"user_id":917,"name":"Sam","steam_id":76561198079393512,"connected_time":3731000000000,"state":"active","ping":78},{"user_id":948,"name":"Gremlin Bird","steam_id":76561198039624549,"connected_time":1539000000000,"state":"active","ping":85},{"user_id":945,"name":"SwingDickerson","steam_id":76561198045542926,"connected_time":1647000000000,"state":"active","ping":43},{"user_id":831,"name":"years","steam_id":76561197994098627,"connected_time":8158000000000,"state":"active","ping":118},{"user_id":959,"name":"motherfudger","steam_id":76561198114959385,"connected_time":1166000000000,"state":"active","ping":80},{"user_id":905,"name":"Spoilt Pudding","steam_id":76561198001195423,"connected_time":4399000000000,"state":"active","ping":78},{"user_id":891,"name":"Theory-ZaZa","steam_id":76561198116419931,"connected_time":5542000000000,"state":"active","ping":118},{"user_id":950,"name":"A Shiny Meat Bicycle","steam_id":76561198358757709,"connected_time":1502000000000,"state":"active","ping":98},{"user_id":934,"name":"Mr. Mane T.S.H.A.","steam_id":76561198056728986,"connected_time":2463000000000,"state":"active","ping":60},{"user_id":951,"name":"shadowjango","steam_id":76561198001475833,"connected_time":1447000000000,"state":"active","ping":70},{"user_id":918,"name":"Female Gamer","steam_id":76561199366482682,"connected_time":3712000000000,"state":"active","ping":114},{"user_id":961,"name":"prestige worldwide (wide)","steam_id":76561198045655893,"connected_time":979000000000,"state":"active","ping":59},{"user_id":881,"name":"TheTruthOfTheCessationOfDukkha","steam_id":76561198214370515,"connected_time":6414000000000,"state":"active","ping":57},{"user_id":953,"name":"Juri Han","steam_id":76561198041678517,"connected_time":1428000000000,"state":"active","ping":102},{"user_id":962,"name":"NathanSomething","steam_id":76561198927509821,"connected_time":798000000000,"state":"active","ping":163},{"user_id":965,"name":"xTSxbob T.S.H.A","steam_id":76561198130440530,"connected_time":139000000000,"state":"active","ping":86},{"user_id":914,"name":"Clemont007","steam_id":76561198030935625,"connected_time":4152000000000,"state":"active","ping":116},{"user_id":964,"name":"Yoshi62","steam_id":76561199103748704,"connected_time":591000000000,"state":"active","ping":134},{"user_id":944,"name":"Dr_Spek","steam_id":76561198128667701,"connected_time":1812000000000,"state":"active","ping":67},{"user_id":947,"name":"captainbros","steam_id":76561198370989893,"connected_time":1614000000000,"state":"active","ping":89},{"user_id":956,"name":"Madcows","steam_id":76561198021695614,"connected_time":1383000000000,"state":"active","ping":105},{"user_id":941,"name":"Viokik","steam_id":76561198408846602,"connected_time":2036000000000,"state":"active","ping":64},{"user_id":957,"name":"Veridian","steam_id":76561198096334078,"connected_time":1373000000000,"state":"active","ping":75},{"user_id":958,"name":"Psychosis","steam_id":76561198078659070,"connected_time":1290000000000,"state":"active","ping":69}]},{"server_id":36,"name":"Uncletopia | Chicago | 5 | All Maps","name_short":"chi-5","host":"chi-2.us.uncletopia.com","port":27015,"enabled":true,"region":"us-central","cc":"us","latitude":41.881832,"longitude":-87.62318,"reserved":0,"last_update":"0001-01-01T00:00:00Z","name_a2s":"Uncletopia | Chicago | 5 | All Maps","protocol":17,"map":"cp_dustbowl","folder":"tf","game":"Team Fortress","app_id":440,"player_count":0,"max_players":24,"Bots":0,"server_type":"Dedicated","server_os":"Linux","password":true,"vac":true,"version":"7757534","steam_id":85568392924866362,"keywords":["cp","nocrits","nodmgspread","uncletopia"],"game_id":440,"stv_port":27016,"stv_name":"Uncletopia | Chicago | 5 | All Maps | STV","players":null},{"server_id":37,"name":"Uncletopia | Chicago | 6 | All Maps","name_short":"chi-6","host":"chi-2.us.uncletopia.com","port":27025,"enabled":true,"region":"us-central","cc":"us","latitude":41.881832,"longitude":-87.62318,"reserved":0,"last_update":"0001-01-01T00:00:00Z","name_a2s":"Uncletopia | Chicago | 6 | All Maps","protocol":17,"map":"pl_barnblitz","folder":"tf","game":"Team Fortress","app_id":440,"player_count":23,"max_players":24,"Bots":0,"server_type":"Dedicated","server_os":"Linux","password":true,"vac":true,"version":"7757534","steam_id":85568392924866363,"keywords":["nocrits","nodmgspread","payload","uncletopia"],"game_id":440,"stv_port":27026,"stv_name":"Uncletopia | Chicago | 6 | All Maps | STV","players":[{"user_id":749,"name":"Kaprinae","steam_id":76561199260109617,"connected_time":1029000000000,"state":"active","ping":74},{"user_id":755,"name":"Spha","steam_id":76561198796297800,"connected_time":197000000000,"state":"active","ping":90},{"user_id":748,"name":"Derp","steam_id":76561198273609992,"connected_time":1094000000000,"state":"active","ping":46},{"user_id":716,"name":"Dr. Dick","steam_id":76561198138011922,"connected_time":3122000000000,"state":"active","ping":80},{"user_id":707,"name":"finkle","steam_id":76561198388089772,"connected_time":3756000000000,"state":"active","ping":82},{"user_id":744,"name":"Lazulf","steam_id":76561198041410859,"connected_time":1241000000000,"state":"active","ping":102},{"user_id":756,"name":"terrorofthedeep","steam_id":76561198071669784,"connected_time":195000000000,"state":"active","ping":68},{"user_id":679,"name":"Nodin","steam_id":76561198135757376,"connected_time":6589000000000,"state":"active","ping":60},{"user_id":757,"name":"shiro‚ùÄ","steam_id":76561198111940278,"connected_time":193000000000,"state":"active","ping":57},{"user_id":758,"name":"concrete_car","steam_id":76561198388207363,"connected_time":187000000000,"state":"active","ping":86},{"user_id":759,"name":"b.net queue waiter","steam_id":76561197968787431,"connected_time":184000000000,"state":"active","ping":100},{"user_id":760,"name":"swam","steam_id":76561198130042600,"connected_time":176000000000,"state":"active","ping":59},{"user_id":761,"name":"MjrMovnTARGET","steam_id":76561199125908849,"connected_time":155000000000,"state":"active","ping":78},{"user_id":750,"name":"PlagueScript","steam_id":76561198450234626,"connected_time":1027000000000,"state":"active","ping":106},{"user_id":762,"name":"rice white","steam_id":76561198320732910,"connected_time":129000000000,"state":"active","ping":79},{"user_id":738,"name":"Pontifex","steam_id":76561198013016489,"connected_time":2164000000000,"state":"active","ping":87},{"user_id":764,"name":"Sarbanes-Oxley","steam_id":76561197975898479,"connected_time":59000000000,"state":"active","ping":79},{"user_id":718,"name":"Thequirka","steam_id":76561198968058652,"connected_time":3101000000000,"state":"active","ping":92},{"user_id":732,"name":"BernardBull","steam_id":76561198036138813,"connected_time":2390000000000,"state":"active","ping":80},{"user_id":752,"name":"Rowan","steam_id":76561199002411211,"connected_time":981000000000,"state":"active","ping":75},{"user_id":763,"name":"hestus","steam_id":76561199132268907,"connected_time":112000000000,"state":"active","ping":57},{"user_id":753,"name":"Lathbalrog","steam_id":76561198065320667,"connected_time":482000000000,"state":"active","ping":110},{"user_id":735,"name":"Fiendish Frog","steam_id":76561198029478821,"connected_time":2316000000000,"state":"active","ping":71}]},{"server_id":38,"name":"Uncletopia | Chicago | 7 | Stopwatch Beta","name_short":"chi-7","host":"chi-2.us.uncletopia.com","port":27035,"enabled":true,"region":"us-central","cc":"us","latitude":41.881832,"longitude":-87.62318,"reserved":0,"last_update":"0001-01-01T00:00:00Z","name_a2s":"Uncletopia | Chicago | 7 | Stopwatch Beta","protocol":17,"map":"koth_lakeside_final","folder":"tf","game":"Team Fortress","app_id":440,"player_count":0,"max_players":24,"Bots":0,"server_type":"Dedicated","server_os":"Linux","password":true,"vac":true,"version":"7757534","steam_id":85568392924866364,"keywords":["cp","nocrits","nodmgspread","uncletopia"],"game_id":440,"stv_port":27036,"stv_name":"Uncletopia | Chicago | 7 | Stopwatch Beta | STV","players":null},{"server_id":39,"name":"Uncletopia | Chicago | 8 | Community","name_short":"chi-8","host":"chi-2.us.uncletopia.com","port":27045,"enabled":true,"region":"us-central","cc":"us","latitude":41.881832,"longitude":-87.62318,"reserved":0,"last_update":"0001-01-01T00:00:00Z","name_a2s":"Uncletopia | Chicago | 8 | Community","protocol":17,"map":"workshop/rd_asteroid_redux_b1.ugc2154902912","folder":"tf","game":"Team Fortress","app_id":440,"player_count":0,"max_players":24,"Bots":0,"server_type":"Dedicated","server_os":"Linux","password":true,"vac":true,"version":"7757534","steam_id":85568392924866365,"keywords":["beta","nocrits","nodmgspread","rd","uncletopia"],"game_id":440,"stv_port":27046,"stv_name":"Uncletopia | Chicago | 8 | Community | STV","players":null},{"server_id":8,"name":"Uncletopia | Dallas | 1 | All Maps","name_short":"dal-1","host":"dal-1.us.uncletopia.com","port":27015,"enabled":true,"region":"us-central","cc":"us","latitude":32.779167,"longitude":-96.80889,"reserved":0,"last_update":"0001-01-01T00:00:00Z","name_a2s":"Uncletopia | Dallas | 1 | All Maps","protocol":17,"map":"cp_dustbowl","folder":"tf","game":"Team Fortress","app_id":440,"player_count":23,"max_players":24,"Bots":0,"server_type":"Dedicated","server_os":"Linux","password":true,"vac":true,"version":"7757534","steam_id":85568392924469986,"keywords":["cp","nocrits","nodmgspread","uncletopia"],"game_id":440,"stv_port":27016,"stv_name":"Uncletopia | Dallas | 1 | All Maps | STV","players":[{"user_id":487,"name":"Shrub Lord","steam_id":76561198091518412,"connected_time":1703000000000,"state":"active","ping":62},{"user_id":486,"name":"Crossing Jupiter","steam_id":76561198030126031,"connected_time":1867000000000,"state":"active","ping":66},{"user_id":456,"name":"Demianeithor","steam_id":76561198800036537,"connected_time":5340000000000,"state":"active","ping":61},{"user_id":465,"name":"Pleiades, the Sorceror","steam_id":76561198079590693,"connected_time":4758000000000,"state":"active","ping":62},{"user_id":499,"name":"magnolia","steam_id":76561199228865188,"connected_time":465000000000,"state":"active","ping":38},{"user_id":421,"name":"Ryo31337","steam_id":76561198063083553,"connected_time":9154000000000,"state":"active","ping":59},{"user_id":414,"name":"Rosemaryüåô ÂπΩÈúä [ 1 9 9 8 ","steam_id":76561198807726226,"connected_time":9685000000000,"state":"active","ping":110},{"user_id":455,"name":"Jelpo","steam_id":76561198406920072,"connected_time":5352000000000,"state":"active","ping":73},{"user_id":451,"name":"[LINUX] Purple Penguin Pybro","steam_id":76561198093538786,"connected_time":6178000000000,"state":"active","ping":46},{"user_id":483,"name":"SPREAD CHRISTMAS CHEER AND JOY","steam_id":76561198800386026,"connected_time":1981000000000,"state":"active","ping":95},{"user_id":492,"name":"NOT Susie Deltarune (not real)","steam_id":76561199007365488,"connected_time":1496000000000,"state":"active","ping":70},{"user_id":431,"name":"[ŸäŸáŸàÿØŸä] Bill Clinton [◊ê◊ú","steam_id":76561198163291190,"connected_time":7926000000000,"state":"active","ping":87},{"user_id":485,"name":"roma","steam_id":76561198028811916,"connected_time":1913000000000,"state":"active","ping":60},{"user_id":476,"name":"Jared In Target","steam_id":76561198372449718,"connected_time":3501000000000,"state":"active","ping":56},{"user_id":500,"name":"Frontier Psychiatrist","steam_id":76561198038689088,"connected_time":462000000000,"state":"active","ping":87},{"user_id":501,"name":"GregGaming098","steam_id":76561198882415360,"connected_time":453000000000,"state":"active","ping":120},{"user_id":496,"name":"Lugin","steam_id":76561198312363401,"connected_time":691000000000,"state":"active","ping":65},{"user_id":497,"name":"Camohno","steam_id":76561198283519918,"connected_time":677000000000,"state":"active","ping":91},{"user_id":459,"name":"Miss Pauling Gaming","steam_id":76561198078479083,"connected_time":5182000000000,"state":"active","ping":60},{"user_id":493,"name":"LunchTrae","steam_id":76561198041578886,"connected_time":1465000000000,"state":"active","ping":58},{"user_id":502,"name":"Sexy Julian","steam_id":76561198024596083,"connected_time":266000000000,"state":"active","ping":109},{"user_id":491,"name":"Nerd, E","steam_id":76561198185873128,"connected_time":1667000000000,"state":"active","ping":52},{"user_id":460,"name":"Tako","steam_id":76561199264073138,"connected_time":5182000000000,"state":"active","ping":66}]},{"server_id":108,"name":"Uncletopia | Dallas | 2 | All Maps","name_short":"dal-2","host":"dal-1.us.uncletopia.com","port":27025,"enabled":true,"region":"us-central","cc":"us","latitude":32.779167,"longitude":-96.80889,"reserved":0,"last_update":"0001-01-01T00:00:00Z","name_a2s":"Uncletopia | Dallas | 2 | All Maps","protocol":17,"map":"pl_pier","folder":"tf","game":"Team Fortress","app_id":440,"player_count":22,"max_players":24,"Bots":0,"server_type":"Dedicated","server_os":"Linux","password":true,"vac":true,"version":"7757534","steam_id":85568392924469988,"keywords":["nocrits","nodmgspread","payload","uncletopia"],"game_id":440,"stv_port":27026,"stv_name":"Uncletopia | Dallas | 2 | All Maps | STV","players":[{"user_id":255,"name":"your mom calls me princess too","steam_id":76561198020400899,"connected_time":7290000000000,"state":"active","ping":49},{"user_id":270,"name":"FearTheJynx","steam_id":76561198136487957,"connected_time":5843000000000,"state":"active","ping":60},{"user_id":335,"name":"I Am Alpharius","steam_id":76561198033100226,"connected_time":855000000000,"state":"active","ping":101},{"user_id":340,"name":"Top Score","steam_id":76561197998396236,"connected_time":213000000000,"state":"active","ping":50},{"user_id":341,"name":"Fish Enjoyer","steam_id":76561198300458561,"connected_time":197000000000,"state":"active","ping":76},{"user_id":343,"name":"sara, boylady","steam_id":76561198283462369,"connected_time":175000000000,"state":"active","ping":74},{"user_id":342,"name":"Imperial","steam_id":76561198110985759,"connected_time":197000000000,"state":"active","ping":101},{"user_id":344,"name":"Etomb","steam_id":76561198210017208,"connected_time":113000000000,"state":"active","ping":73},{"user_id":338,"name":"EatSports","steam_id":76561198009384115,"connected_time":322000000000,"state":"active","ping":55},{"user_id":256,"name":"Poopie Babie","steam_id":76561198047500494,"connected_time":7282000000000,"state":"active","ping":54},{"user_id":345,"name":"Mrpeagod","steam_id":76561198138985101,"connected_time":50000000000,"state":"active","ping":86},{"user_id":303,"name":"DotA Psychologist","steam_id":76561198052171640,"connected_time":3463000000000,"state":"active","ping":71},{"user_id":346,"name":"B/S/SuperBoofOG","steam_id":76561197992030936,"connected_time":24000000000,"state":"active","ping":75},{"user_id":339,"name":"∆ê’å—¥∆≥","steam_id":76561198099470277,"connected_time":227000000000,"state":"active","ping":80},{"user_id":347,"name":"Kidzbopsicle","steam_id":76561198047660691,"connected_time":16000000000,"state":"active","ping":76},{"user_id":348,"name":"cook (not cock)","steam_id":76561198073106278,"connected_time":2000000000,"state":"spawning","ping":62},{"user_id":325,"name":"nap","steam_id":76561198162714624,"connected_time":1513000000000,"state":"active","ping":40},{"user_id":310,"name":"bo scrungulus","steam_id":76561198038036122,"connected_time":2497000000000,"state":"active","ping":60},{"user_id":304,"name":"Sup m8","steam_id":76561198081659121,"connected_time":3021000000000,"state":"active","ping":38},{"user_id":302,"name":"NoShen","steam_id":76561198147434663,"connected_time":3847000000000,"state":"active","ping":58},{"user_id":89,"name":"Ghaeril","steam_id":76561198047880019,"connected_time":18991000000000,"state":"active","ping":59},{"user_id":312,"name":"https://en.wikipedia.org/","steam_id":76561198261326806,"connected_time":2494000000000,"state":"active","ping":117}]},{"server_id":5,"name":"Uncletopia | Frankfurt | 1 | All Maps","name_short":"frk-1","host":"frk-1.de.uncletopia.com","port":27015,"enabled":true,"region":"eu","cc":"de","latitude":50.110924,"longitude":8.682127,"reserved":0,"last_update":"0001-01-01T00:00:00Z","name_a2s":"Uncletopia | Frankfurt | 1 | All Maps","protocol":17,"map":"pl_badwater","folder":"tf","game":"Team Fortress","app_id":440,"player_count":0,"max_players":24,"Bots":0,"server_type":"Dedicated","server_os":"Linux","password":true,"vac":true,"version":"7757534","steam_id":85568392924469989,"keywords":["nocrits","nodmgspread","payload","uncletopia"],"game_id":440,"stv_port":27016,"stv_name":"Uncletopia | Frankfurt | 1 | All Maps | STV","players":null},{"server_id":110,"name":"Uncletopia | Frankfurt | 2 | All Maps","name_short":"frk-2","host":"frk-1.de.uncletopia.com","port":27025,"enabled":true,"region":"eu","cc":"de","latitude":50.110924,"longitude":8.682127,"reserved":0,"last_update":"0001-01-01T00:00:00Z","name_a2s":"Uncletopia | Frankfurt | 2 | All Maps","protocol":17,"map":"cp_altitude","folder":"tf","game":"Team Fortress","app_id":440,"player_count":0,"max_players":24,"Bots":0,"server_type":"Dedicated","server_os":"Linux","password":true,"vac":true,"version":"7757534","steam_id":85568392924469990,"keywords":["cp","nocrits","nodmgspread","uncletopia"],"game_id":440,"stv_port":27026,"stv_name":"Uncletopia | Frankfurt | 2 | All Maps | STV","players":null},{"server_id":308,"name":"Uncletopia | Frankfurt | 3 | All Maps","name_short":"frk-3","host":"frk-1.de.uncletopia.com","port":27035,"enabled":true,"region":"eu","cc":"de","latitude":50.110924,"longitude":8.682127,"reserved":0,"last_update":"0001-01-01T00:00:00Z","name_a2s":"Uncletopia | Frankfurt | 3 | All Maps","protocol":17,"map":"pl_borneo","folder":"tf","game":"Team Fortress","app_id":440,"player_count":0,"max_players":24,"Bots":0,"server_type":"Dedicated","server_os":"Linux","password":true,"vac":true,"version":"7757534","steam_id":85568392924504274,"keywords":["nocrits","nodmgspread","payload","uncletopia"],"game_id":440,"stv_port":27036,"stv_name":"Uncletopia | Frankfurt | 3 | All Maps | STV","players":null},{"server_id":309,"name":"Uncletopia | Frankfurt | 4 | All Maps","name_short":"frk-4","host":"frk-1.de.uncletopia.com","port":27045,"enabled":true,"region":"eu","cc":"de","latitude":50.110924,"longitude":8.682127,"reserved":0,"last_update":"0001-01-01T00:00:00Z","name_a2s":"Uncletopia | Frankfurt | 4 | All Maps","protocol":17,"map":"pl_pier","folder":"tf","game":"Team Fortress","app_id":440,"player_count":0,"max_players":24,"Bots":0,"server_type":"Dedicated","server_os":"Linux","password":true,"vac":true,"version":"7757534","steam_id":85568392924504275,"keywords":["nocrits","nodmgspread","payload","uncletopia"],"game_id":440,"stv_port":27046,"stv_name":"Uncletopia | Frankfurt | 4 | All Maps | STV","players":null},{"server_id":310,"name":"Uncletopia | Frankfurt | 5 | All Maps","name_short":"frk-5","host":"frk-1.de.uncletopia.com","port":27055,"enabled":true,"region":"eu","cc":"de","latitude":50.110924,"longitude":8.682127,"reserved":0,"last_update":"0001-01-01T00:00:00Z","name_a2s":"Uncletopia | Frankfurt | 5 | All Maps","protocol":17,"map":"cp_altitude","folder":"tf","game":"Team Fortress","app_id":440,"player_count":0,"max_players":24,"Bots":0,"server_type":"Dedicated","server_os":"Linux","password":true,"vac":true,"version":"7757534","steam_id":85568392924504277,"keywords":["cp","nocrits","nodmgspread","uncletopia"],"game_id":440,"stv_port":27056,"stv_name":"Uncletopia | Frankfurt | 5 | All Maps | STV","players":null},{"server_id":311,"name":"Uncletopia | Frankfurt | 6 | All Maps","name_short":"frk-6","host":"frk-1.de.uncletopia.com","port":27065,"enabled":true,"region":"eu","cc":"de","latitude":50.110924,"longitude":8.682127,"reserved":0,"last_update":"0001-01-01T00:00:00Z","name_a2s":"Uncletopia | Frankfurt | 6 | All Maps","protocol":17,"map":"pl_barnblitz","folder":"tf","game":"Team Fortress","app_id":440,"player_count":0,"max_players":24,"Bots":0,"server_type":"Dedicated","server_os":"Linux","password":true,"vac":true,"version":"7757534","steam_id":85568392924504278,"keywords":["nocrits","nodmgspread","payload","uncletopia"],"game_id":440,"stv_port":27066,"stv_name":"Uncletopia | Frankfurt | 6 | All Maps | STV","players":null},{"server_id":23,"name":"Uncletopia | Frankfurt | 7 | Stopwatch Beta","name_short":"frk-7","host":"frk-1.de.uncletopia.com","port":27075,"enabled":true,"region":"eu","cc":"de","latitude":50.110924,"longitude":8.682127,"reserved":0,"last_update":"0001-01-01T00:00:00Z","name_a2s":"Uncletopia | Frankfurt | 7 | Stopwatch Beta","protocol":17,"map":"pl_borneo","folder":"tf","game":"Team Fortress","app_id":440,"player_count":0,"max_players":24,"Bots":0,"server_type":"Dedicated","server_os":"Linux","password":true,"vac":true,"version":"7757534","steam_id":85568392924742827,"keywords":["nocrits","nodmgspread","payload","uncletopia"],"game_id":440,"stv_port":27076,"stv_name":"Uncletopia | Frankfurt | 7 | Stopwatch Beta | STV","players":null},{"server_id":24,"name":"Uncletopia | Frankfurt | 8 | Community","name_short":"frk-8","host":"frk-1.de.uncletopia.com","port":27085,"enabled":true,"region":"eu","cc":"de","latitude":50.110924,"longitude":8.682127,"reserved":0,"last_update":"0001-01-01T00:00:00Z","name_a2s":"Uncletopia | Frankfurt | 8 | Community","protocol":17,"map":"koth_viaduct","folder":"tf","game":"Team Fortress","app_id":440,"player_count":0,"max_players":24,"Bots":0,"server_type":"Dedicated","server_os":"Linux","password":true,"vac":true,"version":"7757534","steam_id":85568392924742828,"keywords":["cp","nocrits","nodmgspread","uncletopia"],"game_id":440,"stv_port":27086,"stv_name":"Uncletopia | Frankfurt | 8 | Community | STV","players":null},{"server_id":202,"name":"Uncletopia | Hong Kong | 1 | All Maps","name_short":"hgk-1","host":"hgk-1.hk.uncletopia.com","port":27015,"enabled":true,"region":"asia","cc":"hk","latitude":22.302711,"longitude":114.177216,"reserved":0,"last_update":"0001-01-01T00:00:00Z","name_a2s":"Uncletopia | Hong Kong | 1 | All Maps","protocol":17,"map":"cp_snakewater_final1","folder":"tf","game":"Team Fortress","app_id":440,"player_count":0,"max_players":24,"Bots":0,"server_type":"Dedicated","server_os":"Linux","password":true,"vac":true,"version":"7757534","steam_id":85568392924494504,"keywords":["cp","nocrits","nodmgspread","uncletopia"],"game_id":440,"stv_port":27016,"stv_name":"Uncletopia | Hong Kong | 1 | All Maps | STV","players":null},{"server_id":1,"name":"Uncletopia | Los Angeles | 1 | All Maps","name_short":"lax-1","host":"lax-1.us.uncletopia.com","port":27015,"enabled":true,"region":"us-west","cc":"us","latitude":33.94279,"longitude":-118.41004,"reserved":0,"last_update":"0001-01-01T00:00:00Z","name_a2s":"Uncletopia | Los Angeles | 1 | All Maps","protocol":17,"map":"cp_dustbowl","folder":"tf","game":"Team Fortress","app_id":440,"player_count":21,"max_players":24,"Bots":0,"server_type":"Dedicated","server_os":"Linux","password":true,"vac":true,"version":"7757534","steam_id":85568392924469991,"keywords":["cp","nocrits","nodmgspread","uncletopia"],"game_id":440,"stv_port":27016,"stv_name":"Uncletopia | Los Angeles | 1 | All Maps | STV","players":[{"user_id":112,"name":"Demobone Virus","steam_id":76561198044127250,"connected_time":3822000000000,"state":"active","ping":100},{"user_id":119,"name":"Oracle Navi","steam_id":76561198160552593,"connected_time":3591000000000,"state":"active","ping":45},{"user_id":131,"name":"skypad_enjoyer","steam_id":76561198073107739,"connected_time":3218000000000,"state":"active","ping":48},{"user_id":155,"name":"BurningPride","steam_id":76561198080592800,"connected_time":112000000000,"state":"active","ping":69},{"user_id":108,"name":"Lv. 5 Grunt","steam_id":76561198800334545,"connected_time":3874000000000,"state":"active","ping":44},{"user_id":138,"name":"rusle from half kife alyc","steam_id":76561198190962742,"connected_time":2149000000000,"state":"active","ping":85},{"user_id":120,"name":"Haywood Jablowme","steam_id":76561198097721532,"connected_time":3576000000000,"state":"active","ping":47},{"user_id":133,"name":"michard","steam_id":76561198292362552,"connected_time":2705000000000,"state":"active","ping":40},{"user_id":137,"name":"JIGRON","steam_id":76561197998694076,"connected_time":2167000000000,"state":"active","ping":77},{"user_id":111,"name":"DerpyFlapjack31","steam_id":76561198386322393,"connected_time":3834000000000,"state":"active","ping":97},{"user_id":113,"name":"≈ölimak","steam_id":76561198296476784,"connected_time":3810000000000,"state":"active","ping":77},{"user_id":121,"name":"The Arm","steam_id":76561197983066285,"connected_time":3530000000000,"state":"active","ping":69},{"user_id":148,"name":"Superman123389","steam_id":76561198267472539,"connected_time":1707000000000,"state":"active","ping":95},{"user_id":154,"name":"Loashes","steam_id":76561198119608299,"connected_time":237000000000,"state":"active","ping":76},{"user_id":152,"name":"jimbo","steam_id":76561198821535846,"connected_time":811000000000,"state":"active","ping":111},{"user_id":156,"name":"cat biscuits","steam_id":76561198964088854,"connected_time":17000000000,"state":"active","ping":65},{"user_id":141,"name":"dax","steam_id":76561198045335319,"connected_time":2118000000000,"state":"active","ping":106},{"user_id":130,"name":"teh mummy","steam_id":76561198044123636,"connected_time":3288000000000,"state":"active","ping":44},{"user_id":153,"name":"Squatter1","steam_id":76561198078987734,"connected_time":246000000000,"state":"active","ping":78},{"user_id":68,"name":"Demopirate Virus","steam_id":76561198050159379,"connected_time":7218000000000,"state":"active","ping":90},{"user_id":149,"name":"xs","steam_id":76561198106938500,"connected_time":1341000000000,"state":"active","ping":47}]},{"server_id":112,"name":"Uncletopia | Los Angeles | 2 | All Maps","name_short":"lax-2","host":"lax-1.us.uncletopia.com","port":27025,"enabled":true,"region":"us-west","cc":"us","latitude":33.94279,"longitude":-118.41004,"reserved":0,"last_update":"0001-01-01T00:00:00Z","name_a2s":"Uncletopia | Los Angeles | 2 | All Maps","protocol":17,"map":"koth_viaduct","folder":"tf","game":"Team Fortress","app_id":440,"player_count":0,"max_players":24,"Bots":0,"server_type":"Dedicated","server_os":"Linux","password":true,"vac":true,"version":"7757534","steam_id":85568392924469992,"keywords":["cp","nocrits","nodmgspread","uncletopia"],"game_id":440,"stv_port":27026,"stv_name":"Uncletopia | Los Angeles | 2 | All Maps | STV","players":null},{"server_id":324,"name":"Uncletopia | Los Angeles | 3 | All Maps","name_short":"lax-3","host":"lax-1.us.uncletopia.com","port":27035,"enabled":true,"region":"us-west","cc":"us","latitude":33.94279,"longitude":-118.41004,"reserved":0,"last_update":"0001-01-01T00:00:00Z","name_a2s":"Uncletopia | Los Angeles | 3 | All Maps","protocol":17,"map":"cp_snakewater_final1","folder":"tf","game":"Team Fortress","app_id":440,"player_count":19,"max_players":24,"Bots":0,"server_type":"Dedicated","server_os":"Linux","password":true,"vac":true,"version":"7757534","steam_id":85568392924510198,"keywords":["cp","nocrits","nodmgspread","uncletopia"],"game_id":440,"stv_port":27036,"stv_name":"Uncletopia | Los Angeles | 3 | All Maps | STV","players":[{"user_id":109,"name":"rmbl","steam_id":76561198150137369,"connected_time":274000000000,"state":"active","ping":45},{"user_id":23,"name":"BroDuck","steam_id":76561198000217789,"connected_time":6103000000000,"state":"active","ping":108},{"user_id":117,"name":"Jovi Boy","steam_id":76561198046605691,"connected_time":35000000000,"state":"active","ping":61},{"user_id":79,"name":"pretty lady","steam_id":76561198042337127,"connected_time":3414000000000,"state":"active","ping":98},{"user_id":111,"name":"navy_jaguar","steam_id":76561198366199909,"connected_time":226000000000,"state":"active","ping":68},{"user_id":118,"name":"HOG RIDER","steam_id":76561198298589502,"connected_time":32000000000,"state":"active","ping":47},{"user_id":25,"name":"Milk Testing Man","steam_id":76561198013841873,"connected_time":6101000000000,"state":"active","ping":129},{"user_id":26,"name":"Gleepdorf","steam_id":76561198027137460,"connected_time":6089000000000,"state":"active","ping":55},{"user_id":28,"name":"Badfish","steam_id":76561198072396970,"connected_time":5991000000000,"state":"active","ping":65},{"user_id":73,"name":"BreadQuest","steam_id":76561198082425960,"connected_time":3749000000000,"state":"active","ping":70},{"user_id":58,"name":"walterhwhite","steam_id":76561199433675789,"connected_time":4166000000000,"state":"spawning","ping":38},{"user_id":115,"name":"Endoflobbywaittime","steam_id":76561199457528443,"connected_time":85000000000,"state":"active","ping":768},{"user_id":87,"name":"\u003c3 grace","steam_id":76561198087472085,"connected_time":2564000000000,"state":"active","ping":49},{"user_id":116,"name":"Frogzilla","steam_id":76561198077657538,"connected_time":83000000000,"state":"active","ping":159},{"user_id":54,"name":"no trouble at all","steam_id":76561198138221795,"connected_time":4859000000000,"state":"active","ping":104},{"user_id":85,"name":"Fxyne","steam_id":76561198034309811,"connected_time":2623000000000,"state":"active","ping":58},{"user_id":114,"name":"PTSleepyHead","steam_id":76561198037748705,"connected_time":147000000000,"state":"active","ping":30},{"user_id":86,"name":"Dasscoo","steam_id":76561197980369487,"connected_time":2604000000000,"state":"active","ping":56},{"user_id":101,"name":"Ruben","steam_id":76561199447260597,"connected_time":914000000000,"state":"active","ping":84}]},{"server_id":25,"name":"Uncletopia | Los Angeles | 4 | Stopwatch Beta","name_short":"lax-4","host":"lax-1.us.uncletopia.com","port":27045,"enabled":true,"region":"us-west","cc":"us","latitude":33.94279,"longitude":-118.41004,"reserved":0,"last_update":"0001-01-01T00:00:00Z","name_a2s":"Uncletopia | Los Angeles | 4 | Stopwatch Beta","protocol":17,"map":"workshop/koth_clearcut_b15.ugc2107050255","folder":"tf","game":"Team Fortress","app_id":440,"player_count":0,"max_players":24,"Bots":0,"server_type":"Dedicated","server_os":"Linux","password":true,"vac":true,"version":"7757534","steam_id":85568392924510199,"keywords":["cp","nocrits","nodmgspread","uncletopia"],"game_id":440,"stv_port":27046,"stv_name":"Uncletopia | Los Angeles | 4 | Stopwatch Beta | STV","players":null},{"server_id":11,"name":"Uncletopia | London | 1 | All Maps","name_short":"lon-1","host":"lon-1.uk.uncletopia.com","port":27015,"enabled":true,"region":"eu","cc":"gb","latitude":51.509865,"longitude":-0.118092,"reserved":0,"last_update":"0001-01-01T00:00:00Z","name_a2s":"Uncletopia | London | 1 | All Maps","protocol":17,"map":"pl_frontier_final","folder":"tf","game":"Team Fortress","app_id":440,"player_count":0,"max_players":24,"Bots":0,"server_type":"Dedicated","server_os":"Linux","password":true,"vac":true,"version":"7757534","steam_id":85568392924367362,"keywords":["nocrits","nodmgspread","payload","uncletopia"],"game_id":440,"stv_port":27016,"stv_name":"Uncletopia | London | 1 | All Maps | STV","players":null},{"server_id":114,"name":"Uncletopia | London | 2 | All Maps","name_short":"lon-2","host":"lon-1.uk.uncletopia.com","port":27025,"enabled":true,"region":"eu","cc":"gb","latitude":51.509865,"longitude":-0.118092,"reserved":0,"last_update":"0001-01-01T00:00:00Z","name_a2s":"Uncletopia | London | 2 | All Maps","protocol":17,"map":"pl_barnblitz","folder":"tf","game":"Team Fortress","app_id":440,"player_count":0,"max_players":24,"Bots":0,"server_type":"Dedicated","server_os":"Linux","password":true,"vac":true,"version":"7757534","steam_id":85568392924470941,"keywords":["nocrits","nodmgspread","payload","uncletopia"],"game_id":440,"stv_port":27026,"stv_name":"Uncletopia | London | 2 | All Maps | STV","players":null},{"server_id":320,"name":"Uncletopia | London | 3 | All Maps","name_short":"lon-3","host":"lon-1.uk.uncletopia.com","port":27035,"enabled":true,"region":"eu","cc":"gb","latitude":51.509865,"longitude":-0.118092,"reserved":0,"last_update":"0001-01-01T00:00:00Z","name_a2s":"Uncletopia | London | 3 | All Maps","protocol":17,"map":"pl_swiftwater_final1","folder":"tf","game":"Team Fortress","app_id":440,"player_count":0,"max_players":24,"Bots":0,"server_type":"Dedicated","server_os":"Linux","password":true,"vac":true,"version":"7757534","steam_id":85568392924510192,"keywords":["nocrits","nodmgspread","payload","uncletopia"],"game_id":440,"stv_port":27036,"stv_name":"Uncletopia | London | 3 | All Maps | STV","players":null},{"server_id":321,"name":"Uncletopia | London | 4 | All Maps","name_short":"lon-4","host":"lon-1.uk.uncletopia.com","port":27045,"enabled":true,"region":"eu","cc":"gb","latitude":51.509865,"longitude":-0.118092,"reserved":0,"last_update":"0001-01-01T00:00:00Z","name_a2s":"Uncletopia | London | 4 | All Maps","protocol":17,"map":"cp_dustbowl","folder":"tf","game":"Team Fortress","app_id":440,"player_count":0,"max_players":24,"Bots":0,"server_type":"Dedicated","server_os":"Linux","password":true,"vac":true,"version":"7757534","steam_id":85568392924510193,"keywords":["cp","nocrits","nodmgspread","uncletopia"],"game_id":440,"stv_port":27046,"stv_name":"Uncletopia | London | 4 | All Maps | STV","players":null},{"server_id":21,"name":"Uncletopia | London | 5 | All Maps","name_short":"lon-5","host":"lon-1.uk.uncletopia.com","port":27055,"enabled":true,"region":"eu","cc":"gb","latitude":51.509865,"longitude":-0.118092,"reserved":0,"last_update":"0001-01-01T00:00:00Z","name_a2s":"Uncletopia | London | 5 | All Maps","protocol":17,"map":"cp_altitude","folder":"tf","game":"Team Fortress","app_id":440,"player_count":0,"max_players":24,"Bots":0,"server_type":"Dedicated","server_os":"Linux","password":true,"vac":true,"version":"7757534","steam_id":85568392924742829,"keywords":["cp","nocrits","nodmgspread","uncletopia"],"game_id":440,"stv_port":27056,"stv_name":"Uncletopia | London | 5 | All Maps | STV","players":null},{"server_id":22,"name":"Uncletopia | London | 6 | All Maps","name_short":"lon-6","host":"lon-1.uk.uncletopia.com","port":27065,"enabled":true,"region":"eu","cc":"gb","latitude":51.509865,"longitude":-0.118092,"reserved":0,"last_update":"0001-01-01T00:00:00Z","name_a2s":"Uncletopia | London | 6 | All Maps","protocol":17,"map":"cp_altitude","folder":"tf","game":"Team Fortress","app_id":440,"player_count":0,"max_players":24,"Bots":0,"server_type":"Dedicated","server_os":"Linux","password":true,"vac":true,"version":"7757534","steam_id":85568392924742830,"keywords":["cp","nocrits","nodmgspread","uncletopia"],"game_id":440,"stv_port":27066,"stv_name":"Uncletopia | London | 6 | All Maps | STV","players":null},{"server_id":40,"name":"Uncletopia | London | 7 | No Payload","name_short":"lon-7","host":"lon-1.uk.uncletopia.com","port":27075,"enabled":true,"region":"eu","cc":"gb","latitude":51.509865,"longitude":-0.118092,"reserved":0,"last_update":"0001-01-01T00:00:00Z","name_a2s":"Uncletopia | London | 7 | No Payload","protocol":17,"map":"koth_highpass","folder":"tf","game":"Team Fortress","app_id":440,"player_count":0,"max_players":24,"Bots":0,"server_type":"Dedicated","server_os":"Linux","password":true,"vac":true,"version":"7757534","steam_id":85568392924964314,"keywords":["cp","nocrits","nodmgspread","uncletopia"],"game_id":440,"stv_port":27076,"stv_name":"Uncletopia | London | 7 | No Payload | STV","players":null},{"server_id":41,"name":"Uncletopia | London | 8 | Community","name_short":"lon-8","host":"lon-1.uk.uncletopia.com","port":27085,"enabled":true,"region":"eu","cc":"gb","latitude":51.509865,"longitude":-0.118092,"reserved":0,"last_update":"0001-01-01T00:00:00Z","name_a2s":"Uncletopia | London | 8 | Community","protocol":17,"map":"workshop/rd_asteroid_redux_b1.ugc2154902912","folder":"tf","game":"Team Fortress","app_id":440,"player_count":0,"max_players":24,"Bots":0,"server_type":"Dedicated","server_os":"Linux","password":true,"vac":true,"version":"7757534","steam_id":85568392924964315,"keywords":["beta","nocrits","nodmgspread","rd","uncletopia"],"game_id":440,"stv_port":27086,"stv_name":"Uncletopia | London | 8 | Community | STV","players":null},{"server_id":300,"name":"Uncletopia | Montr√©al | 1 | All Maps","name_short":"mtl-1","host":"mtl-1.ca.uncletopia.com","port":27015,"enabled":true,"region":"us-east","cc":"ca","latitude":45.50889,"longitude":-73.56167,"reserved":0,"last_update":"0001-01-01T00:00:00Z","name_a2s":"Uncletopia | Montr√©al | 1 | All Maps","protocol":17,"map":"koth_highpass","folder":"tf","game":"Team Fortress","app_id":440,"player_count":0,"max_players":24,"Bots":0,"server_type":"Dedicated","server_os":"Linux","password":true,"vac":true,"version":"7757534","steam_id":85568392924500087,"keywords":["cp","nocrits","nodmgspread","uncletopia"],"game_id":440,"stv_port":27016,"stv_name":"Uncletopia | Montr√©al | 1 | All Maps | STV","players":null},{"server_id":301,"name":"Uncletopia | Montr√©al | 2 | All Maps","name_short":"mtl-2","host":"mtl-1.ca.uncletopia.com","port":27025,"enabled":true,"region":"us-east","cc":"ca","latitude":45.50889,"longitude":-73.56167,"reserved":0,"last_update":"0001-01-01T00:00:00Z","name_a2s":"Uncletopia | Montr√©al | 2 | All Maps","protocol":17,"map":"cp_mountainlab","folder":"tf","game":"Team Fortress","app_id":440,"player_count":0,"max_players":24,"Bots":0,"server_type":"Dedicated","server_os":"Linux","password":true,"vac":true,"version":"7757534","steam_id":85568392924500088,"keywords":["cp","nocrits","nodmgspread","uncletopia"],"game_id":440,"stv_port":27026,"stv_name":"Uncletopia | Montr√©al | 2 | All Maps | STV","players":null},{"server_id":302,"name":"Uncletopia | Montr√©al | 3 | All Maps","name_short":"mtl-3","host":"mtl-1.ca.uncletopia.com","port":27035,"enabled":true,"region":"us-east","cc":"ca","latitude":45.50889,"longitude":-73.56167,"reserved":0,"last_update":"0001-01-01T00:00:00Z","name_a2s":"Uncletopia | Montr√©al | 3 | All Maps","protocol":17,"map":"cp_dustbowl","folder":"tf","game":"Team Fortress","app_id":440,"player_count":0,"max_players":24,"Bots":0,"server_type":"Dedicated","server_os":"Linux","password":true,"vac":true,"version":"7757534","steam_id":85568392924500089,"keywords":["cp","nocrits","nodmgspread","uncletopia"],"game_id":440,"stv_port":27036,"stv_name":"Uncletopia | Montr√©al | 3 | All Maps | STV","players":null},{"server_id":303,"name":"Uncletopia | Montr√©al | 4 | No Payload","name_short":"mtl-4","host":"mtl-1.ca.uncletopia.com","port":27045,"enabled":true,"region":"us-east","cc":"ca","latitude":45.50889,"longitude":-73.56167,"reserved":0,"last_update":"0001-01-01T00:00:00Z","name_a2s":"Uncletopia | Montr√©al | 4 | No Payload","protocol":17,"map":"koth_highpass","folder":"tf","game":"Team Fortress","app_id":440,"player_count":0,"max_players":24,"Bots":0,"server_type":"Dedicated","server_os":"Linux","password":true,"vac":true,"version":"7757534","steam_id":85568392924500090,"keywords":["cp","nocrits","nodmgspread","uncletopia"],"game_id":440,"stv_port":27046,"stv_name":"Uncletopia | Montr√©al | 4 | No Payload | STV","players":null},{"server_id":13,"name":"Uncletopia | New York City | 1 | All Maps","name_short":"nyc-1","host":"nyc-1.us.uncletopia.com","port":27015,"enabled":true,"region":"us-east","cc":"us","latitude":40.73061,"longitude":-73.93524,"reserved":0,"last_update":"0001-01-01T00:00:00Z","name_a2s":"Uncletopia | New York City | 1 | All Maps","protocol":17,"map":"cp_steel","folder":"tf","game":"Team Fortress","app_id":440,"player_count":3,"max_players":24,"Bots":0,"server_type":"Dedicated","server_os":"Linux","password":true,"vac":true,"version":"7757534","steam_id":85568392924469993,"keywords":["cp","nocrits","nodmgspread","uncletopia"],"game_id":440,"stv_port":27016,"stv_name":"Uncletopia | New York City | 1 | All Maps | STV","players":[{"user_id":362,"name":"Irregulars","steam_id":76561198048498230,"connected_time":5000000000,"state":"spawning","ping":29},{"user_id":357,"name":"Average Engineer Main","steam_id":76561197999657118,"connected_time":914000000000,"state":"active","ping":64},{"user_id":345,"name":"Lain","steam_id":76561198252784944,"connected_time":1970000000000,"state":"active","ping":109}]},{"server_id":14,"name":"Uncletopia | New York City | 2 | All Maps","name_short":"nyc-2","host":"nyc-1.us.uncletopia.com","port":27025,"enabled":true,"region":"us-east","cc":"us","latitude":40.73061,"longitude":-73.93524,"reserved":0,"last_update":"0001-01-01T00:00:00Z","name_a2s":"Uncletopia | New York City | 2 | All Maps","protocol":17,"map":"pl_pier","folder":"tf","game":"Team Fortress","app_id":440,"player_count":24,"max_players":24,"Bots":0,"server_type":"Dedicated","server_os":"Linux","password":true,"vac":true,"version":"7757534","steam_id":85568392924469994,"keywords":["nocrits","nodmgspread","payload","uncletopia"],"game_id":440,"stv_port":27026,"stv_name":"Uncletopia | New York City | 2 | All Maps | STV","players":[{"user_id":651,"name":"Protato","steam_id":76561198061182563,"connected_time":2772000000000,"state":"active","ping":58},{"user_id":688,"name":"Winners Don't Need Hats","steam_id":76561198860271526,"connected_time":308000000000,"state":"active","ping":158},{"user_id":683,"name":"Maxxycat","steam_id":76561198194062681,"connected_time":893000000000,"state":"active","ping":75},{"user_id":685,"name":"last_apoc","steam_id":76561197974910911,"connected_time":808000000000,"state":"active","ping":72},{"user_id":649,"name":"M.L.JEW","steam_id":76561198997375055,"connected_time":3045000000000,"state":"active","ping":76},{"user_id":659,"name":"captaincaptain","steam_id":76561198135644587,"connected_time":2222000000000,"state":"active","ping":86},{"user_id":686,"name":"heimdall","steam_id":76561198069380992,"connected_time":567000000000,"state":"active","ping":97},{"user_id":687,"name":"Bee","steam_id":76561198074681324,"connected_time":473000000000,"state":"active","ping":44},{"user_id":657,"name":"Iron","steam_id":76561198247918478,"connected_time":2254000000000,"state":"active","ping":70},{"user_id":680,"name":"WitheringLeo","steam_id":76561198046722918,"connected_time":1405000000000,"state":"active","ping":58},{"user_id":689,"name":"Big Game Dutch","steam_id":76561198186623082,"connected_time":289000000000,"state":"active","ping":72},{"user_id":669,"name":"Ping","steam_id":76561199206514106,"connected_time":1879000000000,"state":"active","ping":74},{"user_id":690,"name":"RoSpore","steam_id":76561198141816134,"connected_time":281000000000,"state":"active","ping":64},{"user_id":691,"name":"Titan Tezwa","steam_id":76561198030320618,"connected_time":262000000000,"state":"active","ping":79},{"user_id":692,"name":"Crate","steam_id":76561198216807112,"connected_time":207000000000,"state":"active","ping":45},{"user_id":640,"name":"Wallem","steam_id":76561198052361822,"connected_time":3751000000000,"state":"active","ping":59},{"user_id":695,"name":"Horrizan","steam_id":76561197965028480,"connected_time":84000000000,"state":"active","ping":97},{"user_id":641,"name":"wiiblob","steam_id":76561198109106242,"connected_time":3617000000000,"state":"active","ping":140},{"user_id":673,"name":"Ziath","steam_id":76561198094009164,"connected_time":1832000000000,"state":"active","ping":52},{"user_id":694,"name":"scuttle bucket","steam_id":76561198100910016,"connected_time":150000000000,"state":"active","ping":114},{"user_id":676,"name":"the real babytron","steam_id":76561197989627918,"connected_time":1729000000000,"state":"active","ping":76},{"user_id":684,"name":"A Puppy","steam_id":76561198828184456,"connected_time":873000000000,"state":"active","ping":48},{"user_id":696,"name":"Cornelius","steam_id":76561198123447388,"connected_time":73000000000,"state":"active","ping":75},{"user_id":682,"name":"mystical spy","steam_id":76561198100932886,"connected_time":1113000000000,"state":"active","ping":115}]},{"server_id":15,"name":"Uncletopia | New York City | 3 | Stopwatch Beta","name_short":"nyc-3","host":"nyc-1.us.uncletopia.com","port":27035,"enabled":true,"region":"us-east","cc":"us","latitude":40.73061,"longitude":-73.93524,"reserved":0,"last_update":"0001-01-01T00:00:00Z","name_a2s":"Uncletopia | New York City | 3 | Stopwatch Beta","protocol":17,"map":"koth_lakeside_final","folder":"tf","game":"Team Fortress","app_id":440,"player_count":0,"max_players":24,"Bots":0,"server_type":"Dedicated","server_os":"Linux","password":true,"vac":true,"version":"7757534","steam_id":85568392924742820,"keywords":["cp","nocrits","nodmgspread","uncletopia"],"game_id":440,"stv_port":27036,"stv_name":"Uncletopia | New York City | 3 | Stopwatch Beta | STV","players":null},{"server_id":16,"name":"Uncletopia | New York City | 4 | Community","name_short":"nyc-4","host":"nyc-1.us.uncletopia.com","port":27045,"enabled":true,"region":"us-east","cc":"us","latitude":40.73061,"longitude":-73.93524,"reserved":0,"last_update":"0001-01-01T00:00:00Z","name_a2s":"Uncletopia | New York City | 4 | Community","protocol":17,"map":"workshop/cp_propaganda_b18.ugc1603743849","folder":"tf","game":"Team Fortress","app_id":440,"player_count":0,"max_players":24,"Bots":0,"server_type":"Dedicated","server_os":"Linux","password":true,"vac":true,"version":"7757534","steam_id":85568392924742821,"keywords":["cp","nocrits","nodmgspread","uncletopia"],"game_id":440,"stv_port":27046,"stv_name":"Uncletopia | New York City | 4 | Community | STV","players":null},{"server_id":142,"name":"Uncletopia | S√£o Paulo | 1 | All Maps","name_short":"sao-1","host":"sao-1.br.uncletopia.com","port":27015,"enabled":true,"region":"sa","cc":"br","latitude":-23.533773,"longitude":-46.62529,"reserved":0,"last_update":"0001-01-01T00:00:00Z","name_a2s":"Uncletopia | S√£o Paulo | 1 | All Maps","protocol":17,"map":"koth_cascade","folder":"tf","game":"Team Fortress","app_id":440,"player_count":0,"max_players":24,"Bots":0,"server_type":"Dedicated","server_os":"Linux","password":true,"vac":true,"version":"7757534","steam_id":85568392924469996,"keywords":["cp","nocrits","nodmgspread","uncletopia"],"game_id":440,"stv_port":27016,"stv_name":"Uncletopia | S√£o Paulo | 1 | All Maps | STV","players":null},{"server_id":143,"name":"Uncletopia | S√£o Paulo | 2 | All Maps","name_short":"sao-2","host":"sao-2.br.uncletopia.com","port":27015,"enabled":true,"region":"sa","cc":"br","latitude":-23.533773,"longitude":-46.62529,"reserved":0,"last_update":"0001-01-01T00:00:00Z","name_a2s":"Uncletopia | S√£o Paulo | 2 | All Maps","protocol":17,"map":"koth_viaduct","folder":"tf","game":"Team Fortress","app_id":440,"player_count":0,"max_players":24,"Bots":0,"server_type":"Dedicated","server_os":"Linux","password":true,"vac":true,"version":"7757534","steam_id":85568392924485349,"keywords":["cp","nocrits","nodmgspread","uncletopia"],"game_id":440,"stv_port":27016,"stv_name":"Uncletopia | S√£o Paulo | 2 | All Maps | STV","players":null},{"server_id":7,"name":"Uncletopia | Seattle | 1 | All Maps","name_short":"sea-1","host":"sea-1.us.uncletopia.com","port":27015,"enabled":true,"region":"us-west","cc":"us","latitude":47.608013,"longitude":-122.33517,"reserved":0,"last_update":"0001-01-01T00:00:00Z","name_a2s":"Uncletopia | Seattle | 1 | All Maps","protocol":17,"map":"pl_pier","folder":"tf","game":"Team Fortress","app_id":440,"player_count":24,"max_players":24,"Bots":0,"server_type":"Dedicated","server_os":"Linux","password":true,"vac":true,"version":"7757534","steam_id":85568392924469997,"keywords":["nocrits","nodmgspread","payload","uncletopia"],"game_id":440,"stv_port":27016,"stv_name":"Uncletopia | Seattle | 1 | All Maps | STV","players":[{"user_id":544,"name":"TROY","steam_id":76561197983852176,"connected_time":1747000000000,"state":"active","ping":76},{"user_id":522,"name":"WACKY JIM","steam_id":76561198961641122,"connected_time":3840000000000,"state":"active","ping":57},{"user_id":540,"name":"Vile","steam_id":76561198085615710,"connected_time":1811000000000,"state":"active","ping":92},{"user_id":537,"name":"Archimedes!","steam_id":76561199446023933,"connected_time":1857000000000,"state":"active","ping":79},{"user_id":549,"name":"Truffles","steam_id":76561198095868800,"connected_time":241000000000,"state":"active","ping":114},{"user_id":551,"name":"THAT CAT","steam_id":76561198010828625,"connected_time":203000000000,"state":"active","ping":31},{"user_id":497,"name":"p9 SUNLIT WITCH ANARCHY GATHER","steam_id":76561198131166135,"connected_time":7139000000000,"state":"active","ping":44},{"user_id":523,"name":"brrbrrbrrbrrbrr","steam_id":76561198095480838,"connected_time":3819000000000,"state":"active","ping":42},{"user_id":555,"name":"shane","steam_id":76561198060491451,"connected_time":187000000000,"state":"active","ping":92},{"user_id":559,"name":"Xenagos","steam_id":76561198045678290,"connected_time":134000000000,"state":"active","ping":56},{"user_id":524,"name":"Strikerbolt","steam_id":76561199095622897,"connected_time":3809000000000,"state":"active","ping":90},{"user_id":552,"name":"Nolan","steam_id":76561198169648081,"connected_time":203000000000,"state":"active","ping":101},{"user_id":483,"name":"Flyingcat9000","steam_id":76561198179561797,"connected_time":7887000000000,"state":"active","ping":55},{"user_id":536,"name":"S Q U I S H E  T H A T  C A T","steam_id":76561198293865429,"connected_time":2021000000000,"state":"active","ping":32},{"user_id":557,"name":"goldhed","steam_id":76561198051751133,"connected_time":159000000000,"state":"active","ping":60},{"user_id":541,"name":"Ducks","steam_id":76561198130038345,"connected_time":1808000000000,"state":"active","ping":69},{"user_id":528,"name":"ice spicee","steam_id":76561198169755734,"connected_time":3695000000000,"state":"active","ping":61},{"user_id":554,"name":"Keamy","steam_id":76561199471434875,"connected_time":198000000000,"state":"active","ping":46},{"user_id":521,"name":"Cheezbeargur","steam_id":76561198164702899,"connected_time":4923000000000,"state":"active","ping":63},{"user_id":534,"name":"II HASH II 2-6","steam_id":76561198996233677,"connected_time":2545000000000,"state":"active","ping":49},{"user_id":506,"name":"spiderland","steam_id":76561198335992132,"connected_time":6638000000000,"state":"active","ping":47},{"user_id":539,"name":"BIG LIP KICKFLIP","steam_id":76561198343731774,"connected_time":1852000000000,"state":"active","ping":126},{"user_id":512,"name":"rat gets the cheese","steam_id":76561198031234032,"connected_time":5878000000000,"state":"active","ping":105},{"user_id":558,"name":"kenZino","steam_id":76561197967971192,"connected_time":156000000000,"state":"active","ping":36}]},{"server_id":119,"name":"Uncletopia | Seattle | 2 | All Maps","name_short":"sea-2","host":"sea-1.us.uncletopia.com","port":27025,"enabled":true,"region":"us-west","cc":"us","latitude":47.608013,"longitude":-122.33517,"reserved":0,"last_update":"0001-01-01T00:00:00Z","name_a2s":"Uncletopia | Seattle | 2 | All Maps","protocol":17,"map":"cp_dustbowl","folder":"tf","game":"Team Fortress","app_id":440,"player_count":20,"max_players":24,"Bots":0,"server_type":"Dedicated","server_os":"Linux","password":true,"vac":true,"version":"7757534","steam_id":85568392924469998,"keywords":["cp","nocrits","nodmgspread","uncletopia"],"game_id":440,"stv_port":27026,"stv_name":"Uncletopia | Seattle | 2 | All Maps | STV","players":[{"user_id":829,"name":"HAT-WEARING‚Ñ¢ Maggot Gamer Cat","steam_id":76561197973992705,"connected_time":2002000000000,"state":"active","ping":77},{"user_id":870,"name":"SuperCeleste‚ù§Ô∏èTrans Rights","steam_id":76561198167207053,"connected_time":348000000000,"state":"active","ping":114},{"user_id":846,"name":"Wholesale Socks","steam_id":76561198169911945,"connected_time":952000000000,"state":"active","ping":71},{"user_id":847,"name":"Nuk3","steam_id":76561198798608026,"connected_time":946000000000,"state":"active","ping":77},{"user_id":782,"name":"Algibruh","steam_id":76561199221599415,"connected_time":5461000000000,"state":"active","ping":43},{"user_id":848,"name":"KingTinkerer","steam_id":76561198226856548,"connected_time":931000000000,"state":"active","ping":73},{"user_id":828,"name":"Dr. Milker","steam_id":76561198068516964,"connected_time":2007000000000,"state":"active","ping":65},{"user_id":821,"name":"Master Of Whales","steam_id":76561198349104889,"connected_time":2966000000000,"state":"active","ping":88},{"user_id":778,"name":"Adobe Premiere","steam_id":76561198411025724,"connected_time":5749000000000,"state":"active","ping":90},{"user_id":864,"name":"Fire at the Zoo","steam_id":76561198046356817,"connected_time":557000000000,"state":"active","ping":85},{"user_id":837,"name":"FoodzAreGoodz","steam_id":76561198309262052,"connected_time":1710000000000,"state":"active","ping":88},{"user_id":849,"name":"Trans Femtress 2","steam_id":76561198272676760,"connected_time":928000000000,"state":"active","ping":71},{"user_id":866,"name":"ArchmageF","steam_id":76561197992246851,"connected_time":503000000000,"state":"active","ping":46},{"user_id":851,"name":"Jackie Bnuyy {{Trans Rights}}","steam_id":76561198804886675,"connected_time":894000000000,"state":"active","ping":141},{"user_id":652,"name":"worker","steam_id":76561198039608940,"connected_time":15894000000000,"state":"active","ping":65},{"user_id":840,"name":"Joshzu","steam_id":76561198200521137,"connected_time":1612000000000,"state":"active","ping":49},{"user_id":830,"name":"[PINGU‚Ñ¢] Tiny Tuna","steam_id":76561198193611579,"connected_time":1988000000000,"state":"active","ping":137},{"user_id":843,"name":"General Fisticuffs","steam_id":76561198255721392,"connected_time":1165000000000,"state":"active","ping":112},{"user_id":832,"name":"JZLgaming","steam_id":76561198025472913,"connected_time":1954000000000,"state":"active","ping":74},{"user_id":858,"name":"Lil Urge","steam_id":76561198162207470,"connected_time":704000000000,"state":"active","ping":61}]},{"server_id":406,"name":"Uncletopia | Seattle | 3 | Stopwatch Beta","name_short":"sea-3","host":"sea-1.us.uncletopia.com","port":27035,"enabled":true,"region":"us-west","cc":"us","latitude":47.608013,"longitude":-122.33517,"reserved":0,"last_update":"0001-01-01T00:00:00Z","name_a2s":"Uncletopia | Seattle | 3 | Stopwatch Beta","protocol":17,"map":"koth_highpass","folder":"tf","game":"Team Fortress","app_id":440,"player_count":0,"max_players":24,"Bots":0,"server_type":"Dedicated","server_os":"Linux","password":true,"vac":true,"version":"7757534","steam_id":85568392924515217,"keywords":["cp","nocrits","nodmgspread","uncletopia"],"game_id":440,"stv_port":27036,"stv_name":"Uncletopia | Seattle | 3 | Stopwatch Beta | STV","players":null},{"server_id":17,"name":"Uncletopia | San Francisco | 1 | All Maps","name_short":"sfo-1","host":"sfo-1.us.uncletopia.com","port":27015,"enabled":true,"region":"us-west","cc":"us","latitude":37.77397,"longitude":-122.4313,"reserved":0,"last_update":"0001-01-01T00:00:00Z","name_a2s":"Uncletopia | San Francisco | 1 | All Maps","protocol":17,"map":"cp_steel","folder":"tf","game":"Team Fortress","app_id":440,"player_count":19,"max_players":24,"Bots":0,"server_type":"Dedicated","server_os":"Linux","password":true,"vac":true,"version":"7757534","steam_id":85568392924469999,"keywords":["cp","nocrits","nodmgspread","uncletopia"],"game_id":440,"stv_port":27016,"stv_name":"Uncletopia | San Francisco | 1 | All Maps | STV","players":[{"user_id":367,"name":"Walmus","steam_id":76561198111416393,"connected_time":303000000000,"state":"active","ping":70},{"user_id":374,"name":"Antwan","steam_id":76561198246200638,"connected_time":136000000000,"state":"active","ping":75},{"user_id":336,"name":"Amogous Supreme","steam_id":76561198025476774,"connected_time":3342000000000,"state":"active","ping":54},{"user_id":369,"name":"CopperBox","steam_id":76561198068217248,"connected_time":276000000000,"state":"active","ping":73},{"user_id":346,"name":"Grammaring","steam_id":76561198867366139,"connected_time":2227000000000,"state":"active","ping":70},{"user_id":354,"name":"Mr Majesticals","steam_id":76561198015242706,"connected_time":1556000000000,"state":"active","ping":55},{"user_id":365,"name":"Burgie","steam_id":76561198066425198,"connected_time":609000000000,"state":"active","ping":62},{"user_id":349,"name":"BasedGod","steam_id":76561198061177973,"connected_time":2200000000000,"state":"active","ping":45},{"user_id":262,"name":"Interrobang","steam_id":76561198385044529,"connected_time":6657000000000,"state":"active","ping":102},{"user_id":370,"name":"Quietsharp","steam_id":76561198277968438,"connected_time":263000000000,"state":"active","ping":60},{"user_id":350,"name":"mr.meaner","steam_id":76561199468236392,"connected_time":2193000000000,"state":"active","ping":66},{"user_id":371,"name":"Stapler","steam_id":76561198099295077,"connected_time":253000000000,"state":"active","ping":44},{"user_id":372,"name":"H4V0C","steam_id":76561199129350925,"connected_time":251000000000,"state":"active","ping":72},{"user_id":373,"name":"hey apple","steam_id":76561198175955138,"connected_time":208000000000,"state":"active","ping":60},{"user_id":375,"name":"Johnson, Navin R.","steam_id":76561197961107982,"connected_time":28000000000,"state":"active","ping":109},{"user_id":376,"name":"Akkawi","steam_id":76561198203159952,"connected_time":2000000000,"state":"spawning","ping":55},{"user_id":364,"name":"Wender","steam_id":76561198995247917,"connected_time":647000000000,"state":"active","ping":50},{"user_id":363,"name":"B.A. Baracus","steam_id":76561197995332985,"connected_time":790000000000,"state":"active","ping":88},{"user_id":356,"name":"selling rice","steam_id":76561198063357023,"connected_time":1432000000000,"state":"active","ping":45}]},{"server_id":18,"name":"Uncletopia | San Francisco | 2 | All Maps","name_short":"sfo-2","host":"sfo-1.us.uncletopia.com","port":27025,"enabled":true,"region":"us-west","cc":"us","latitude":37.77397,"longitude":-122.4313,"reserved":0,"last_update":"0001-01-01T00:00:00Z","name_a2s":"Uncletopia | San Francisco | 2 | All Maps","protocol":17,"map":"koth_viaduct","folder":"tf","game":"Team Fortress","app_id":440,"player_count":0,"max_players":24,"Bots":0,"server_type":"Dedicated","server_os":"Linux","password":true,"vac":true,"version":"7757534","steam_id":85568392924470000,"keywords":["cp","nocrits","nodmgspread","uncletopia"],"game_id":440,"stv_port":27026,"stv_name":"Uncletopia | San Francisco | 2 | All Maps | STV","players":null},{"server_id":19,"name":"Uncletopia | San Francisco | 3 | Stopwatch Beta","name_short":"sfo-3","host":"sfo-1.us.uncletopia.com","port":27035,"enabled":true,"region":"us-west","cc":"us","latitude":37.77397,"longitude":-122.4313,"reserved":0,"last_update":"0001-01-01T00:00:00Z","name_a2s":"Uncletopia | San Francisco | 3 | Stopwatch Beta","protocol":17,"map":"koth_lakeside_final","folder":"tf","game":"Team Fortress","app_id":440,"player_count":0,"max_players":24,"Bots":0,"server_type":"Dedicated","server_os":"Linux","password":true,"vac":true,"version":"7757534","steam_id":85568392924742824,"keywords":["cp","nocrits","nodmgspread","uncletopia"],"game_id":440,"stv_port":27036,"stv_name":"Uncletopia | San Francisco | 3 | Stopwatch Beta | STV","players":null},{"server_id":20,"name":"Uncletopia | San Francisco | 4 | Community","name_short":"sfo-4","host":"sfo-1.us.uncletopia.com","port":27045,"enabled":true,"region":"us-west","cc":"us","latitude":37.77397,"longitude":-122.4313,"reserved":0,"last_update":"0001-01-01T00:00:00Z","name_a2s":"Uncletopia | San Francisco | 4 | Community","protocol":17,"map":"workshop/koth_bagel_rc6.ugc2514036946","folder":"tf","game":"Team Fortress","app_id":440,"player_count":23,"max_players":24,"Bots":0,"server_type":"Dedicated","server_os":"Linux","password":true,"vac":true,"version":"7757534","steam_id":85568392924742826,"keywords":["cp","nocrits","nodmgspread","uncletopia"],"game_id":440,"stv_port":27046,"stv_name":"Uncletopia | San Francisco | 4 | Community | STV","players":[{"user_id":503,"name":"Mr_Some1","steam_id":76561198255761996,"connected_time":1260000000000,"state":"active","ping":72},{"user_id":494,"name":"Buswolley","steam_id":76561197995205571,"connected_time":1578000000000,"state":"active","ping":44},{"user_id":492,"name":"BoX_hEaD101","steam_id":76561198200875467,"connected_time":1820000000000,"state":"active","ping":71},{"user_id":529,"name":"LtK","steam_id":76561197993180943,"connected_time":136000000000,"state":"active","ping":71},{"user_id":507,"name":"lunababa","steam_id":76561198112599582,"connected_time":1075000000000,"state":"active","ping":60},{"user_id":528,"name":"WP | Toyley","steam_id":76561199074198653,"connected_time":204000000000,"state":"active","ping":79},{"user_id":514,"name":"Who is She?","steam_id":76561198080963759,"connected_time":768000000000,"state":"active","ping":75},{"user_id":520,"name":"Zquiddo.gb","steam_id":76561198798931344,"connected_time":501000000000,"state":"active","ping":66},{"user_id":525,"name":"purplefreddyboss","steam_id":76561198825626764,"connected_time":413000000000,"state":"active","ping":99},{"user_id":511,"name":"OH JIMMY I'M HOME #SaveTf2","steam_id":76561198396658806,"connected_time":944000000000,"state":"active","ping":56},{"user_id":527,"name":"takeshi_","steam_id":76561198148797456,"connected_time":382000000000,"state":"active","ping":56},{"user_id":477,"name":"Fredorando","steam_id":76561198242546842,"connected_time":2793000000000,"state":"active","ping":63},{"user_id":466,"name":"paolobuts","steam_id":76561199047108638,"connected_time":3290000000000,"state":"active","ping":43},{"user_id":512,"name":"milkwalker","steam_id":76561198364154819,"connected_time":939000000000,"state":"active","ping":88},{"user_id":513,"name":"SquidWafflez","steam_id":76561198256756986,"connected_time":919000000000,"state":"active","ping":128},{"user_id":515,"name":"A Nyquil Chicken","steam_id":76561198344471115,"connected_time":768000000000,"state":"active","ping":57},{"user_id":516,"name":"Seanvich","steam_id":76561198065805500,"connected_time":765000000000,"state":"active","ping":103},{"user_id":517,"name":"maxwell the carryable cat","steam_id":76561198319038501,"connected_time":764000000000,"state":"active","ping":101},{"user_id":521,"name":"EAT SPIT!","steam_id":76561198096836451,"connected_time":469000000000,"state":"active","ping":49},{"user_id":522,"name":"Mommy (Daddy)","steam_id":76561198279207749,"connected_time":464000000000,"state":"active","ping":54},{"user_id":523,"name":"Toastie","steam_id":76561198246760934,"connected_time":450000000000,"state":"active","ping":107},{"user_id":524,"name":"Prison Sal","steam_id":76561198355553673,"connected_time":449000000000,"state":"active","ping":101},{"user_id":526,"name":"Dumb Fat Owl","steam_id":76561198298100939,"connected_time":399000000000,"state":"active","ping":116}]},{"server_id":141,"name":"Uncletopia | Sydney | 1 | All Maps","name_short":"syd-1","host":"syd-1.au.uncletopia.com","port":27015,"enabled":true,"region":"au","cc":"au","latitude":-33.865143,"longitude":151.2099,"reserved":0,"last_update":"0001-01-01T00:00:00Z","name_a2s":"Uncletopia | Sydney | 1 | All Maps","protocol":17,"map":"pl_upward","folder":"tf","game":"Team Fortress","app_id":440,"player_count":22,"max_players":24,"Bots":0,"server_type":"Dedicated","server_os":"Linux","password":true,"vac":true,"version":"7757534","steam_id":85568392924470001,"keywords":["nocrits","nodmgspread","payload","uncletopia"],"game_id":440,"stv_port":27016,"stv_name":"Uncletopia | Sydney | 1 | All Maps | STV","players":[{"user_id":383,"name":"Mud","steam_id":76561198025524712,"connected_time":1144000000000,"state":"active","ping":47},{"user_id":382,"name":"itsnothenry","steam_id":76561197966455767,"connected_time":1476000000000,"state":"active","ping":51},{"user_id":282,"name":"Bob Ross","steam_id":76561198081686896,"connected_time":7280000000000,"state":"active","ping":62},{"user_id":381,"name":"JmayTheUnknown","steam_id":76561198217463552,"connected_time":1748000000000,"state":"active","ping":67},{"user_id":391,"name":"PaperClip","steam_id":76561198348035778,"connected_time":339000000000,"state":"active","ping":56},{"user_id":350,"name":"EpicGuy4227","steam_id":76561198094132328,"connected_time":4248000000000,"state":"active","ping":52},{"user_id":347,"name":"Tees","steam_id":76561199174602317,"connected_time":4289000000000,"state":"active","ping":53},{"user_id":372,"name":"Violezine The Fat Scout","steam_id":76561199000502615,"connected_time":2201000000000,"state":"active","ping":141},{"user_id":348,"name":"skinny loser man","steam_id":76561198094041769,"connected_time":4268000000000,"state":"active","ping":43},{"user_id":359,"name":"BruceWillis235","steam_id":76561198884324029,"connected_time":3376000000000,"state":"active","ping":85},{"user_id":396,"name":"Dragonite","steam_id":76561199185507683,"connected_time":206000000000,"state":"active","ping":35},{"user_id":397,"name":"Lysergic Acid Diethylamide","steam_id":76561198153006468,"connected_time":206000000000,"state":"active","ping":66},{"user_id":394,"name":"Humboldt","steam_id":76561198064930358,"connected_time":221000000000,"state":"active","ping":69},{"user_id":367,"name":"Bamooxa","steam_id":76561198067160709,"connected_time":2412000000000,"state":"active","ping":86},{"user_id":292,"name":"Lincoln2603","steam_id":76561198170236666,"connected_time":6581000000000,"state":"active","ping":40},{"user_id":379,"name":"Zelenyy","steam_id":76561198151123472,"connected_time":1832000000000,"state":"active","ping":65},{"user_id":378,"name":"Tiger_Tan","steam_id":76561198221733844,"connected_time":1991000000000,"state":"active","ping":63},{"user_id":395,"name":"Snake101","steam_id":76561198418910767,"connected_time":220000000000,"state":"active","ping":55},{"user_id":384,"name":"maize","steam_id":76561199388029472,"connected_time":909000000000,"state":"active","ping":60},{"user_id":300,"name":"calculusfish","steam_id":76561198067205959,"connected_time":6395000000000,"state":"active","ping":65},{"user_id":331,"name":"‚ú™ dwippin","steam_id":76561198099342389,"connected_time":4782000000000,"state":"active","ping":55},{"user_id":390,"name":"hobo","steam_id":76561199046481213,"connected_time":382000000000,"state":"active","ping":60}]},{"server_id":123,"name":"Uncletopia | Sydney | 2 | All Maps","name_short":"syd-2","host":"syd-1.au.uncletopia.com","port":27025,"enabled":true,"region":"au","cc":"au","latitude":-33.865143,"longitude":151.2099,"reserved":0,"last_update":"0001-01-01T00:00:00Z","name_a2s":"Uncletopia | Sydney | 2 | All Maps","protocol":17,"map":"koth_lakeside_final","folder":"tf","game":"Team Fortress","app_id":440,"player_count":0,"max_players":24,"Bots":0,"server_type":"Dedicated","server_os":"Linux","password":true,"vac":true,"version":"7757534","steam_id":85568392924470002,"keywords":["cp","nocrits","nodmgspread","uncletopia"],"game_id":440,"stv_port":27026,"stv_name":"Uncletopia | Sydney | 2 | All Maps | STV","players":null},{"server_id":395,"name":"Uncletopia | Sydney | 3 | All Maps","name_short":"syd-3","host":"syd-1.au.uncletopia.com","port":27035,"enabled":true,"region":"au","cc":"au","latitude":-33.865143,"longitude":151.2099,"reserved":0,"last_update":"0001-01-01T00:00:00Z","name_a2s":"Uncletopia | Sydney | 3 | All Maps","protocol":17,"map":"cp_altitude","folder":"tf","game":"Team Fortress","app_id":440,"player_count":0,"max_players":24,"Bots":0,"server_type":"Dedicated","server_os":"Linux","password":true,"vac":true,"version":"7757534","steam_id":85568392925194467,"keywords":["cp","nocrits","nodmgspread","uncletopia"],"game_id":440,"stv_port":27036,"stv_name":"Uncletopia | Sydney | 3 | All Maps | STV","players":null},{"server_id":396,"name":"Uncletopia | Sydney | 4 | All Maps","name_short":"syd-4","host":"syd-1.au.uncletopia.com","port":27045,"enabled":true,"region":"au","cc":"au","latitude":-33.865143,"longitude":151.2099,"reserved":0,"last_update":"0001-01-01T00:00:00Z","name_a2s":"Uncletopia | Sydney | 4 | All Maps","protocol":17,"map":"koth_lakeside_final","folder":"tf","game":"Team Fortress","app_id":440,"player_count":0,"max_players":24,"Bots":0,"server_type":"Dedicated","server_os":"Linux","password":true,"vac":true,"version":"7757534","steam_id":85568392925397958,"keywords":["cp","nocrits","nodmgspread","uncletopia"],"game_id":440,"stv_port":27046,"stv_name":"Uncletopia | Sydney | 4 | All Maps | STV","players":null},{"server_id":58,"name":"Uncletopia | Sydney | 5 | Stopwatch Beta","name_short":"syd-5","host":"syd-1.au.uncletopia.com","port":27055,"enabled":true,"region":"au","cc":"au","latitude":-33.865143,"longitude":151.2099,"reserved":0,"last_update":"0001-01-01T00:00:00Z","name_a2s":"Uncletopia | Sydney | 5 | Stopwatch Beta","protocol":17,"map":"koth_cascade","folder":"tf","game":"Team Fortress","app_id":440,"player_count":0,"max_players":24,"Bots":0,"server_type":"Dedicated","server_os":"Linux","password":true,"vac":true,"version":"7757534","steam_id":85568392925397959,"keywords":["cp","nocrits","nodmgspread","uncletopia"],"game_id":440,"stv_port":27056,"stv_name":"Uncletopia | Sydney | 5 | Stopwatch Beta | STV","players":null},{"server_id":59,"name":"Uncletopia | Sydney | 6 | Community","name_short":"syd-6","host":"syd-1.au.uncletopia.com","port":27065,"enabled":true,"region":"au","cc":"au","latitude":-33.865143,"longitude":151.2099,"reserved":0,"last_update":"0001-01-01T00:00:00Z","name_a2s":"Uncletopia | Sydney | 6 | Community","protocol":17,"map":"workshop/pl_corrode_rc2.ugc546577989","folder":"tf","game":"Team Fortress","app_id":440,"player_count":0,"max_players":24,"Bots":0,"server_type":"Dedicated","server_os":"Linux","password":true,"vac":true,"version":"7757534","steam_id":85568392925397960,"keywords":["nocrits","nodmgspread","payload","uncletopia"],"game_id":440,"stv_port":27066,"stv_name":"Uncletopia | Sydney | 6 | Community | STV","players":null},{"server_id":49,"name":"Uncletopia | Warsaw | 1 | All Maps","name_short":"waw-1","host":"waw-1.pl.uncletopia.com","port":27015,"enabled":true,"region":"eu","cc":"pl","latitude":52.2297,"longitude":21.017532,"reserved":0,"last_update":"0001-01-01T00:00:00Z","name_a2s":"","protocol":0,"map":"","folder":"","game":"","app_id":0,"player_count":0,"max_players":0,"Bots":0,"server_type":"","server_os":"","password":false,"vac":false,"version":"","steam_id":0,"keywords":null,"game_id":0,"stv_port":0,"stv_name":"","players":null},{"server_id":50,"name":"Uncletopia | Warsaw | 2 | All Maps","name_short":"waw-2","host":"waw-1.pl.uncletopia.com","port":27025,"enabled":true,"region":"eu","cc":"pl","latitude":52.2297,"longitude":21.017532,"reserved":0,"last_update":"0001-01-01T00:00:00Z","name_a2s":"Uncletopia | Warsaw | 2 | All Maps","protocol":17,"map":"pl_upward","folder":"tf","game":"Team Fortress","app_id":440,"player_count":0,"max_players":24,"Bots":0,"server_type":"Dedicated","server_os":"Linux","password":true,"vac":true,"version":"7757534","steam_id":85568392925397851,"keywords":["nocrits","nodmgspread","payload","uncletopia"],"game_id":440,"stv_port":27026,"stv_name":"Uncletopia | Warsaw | 2 | All Maps | STV","players":null},{"server_id":51,"name":"Uncletopia | Warsaw | 3 | All Maps","name_short":"waw-3","host":"waw-1.pl.uncletopia.com","port":27035,"enabled":true,"region":"eu","cc":"pl","latitude":52.2297,"longitude":21.017532,"reserved":0,"last_update":"0001-01-01T00:00:00Z","name_a2s":"Uncletopia | Warsaw | 3 | All Maps","protocol":17,"map":"pl_barnblitz","folder":"tf","game":"Team Fortress","app_id":440,"player_count":0,"max_players":24,"Bots":0,"server_type":"Dedicated","server_os":"Linux","password":true,"vac":true,"version":"7757534","steam_id":85568392925397852,"keywords":["nocrits","nodmgspread","payload","uncletopia"],"game_id":440,"stv_port":27036,"stv_name":"Uncletopia | Warsaw | 3 | All Maps | STV","players":null},{"server_id":52,"name":"Uncletopia | Warsaw | 4 | All Maps","name_short":"waw-4","host":"waw-1.pl.uncletopia.com","port":27045,"enabled":true,"region":"eu","cc":"pl","latitude":52.2297,"longitude":21.017532,"reserved":0,"last_update":"0001-01-01T00:00:00Z","name_a2s":"Uncletopia | Warsaw | 4 | All Maps","protocol":17,"map":"cp_altitude","folder":"tf","game":"Team Fortress","app_id":440,"player_count":0,"max_players":24,"Bots":0,"server_type":"Dedicated","server_os":"Linux","password":true,"vac":true,"version":"7757534","steam_id":85568392925397853,"keywords":["cp","nocrits","nodmgspread","uncletopia"],"game_id":440,"stv_port":27046,"stv_name":"Uncletopia | Warsaw | 4 | All Maps | STV","players":null},{"server_id":53,"name":"Uncletopia | Warsaw | 5 | Stopwatch Beta","name_short":"waw-5","host":"waw-1.pl.uncletopia.com","port":27055,"enabled":true,"region":"eu","cc":"pl","latitude":52.2297,"longitude":21.017532,"reserved":0,"last_update":"0001-01-01T00:00:00Z","name_a2s":"Uncletopia | Warsaw | 5 | Stopwatch Beta","protocol":17,"map":"pl_pier","folder":"tf","game":"Team Fortress","app_id":440,"player_count":0,"max_players":24,"Bots":0,"server_type":"Dedicated","server_os":"Linux","password":true,"vac":true,"version":"7757534","steam_id":85568392925397854,"keywords":["nocrits","nodmgspread","payload","uncletopia"],"game_id":440,"stv_port":27056,"stv_name":"Uncletopia | Warsaw | 5 | Stopwatch Beta | STV","players":null},{"server_id":54,"name":"Uncletopia | Warsaw | 6 | Community","name_short":"waw-6","host":"waw-1.pl.uncletopia.com","port":27065,"enabled":true,"region":"eu","cc":"pl","latitude":52.2297,"longitude":21.017532,"reserved":0,"last_update":"0001-01-01T00:00:00Z","name_a2s":"Uncletopia | Warsaw | 6 | Community","protocol":17,"map":"koth_highpass","folder":"tf","game":"Team Fortress","app_id":440,"player_count":0,"max_players":24,"Bots":0,"server_type":"Dedicated","server_os":"Linux","password":true,"vac":true,"version":"7757534","steam_id":85568392925397856,"keywords":["cp","nocrits","nodmgspread","uncletopia"],"game_id":440,"stv_port":27066,"stv_name":"Uncletopia | Warsaw | 6 | Community | STV","players":null}]}