{"status":true,"message":"","result":[{"server_id":2,"name":"Uncletopia | Chicago | 1 | All Maps","name_short":"chi-1","host":"chi-1.us.uncletopia.com","port":27015,"enabled":true,"region":"us-central","cc":"us","latitude":41.881832,"longitude":-87.62318,"reserved":0,"last_update":"0001-01-01T00:00:00Z","name_a2s":"Uncletopia | Chicago | 1 | All Maps","protocol":17,"map":"pl_badwater","folder":"tf","game":"Team Fortress","app_id":440,"player_count":0,"max_players":24,"Bots":0,"server_type":"Dedicated","server_os":"Linux","password":true,"vac":true,"version":"7961495","steam_id":85568392924469984,"keywords":["nocrits","nodmgspread","payload","uncletopia"],"game_id":440,"stv_port":27016,"stv_name":"Uncletopia | Chicago | 1 | All Maps | STV","players":null},{"server_id":106,"name":"Uncletopia | Chicago | 2 | All Maps","name_short":"chi-2","host":"chi-1.us.uncletopia.com","port":27025,"enabled":true,"region":"us-central","cc":"us","latitude":41.881832,"longitude":-87.62318,"reserved":0,"last_update":"0001-01-01T00:00:00Z","name_a2s":"Uncletopia | Chicago | 2 | All Maps","protocol":17,"map":"koth_highpass","folder":"tf","game":"Team Fortress","app_id":440,"player_count":0,"max_players":24,"Bots":0,"server_type":"Dedicated","server_os":"Linux","password":true,"vac":true,"version":"7961495","steam_id":85568392924469985,"keywords":["cp","nocrits","nodmgspread","uncletopia"],"game_id":440,"stv_port":27026,"stv_name":"Uncletopia | Chicago | 2 | All Maps | STV","players":null},{"server_id":402,"name":"Uncletopia | Chicago | 3 | All Maps","name_short":"chi-3","host":"chi-1.us.uncletopia.com","port":27035,"enabled":true,"region":"us-central","cc":"us","latitude":41.881832,"longitude":-87.62318,"reserved":0,"last_update":"0001-01-01T00:00:00Z","name_a2s":"Uncletopia | Chicago | 3 | All Maps","protocol":17,"map":"koth_cascade","folder":"tf","game":"Team Fortress","app_id":440,"player_count":0,"max_players":24,"Bots":0,"server_type":"Dedicated","server_os":"Linux","password":true,"vac":true,"version":"7961495","steam_id":85568392924515191,"keywords":["cp","nocrits","nodmgspread","uncletopia"],"game_id":440,"stv_port":27036,"stv_name":"Uncletopia | Chicago | 3 | All Maps | STV","players":null},{"server_id":403,"name":"Uncletopia | Chicago | 4 | All Maps","name_short":"chi-4","host":"chi-1.us.uncletopia.com","port":27045,"enabled":true,"region":"us-central","cc":"us","latitude":41.881832,"longitude":-87.62318,"reserved":0,"last_update":"0001-01-01T00:00:00Z","name_a2s":"Uncletopia | Chicago | 4 | All Maps","protocol":17,"map":"pl_thundermountain","folder":"tf","game":"Team Fortress","app_id":440,"player_count":24,"max_players":24,"Bots":0,"server_type":"Dedicated","server_os":"Linux","password":true,"vac":true,"version":"7961495","steam_id":85568392924515193,"keywords":["nocrits","nodmgspread","payload","uncletopia"],"game_id":440,"stv_port":27046,"stv_name":"Uncletopia | Chicago | 4 | All Maps | STV","players":[{"user_id":500,"name":"seepy","steam_id":76561198057884377,"connected_time":1193000000000,"state":"active","ping":51},{"user_id":427,"name":"King of Ping","steam_id":76561198278737470,"connected_time":6467000000000,"state":"active","ping":69},{"user_id":501,"name":"TwinkCock","steam_id":76561198867798847,"connected_time":1189000000000,"state":"active","ping":92},{"user_id":497,"name":"President Saget :)","steam_id":76561198071709455,"connected_time":1765000000000,"state":"active","ping":59},{"user_id":477,"name":"Coinclever","steam_id":76561198099972692,"connected_time":3752000000000,"state":"active","ping":48},{"user_id":502,"name":"Sychke","steam_id":76561198067144055,"connected_time":1119000000000,"state":"active","ping":45},{"user_id":512,"name":"BugsAreMyWorstEnemy","steam_id":76561199440395505,"connected_time":252000000000,"state":"active","ping":65},{"user_id":496,"name":"ShadozoneX","steam_id":76561198255452404,"connected_time":2328000000000,"state":"active","ping":72},{"user_id":498,"name":"Tacitus Kilgore","steam_id":76561198053915145,"connected_time":1696000000000,"state":"active","ping":44},{"user_id":478,"name":"sciencenerd42","steam_id":76561198274563320,"connected_time":3732000000000,"state":"active","ping":47},{"user_id":479,"name":"PBxJAY","steam_id":76561198402471788,"connected_time":3728000000000,"state":"active","ping":128},{"user_id":499,"name":"üåà","steam_id":76561198118877005,"connected_time":1551000000000,"state":"active","ping":36},{"user_id":503,"name":"boofypunch | HM |","steam_id":76561198365401226,"connected_time":916000000000,"state":"active","ping":59},{"user_id":504,"name":"Tired-Out Tibet-Trout","steam_id":76561198118082897,"connected_time":872000000000,"state":"active","ping":91},{"user_id":492,"name":"cofi","steam_id":76561198077504898,"connected_time":2581000000000,"state":"active","ping":74},{"user_id":491,"name":"barflord","steam_id":76561198114148891,"connected_time":2593000000000,"state":"active","ping":65},{"user_id":495,"name":"Sky!","steam_id":76561198141953747,"connected_time":2526000000000,"state":"active","ping":64},{"user_id":505,"name":"lowtierexile","steam_id":76561198047813960,"connected_time":826000000000,"state":"active","ping":75},{"user_id":506,"name":"DoomsdaySnail","steam_id":76561198131444200,"connected_time":801000000000,"state":"active","ping":75},{"user_id":507,"name":"Satan-2","steam_id":76561199231742764,"connected_time":778000000000,"state":"active","ping":70},{"user_id":511,"name":"GaydsIdit","steam_id":76561198827963575,"connected_time":490000000000,"state":"active","ping":66},{"user_id":513,"name":"RandomSarah","steam_id":76561198362767371,"connected_time":169000000000,"state":"active","ping":116},{"user_id":514,"name":"Rumi_killer","steam_id":76561198077439866,"connected_time":130000000000,"state":"active","ping":89},{"user_id":490,"name":"Birch","steam_id":76561198316231704,"connected_time":2605000000000,"state":"active","ping":58}]},{"server_id":36,"name":"Uncletopia | Chicago | 5 | All Maps","name_short":"chi-5","host":"chi-2.us.uncletopia.com","port":27015,"enabled":true,"region":"us-central","cc":"us","latitude":41.881832,"longitude":-87.62318,"reserved":0,"last_update":"0001-01-01T00:00:00Z","name_a2s":"Uncletopia | Chicago | 5 | All Maps","protocol":17,"map":"pl_snowycoast","folder":"tf","game":"Team Fortress","app_id":440,"player_count":0,"max_players":24,"Bots":0,"server_type":"Dedicated","server_os":"Linux","password":true,"vac":true,"version":"7961495","steam_id":85568392924866362,"keywords":["nocrits","nodmgspread","payload","uncletopia"],"game_id":440,"stv_port":27016,"stv_name":"Uncletopia | Chicago | 5 | All Maps | STV","players":null},{"server_id":37,"name":"Uncletopia | Chicago | 6 | All Maps","name_short":"chi-6","host":"chi-2.us.uncletopia.com","port":27025,"enabled":true,"region":"us-central","cc":"us","latitude":41.881832,"longitude":-87.62318,"reserved":0,"last_update":"0001-01-01T00:00:00Z","name_a2s":"Uncletopia | Chicago | 6 | All Maps","protocol":17,"map":"cp_dustbowl","folder":"tf","game":"Team Fortress","app_id":440,"player_count":6,"max_players":24,"Bots":0,"server_type":"Dedicated","server_os":"Linux","password":true,"vac":true,"version":"7961495","steam_id":85568392924866363,"keywords":["cp","nocrits","nodmgspread","uncletopia"],"game_id":440,"stv_port":27026,"stv_name":"Uncletopia | Chicago | 6 | All Maps | STV","players":[{"user_id":366,"name":"NexFrost","steam_id":76561197985774837,"connected_time":1369000000000,"state":"active","ping":56},{"user_id":370,"name":"DeathLord","steam_id":76561198401122891,"connected_time":1029000000000,"state":"active","ping":301},{"user_id":372,"name":"Stem*Cell","steam_id":76561198295207446,"connected_time":603000000000,"state":"active","ping":51},{"user_id":373,"name":"FrogInShorts","steam_id":76561198081903213,"connected_time":519000000000,"state":"active","ping":86},{"user_id":374,"name":"Leaf","steam_id":76561198348965524,"connected_time":492000000000,"state":"active","ping":74},{"user_id":365,"name":"Miro","steam_id":76561198936412406,"connected_time":1445000000000,"state":"active","ping":79}]},{"server_id":38,"name":"Uncletopia | Chicago | 7 | Stopwatch Beta","name_short":"chi-7","host":"chi-2.us.uncletopia.com","port":27035,"enabled":true,"region":"us-central","cc":"us","latitude":41.881832,"longitude":-87.62318,"reserved":0,"last_update":"0001-01-01T00:00:00Z","name_a2s":"Uncletopia | Chicago | 7 | Stopwatch Beta","protocol":17,"map":"pl_borneo","folder":"tf","game":"Team Fortress","app_id":440,"player_count":0,"max_players":24,"Bots":0,"server_type":"Dedicated","server_os":"Linux","password":true,"vac":true,"version":"7961495","steam_id":85568392924866364,"keywords":["nocrits","nodmgspread","payload","uncletopia"],"game_id":440,"stv_port":27036,"stv_name":"Uncletopia | Chicago | 7 | Stopwatch Beta | STV","players":null},{"server_id":39,"name":"Uncletopia | Chicago | 8 | Community","name_short":"chi-8","host":"chi-2.us.uncletopia.com","port":27045,"enabled":true,"region":"us-central","cc":"us","latitude":41.881832,"longitude":-87.62318,"reserved":0,"last_update":"0001-01-01T00:00:00Z","name_a2s":"Uncletopia | Chicago | 8 | Community","protocol":17,"map":"workshop/koth_product_final.ugc454272353","folder":"tf","game":"Team Fortress","app_id":440,"player_count":0,"max_players":24,"Bots":0,"server_type":"Dedicated","server_os":"Linux","password":true,"vac":true,"version":"7961495","steam_id":85568392924866365,"keywords":["cp","nocrits","nodmgspread","uncletopia"],"game_id":440,"stv_port":27046,"stv_name":"Uncletopia | Chicago | 8 | Community | STV","players":null},{"server_id":8,"name":"Uncletopia | Dallas | 1 | All Maps","name_short":"dal-1","host":"dal-1.us.uncletopia.com","port":27015,"enabled":true,"region":"us-central","cc":"us","latitude":32.779167,"longitude":-96.80889,"reserved":0,"last_update":"0001-01-01T00:00:00Z","name_a2s":"Uncletopia | Dallas | 1 | All Maps","protocol":17,"map":"pl_upward","folder":"tf","game":"Team Fortress","app_id":440,"player_count":23,"max_players":24,"Bots":0,"server_type":"Dedicated","server_os":"Linux","password":true,"vac":true,"version":"7961495","steam_id":85568392924469986,"keywords":["nocrits","nodmgspread","payload","uncletopia"],"game_id":440,"stv_port":27016,"stv_name":"Uncletopia | Dallas | 1 | All Maps | STV","players":[{"user_id":481,"name":"Koffy","steam_id":76561198184386039,"connected_time":3069000000000,"state":"active","ping":83},{"user_id":498,"name":"‚ô°RiTz‚ô°","steam_id":76561199014354305,"connected_time":1282000000000,"state":"active","ping":46},{"user_id":453,"name":"Lucil3 on Bandcamp","steam_id":76561198149063013,"connected_time":5186000000000,"state":"active","ping":52},{"user_id":433,"name":"ChaoticAngel","steam_id":76561198293528217,"connected_time":6434000000000,"state":"active","ping":76},{"user_id":429,"name":"crumblejon","steam_id":76561198111273302,"connected_time":6871000000000,"state":"active","ping":66},{"user_id":499,"name":"flaccid","steam_id":76561198299241777,"connected_time":1060000000000,"state":"active","ping":98},{"user_id":494,"name":"Sahbi (she/they)","steam_id":76561199196292242,"connected_time":1479000000000,"state":"active","ping":61},{"user_id":479,"name":"Forever Sushi","steam_id":76561198073739851,"connected_time":3191000000000,"state":"active","ping":90},{"user_id":505,"name":"pencils arent real","steam_id":76561198049963738,"connected_time":380000000000,"state":"active","ping":92},{"user_id":506,"name":"chicken wit dah eggrow","steam_id":76561198115458307,"connected_time":360000000000,"state":"active","ping":80},{"user_id":507,"name":"neniy49302","steam_id":76561199490577908,"connected_time":357000000000,"state":"active","ping":98},{"user_id":508,"name":"FI LO","steam_id":76561198976530881,"connected_time":352000000000,"state":"active","ping":63},{"user_id":509,"name":"Eins","steam_id":76561199030343810,"connected_time":338000000000,"state":"active","ping":64},{"user_id":497,"name":"Viren","steam_id":76561198012636897,"connected_time":1337000000000,"state":"active","ping":45},{"user_id":465,"name":"Faraday","steam_id":76561198089928357,"connected_time":4693000000000,"state":"active","ping":56},{"user_id":510,"name":"Ruby Gillman","steam_id":76561198366299848,"connected_time":337000000000,"state":"active","ping":67},{"user_id":502,"name":"Cliffigriff","steam_id":76561198121924499,"connected_time":452000000000,"state":"active","ping":57},{"user_id":476,"name":"shitass | troutsupply.net","steam_id":76561198210572481,"connected_time":3887000000000,"state":"active","ping":59},{"user_id":512,"name":"Dunkin' Ponuts","steam_id":76561198082382465,"connected_time":171000000000,"state":"active","ping":107},{"user_id":480,"name":"CoconutCarl1098","steam_id":76561198091878251,"connected_time":3148000000000,"state":"active","ping":71},{"user_id":503,"name":"‚ô°‚å†Wiffle‚å°‚ô°","steam_id":76561198251951402,"connected_time":450000000000,"state":"active","ping":105},{"user_id":485,"name":"Spacebar? \"UngovernablePugs\"-ye","steam_id":76561198167797009,"connected_time":2569000000000,"state":"active","ping":59},{"user_id":504,"name":"sr7988","steam_id":76561199483394752,"connected_time":450000000000,"state":"active","ping":104}]},{"server_id":108,"name":"Uncletopia | Dallas | 2 | All Maps","name_short":"dal-2","host":"dal-1.us.uncletopia.com","port":27025,"enabled":true,"region":"us-central","cc":"us","latitude":32.779167,"longitude":-96.80889,"reserved":0,"last_update":"0001-01-01T00:00:00Z","name_a2s":"Uncletopia | Dallas | 2 | All Maps","protocol":17,"map":"cp_process_final","folder":"tf","game":"Team Fortress","app_id":440,"player_count":2,"max_players":24,"Bots":0,"server_type":"Dedicated","server_os":"Linux","password":true,"vac":true,"version":"7961495","steam_id":85568392924469988,"keywords":["cp","nocrits","nodmgspread","uncletopia"],"game_id":440,"stv_port":27026,"stv_name":"Uncletopia | Dallas | 2 | All Maps | STV","players":[{"user_id":459,"name":"Wexer15","steam_id":76561199083941163,"connected_time":216000000000,"state":"active","ping":174},{"user_id":460,"name":"ThatAveregeGamingEnjoyer","steam_id":76561199130142624,"connected_time":157000000000,"state":"active","ping":175}]},{"server_id":5,"name":"Uncletopia | Frankfurt | 1 | All Maps","name_short":"frk-1","host":"frk-1.de.uncletopia.com","port":27015,"enabled":true,"region":"eu","cc":"de","latitude":50.110924,"longitude":8.682127,"reserved":0,"last_update":"0001-01-01T00:00:00Z","name_a2s":"Uncletopia | Frankfurt | 1 | All Maps","protocol":17,"map":"pl_badwater","folder":"tf","game":"Team Fortress","app_id":440,"player_count":0,"max_players":24,"Bots":0,"server_type":"Dedicated","server_os":"Linux","password":true,"vac":true,"version":"7961495","steam_id":85568392924469989,"keywords":["nocrits","nodmgspread","payload","uncletopia"],"game_id":440,"stv_port":27016,"stv_name":"Uncletopia | Frankfurt | 1 | All Maps | STV","players":null},{"server_id":110,"name":"Uncletopia | Frankfurt | 2 | All Maps","name_short":"frk-2","host":"frk-1.de.uncletopia.com","port":27025,"enabled":true,"region":"eu","cc":"de","latitude":50.110924,"longitude":8.682127,"reserved":0,"last_update":"0001-01-01T00:00:00Z","name_a2s":"Uncletopia | Frankfurt | 2 | All Maps","protocol":17,"map":"pl_borneo","folder":"tf","game":"Team Fortress","app_id":440,"player_count":24,"max_players":24,"Bots":0,"server_type":"Dedicated","server_os":"Linux","password":true,"vac":true,"version":"7961495","steam_id":85568392924469990,"keywords":["nocrits","nodmgspread","payload","uncletopia"],"game_id":440,"stv_port":27026,"stv_name":"Uncletopia | Frankfurt | 2 | All Maps | STV","players":[{"user_id":57,"name":"I took both pills and i'm drunk","steam_id":76561198173218318,"connected_time":583000000000,"state":"active","ping":63},{"user_id":11,"name":"Mario Moretti [BR]","steam_id":76561198179299606,"connected_time":2886000000000,"state":"active","ping":82},{"user_id":7,"name":"Faxter","steam_id":76561198011771605,"connected_time":3533000000000,"state":"active","ping":55},{"user_id":48,"name":"meatsoupcube","steam_id":76561198276802249,"connected_time":1134000000000,"state":"active","ping":105},{"user_id":55,"name":"Û†Ä°Û†Ä°","steam_id":76561198399390201,"connected_time":718000000000,"state":"active","ping":90},{"user_id":43,"name":"Fuzeau","steam_id":76561198104052872,"connected_time":1307000000000,"state":"active","ping":88},{"user_id":63,"name":"KushMonke","steam_id":76561199429407130,"connected_time":132000000000,"state":"active","ping":90},{"user_id":20,"name":"Purpurea","steam_id":76561198075376419,"connected_time":2012000000000,"state":"active","ping":67},{"user_id":33,"name":"DonutellaÓÑÉ","steam_id":76561198193972491,"connected_time":1550000000000,"state":"active","ping":64},{"user_id":23,"name":"scott steiners strongest warrio","steam_id":76561198148888622,"connected_time":1898000000000,"state":"active","ping":70},{"user_id":24,"name":"leonardini.w","steam_id":76561199097963071,"connected_time":1834000000000,"state":"active","ping":84},{"user_id":25,"name":"silicon based life form","steam_id":76561199127121346,"connected_time":1803000000000,"state":"active","ping":180},{"user_id":60,"name":"v√Ωbuch organismu","steam_id":76561198103908668,"connected_time":202000000000,"state":"active","ping":61},{"user_id":27,"name":"notregan","steam_id":76561199256928190,"connected_time":1768000000000,"state":"active","ping":77},{"user_id":28,"name":"Piquesque","steam_id":76561198286763046,"connected_time":1748000000000,"state":"active","ping":115},{"user_id":54,"name":"drifter","steam_id":76561197998271149,"connected_time":979000000000,"state":"active","ping":70},{"user_id":34,"name":"Incomus","steam_id":76561198058342600,"connected_time":1519000000000,"state":"active","ping":74},{"user_id":35,"name":"KINGSTON G","steam_id":76561198093073758,"connected_time":1514000000000,"state":"active","ping":70},{"user_id":36,"name":"Etherhel","steam_id":76561198838449544,"connected_time":1511000000000,"state":"active","ping":83},{"user_id":58,"name":"polnac","steam_id":76561198071890911,"connected_time":508000000000,"state":"active","ping":101},{"user_id":53,"name":"Hedge Knight","steam_id":76561198989449047,"connected_time":997000000000,"state":"active","ping":143},{"user_id":42,"name":"veto vuyisio","steam_id":76561199101145470,"connected_time":1355000000000,"state":"active","ping":80},{"user_id":45,"name":"king soloman","steam_id":76561198014326643,"connected_time":1289000000000,"state":"active","ping":143},{"user_id":47,"name":"Chambersite","steam_id":76561198197022399,"connected_time":1283000000000,"state":"active","ping":65}]},{"server_id":308,"name":"Uncletopia | Frankfurt | 3 | All Maps","name_short":"frk-3","host":"frk-1.de.uncletopia.com","port":27035,"enabled":true,"region":"eu","cc":"de","latitude":50.110924,"longitude":8.682127,"reserved":0,"last_update":"0001-01-01T00:00:00Z","name_a2s":"Uncletopia | Frankfurt | 3 | All Maps","protocol":17,"map":"cp_mountainlab","folder":"tf","game":"Team Fortress","app_id":440,"player_count":0,"max_players":24,"Bots":0,"server_type":"Dedicated","server_os":"Linux","password":true,"vac":true,"version":"7961495","steam_id":85568392924504274,"keywords":["cp","nocrits","nodmgspread","uncletopia"],"game_id":440,"stv_port":27036,"stv_name":"Uncletopia | Frankfurt | 3 | All Maps | STV","players":null},{"server_id":309,"name":"Uncletopia | Frankfurt | 4 | All Maps","name_short":"frk-4","host":"frk-1.de.uncletopia.com","port":27045,"enabled":true,"region":"eu","cc":"de","latitude":50.110924,"longitude":8.682127,"reserved":0,"last_update":"0001-01-01T00:00:00Z","name_a2s":"Uncletopia | Frankfurt | 4 | All Maps","protocol":17,"map":"cp_process_final","folder":"tf","game":"Team Fortress","app_id":440,"player_count":0,"max_players":24,"Bots":0,"server_type":"Dedicated","server_os":"Linux","password":true,"vac":true,"version":"7961495","steam_id":85568392924504275,"keywords":["cp","nocrits","nodmgspread","uncletopia"],"game_id":440,"stv_port":27046,"stv_name":"Uncletopia | Frankfurt | 4 | All Maps | STV","players":null},{"server_id":310,"name":"Uncletopia | Frankfurt | 5 | All Maps","name_short":"frk-5","host":"frk-1.de.uncletopia.com","port":27055,"enabled":true,"region":"eu","cc":"de","latitude":50.110924,"longitude":8.682127,"reserved":0,"last_update":"0001-01-01T00:00:00Z","name_a2s":"Uncletopia | Frankfurt | 5 | All Maps","protocol":17,"map":"koth_viaduct","folder":"tf","game":"Team Fortress","app_id":440,"player_count":0,"max_players":24,"Bots":0,"server_type":"Dedicated","server_os":"Linux","password":true,"vac":true,"version":"7961495","steam_id":85568392924504277,"keywords":["cp","nocrits","nodmgspread","uncletopia"],"game_id":440,"stv_port":27056,"stv_name":"Uncletopia | Frankfurt | 5 | All Maps | STV","players":null},{"server_id":311,"name":"Uncletopia | Frankfurt | 6 | All Maps","name_short":"frk-6","host":"frk-1.de.uncletopia.com","port":27065,"enabled":true,"region":"eu","cc":"de","latitude":50.110924,"longitude":8.682127,"reserved":0,"last_update":"0001-01-01T00:00:00Z","name_a2s":"Uncletopia | Frankfurt | 6 | All Maps","protocol":17,"map":"pl_pier","folder":"tf","game":"Team Fortress","app_id":440,"player_count":0,"max_players":24,"Bots":0,"server_type":"Dedicated","server_os":"Linux","password":true,"vac":true,"version":"7961495","steam_id":85568392924504278,"keywords":["nocrits","nodmgspread","payload","uncletopia"],"game_id":440,"stv_port":27066,"stv_name":"Uncletopia | Frankfurt | 6 | All Maps | STV","players":null},{"server_id":23,"name":"Uncletopia | Frankfurt | 7 | Stopwatch Beta","name_short":"frk-7","host":"frk-1.de.uncletopia.com","port":27075,"enabled":true,"region":"eu","cc":"de","latitude":50.110924,"longitude":8.682127,"reserved":0,"last_update":"0001-01-01T00:00:00Z","name_a2s":"Uncletopia | Frankfurt | 7 | Stopwatch Beta","protocol":17,"map":"koth_cascade","folder":"tf","game":"Team Fortress","app_id":440,"player_count":0,"max_players":24,"Bots":0,"server_type":"Dedicated","server_os":"Linux","password":true,"vac":true,"version":"7961495","steam_id":85568392924742827,"keywords":["cp","nocrits","nodmgspread","uncletopia"],"game_id":440,"stv_port":27076,"stv_name":"Uncletopia | Frankfurt | 7 | Stopwatch Beta | STV","players":null},{"server_id":24,"name":"Uncletopia | Frankfurt | 8 | Community","name_short":"frk-8","host":"frk-1.de.uncletopia.com","port":27085,"enabled":true,"region":"eu","cc":"de","latitude":50.110924,"longitude":8.682127,"reserved":0,"last_update":"0001-01-01T00:00:00Z","name_a2s":"Uncletopia | Frankfurt | 8 | Community","protocol":17,"map":"cp_process_final","folder":"tf","game":"Team Fortress","app_id":440,"player_count":0,"max_players":24,"Bots":0,"server_type":"Dedicated","server_os":"Linux","password":true,"vac":true,"version":"7961495","steam_id":85568392924742828,"keywords":["cp","nocrits","nodmgspread","uncletopia"],"game_id":440,"stv_port":27086,"stv_name":"Uncletopia | Frankfurt | 8 | Community | STV","players":null},{"server_id":202,"name":"Uncletopia | Hong Kong | 1 | All Maps","name_short":"hgk-1","host":"hgk-1.hk.uncletopia.com","port":27015,"enabled":true,"region":"asia","cc":"hk","latitude":22.302711,"longitude":114.177216,"reserved":0,"last_update":"0001-01-01T00:00:00Z","name_a2s":"Uncletopia | Hong Kong | 1 | All Maps","protocol":17,"map":"pl_badwater","folder":"tf","game":"Team Fortress","app_id":440,"player_count":24,"max_players":24,"Bots":0,"server_type":"Dedicated","server_os":"Linux","password":true,"vac":true,"version":"7961495","steam_id":85568392924494504,"keywords":["nocrits","nodmgspread","payload","uncletopia"],"game_id":440,"stv_port":27016,"stv_name":"Uncletopia | Hong Kong | 1 | All Maps | STV","players":[{"user_id":82,"name":"L4MA","steam_id":76561198249200320,"connected_time":2190000000000,"state":"active","ping":40},{"user_id":70,"name":"doctor morbin' (official)","steam_id":76561199365241695,"connected_time":3258000000000,"state":"active","ping":75},{"user_id":83,"name":"Dokutah, Husband of W","steam_id":76561199273390091,"connected_time":2100000000000,"state":"active","ping":68},{"user_id":34,"name":"Green","steam_id":76561198391718463,"connected_time":5368000000000,"state":"active","ping":56},{"user_id":76,"name":"let him cook","steam_id":76561199219484527,"connected_time":2978000000000,"state":"active","ping":124},{"user_id":81,"name":"ComCy","steam_id":76561199068561251,"connected_time":2249000000000,"state":"active","ping":119},{"user_id":101,"name":"Puddin","steam_id":76561198140052918,"connected_time":174000000000,"state":"active","ping":87},{"user_id":38,"name":"Streety","steam_id":76561199098969003,"connected_time":5123000000000,"state":"active","ping":74},{"user_id":61,"name":"1una","steam_id":76561198053008424,"connected_time":3759000000000,"state":"active","ping":60},{"user_id":98,"name":"tr_walkway","steam_id":76561199107683007,"connected_time":620000000000,"state":"active","ping":59},{"user_id":63,"name":"Morningstar_","steam_id":76561198065756804,"connected_time":3563000000000,"state":"active","ping":77},{"user_id":89,"name":"Â∏ï","steam_id":76561198439343999,"connected_time":1403000000000,"state":"active","ping":81},{"user_id":99,"name":"lsf","steam_id":76561198095278714,"connected_time":407000000000,"state":"active","ping":41},{"user_id":96,"name":"KHMaster","steam_id":76561199198453345,"connected_time":646000000000,"state":"active","ping":56},{"user_id":50,"name":"Wx","steam_id":76561199217780897,"connected_time":4385000000000,"state":"active","ping":119},{"user_id":94,"name":"arctic cunnys","steam_id":76561199487160658,"connected_time":661000000000,"state":"active","ping":54},{"user_id":100,"name":"Corhix","steam_id":76561198968706355,"connected_time":406000000000,"state":"active","ping":55},{"user_id":84,"name":"Samoyed","steam_id":76561198299150410,"connected_time":2083000000000,"state":"active","ping":75},{"user_id":66,"name":"obama boss fight simulator 3D","steam_id":76561199209331489,"connected_time":3480000000000,"state":"active","ping":106},{"user_id":78,"name":"condiment king","steam_id":76561199039560921,"connected_time":2492000000000,"state":"active","ping":75},{"user_id":75,"name":"walid","steam_id":76561198395530753,"connected_time":3022000000000,"state":"active","ping":141},{"user_id":97,"name":"meowsh","steam_id":76561198060448954,"connected_time":645000000000,"state":"active","ping":77},{"user_id":77,"name":"xPhid","steam_id":76561199080808930,"connected_time":2814000000000,"state":"active","ping":76},{"user_id":88,"name":"Venezuelan billionaire","steam_id":76561199137927625,"connected_time":2007000000000,"state":"active","ping":112}]},{"server_id":1,"name":"Uncletopia | Los Angeles | 1 | All Maps","name_short":"lax-1","host":"lax-1.us.uncletopia.com","port":27015,"enabled":true,"region":"us-west","cc":"us","latitude":33.94279,"longitude":-118.41004,"reserved":0,"last_update":"0001-01-01T00:00:00Z","name_a2s":"Uncletopia | Los Angeles | 1 | All Maps","protocol":17,"map":"koth_cascade","folder":"tf","game":"Team Fortress","app_id":440,"player_count":0,"max_players":24,"Bots":0,"server_type":"Dedicated","server_os":"Linux","password":true,"vac":true,"version":"7961495","steam_id":85568392924469991,"keywords":["cp","nocrits","nodmgspread","uncletopia"],"game_id":440,"stv_port":27016,"stv_name":"Uncletopia | Los Angeles | 1 | All Maps | STV","players":null},{"server_id":112,"name":"Uncletopia | Los Angeles | 2 | All Maps","name_short":"lax-2","host":"lax-1.us.uncletopia.com","port":27025,"enabled":true,"region":"us-west","cc":"us","latitude":33.94279,"longitude":-118.41004,"reserved":0,"last_update":"0001-01-01T00:00:00Z","name_a2s":"Uncletopia | Los Angeles | 2 | All Maps","protocol":17,"map":"pl_badwater","folder":"tf","game":"Team Fortress","app_id":440,"player_count":0,"max_players":24,"Bots":0,"server_type":"Dedicated","server_os":"Linux","password":true,"vac":true,"version":"7961495","steam_id":85568392924469992,"keywords":["nocrits","nodmgspread","payload","uncletopia"],"game_id":440,"stv_port":27026,"stv_name":"Uncletopia | Los Angeles | 2 | All Maps | STV","players":null},{"server_id":324,"name":"Uncletopia | Los Angeles | 3 | All Maps","name_short":"lax-3","host":"lax-1.us.uncletopia.com","port":27035,"enabled":true,"region":"us-west","cc":"us","latitude":33.94279,"longitude":-118.41004,"reserved":0,"last_update":"0001-01-01T00:00:00Z","name_a2s":"Uncletopia | Los Angeles | 3 | All Maps","protocol":17,"map":"pl_pier","folder":"tf","game":"Team Fortress","app_id":440,"player_count":16,"max_players":24,"Bots":0,"server_type":"Dedicated","server_os":"Linux","password":true,"vac":true,"version":"7961495","steam_id":85568392924510198,"keywords":["nocrits","nodmgspread","payload","uncletopia"],"game_id":440,"stv_port":27036,"stv_name":"Uncletopia | Los Angeles | 3 | All Maps | STV","players":[{"user_id":415,"name":"Cul Kid","steam_id":76561198152164584,"connected_time":2137000000000,"state":"active","ping":60},{"user_id":411,"name":"AimB√ºtter","steam_id":76561198060108739,"connected_time":2395000000000,"state":"active","ping":45},{"user_id":439,"name":"Buffalo Gold","steam_id":76561198119693806,"connected_time":59000000000,"state":"active","ping":62},{"user_id":402,"name":"obese farts","steam_id":76561198206922028,"connected_time":2967000000000,"state":"active","ping":62},{"user_id":421,"name":"TexNG","steam_id":76561197976341487,"connected_time":1789000000000,"state":"active","ping":78},{"user_id":387,"name":"ena - d","steam_id":76561198072329335,"connected_time":3508000000000,"state":"active","ping":99},{"user_id":404,"name":"SSNope","steam_id":76561198300092011,"connected_time":2861000000000,"state":"active","ping":86},{"user_id":418,"name":"Paul Gaming","steam_id":76561198065538229,"connected_time":2044000000000,"state":"active","ping":62},{"user_id":436,"name":"MC_Labs15","steam_id":76561198184017082,"connected_time":634000000000,"state":"active","ping":78},{"user_id":424,"name":"KrylonHeretic","steam_id":76561198139811459,"connected_time":1689000000000,"state":"active","ping":71},{"user_id":428,"name":"Mocha Josie","steam_id":76561198066452726,"connected_time":1494000000000,"state":"active","ping":48},{"user_id":434,"name":"gamer_devourer","steam_id":76561198973306314,"connected_time":841000000000,"state":"active","ping":49},{"user_id":432,"name":"Scout that makes you look up","steam_id":76561198137627873,"connected_time":1139000000000,"state":"active","ping":74},{"user_id":437,"name":"Some Genius","steam_id":76561198101868089,"connected_time":631000000000,"state":"active","ping":45},{"user_id":435,"name":"Saggle","steam_id":76561198056075147,"connected_time":778000000000,"state":"active","ping":173},{"user_id":410,"name":"shark bait hoo ha ha","steam_id":76561198114603745,"connected_time":2463000000000,"state":"active","ping":60}]},{"server_id":25,"name":"Uncletopia | Los Angeles | 4 | Stopwatch Beta","name_short":"lax-4","host":"lax-1.us.uncletopia.com","port":27045,"enabled":true,"region":"us-west","cc":"us","latitude":33.94279,"longitude":-118.41004,"reserved":0,"last_update":"0001-01-01T00:00:00Z","name_a2s":"Uncletopia | Los Angeles | 4 | Stopwatch Beta","protocol":17,"map":"pl_frontier_final","folder":"tf","game":"Team Fortress","app_id":440,"player_count":0,"max_players":24,"Bots":0,"server_type":"Dedicated","server_os":"Linux","password":true,"vac":true,"version":"7961495","steam_id":85568392924510199,"keywords":["nocrits","nodmgspread","payload","uncletopia"],"game_id":440,"stv_port":27046,"stv_name":"Uncletopia | Los Angeles | 4 | Stopwatch Beta | STV","players":null},{"server_id":11,"name":"Uncletopia | London | 1 | All Maps","name_short":"lon-1","host":"lon-1.uk.uncletopia.com","port":27015,"enabled":true,"region":"eu","cc":"gb","latitude":51.509865,"longitude":-0.118092,"reserved":0,"last_update":"0001-01-01T00:00:00Z","name_a2s":"Uncletopia | London | 1 | All Maps","protocol":17,"map":"pl_borneo","folder":"tf","game":"Team Fortress","app_id":440,"player_count":23,"max_players":24,"Bots":0,"server_type":"Dedicated","server_os":"Linux","password":true,"vac":true,"version":"7961495","steam_id":85568392924367362,"keywords":["nocrits","nodmgspread","payload","uncletopia"],"game_id":440,"stv_port":27016,"stv_name":"Uncletopia | London | 1 | All Maps | STV","players":[{"user_id":224,"name":"Moohsem","steam_id":76561198172198154,"connected_time":770000000000,"state":"active","ping":118},{"user_id":210,"name":"Wamce","steam_id":76561198082187052,"connected_time":1316000000000,"state":"active","ping":141},{"user_id":229,"name":"pljuga","steam_id":76561198001174470,"connected_time":462000000000,"state":"active","ping":63},{"user_id":184,"name":"Bun","steam_id":76561197989239999,"connected_time":3776000000000,"state":"active","ping":60},{"user_id":211,"name":"on1on (scrambled)","steam_id":76561197995304137,"connected_time":1290000000000,"state":"active","ping":70},{"user_id":212,"name":"Sunchouse","steam_id":76561198453479806,"connected_time":1237000000000,"state":"active","ping":90},{"user_id":227,"name":"Operable2694","steam_id":76561199486377532,"connected_time":679000000000,"state":"active","ping":55},{"user_id":203,"name":"spookd. ! !","steam_id":76561198285825743,"connected_time":2482000000000,"state":"active","ping":80},{"user_id":193,"name":"big naked bruh","steam_id":76561199179040672,"connected_time":3215000000000,"state":"active","ping":48},{"user_id":228,"name":"player with 0 skill","steam_id":76561198002451113,"connected_time":568000000000,"state":"active","ping":103},{"user_id":197,"name":"halow","steam_id":76561198061505163,"connected_time":2762000000000,"state":"active","ping":105},{"user_id":198,"name":"‚à´cos¬≤(2x)sin(x)dx","steam_id":76561198079937590,"connected_time":2658000000000,"state":"active","ping":58},{"user_id":160,"name":"Neimon","steam_id":76561198343485710,"connected_time":5257000000000,"state":"active","ping":130},{"user_id":208,"name":"i am the one who knocks","steam_id":76561198263228457,"connected_time":1363000000000,"state":"active","ping":88},{"user_id":214,"name":"C11H15NO2","steam_id":76561198066146016,"connected_time":1217000000000,"state":"active","ping":66},{"user_id":181,"name":"Grumble","steam_id":76561198053880090,"connected_time":4226000000000,"state":"active","ping":77},{"user_id":223,"name":"Locke","steam_id":76561198339408300,"connected_time":907000000000,"state":"active","ping":55},{"user_id":215,"name":"Sonic","steam_id":76561198081692577,"connected_time":1214000000000,"state":"active","ping":74},{"user_id":191,"name":"Trenbolone Acetate","steam_id":76561198078156944,"connected_time":3296000000000,"state":"active","ping":85},{"user_id":207,"name":"7Tales","steam_id":76561198121572869,"connected_time":1406000000000,"state":"active","ping":49},{"user_id":221,"name":"hichem","steam_id":76561198056197307,"connected_time":1001000000000,"state":"active","ping":71},{"user_id":216,"name":"PASTAMANIA!","steam_id":76561197967858558,"connected_time":1185000000000,"state":"active","ping":43},{"user_id":226,"name":"Cabbch","steam_id":76561198045955679,"connected_time":704000000000,"state":"active","ping":48}]},{"server_id":114,"name":"Uncletopia | London | 2 | All Maps","name_short":"lon-2","host":"lon-1.uk.uncletopia.com","port":27025,"enabled":true,"region":"eu","cc":"gb","latitude":51.509865,"longitude":-0.118092,"reserved":0,"last_update":"0001-01-01T00:00:00Z","name_a2s":"Uncletopia | London | 2 | All Maps","protocol":17,"map":"cp_altitude","folder":"tf","game":"Team Fortress","app_id":440,"player_count":0,"max_players":24,"Bots":0,"server_type":"Dedicated","server_os":"Linux","password":true,"vac":true,"version":"7961495","steam_id":85568392924470941,"keywords":["cp","nocrits","nodmgspread","uncletopia"],"game_id":440,"stv_port":27026,"stv_name":"Uncletopia | London | 2 | All Maps | STV","players":null},{"server_id":320,"name":"Uncletopia | London | 3 | All Maps","name_short":"lon-3","host":"lon-1.uk.uncletopia.com","port":27035,"enabled":true,"region":"eu","cc":"gb","latitude":51.509865,"longitude":-0.118092,"reserved":0,"last_update":"0001-01-01T00:00:00Z","name_a2s":"Uncletopia | London | 3 | All Maps","protocol":17,"map":"pl_barnblitz","folder":"tf","game":"Team Fortress","app_id":440,"player_count":0,"max_players":24,"Bots":0,"server_type":"Dedicated","server_os":"Linux","password":true,"vac":true,"version":"7961495","steam_id":85568392924510192,"keywords":["nocrits","nodmgspread","payload","uncletopia"],"game_id":440,"stv_port":27036,"stv_name":"Uncletopia | London | 3 | All Maps | STV","players":null},{"server_id":321,"name":"Uncletopia | London | 4 | All Maps","name_short":"lon-4","host":"lon-1.uk.uncletopia.com","port":27045,"enabled":true,"region":"eu","cc":"gb","latitude":51.509865,"longitude":-0.118092,"reserved":0,"last_update":"0001-01-01T00:00:00Z","name_a2s":"Uncletopia | London | 4 | All Maps","protocol":17,"map":"koth_cascade","folder":"tf","game":"Team Fortress","app_id":440,"player_count":0,"max_players":24,"Bots":0,"server_type":"Dedicated","server_os":"Linux","password":true,"vac":true,"version":"7961495","steam_id":85568392924510193,"keywords":["cp","nocrits","nodmgspread","uncletopia"],"game_id":440,"stv_port":27046,"stv_name":"Uncletopia | London | 4 | All Maps | STV","players":null},{"server_id":21,"name":"Uncletopia | London | 5 | All Maps","name_short":"lon-5","host":"lon-1.uk.uncletopia.com","port":27055,"enabled":true,"region":"eu","cc":"gb","latitude":51.509865,"longitude":-0.118092,"reserved":0,"last_update":"0001-01-01T00:00:00Z","name_a2s":"Uncletopia | London | 5 | All Maps","protocol":17,"map":"pl_snowycoast","folder":"tf","game":"Team Fortress","app_id":440,"player_count":0,"max_players":24,"Bots":0,"server_type":"Dedicated","server_os":"Linux","password":true,"vac":true,"version":"7961495","steam_id":85568392924742829,"keywords":["nocrits","nodmgspread","payload","uncletopia"],"game_id":440,"stv_port":27056,"stv_name":"Uncletopia | London | 5 | All Maps | STV","players":null},{"server_id":22,"name":"Uncletopia | London | 6 | All Maps","name_short":"lon-6","host":"lon-1.uk.uncletopia.com","port":27065,"enabled":true,"region":"eu","cc":"gb","latitude":51.509865,"longitude":-0.118092,"reserved":0,"last_update":"0001-01-01T00:00:00Z","name_a2s":"Uncletopia | London | 6 | All Maps","protocol":17,"map":"koth_lakeside_final","folder":"tf","game":"Team Fortress","app_id":440,"player_count":0,"max_players":24,"Bots":0,"server_type":"Dedicated","server_os":"Linux","password":true,"vac":true,"version":"7961495","steam_id":85568392924742830,"keywords":["cp","nocrits","nodmgspread","uncletopia"],"game_id":440,"stv_port":27066,"stv_name":"Uncletopia | London | 6 | All Maps | STV","players":null},{"server_id":40,"name":"Uncletopia | London | 7 | No Payload","name_short":"lon-7","host":"lon-1.uk.uncletopia.com","port":27075,"enabled":true,"region":"eu","cc":"gb","latitude":51.509865,"longitude":-0.118092,"reserved":0,"last_update":"0001-01-01T00:00:00Z","name_a2s":"Uncletopia | London | 7 | No Payload","protocol":17,"map":"pl_snowycoast","folder":"tf","game":"Team Fortress","app_id":440,"player_count":0,"max_players":24,"Bots":0,"server_type":"Dedicated","server_os":"Linux","password":true,"vac":true,"version":"7961495","steam_id":85568392924964314,"keywords":["nocrits","nodmgspread","payload","uncletopia"],"game_id":440,"stv_port":27076,"stv_name":"Uncletopia | London | 7 | No Payload | STV","players":null},{"server_id":41,"name":"Uncletopia | London | 8 | Community","name_short":"lon-8","host":"lon-1.uk.uncletopia.com","port":27085,"enabled":true,"region":"eu","cc":"gb","latitude":51.509865,"longitude":-0.118092,"reserved":0,"last_update":"0001-01-01T00:00:00Z","name_a2s":"Uncletopia | London | 8 | Community","protocol":17,"map":"koth_viaduct","folder":"tf","game":"Team Fortress","app_id":440,"player_count":0,"max_players":24,"Bots":0,"server_type":"Dedicated","server_os":"Linux","password":true,"vac":true,"version":"7961495","steam_id":85568392924964315,"keywords":["cp","nocrits","nodmgspread","uncletopia"],"game_id":440,"stv_port":27086,"stv_name":"Uncletopia | London | 8 | Community | STV","players":null},{"server_id":300,"name":"Uncletopia | Montr√©al | 1 | All Maps","name_short":"mtl-1","host":"mtl-1.ca.uncletopia.com","port":27015,"enabled":true,"region":"us-east","cc":"ca","latitude":45.50889,"longitude":-73.56167,"reserved":0,"last_update":"0001-01-01T00:00:00Z","name_a2s":"Uncletopia | Montr√©al | 1 | All Maps","protocol":17,"map":"koth_cascade","folder":"tf","game":"Team Fortress","app_id":440,"player_count":0,"max_players":24,"Bots":0,"server_type":"Dedicated","server_os":"Linux","password":true,"vac":true,"version":"7961495","steam_id":85568392924500087,"keywords":["cp","nocrits","nodmgspread","uncletopia"],"game_id":440,"stv_port":27016,"stv_name":"Uncletopia | Montr√©al | 1 | All Maps | STV","players":null},{"server_id":301,"name":"Uncletopia | Montr√©al | 2 | All Maps","name_short":"mtl-2","host":"mtl-1.ca.uncletopia.com","port":27025,"enabled":true,"region":"us-east","cc":"ca","latitude":45.50889,"longitude":-73.56167,"reserved":0,"last_update":"0001-01-01T00:00:00Z","name_a2s":"Uncletopia | Montr√©al | 2 | All Maps","protocol":17,"map":"pl_frontier_final","folder":"tf","game":"Team Fortress","app_id":440,"player_count":0,"max_players":24,"Bots":0,"server_type":"Dedicated","server_os":"Linux","password":true,"vac":true,"version":"7961495","steam_id":85568392924500088,"keywords":["nocrits","nodmgspread","payload","uncletopia"],"game_id":440,"stv_port":27026,"stv_name":"Uncletopia | Montr√©al | 2 | All Maps | STV","players":null},{"server_id":302,"name":"Uncletopia | Montr√©al | 3 | All Maps","name_short":"mtl-3","host":"mtl-1.ca.uncletopia.com","port":27035,"enabled":true,"region":"us-east","cc":"ca","latitude":45.50889,"longitude":-73.56167,"reserved":0,"last_update":"0001-01-01T00:00:00Z","name_a2s":"Uncletopia | Montr√©al | 3 | All Maps","protocol":17,"map":"koth_viaduct","folder":"tf","game":"Team Fortress","app_id":440,"player_count":0,"max_players":24,"Bots":0,"server_type":"Dedicated","server_os":"Linux","password":true,"vac":true,"version":"7961495","steam_id":85568392924500089,"keywords":["cp","nocrits","nodmgspread","uncletopia"],"game_id":440,"stv_port":27036,"stv_name":"Uncletopia | Montr√©al | 3 | All Maps | STV","players":null},{"server_id":303,"name":"Uncletopia | Montr√©al | 4 | No Payload","name_short":"mtl-4","host":"mtl-1.ca.uncletopia.com","port":27045,"enabled":true,"region":"us-east","cc":"ca","latitude":45.50889,"longitude":-73.56167,"reserved":0,"last_update":"0001-01-01T00:00:00Z","name_a2s":"Uncletopia | Montr√©al | 4 | No Payload","protocol":17,"map":"cp_mountainlab","folder":"tf","game":"Team Fortress","app_id":440,"player_count":0,"max_players":24,"Bots":0,"server_type":"Dedicated","server_os":"Linux","password":true,"vac":true,"version":"7961495","steam_id":85568392924500090,"keywords":["cp","nocrits","nodmgspread","uncletopia"],"game_id":440,"stv_port":27046,"stv_name":"Uncletopia | Montr√©al | 4 | No Payload | STV","players":null},{"server_id":13,"name":"Uncletopia | New York City | 1 | All Maps","name_short":"nyc-1","host":"nyc-1.us.uncletopia.com","port":27015,"enabled":true,"region":"us-east","cc":"us","latitude":40.73061,"longitude":-73.93524,"reserved":0,"last_update":"0001-01-01T00:00:00Z","name_a2s":"Uncletopia | New York City | 1 | All Maps","protocol":17,"map":"cp_altitude","folder":"tf","game":"Team Fortress","app_id":440,"player_count":0,"max_players":24,"Bots":0,"server_type":"Dedicated","server_os":"Linux","password":true,"vac":true,"version":"7961495","steam_id":85568392924469993,"keywords":["cp","nocrits","nodmgspread","uncletopia"],"game_id":440,"stv_port":27016,"stv_name":"Uncletopia | New York City | 1 | All Maps | STV","players":null},{"server_id":14,"name":"Uncletopia | New York City | 2 | All Maps","name_short":"nyc-2","host":"nyc-1.us.uncletopia.com","port":27025,"enabled":true,"region":"us-east","cc":"us","latitude":40.73061,"longitude":-73.93524,"reserved":0,"last_update":"0001-01-01T00:00:00Z","name_a2s":"Uncletopia | New York City | 2 | All Maps","protocol":17,"map":"cp_mountainlab","folder":"tf","game":"Team Fortress","app_id":440,"player_count":0,"max_players":24,"Bots":0,"server_type":"Dedicated","server_os":"Linux","password":true,"vac":true,"version":"7961495","steam_id":85568392924469994,"keywords":["cp","nocrits","nodmgspread","uncletopia"],"game_id":440,"stv_port":27026,"stv_name":"Uncletopia | New York City | 2 | All Maps | STV","players":null},{"server_id":15,"name":"Uncletopia | New York City | 3 | Stopwatch Beta","name_short":"nyc-3","host":"nyc-1.us.uncletopia.com","port":27035,"enabled":true,"region":"us-east","cc":"us","latitude":40.73061,"longitude":-73.93524,"reserved":0,"last_update":"0001-01-01T00:00:00Z","name_a2s":"Uncletopia | New York City | 3 | Stopwatch Beta","protocol":17,"map":"workshop/pl_badwater_pro_v12.ugc2142942074","folder":"tf","game":"Team Fortress","app_id":440,"player_count":0,"max_players":24,"Bots":0,"server_type":"Dedicated","server_os":"Linux","password":true,"vac":true,"version":"7961495","steam_id":85568392924742820,"keywords":["nocrits","nodmgspread","payload","uncletopia"],"game_id":440,"stv_port":27036,"stv_name":"Uncletopia | New York City | 3 | Stopwatch Beta | STV","players":null},{"server_id":16,"name":"Uncletopia | New York City | 4 | Community","name_short":"nyc-4","host":"nyc-1.us.uncletopia.com","port":27045,"enabled":true,"region":"us-east","cc":"us","latitude":40.73061,"longitude":-73.93524,"reserved":0,"last_update":"0001-01-01T00:00:00Z","name_a2s":"Uncletopia | New York City | 4 | Community","protocol":17,"map":"workshop/pl_corrode_rc2.ugc546577989","folder":"tf","game":"Team Fortress","app_id":440,"player_count":0,"max_players":24,"Bots":0,"server_type":"Dedicated","server_os":"Linux","password":true,"vac":true,"version":"7961495","steam_id":85568392924742821,"keywords":["nocrits","nodmgspread","payload","uncletopia"],"game_id":440,"stv_port":27046,"stv_name":"Uncletopia | New York City | 4 | Community | STV","players":null},{"server_id":142,"name":"Uncletopia | S√£o Paulo | 1 | All Maps","name_short":"sao-1","host":"sao-1.br.uncletopia.com","port":27015,"enabled":true,"region":"sa","cc":"br","latitude":-23.533773,"longitude":-46.62529,"reserved":0,"last_update":"0001-01-01T00:00:00Z","name_a2s":"Uncletopia | S√£o Paulo | 1 | All Maps","protocol":17,"map":"pl_upward","folder":"tf","game":"Team Fortress","app_id":440,"player_count":0,"max_players":24,"Bots":0,"server_type":"Dedicated","server_os":"Linux","password":true,"vac":true,"version":"7961495","steam_id":85568392924469996,"keywords":["nocrits","nodmgspread","payload","uncletopia"],"game_id":440,"stv_port":27016,"stv_name":"Uncletopia | S√£o Paulo | 1 | All Maps | STV","players":null},{"server_id":143,"name":"Uncletopia | S√£o Paulo | 2 | All Maps","name_short":"sao-2","host":"sao-2.br.uncletopia.com","port":27015,"enabled":true,"region":"sa","cc":"br","latitude":-23.533773,"longitude":-46.62529,"reserved":0,"last_update":"0001-01-01T00:00:00Z","name_a2s":"Uncletopia | S√£o Paulo | 2 | All Maps","protocol":17,"map":"koth_cascade","folder":"tf","game":"Team Fortress","app_id":440,"player_count":0,"max_players":24,"Bots":0,"server_type":"Dedicated","server_os":"Linux","password":true,"vac":true,"version":"7961495","steam_id":85568392924485349,"keywords":["cp","nocrits","nodmgspread","uncletopia"],"game_id":440,"stv_port":27016,"stv_name":"Uncletopia | S√£o Paulo | 2 | All Maps | STV","players":null},{"server_id":7,"name":"Uncletopia | Seattle | 1 | All Maps","name_short":"sea-1","host":"sea-1.us.uncletopia.com","port":27015,"enabled":true,"region":"us-west","cc":"us","latitude":47.608013,"longitude":-122.33517,"reserved":0,"last_update":"0001-01-01T00:00:00Z","name_a2s":"Uncletopia | Seattle | 1 | All Maps","protocol":17,"map":"koth_sawmill","folder":"tf","game":"Team Fortress","app_id":440,"player_count":21,"max_players":24,"Bots":0,"server_type":"Dedicated","server_os":"Linux","password":true,"vac":true,"version":"7961495","steam_id":85568392924469997,"keywords":["cp","nocrits","nodmgspread","uncletopia"],"game_id":440,"stv_port":27016,"stv_name":"Uncletopia | Seattle | 1 | All Maps | STV","players":[{"user_id":478,"name":"Yongle","steam_id":76561198068591156,"connected_time":653000000000,"state":"active","ping":104},{"user_id":479,"name":"larguu","steam_id":76561197994336210,"connected_time":466000000000,"state":"active","ping":101},{"user_id":482,"name":"no vc no c","steam_id":76561197989503095,"connected_time":48000000000,"state":"active","ping":163},{"user_id":445,"name":"Level 99 Mudcrab","steam_id":76561198077452771,"connected_time":3303000000000,"state":"active","ping":50},{"user_id":468,"name":"mike, isntrorywashere","steam_id":76561198225411004,"connected_time":1589000000000,"state":"active","ping":62},{"user_id":481,"name":" ï„Å£‚Ä¢·¥•‚Ä¢ î„Å£","steam_id":76561198010392559,"connected_time":80000000000,"state":"active","ping":60},{"user_id":447,"name":"Starkiller","steam_id":76561198101643120,"connected_time":3146000000000,"state":"active","ping":102},{"user_id":476,"name":"bobbymcbobington","steam_id":76561199089411172,"connected_time":1057000000000,"state":"active","ping":165},{"user_id":434,"name":"lil boogie","steam_id":76561198064059721,"connected_time":4172000000000,"state":"active","ping":43},{"user_id":477,"name":"BuncusBeffer","steam_id":76561198285936616,"connected_time":761000000000,"state":"active","ping":101},{"user_id":442,"name":"Tommy Salami","steam_id":76561198392514273,"connected_time":3683000000000,"state":"active","ping":47},{"user_id":483,"name":"juanjoesc","steam_id":76561198186368430,"connected_time":27000000000,"state":"active","ping":169},{"user_id":484,"name":"rat bastard","steam_id":76561198066631833,"connected_time":15000000000,"state":"active","ping":224},{"user_id":467,"name":"Trips","steam_id":76561198054581597,"connected_time":1751000000000,"state":"active","ping":89},{"user_id":474,"name":"M4 Sherman","steam_id":76561198126990820,"connected_time":1167000000000,"state":"active","ping":98},{"user_id":458,"name":"Wendigo","steam_id":76561197994528974,"connected_time":2292000000000,"state":"active","ping":75},{"user_id":464,"name":"Umevol","steam_id":76561198082943489,"connected_time":1925000000000,"state":"active","ping":103},{"user_id":431,"name":"comfycaffeine","steam_id":76561198058690096,"connected_time":4206000000000,"state":"active","ping":46},{"user_id":472,"name":"d","steam_id":76561198066114874,"connected_time":1419000000000,"state":"active","ping":46},{"user_id":473,"name":"novacaine","steam_id":76561198149443710,"connected_time":1407000000000,"state":"active","ping":68},{"user_id":466,"name":"Mr defrost","steam_id":76561198322125657,"connected_time":1809000000000,"state":"active","ping":69}]},{"server_id":119,"name":"Uncletopia | Seattle | 2 | All Maps","name_short":"sea-2","host":"sea-1.us.uncletopia.com","port":27025,"enabled":true,"region":"us-west","cc":"us","latitude":47.608013,"longitude":-122.33517,"reserved":0,"last_update":"0001-01-01T00:00:00Z","name_a2s":"Uncletopia | Seattle | 2 | All Maps","protocol":17,"map":"koth_highpass","folder":"tf","game":"Team Fortress","app_id":440,"player_count":0,"max_players":24,"Bots":0,"server_type":"Dedicated","server_os":"Linux","password":true,"vac":true,"version":"7961495","steam_id":85568392924469998,"keywords":["cp","nocrits","nodmgspread","uncletopia"],"game_id":440,"stv_port":27026,"stv_name":"Uncletopia | Seattle | 2 | All Maps | STV","players":null},{"server_id":406,"name":"Uncletopia | Seattle | 3 | Stopwatch Beta","name_short":"sea-3","host":"sea-1.us.uncletopia.com","port":27035,"enabled":true,"region":"us-west","cc":"us","latitude":47.608013,"longitude":-122.33517,"reserved":0,"last_update":"0001-01-01T00:00:00Z","name_a2s":"Uncletopia | Seattle | 3 | Stopwatch Beta","protocol":17,"map":"pl_swiftwater_final1","folder":"tf","game":"Team Fortress","app_id":440,"player_count":0,"max_players":24,"Bots":0,"server_type":"Dedicated","server_os":"Linux","password":true,"vac":true,"version":"7961495","steam_id":85568392924515217,"keywords":["nocrits","nodmgspread","payload","uncletopia"],"game_id":440,"stv_port":27036,"stv_name":"Uncletopia | Seattle | 3 | Stopwatch Beta | STV","players":null},{"server_id":17,"name":"Uncletopia | San Francisco | 1 | All Maps","name_short":"sfo-1","host":"sfo-1.us.uncletopia.com","port":27015,"enabled":true,"region":"us-west","cc":"us","latitude":37.77397,"longitude":-122.4313,"reserved":0,"last_update":"0001-01-01T00:00:00Z","name_a2s":"Uncletopia | San Francisco | 1 | All Maps","protocol":17,"map":"pl_frontier_final","folder":"tf","game":"Team Fortress","app_id":440,"player_count":0,"max_players":24,"Bots":0,"server_type":"Dedicated","server_os":"Linux","password":true,"vac":true,"version":"7932396","steam_id":85568392924469999,"keywords":["nocrits","nodmgspread","payload","uncletopia"],"game_id":440,"stv_port":27016,"stv_name":"Uncletopia | San Francisco | 1 | All Maps | STV","players":null},{"server_id":18,"name":"Uncletopia | San Francisco | 2 | All Maps","name_short":"sfo-2","host":"sfo-1.us.uncletopia.com","port":27025,"enabled":true,"region":"us-west","cc":"us","latitude":37.77397,"longitude":-122.4313,"reserved":0,"last_update":"0001-01-01T00:00:00Z","name_a2s":"Uncletopia | San Francisco | 2 | All Maps","protocol":17,"map":"cp_snakewater_final1","folder":"tf","game":"Team Fortress","app_id":440,"player_count":0,"max_players":24,"Bots":0,"server_type":"Dedicated","server_os":"Linux","password":true,"vac":true,"version":"7932396","steam_id":85568392924470000,"keywords":["cp","nocrits","nodmgspread","uncletopia"],"game_id":440,"stv_port":27026,"stv_name":"Uncletopia | San Francisco | 2 | All Maps | STV","players":null},{"server_id":19,"name":"Uncletopia | San Francisco | 3 | Stopwatch Beta","name_short":"sfo-3","host":"sfo-1.us.uncletopia.com","port":27035,"enabled":true,"region":"us-west","cc":"us","latitude":37.77397,"longitude":-122.4313,"reserved":0,"last_update":"0001-01-01T00:00:00Z","name_a2s":"Uncletopia | San Francisco | 3 | Stopwatch Beta","protocol":17,"map":"koth_lakeside_final","folder":"tf","game":"Team Fortress","app_id":440,"player_count":0,"max_players":24,"Bots":0,"server_type":"Dedicated","server_os":"Linux","password":true,"vac":true,"version":"7932396","steam_id":85568392924742824,"keywords":["cp","nocrits","nodmgspread","uncletopia"],"game_id":440,"stv_port":27036,"stv_name":"Uncletopia | San Francisco | 3 | Stopwatch Beta | STV","players":null},{"server_id":20,"name":"Uncletopia | San Francisco | 4 | Community","name_short":"sfo-4","host":"sfo-1.us.uncletopia.com","port":27045,"enabled":true,"region":"us-west","cc":"us","latitude":37.77397,"longitude":-122.4313,"reserved":0,"last_update":"0001-01-01T00:00:00Z","name_a2s":"Uncletopia | San Francisco | 4 | Community","protocol":17,"map":"pl_borneo","folder":"tf","game":"Team Fortress","app_id":440,"player_count":0,"max_players":24,"Bots":0,"server_type":"Dedicated","server_os":"Linux","password":true,"vac":true,"version":"7932396","steam_id":85568392924742826,"keywords":["nocrits","nodmgspread","payload","uncletopia"],"game_id":440,"stv_port":27046,"stv_name":"Uncletopia | San Francisco | 4 | Community | STV","players":null},{"server_id":141,"name":"Uncletopia | Sydney | 1 | All Maps","name_short":"syd-1","host":"syd-1.au.uncletopia.com","port":27015,"enabled":true,"region":"au","cc":"au","latitude":-33.865143,"longitude":151.2099,"reserved":0,"last_update":"0001-01-01T00:00:00Z","name_a2s":"Uncletopia | Sydney | 1 | All Maps","protocol":17,"map":"plr_pipeline","folder":"tf","game":"Team Fortress","app_id":440,"player_count":2,"max_players":24,"Bots":0,"server_type":"Dedicated","server_os":"Linux","password":true,"vac":true,"version":"7961495","steam_id":85568392924470001,"keywords":["nocrits","nodmgspread","payload","uncletopia"],"game_id":440,"stv_port":27016,"stv_name":"Uncletopia | Sydney | 1 | All Maps | STV","players":[{"user_id":221,"name":"bangerlop","steam_id":76561199349993627,"connected_time":856000000000,"state":"active","ping":138},{"user_id":212,"name":"Nemgu","steam_id":76561198243952386,"connected_time":1878000000000,"state":"active","ping":61}]},{"server_id":123,"name":"Uncletopia | Sydney | 2 | All Maps","name_short":"syd-2","host":"syd-1.au.uncletopia.com","port":27025,"enabled":true,"region":"au","cc":"au","latitude":-33.865143,"longitude":151.2099,"reserved":0,"last_update":"0001-01-01T00:00:00Z","name_a2s":"Uncletopia | Sydney | 2 | All Maps","protocol":17,"map":"pl_upward","folder":"tf","game":"Team Fortress","app_id":440,"player_count":24,"max_players":24,"Bots":0,"server_type":"Dedicated","server_os":"Linux","password":true,"vac":true,"version":"7961495","steam_id":85568392924470002,"keywords":["nocrits","nodmgspread","payload","uncletopia"],"game_id":440,"stv_port":27026,"stv_name":"Uncletopia | Sydney | 2 | All Maps | STV","players":[{"user_id":170,"name":"Lobart√©","steam_id":76561198090116136,"connected_time":518000000000,"state":"active","ping":63},{"user_id":149,"name":"theory haver","steam_id":76561198133867907,"connected_time":2795000000000,"state":"active","ping":63},{"user_id":177,"name":"Pompadouraus","steam_id":76561198327530525,"connected_time":482000000000,"state":"active","ping":74},{"user_id":107,"name":"CoolGuyMatt","steam_id":76561198009757360,"connected_time":7619000000000,"state":"active","ping":69},{"user_id":161,"name":"Crispy","steam_id":76561198081760160,"connected_time":1711000000000,"state":"active","ping":90},{"user_id":178,"name":"Aps","steam_id":76561198797104865,"connected_time":468000000000,"state":"active","ping":44},{"user_id":153,"name":"Original Dog","steam_id":76561198046480594,"connected_time":2452000000000,"state":"active","ping":85},{"user_id":146,"name":"Fleetfoot","steam_id":76561198072845816,"connected_time":3478000000000,"state":"active","ping":54},{"user_id":167,"name":"Jodelk√∂nig Franzl Lang","steam_id":76561198007667830,"connected_time":1481000000000,"state":"active","ping":51},{"user_id":165,"name":"former romeo","steam_id":76561198031293430,"connected_time":1537000000000,"state":"active","ping":88},{"user_id":166,"name":"popman2000","steam_id":76561199177709158,"connected_time":1516000000000,"state":"active","ping":77},{"user_id":127,"name":"Paul Hollywood","steam_id":76561198060024585,"connected_time":5961000000000,"state":"active","ping":40},{"user_id":179,"name":"james16","steam_id":76561198362678073,"connected_time":458000000000,"state":"active","ping":47},{"user_id":182,"name":"Blash","steam_id":76561198833483297,"connected_time":289000000000,"state":"active","ping":70},{"user_id":160,"name":"whiteshaq","steam_id":76561198131988811,"connected_time":1978000000000,"state":"active","ping":50},{"user_id":174,"name":"hxfm","steam_id":76561198392607727,"connected_time":507000000000,"state":"active","ping":94},{"user_id":147,"name":"Edgar's can't be choosers","steam_id":76561198301282416,"connected_time":3280000000000,"state":"active","ping":61},{"user_id":168,"name":"Hippity_Hoppity","steam_id":76561198861050395,"connected_time":1297000000000,"state":"active","ping":71},{"user_id":175,"name":"Tantei Rotana","steam_id":76561198041204323,"connected_time":501000000000,"state":"active","ping":62},{"user_id":130,"name":"mazoingbur splorgnorbus","steam_id":76561198063481761,"connected_time":5389000000000,"state":"active","ping":46},{"user_id":180,"name":"Diavolo Diablo","steam_id":76561198166295333,"connected_time":453000000000,"state":"active","ping":169},{"user_id":184,"name":"blaze","steam_id":76561198241303512,"connected_time":196000000000,"state":"active","ping":150},{"user_id":176,"name":"milochi ‚ô°","steam_id":76561198087506650,"connected_time":500000000000,"state":"active","ping":38},{"user_id":181,"name":"seayay","steam_id":76561199489024595,"connected_time":452000000000,"state":"active","ping":153}]},{"server_id":395,"name":"Uncletopia | Sydney | 3 | All Maps","name_short":"syd-3","host":"syd-1.au.uncletopia.com","port":27035,"enabled":true,"region":"au","cc":"au","latitude":-33.865143,"longitude":151.2099,"reserved":0,"last_update":"0001-01-01T00:00:00Z","name_a2s":"Uncletopia | Sydney | 3 | All Maps","protocol":17,"map":"pl_frontier_final","folder":"tf","game":"Team Fortress","app_id":440,"player_count":22,"max_players":24,"Bots":0,"server_type":"Dedicated","server_os":"Linux","password":true,"vac":true,"version":"7961495","steam_id":85568392925194467,"keywords":["nocrits","nodmgspread","payload","uncletopia"],"game_id":440,"stv_port":27036,"stv_name":"Uncletopia | Sydney | 3 | All Maps | STV","players":[{"user_id":8,"name":"K41","steam_id":76561198146207192,"connected_time":2781000000000,"state":"active","ping":44},{"user_id":9,"name":"Passance","steam_id":76561198156058724,"connected_time":2749000000000,"state":"active","ping":75},{"user_id":10,"name":"Sterlingpace","steam_id":76561198217945053,"connected_time":2743000000000,"state":"active","ping":103},{"user_id":22,"name":"TheOrang","steam_id":76561199232263206,"connected_time":1668000000000,"state":"active","ping":96},{"user_id":16,"name":"Lace","steam_id":76561198290993506,"connected_time":2353000000000,"state":"active","ping":58},{"user_id":14,"name":"bluebonkbloop","steam_id":76561198998430585,"connected_time":2501000000000,"state":"active","ping":95},{"user_id":41,"name":"Raiden00","steam_id":76561197994078111,"connected_time":157000000000,"state":"active","ping":130},{"user_id":29,"name":"york","steam_id":76561197996817216,"connected_time":678000000000,"state":"active","ping":45},{"user_id":35,"name":"Bunghole man","steam_id":76561199082101808,"connected_time":436000000000,"state":"active","ping":71},{"user_id":21,"name":"Finn","steam_id":76561199092525435,"connected_time":1894000000000,"state":"active","ping":68},{"user_id":24,"name":"pants money","steam_id":76561198066256359,"connected_time":1286000000000,"state":"active","ping":59},{"user_id":25,"name":"Dupiter","steam_id":76561198108820767,"connected_time":1251000000000,"state":"active","ping":59},{"user_id":26,"name":"Penguin Wielder","steam_id":76561198169038889,"connected_time":1039000000000,"state":"active","ping":62},{"user_id":28,"name":"Hungry for thumbtacks","steam_id":76561198059129270,"connected_time":862000000000,"state":"active","ping":69},{"user_id":30,"name":"drongo","steam_id":76561198838208913,"connected_time":657000000000,"state":"active","ping":67},{"user_id":31,"name":"JustinToo","steam_id":76561199145666163,"connected_time":592000000000,"state":"active","ping":70},{"user_id":33,"name":"bemmc","steam_id":76561198265472688,"connected_time":504000000000,"state":"active","ping":95},{"user_id":36,"name":"PhD in Shoe Shining","steam_id":76561198972095766,"connected_time":414000000000,"state":"active","ping":41},{"user_id":37,"name":"shaymii","steam_id":76561198058562392,"connected_time":397000000000,"state":"active","ping":91},{"user_id":38,"name":"timboe","steam_id":76561198003442007,"connected_time":350000000000,"state":"active","ping":60},{"user_id":39,"name":"I‚Äôm your hot mum that you lov","steam_id":76561198823795922,"connected_time":313000000000,"state":"active","ping":66}]},{"server_id":396,"name":"Uncletopia | Sydney | 4 | All Maps","name_short":"syd-4","host":"syd-1.au.uncletopia.com","port":27045,"enabled":true,"region":"au","cc":"au","latitude":-33.865143,"longitude":151.2099,"reserved":0,"last_update":"0001-01-01T00:00:00Z","name_a2s":"Uncletopia | Sydney | 4 | All Maps","protocol":17,"map":"koth_cascade","folder":"tf","game":"Team Fortress","app_id":440,"player_count":0,"max_players":24,"Bots":0,"server_type":"Dedicated","server_os":"Linux","password":true,"vac":true,"version":"7961495","steam_id":85568392925397958,"keywords":["cp","nocrits","nodmgspread","uncletopia"],"game_id":440,"stv_port":27046,"stv_name":"Uncletopia | Sydney | 4 | All Maps | STV","players":null},{"server_id":58,"name":"Uncletopia | Sydney | 5 | Stopwatch Beta","name_short":"syd-5","host":"syd-1.au.uncletopia.com","port":27055,"enabled":true,"region":"au","cc":"au","latitude":-33.865143,"longitude":151.2099,"reserved":0,"last_update":"0001-01-01T00:00:00Z","name_a2s":"Uncletopia | Sydney | 5 | Stopwatch Beta","protocol":17,"map":"koth_viaduct","folder":"tf","game":"Team Fortress","app_id":440,"player_count":0,"max_players":24,"Bots":0,"server_type":"Dedicated","server_os":"Linux","password":true,"vac":true,"version":"7961495","steam_id":85568392925397959,"keywords":["cp","nocrits","nodmgspread","uncletopia"],"game_id":440,"stv_port":27056,"stv_name":"Uncletopia | Sydney | 5 | Stopwatch Beta | STV","players":null},{"server_id":59,"name":"Uncletopia | Sydney | 6 | Community","name_short":"syd-6","host":"syd-1.au.uncletopia.com","port":27065,"enabled":true,"region":"au","cc":"au","latitude":-33.865143,"longitude":151.2099,"reserved":0,"last_update":"0001-01-01T00:00:00Z","name_a2s":"Uncletopia | Sydney | 6 | Community","protocol":17,"map":"workshop/cp_alloy_rc3.ugc592805587","folder":"tf","game":"Team Fortress","app_id":440,"player_count":0,"max_players":24,"Bots":0,"server_type":"Dedicated","server_os":"Linux","password":true,"vac":true,"version":"7961495","steam_id":85568392925397960,"keywords":["cp","nocrits","nodmgspread","uncletopia"],"game_id":440,"stv_port":27066,"stv_name":"Uncletopia | Sydney | 6 | Community | STV","players":null},{"server_id":49,"name":"Uncletopia | Warsaw | 1 | All Maps","name_short":"waw-1","host":"waw-1.pl.uncletopia.com","port":27015,"enabled":true,"region":"eu","cc":"pl","latitude":52.2297,"longitude":21.017532,"reserved":0,"last_update":"0001-01-01T00:00:00Z","name_a2s":"","protocol":0,"map":"","folder":"","game":"","app_id":0,"player_count":0,"max_players":0,"Bots":0,"server_type":"","server_os":"","password":false,"vac":false,"version":"","steam_id":0,"keywords":null,"game_id":0,"stv_port":0,"stv_name":"","players":null},{"server_id":50,"name":"Uncletopia | Warsaw | 2 | All Maps","name_short":"waw-2","host":"waw-1.pl.uncletopia.com","port":27025,"enabled":true,"region":"eu","cc":"pl","latitude":52.2297,"longitude":21.017532,"reserved":0,"last_update":"0001-01-01T00:00:00Z","name_a2s":"Uncletopia | Warsaw | 2 | All Maps","protocol":17,"map":"cp_mountainlab","folder":"tf","game":"Team Fortress","app_id":440,"player_count":0,"max_players":24,"Bots":0,"server_type":"Dedicated","server_os":"Linux","password":true,"vac":true,"version":"7961495","steam_id":85568392925397851,"keywords":["cp","nocrits","nodmgspread","uncletopia"],"game_id":440,"stv_port":27026,"stv_name":"Uncletopia | Warsaw | 2 | All Maps | STV","players":null},{"server_id":51,"name":"Uncletopia | Warsaw | 3 | All Maps","name_short":"waw-3","host":"waw-1.pl.uncletopia.com","port":27035,"enabled":true,"region":"eu","cc":"pl","latitude":52.2297,"longitude":21.017532,"reserved":0,"last_update":"0001-01-01T00:00:00Z","name_a2s":"Uncletopia | Warsaw | 3 | All Maps","protocol":17,"map":"cp_mountainlab","folder":"tf","game":"Team Fortress","app_id":440,"player_count":0,"max_players":24,"Bots":0,"server_type":"Dedicated","server_os":"Linux","password":true,"vac":true,"version":"7961495","steam_id":85568392925397852,"keywords":["cp","nocrits","nodmgspread","uncletopia"],"game_id":440,"stv_port":27036,"stv_name":"Uncletopia | Warsaw | 3 | All Maps | STV","players":null},{"server_id":52,"name":"Uncletopia | Warsaw | 4 | All Maps","name_short":"waw-4","host":"waw-1.pl.uncletopia.com","port":27045,"enabled":true,"region":"eu","cc":"pl","latitude":52.2297,"longitude":21.017532,"reserved":0,"last_update":"0001-01-01T00:00:00Z","name_a2s":"Uncletopia | Warsaw | 4 | All Maps","protocol":17,"map":"cp_dustbowl","folder":"tf","game":"Team Fortress","app_id":440,"player_count":0,"max_players":24,"Bots":0,"server_type":"Dedicated","server_os":"Linux","password":true,"vac":true,"version":"7961495","steam_id":85568392925397853,"keywords":["cp","nocrits","nodmgspread","uncletopia"],"game_id":440,"stv_port":27046,"stv_name":"Uncletopia | Warsaw | 4 | All Maps | STV","players":null},{"server_id":53,"name":"Uncletopia | Warsaw | 5 | Stopwatch Beta","name_short":"waw-5","host":"waw-1.pl.uncletopia.com","port":27055,"enabled":true,"region":"eu","cc":"pl","latitude":52.2297,"longitude":21.017532,"reserved":0,"last_update":"0001-01-01T00:00:00Z","name_a2s":"Uncletopia | Warsaw | 5 | Stopwatch Beta","protocol":17,"map":"pl_snowycoast","folder":"tf","game":"Team Fortress","app_id":440,"player_count":0,"max_players":24,"Bots":0,"server_type":"Dedicated","server_os":"Linux","password":true,"vac":true,"version":"7961495","steam_id":85568392925397854,"keywords":["nocrits","nodmgspread","payload","uncletopia"],"game_id":440,"stv_port":27056,"stv_name":"Uncletopia | Warsaw | 5 | Stopwatch Beta | STV","players":null},{"server_id":54,"name":"Uncletopia | Warsaw | 6 | Community","name_short":"waw-6","host":"waw-1.pl.uncletopia.com","port":27065,"enabled":true,"region":"eu","cc":"pl","latitude":52.2297,"longitude":21.017532,"reserved":0,"last_update":"0001-01-01T00:00:00Z","name_a2s":"Uncletopia | Warsaw | 6 | Community","protocol":17,"map":"pl_borneo","folder":"tf","game":"Team Fortress","app_id":440,"player_count":0,"max_players":24,"Bots":0,"server_type":"Dedicated","server_os":"Linux","password":true,"vac":true,"version":"7961495","steam_id":85568392925397856,"keywords":["nocrits","nodmgspread","payload","uncletopia"],"game_id":440,"stv_port":27066,"stv_name":"Uncletopia | Warsaw | 6 | Community | STV","players":null}]}