{"status":true,"message":"","result":[{"server_id":9,"name":"Uncletopia | Atlanta | 1 | All Maps","name_short":"atl-1","host":"atl-1.us.uncletopia.com","port":27015,"enabled":true,"region":"us-east","cc":"us","latitude":33.753746,"longitude":-84.38633,"reserved":0,"last_update":"0001-01-01T00:00:00Z","name_a2s":"Uncletopia | Atlanta | 1 | All Maps","protocol":17,"map":"pl_frontier_final","folder":"tf","game":"Team Fortress","app_id":440,"player_count":24,"max_players":24,"Bots":0,"server_type":"Dedicated","server_os":"Linux","password":true,"vac":true,"version":"7757534","steam_id":85568392924469982,"keywords":["nocrits","nodmgspread","payload","uncletopia"],"game_id":440,"stv_port":27016,"stv_name":"Uncletopia | Atlanta | 1 | All Maps | STV","players":[{"user_id":825,"name":"ATL1 | Psionic Box","steam_id":76561198151019322,"connected_time":276000000000,"state":"active","ping":68},{"user_id":822,"name":"thomasdee725!!!","steam_id":76561199189526173,"connected_time":420000000000,"state":"active","ping":120},{"user_id":812,"name":"Ashes!","steam_id":76561197998475441,"connected_time":2098000000000,"state":"active","ping":78},{"user_id":795,"name":"T Jit","steam_id":76561197993371179,"connected_time":3292000000000,"state":"active","ping":45},{"user_id":780,"name":"Crystron","steam_id":76561198880437428,"connected_time":4895000000000,"state":"active","ping":81},{"user_id":823,"name":"Dinero","steam_id":76561198408922663,"connected_time":315000000000,"state":"active","ping":88},{"user_id":813,"name":"SparkStorm","steam_id":76561198095817025,"connected_time":1812000000000,"state":"active","ping":33},{"user_id":783,"name":"TheRealMud","steam_id":76561198138312993,"connected_time":4558000000000,"state":"active","ping":85},{"user_id":701,"name":"BIG HOG","steam_id":76561198079923652,"connected_time":12967000000000,"state":"active","ping":74},{"user_id":821,"name":"Mobius","steam_id":76561199121973450,"connected_time":720000000000,"state":"active","ping":73},{"user_id":800,"name":"Roald (Solemn Vow Collector)","steam_id":76561198143182772,"connected_time":2612000000000,"state":"active","ping":68},{"user_id":802,"name":"David De Bergerac","steam_id":76561198010306294,"connected_time":2601000000000,"state":"active","ping":80},{"user_id":820,"name":"Keirb","steam_id":76561198027031567,"connected_time":767000000000,"state":"active","ping":96},{"user_id":816,"name":"Crystal Mongoose","steam_id":76561198001585325,"connected_time":1327000000000,"state":"active","ping":48},{"user_id":796,"name":"Orko (Third Degree Enjoyer)","steam_id":76561198162232131,"connected_time":2961000000000,"state":"active","ping":131},{"user_id":826,"name":"Lemonade Juice","steam_id":76561198402892608,"connected_time":194000000000,"state":"active","ping":100},{"user_id":814,"name":"Ninty","steam_id":76561199364725776,"connected_time":1519000000000,"state":"active","ping":73},{"user_id":789,"name":"nft airshotter","steam_id":76561198158137522,"connected_time":4197000000000,"state":"active","ping":45},{"user_id":819,"name":"SpoonKing","steam_id":76561198069283422,"connected_time":1116000000000,"state":"active","ping":73},{"user_id":677,"name":"eish","steam_id":76561198089463603,"connected_time":13867000000000,"state":"active","ping":121},{"user_id":818,"name":"Stoa","steam_id":76561198332519926,"connected_time":1145000000000,"state":"active","ping":66},{"user_id":782,"name":"nomad","steam_id":76561197998740399,"connected_time":4710000000000,"state":"active","ping":67},{"user_id":778,"name":"knockback abuser","steam_id":76561198319442494,"connected_time":4901000000000,"state":"active","ping":104},{"user_id":331,"name":"lil hog","steam_id":76561199230929836,"connected_time":33766000000000,"state":"active","ping":74}]},{"server_id":104,"name":"Uncletopia | Atlanta | 2 | All Maps","name_short":"atl-2","host":"atl-1.us.uncletopia.com","port":27025,"enabled":true,"region":"us-east","cc":"us","latitude":33.753746,"longitude":-84.38633,"reserved":0,"last_update":"0001-01-01T00:00:00Z","name_a2s":"Uncletopia | Atlanta | 2 | All Maps","protocol":17,"map":"pl_badwater","folder":"tf","game":"Team Fortress","app_id":440,"player_count":23,"max_players":24,"Bots":0,"server_type":"Dedicated","server_os":"Linux","password":true,"vac":true,"version":"7757534","steam_id":85568392924469983,"keywords":["nocrits","nodmgspread","payload","uncletopia"],"game_id":440,"stv_port":27026,"stv_name":"Uncletopia | Atlanta | 2 | All Maps | STV","players":[{"user_id":528,"name":"Vacuostester58","steam_id":76561198283244105,"connected_time":2948000000000,"state":"active","ping":77},{"user_id":559,"name":"God's Drunkest Driver","steam_id":76561198165175875,"connected_time":811000000000,"state":"active","ping":45},{"user_id":543,"name":"Goyslop","steam_id":76561198142949496,"connected_time":2124000000000,"state":"active","ping":60},{"user_id":530,"name":"fuckterry","steam_id":76561198271957738,"connected_time":2883000000000,"state":"active","ping":46},{"user_id":510,"name":"Bluestar","steam_id":76561198102647862,"connected_time":4890000000000,"state":"active","ping":99},{"user_id":524,"name":"Krysys","steam_id":76561198059740403,"connected_time":3265000000000,"state":"active","ping":60},{"user_id":562,"name":"Pigeon","steam_id":76561198846193209,"connected_time":265000000000,"state":"active","ping":111},{"user_id":544,"name":"zrsp1","steam_id":76561199030845505,"connected_time":1871000000000,"state":"active","ping":91},{"user_id":513,"name":"Juan Carlos Bodoque","steam_id":76561198208642004,"connected_time":4542000000000,"state":"active","ping":105},{"user_id":552,"name":"ItsBrieDude","steam_id":76561198051971306,"connected_time":941000000000,"state":"active","ping":44},{"user_id":532,"name":"Neophyte","steam_id":76561198027183394,"connected_time":2844000000000,"state":"active","ping":103},{"user_id":560,"name":"tim-","steam_id":76561199119101315,"connected_time":808000000000,"state":"active","ping":71},{"user_id":489,"name":"lker","steam_id":76561197976975075,"connected_time":6273000000000,"state":"active","ping":33},{"user_id":541,"name":"Iron","steam_id":76561198247918478,"connected_time":2201000000000,"state":"active","ping":75},{"user_id":557,"name":"ƐՌѴƳ","steam_id":76561198099470277,"connected_time":876000000000,"state":"active","ping":65},{"user_id":533,"name":"troll","steam_id":76561198040890252,"connected_time":2826000000000,"state":"active","ping":50},{"user_id":563,"name":"Denroth Kheri","steam_id":76561197999652878,"connected_time":4000000000,"state":"spawning","ping":62},{"user_id":516,"name":"Cad","steam_id":76561198312145232,"connected_time":3604000000000,"state":"active","ping":83},{"user_id":538,"name":"perCoo","steam_id":76561199015740297,"connected_time":2503000000000,"state":"active","ping":52},{"user_id":558,"name":"Swaus","steam_id":76561198035761308,"connected_time":861000000000,"state":"active","ping":61},{"user_id":493,"name":"bucket of onions","steam_id":76561198201259645,"connected_time":6225000000000,"state":"active","ping":72},{"user_id":555,"name":"Chance","steam_id":76561198360789770,"connected_time":896000000000,"state":"active","ping":60},{"user_id":556,"name":"Slashes","steam_id":76561197968573499,"connected_time":891000000000,"state":"active","ping":59}]},{"server_id":400,"name":"Uncletopia | Atlanta | 3 | Community","name_short":"atl-3","host":"atl-1.us.uncletopia.com","port":27035,"enabled":true,"region":"us-east","cc":"us","latitude":33.753746,"longitude":-84.38633,"reserved":0,"last_update":"0001-01-01T00:00:00Z","name_a2s":"Uncletopia | Atlanta | 3 | Community","protocol":17,"map":"workshop/cp_sulfur_rc2.ugc619869471","folder":"tf","game":"Team Fortress","app_id":440,"player_count":0,"max_players":24,"Bots":0,"server_type":"Dedicated","server_os":"Linux","password":true,"vac":true,"version":"7757534","steam_id":85568392924515187,"keywords":["cp","nocrits","nodmgspread","uncletopia"],"game_id":440,"stv_port":27036,"stv_name":"Uncletopia | Atlanta | 3 | Community | STV","players":null},{"server_id":401,"name":"Uncletopia | Atlanta | 4 | No Payload","name_short":"atl-4","host":"atl-1.us.uncletopia.com","port":27045,"enabled":true,"region":"us-east","cc":"us","latitude":33.753746,"longitude":-84.38633,"reserved":0,"last_update":"0001-01-01T00:00:00Z","name_a2s":"","protocol":0,"map":"","folder":"","game":"","app_id":0,"player_count":0,"max_players":0,"Bots":0,"server_type":"","server_os":"","password":false,"vac":false,"version":"","steam_id":0,"keywords":null,"game_id":0,"stv_port":0,"stv_name":"","players":null},{"server_id":2,"name":"Uncletopia | Chicago | 1 | All Maps","name_short":"chi-1","host":"chi-1.us.uncletopia.com","port":27015,"enabled":true,"region":"us-central","cc":"us","latitude":41.881832,"longitude":-87.62318,"reserved":0,"last_update":"0001-01-01T00:00:00Z","name_a2s":"Uncletopia | Chicago | 1 | All Maps","protocol":17,"map":"plr_hightower","folder":"tf","game":"Team Fortress","app_id":440,"player_count":23,"max_players":24,"Bots":0,"server_type":"Dedicated","server_os":"Linux","password":true,"vac":true,"version":"7757534","steam_id":85568392924469984,"keywords":["nocrits","nodmgspread","payload","uncletopia"],"game_id":440,"stv_port":27016,"stv_name":"Uncletopia | Chicago | 1 | All Maps | STV","players":[{"user_id":753,"name":"Wallem","steam_id":76561198052361822,"connected_time":4387000000000,"state":"active","ping":90},{"user_id":799,"name":"Gabinator32","steam_id":76561198872467183,"connected_time":255000000000,"state":"active","ping":50},{"user_id":801,"name":"elyk37","steam_id":76561198124135253,"connected_time":210000000000,"state":"active","ping":76},{"user_id":787,"name":"Mackrel","steam_id":76561199021620267,"connected_time":867000000000,"state":"active","ping":232},{"user_id":720,"name":"SimSamS6","steam_id":76561198847553887,"connected_time":6962000000000,"state":"active","ping":58},{"user_id":742,"name":"scared of sinks","steam_id":76561198378503656,"connected_time":5126000000000,"state":"active","ping":63},{"user_id":785,"name":"Vaudeville Villain","steam_id":76561199212093339,"connected_time":954000000000,"state":"active","ping":74},{"user_id":722,"name":"Wardin","steam_id":76561198096881855,"connected_time":6544000000000,"state":"active","ping":71},{"user_id":786,"name":"zSkele","steam_id":76561198128960931,"connected_time":881000000000,"state":"spawning","ping":48},{"user_id":788,"name":"Oh No! It's Twister!","steam_id":76561198016791916,"connected_time":852000000000,"state":"active","ping":90},{"user_id":781,"name":"Orange","steam_id":76561198284737450,"connected_time":1716000000000,"state":"active","ping":67},{"user_id":770,"name":"Walkiing","steam_id":76561198074473413,"connected_time":2853000000000,"state":"active","ping":33},{"user_id":804,"name":"DaggerDouk","steam_id":76561199035811769,"connected_time":23000000000,"state":"active","ping":83},{"user_id":773,"name":"i WILL ego peek","steam_id":76561199013337543,"connected_time":2305000000000,"state":"active","ping":64},{"user_id":798,"name":"『Dagon』","steam_id":76561199036464302,"connected_time":269000000000,"state":"active","ping":67},{"user_id":792,"name":"MayheM","steam_id":76561198104506954,"connected_time":790000000000,"state":"active","ping":75},{"user_id":779,"name":"(0.0)","steam_id":76561198217747041,"connected_time":1875000000000,"state":"active","ping":95},{"user_id":757,"name":"bappo","steam_id":76561199294792123,"connected_time":3760000000000,"state":"active","ping":49},{"user_id":741,"name":"gps","steam_id":76561198067492304,"connected_time":5179000000000,"state":"active","ping":98},{"user_id":734,"name":"AppleTruffle","steam_id":76561198031299571,"connected_time":5539000000000,"state":"active","ping":60},{"user_id":793,"name":"ShiverBorn","steam_id":76561198384811149,"connected_time":789000000000,"state":"active","ping":75},{"user_id":738,"name":"The sad vanilla","steam_id":76561198268621447,"connected_time":5328000000000,"state":"active","ping":168},{"user_id":766,"name":"God of bread","steam_id":76561198373688035,"connected_time":3546000000000,"state":"active","ping":60}]},{"server_id":106,"name":"Uncletopia | Chicago | 2 | All Maps","name_short":"chi-2","host":"chi-1.us.uncletopia.com","port":27025,"enabled":true,"region":"us-central","cc":"us","latitude":41.881832,"longitude":-87.62318,"reserved":0,"last_update":"0001-01-01T00:00:00Z","name_a2s":"Uncletopia | Chicago | 2 | All Maps","protocol":17,"map":"pl_swiftwater_final1","folder":"tf","game":"Team Fortress","app_id":440,"player_count":24,"max_players":24,"Bots":0,"server_type":"Dedicated","server_os":"Linux","password":true,"vac":true,"version":"7757534","steam_id":85568392924469985,"keywords":["nocrits","nodmgspread","payload","uncletopia"],"game_id":440,"stv_port":27026,"stv_name":"Uncletopia | Chicago | 2 | All Maps | STV","players":[{"user_id":609,"name":"pepsibobby","steam_id":76561198853864511,"connected_time":1061000000000,"state":"active","ping":75},{"user_id":602,"name":"nnobi","steam_id":76561198878729277,"connected_time":2003000000000,"state":"active","ping":77},{"user_id":597,"name":"Sableye","steam_id":76561198061247147,"connected_time":2302000000000,"state":"active","ping":68},{"user_id":568,"name":":\u003c","steam_id":76561198072789439,"connected_time":3861000000000,"state":"active","ping":89},{"user_id":576,"name":":3","steam_id":76561198058890821,"connected_time":3642000000000,"state":"active","ping":47},{"user_id":608,"name":"Stanv","steam_id":76561198259530604,"connected_time":1112000000000,"state":"active","ping":50},{"user_id":566,"name":"peakmeta","steam_id":76561199053600691,"connected_time":3940000000000,"state":"active","ping":52},{"user_id":578,"name":"B(","steam_id":76561198093921290,"connected_time":3450000000000,"state":"active","ping":54},{"user_id":606,"name":"Explosions990","steam_id":76561199212000482,"connected_time":1142000000000,"state":"active","ping":87},{"user_id":579,"name":"covered in ants","steam_id":76561198065266282,"connected_time":3355000000000,"state":"active","ping":86},{"user_id":524,"name":"just call me joe","steam_id":76561198043911582,"connected_time":6776000000000,"state":"active","ping":67},{"user_id":525,"name":"bog","steam_id":76561198086008437,"connected_time":6744000000000,"state":"active","ping":71},{"user_id":592,"name":"objective permanence","steam_id":76561198050393061,"connected_time":2514000000000,"state":"active","ping":76},{"user_id":583,"name":"METRO","steam_id":76561198122945956,"connected_time":2713000000000,"state":"active","ping":59},{"user_id":560,"name":"Samercam","steam_id":76561198189403190,"connected_time":4463000000000,"state":"active","ping":45},{"user_id":603,"name":"hightower npc","steam_id":76561198097588802,"connected_time":1958000000000,"state":"active","ping":48},{"user_id":605,"name":"MR MODE","steam_id":76561198046775352,"connected_time":1778000000000,"state":"active","ping":101},{"user_id":612,"name":"Moofins","steam_id":76561198050291949,"connected_time":322000000000,"state":"active","ping":80},{"user_id":607,"name":"DoctorBodacious","steam_id":76561198258784171,"connected_time":1132000000000,"state":"active","ping":69},{"user_id":611,"name":"Drachma","steam_id":76561198007310514,"connected_time":691000000000,"state":"active","ping":72},{"user_id":582,"name":"nice guy","steam_id":76561198186591994,"connected_time":2902000000000,"state":"active","ping":45},{"user_id":614,"name":"story","steam_id":76561199088496817,"connected_time":284000000000,"state":"active","ping":93},{"user_id":599,"name":"Zeb","steam_id":76561198092419713,"connected_time":2248000000000,"state":"active","ping":56},{"user_id":601,"name":"Aubrey","steam_id":76561198061512239,"connected_time":2057000000000,"state":"active","ping":52}]},{"server_id":402,"name":"Uncletopia | Chicago | 3 | All Maps","name_short":"chi-3","host":"chi-1.us.uncletopia.com","port":27035,"enabled":true,"region":"us-central","cc":"us","latitude":41.881832,"longitude":-87.62318,"reserved":0,"last_update":"0001-01-01T00:00:00Z","name_a2s":"Uncletopia | Chicago | 3 | All Maps","protocol":17,"map":"pl_barnblitz","folder":"tf","game":"Team Fortress","app_id":440,"player_count":24,"max_players":24,"Bots":0,"server_type":"Dedicated","server_os":"Linux","password":true,"vac":true,"version":"7757534","steam_id":85568392924515191,"keywords":["nocrits","nodmgspread","payload","uncletopia"],"game_id":440,"stv_port":27036,"stv_name":"Uncletopia | Chicago | 3 | All Maps | STV","players":[{"user_id":662,"name":"acurlyquote","steam_id":76561198110033420,"connected_time":2193000000000,"state":"active","ping":66},{"user_id":685,"name":"speakers #4jammies","steam_id":76561198138221795,"connected_time":1353000000000,"state":"active","ping":66},{"user_id":666,"name":"stupid ape","steam_id":76561198350027075,"connected_time":1963000000000,"state":"active","ping":55},{"user_id":670,"name":"chef_hatchet","steam_id":76561198154906329,"connected_time":1930000000000,"state":"active","ping":53},{"user_id":696,"name":"BigOrca54","steam_id":76561198181360271,"connected_time":448000000000,"state":"active","ping":58},{"user_id":686,"name":"blekk","steam_id":76561198000082101,"connected_time":1331000000000,"state":"active","ping":72},{"user_id":704,"name":"Sheev Palpatine","steam_id":76561198252332430,"connected_time":288000000000,"state":"active","ping":73},{"user_id":702,"name":"Sposeidon","steam_id":76561199044781490,"connected_time":339000000000,"state":"active","ping":57},{"user_id":706,"name":"Barlon","steam_id":76561198023717515,"connected_time":232000000000,"state":"active","ping":72},{"user_id":635,"name":"Sax","steam_id":76561198055425123,"connected_time":4626000000000,"state":"active","ping":114},{"user_id":697,"name":"Dr. Martin Luther","steam_id":76561198064572586,"connected_time":439000000000,"state":"active","ping":79},{"user_id":698,"name":"Pizza Party","steam_id":76561198165730754,"connected_time":429000000000,"state":"active","ping":70},{"user_id":669,"name":"Titar Industries","steam_id":76561198143078476,"connected_time":1935000000000,"state":"active","ping":68},{"user_id":683,"name":"canadian birds","steam_id":76561198059466588,"connected_time":1421000000000,"state":"active","ping":71},{"user_id":699,"name":"❤RAW STEAK ENJOYER","steam_id":76561198095600494,"connected_time":418000000000,"state":"active","ping":69},{"user_id":700,"name":"Henry Ota-Clay","steam_id":76561198053232470,"connected_time":416000000000,"state":"active","ping":57},{"user_id":676,"name":"chill","steam_id":76561198982840251,"connected_time":1811000000000,"state":"active","ping":69},{"user_id":701,"name":"Some Octopus Wizard","steam_id":76561198005470354,"connected_time":405000000000,"state":"active","ping":74},{"user_id":598,"name":"Trogdor","steam_id":76561198121353181,"connected_time":7645000000000,"state":"active","ping":87},{"user_id":648,"name":"seems_fishy","steam_id":76561199028846656,"connected_time":3166000000000,"state":"active","ping":61},{"user_id":661,"name":"Scourge","steam_id":76561198140584050,"connected_time":2305000000000,"state":"active","ping":60},{"user_id":642,"name":"for lore reasons","steam_id":76561198083345384,"connected_time":4181000000000,"state":"active","ping":85},{"user_id":693,"name":"TreesRUs","steam_id":76561198305740611,"connected_time":715000000000,"state":"active","ping":74},{"user_id":650,"name":"MECHANISM MALE","steam_id":76561198855935442,"connected_time":2885000000000,"state":"active","ping":72}]},{"server_id":403,"name":"Uncletopia | Chicago | 4 | All Maps","name_short":"chi-4","host":"chi-1.us.uncletopia.com","port":27045,"enabled":true,"region":"us-central","cc":"us","latitude":41.881832,"longitude":-87.62318,"reserved":0,"last_update":"0001-01-01T00:00:00Z","name_a2s":"Uncletopia | Chicago | 4 | All Maps","protocol":17,"map":"ctf_2fort","folder":"tf","game":"Team Fortress","app_id":440,"player_count":24,"max_players":24,"Bots":0,"server_type":"Dedicated","server_os":"Linux","password":true,"vac":true,"version":"7757534","steam_id":85568392924515193,"keywords":["ctf","nocrits","nodmgspread","uncletopia"],"game_id":440,"stv_port":27046,"stv_name":"Uncletopia | Chicago | 4 | All Maps | STV","players":[{"user_id":522,"name":"Detective Max","steam_id":76561198159552897,"connected_time":102000000000,"state":"active","ping":78},{"user_id":511,"name":"Wendy's 4 for 4","steam_id":76561198277163301,"connected_time":1131000000000,"state":"active","ping":67},{"user_id":462,"name":"Chode Mode","steam_id":76561198353840477,"connected_time":6784000000000,"state":"active","ping":45},{"user_id":520,"name":"Joshy","steam_id":76561198061405421,"connected_time":132000000000,"state":"active","ping":77},{"user_id":517,"name":"CHILL COSBY","steam_id":76561198081080853,"connected_time":922000000000,"state":"active","ping":71},{"user_id":521,"name":"Dr. Money Stacks","steam_id":76561198058144219,"connected_time":129000000000,"state":"active","ping":86},{"user_id":523,"name":"Grinntu","steam_id":76561198159922013,"connected_time":102000000000,"state":"active","ping":77},{"user_id":507,"name":"Harold of the Rocks","steam_id":76561198055891429,"connected_time":1493000000000,"state":"active","ping":58},{"user_id":516,"name":"Legit_Jaxer","steam_id":76561198172234053,"connected_time":946000000000,"state":"active","ping":106},{"user_id":491,"name":"Goat","steam_id":76561198068447650,"connected_time":4008000000000,"state":"active","ping":61},{"user_id":524,"name":"Zinger45","steam_id":76561198040436252,"connected_time":99000000000,"state":"active","ping":69},{"user_id":525,"name":"randall","steam_id":76561199060774318,"connected_time":89000000000,"state":"active","ping":61},{"user_id":482,"name":"Coffeefudge","steam_id":76561198085394667,"connected_time":4763000000000,"state":"active","ping":77},{"user_id":510,"name":"NotHughesy","steam_id":76561198113064655,"connected_time":1240000000000,"state":"active","ping":49},{"user_id":492,"name":"Volati!e","steam_id":76561198020147226,"connected_time":3921000000000,"state":"active","ping":114},{"user_id":526,"name":"Giorno_Giovanna","steam_id":76561199014402406,"connected_time":80000000000,"state":"active","ping":79},{"user_id":514,"name":"Rivers Cuomo","steam_id":76561199088448340,"connected_time":1026000000000,"state":"active","ping":48},{"user_id":527,"name":"TwizzstedLlama","steam_id":76561198054021548,"connected_time":76000000000,"state":"active","ping":81},{"user_id":505,"name":"hud_saytext_time 0","steam_id":76561198010327228,"connected_time":1856000000000,"state":"active","ping":162},{"user_id":518,"name":"DarkLink909","steam_id":76561198084139172,"connected_time":439000000000,"state":"active","ping":88},{"user_id":415,"name":"Hindmost","steam_id":76561199081837220,"connected_time":9469000000000,"state":"active","ping":80},{"user_id":512,"name":"Angry Green Mann","steam_id":76561198027779564,"connected_time":1052000000000,"state":"active","ping":60},{"user_id":508,"name":"big shmoka","steam_id":76561198050768962,"connected_time":1492000000000,"state":"active","ping":83},{"user_id":506,"name":"DoomsdaySnail","steam_id":76561198131444200,"connected_time":1851000000000,"state":"active","ping":45}]},{"server_id":36,"name":"Uncletopia | Chicago | 5 | All Maps","name_short":"chi-5","host":"chi-2.us.uncletopia.com","port":27015,"enabled":true,"region":"us-central","cc":"us","latitude":41.881832,"longitude":-87.62318,"reserved":0,"last_update":"0001-01-01T00:00:00Z","name_a2s":"Uncletopia | Chicago | 5 | All Maps","protocol":17,"map":"pl_snowycoast","folder":"tf","game":"Team Fortress","app_id":440,"player_count":24,"max_players":24,"Bots":0,"server_type":"Dedicated","server_os":"Linux","password":true,"vac":true,"version":"7757534","steam_id":85568392924866362,"keywords":["nocrits","nodmgspread","payload","uncletopia"],"game_id":440,"stv_port":27016,"stv_name":"Uncletopia | Chicago | 5 | All Maps | STV","players":[{"user_id":308,"name":"roo the observer","steam_id":76561198120684348,"connected_time":701000000000,"state":"active","ping":55},{"user_id":299,"name":"Spy of 83","steam_id":76561199062242958,"connected_time":1256000000000,"state":"active","ping":98},{"user_id":283,"name":"wakeupbdot","steam_id":76561198160786631,"connected_time":2290000000000,"state":"active","ping":95},{"user_id":309,"name":"Krome","steam_id":76561198087317232,"connected_time":700000000000,"state":"active","ping":75},{"user_id":323,"name":"Yeshie","steam_id":76561198080214214,"connected_time":225000000000,"state":"active","ping":35},{"user_id":300,"name":"Diabeetus88","steam_id":76561198062983074,"connected_time":1253000000000,"state":"active","ping":57},{"user_id":322,"name":"Belloq","steam_id":76561198060279052,"connected_time":273000000000,"state":"active","ping":51},{"user_id":255,"name":"Yakul","steam_id":76561198100040013,"connected_time":5085000000000,"state":"active","ping":86},{"user_id":311,"name":"footoftheday","steam_id":76561198052712449,"connected_time":686000000000,"state":"active","ping":65},{"user_id":312,"name":"Brunch","steam_id":76561198045933938,"connected_time":685000000000,"state":"active","ping":57},{"user_id":235,"name":"Psychosis","steam_id":76561198078659070,"connected_time":5990000000000,"state":"active","ping":75},{"user_id":303,"name":"dawiid","steam_id":76561198040433854,"connected_time":1002000000000,"state":"active","ping":69},{"user_id":313,"name":"briggs","steam_id":76561198045655893,"connected_time":657000000000,"state":"active","ping":61},{"user_id":227,"name":"Spag Hekki","steam_id":76561198207579353,"connected_time":6252000000000,"state":"active","ping":86},{"user_id":318,"name":"Lit Princess","steam_id":76561198072573105,"connected_time":475000000000,"state":"active","ping":86},{"user_id":305,"name":"Whimsical Gnome","steam_id":76561198413125750,"connected_time":738000000000,"state":"active","ping":71},{"user_id":315,"name":"NewsPePe","steam_id":76561198135499490,"connected_time":649000000000,"state":"active","ping":72},{"user_id":321,"name":"Lynx181","steam_id":76561198090949585,"connected_time":374000000000,"state":"active","ping":48},{"user_id":301,"name":"Momma Wolfie","steam_id":76561198200855211,"connected_time":1245000000000,"state":"active","ping":65},{"user_id":306,"name":"Luin the wolf","steam_id":76561198123534975,"connected_time":736000000000,"state":"active","ping":67},{"user_id":324,"name":"Ghost Rider","steam_id":76561198155892551,"connected_time":219000000000,"state":"active","ping":85},{"user_id":317,"name":"delusional schizophrenic","steam_id":76561198323435040,"connected_time":634000000000,"state":"active","ping":62},{"user_id":253,"name":"Girox","steam_id":76561198009921751,"connected_time":5238000000000,"state":"active","ping":70},{"user_id":264,"name":"The_Skull_boy","steam_id":76561198227692664,"connected_time":3932000000000,"state":"active","ping":123}]},{"server_id":37,"name":"Uncletopia | Chicago | 6 | All Maps","name_short":"chi-6","host":"chi-2.us.uncletopia.com","port":27025,"enabled":true,"region":"us-central","cc":"us","latitude":41.881832,"longitude":-87.62318,"reserved":0,"last_update":"0001-01-01T00:00:00Z","name_a2s":"Uncletopia | Chicago | 6 | All Maps","protocol":17,"map":"cp_sunshine","folder":"tf","game":"Team Fortress","app_id":440,"player_count":24,"max_players":24,"Bots":0,"server_type":"Dedicated","server_os":"Linux","password":true,"vac":true,"version":"7757534","steam_id":85568392924866363,"keywords":["cp","nocrits","nodmgspread","uncletopia"],"game_id":440,"stv_port":27026,"stv_name":"Uncletopia | Chicago | 6 | All Maps | STV","players":[{"user_id":862,"name":"Tamalito109","steam_id":76561198310531554,"connected_time":898000000000,"state":"active","ping":99},{"user_id":804,"name":"Generic_Soda","steam_id":76561197993528721,"connected_time":2492000000000,"state":"active","ping":61},{"user_id":802,"name":"and i'm javert!","steam_id":76561198117033273,"connected_time":2836000000000,"state":"active","ping":139},{"user_id":689,"name":"Coms","steam_id":76561198204995668,"connected_time":9704000000000,"state":"active","ping":81},{"user_id":735,"name":"Ramble Jamble","steam_id":76561198357189275,"connected_time":6934000000000,"state":"active","ping":88},{"user_id":797,"name":"Whip_the_Rabbit","steam_id":76561198049896057,"connected_time":3061000000000,"state":"active","ping":106},{"user_id":789,"name":"canofspaghettios","steam_id":76561198124204246,"connected_time":3728000000000,"state":"active","ping":59},{"user_id":805,"name":"HeroProc","steam_id":76561197993296892,"connected_time":2378000000000,"state":"active","ping":103},{"user_id":868,"name":"Ghost","steam_id":76561198110914180,"connected_time":279000000000,"state":"active","ping":188},{"user_id":779,"name":"moonie","steam_id":76561198015113668,"connected_time":4196000000000,"state":"active","ping":60},{"user_id":848,"name":"Edge","steam_id":76561198069735140,"connected_time":1483000000000,"state":"active","ping":84},{"user_id":809,"name":"Unregistered Hypercam 2","steam_id":76561198046895822,"connected_time":1999000000000,"state":"active","ping":80},{"user_id":775,"name":"Velvet Reverb","steam_id":76561198017691029,"connected_time":4330000000000,"state":"active","ping":66},{"user_id":867,"name":"thecal","steam_id":76561198307893384,"connected_time":738000000000,"state":"active","ping":60},{"user_id":849,"name":"Mad Gad","steam_id":76561197983368594,"connected_time":1479000000000,"state":"active","ping":88},{"user_id":790,"name":"Gay Cake","steam_id":76561198004388831,"connected_time":3722000000000,"state":"active","ping":70},{"user_id":778,"name":"Windup Monkey in a Human Suit","steam_id":76561198119501444,"connected_time":4212000000000,"state":"active","ping":103},{"user_id":811,"name":"BOOMER","steam_id":76561198004728452,"connected_time":1872000000000,"state":"active","ping":72},{"user_id":812,"name":"sueimimore","steam_id":76561198277979851,"connected_time":1869000000000,"state":"active","ping":90},{"user_id":704,"name":"Wingus","steam_id":76561198037998180,"connected_time":9180000000000,"state":"active","ping":71},{"user_id":847,"name":"micah","steam_id":76561197984579630,"connected_time":1494000000000,"state":"active","ping":92},{"user_id":706,"name":"Tower","steam_id":76561198099886700,"connected_time":9152000000000,"state":"active","ping":65},{"user_id":800,"name":"Ether101","steam_id":76561198047764744,"connected_time":2884000000000,"state":"active","ping":96},{"user_id":863,"name":"uncin an funkin","steam_id":76561198079488962,"connected_time":896000000000,"state":"active","ping":97}]},{"server_id":38,"name":"Uncletopia | Chicago | 7 | Stopwatch Beta","name_short":"chi-7","host":"chi-2.us.uncletopia.com","port":27035,"enabled":true,"region":"us-central","cc":"us","latitude":41.881832,"longitude":-87.62318,"reserved":0,"last_update":"0001-01-01T00:00:00Z","name_a2s":"Uncletopia | Chicago | 7 | Stopwatch Beta","protocol":17,"map":"pl_barnblitz","folder":"tf","game":"Team Fortress","app_id":440,"player_count":0,"max_players":24,"Bots":0,"server_type":"Dedicated","server_os":"Linux","password":true,"vac":true,"version":"7757534","steam_id":85568392924866364,"keywords":["nocrits","nodmgspread","payload","uncletopia"],"game_id":440,"stv_port":27036,"stv_name":"Uncletopia | Chicago | 7 | Stopwatch Beta | STV","players":null},{"server_id":39,"name":"Uncletopia | Chicago | 8 | Community","name_short":"chi-8","host":"chi-2.us.uncletopia.com","port":27045,"enabled":true,"region":"us-central","cc":"us","latitude":41.881832,"longitude":-87.62318,"reserved":0,"last_update":"0001-01-01T00:00:00Z","name_a2s":"Uncletopia | Chicago | 8 | Community","protocol":17,"map":"workshop/pl_cashworks_final1.ugc2904065412","folder":"tf","game":"Team Fortress","app_id":440,"player_count":22,"max_players":24,"Bots":0,"server_type":"Dedicated","server_os":"Linux","password":true,"vac":true,"version":"7757534","steam_id":85568392924866365,"keywords":["nocrits","nodmgspread","payload","uncletopia"],"game_id":440,"stv_port":27046,"stv_name":"Uncletopia | Chicago | 8 | Community | STV","players":[{"user_id":398,"name":"22nd Century Slur Against Gamer","steam_id":76561198040222711,"connected_time":2190000000000,"state":"active","ping":59},{"user_id":419,"name":"Tidwell","steam_id":76561198037414410,"connected_time":1677000000000,"state":"active","ping":70},{"user_id":437,"name":"chrisd149","steam_id":76561198018710480,"connected_time":48000000000,"state":"active","ping":86},{"user_id":413,"name":"SC|Formuoli","steam_id":76561198254354595,"connected_time":1910000000000,"state":"active","ping":37},{"user_id":403,"name":"Glunk-em Lures","steam_id":76561198066172810,"connected_time":2118000000000,"state":"active","ping":85},{"user_id":382,"name":"๖Ðiestow","steam_id":76561198046662484,"connected_time":3403000000000,"state":"active","ping":75},{"user_id":399,"name":"Lincs","steam_id":76561198049851872,"connected_time":2184000000000,"state":"active","ping":84},{"user_id":400,"name":"tanner","steam_id":76561198079734519,"connected_time":2172000000000,"state":"active","ping":98},{"user_id":427,"name":"Malcor","steam_id":76561198017594953,"connected_time":266000000000,"state":"active","ping":70},{"user_id":428,"name":"I'm so full of stem cells","steam_id":76561198329087915,"connected_time":255000000000,"state":"active","ping":104},{"user_id":426,"name":"Brain Tumor","steam_id":76561198805526881,"connected_time":385000000000,"state":"active","ping":84},{"user_id":417,"name":"ishaboi","steam_id":76561198019246430,"connected_time":1836000000000,"state":"active","ping":100},{"user_id":429,"name":"Nezzie","steam_id":76561198208259219,"connected_time":252000000000,"state":"active","ping":99},{"user_id":424,"name":"DonJamón","steam_id":76561198319090131,"connected_time":1043000000000,"state":"active","ping":71},{"user_id":363,"name":"ChozoChorizo","steam_id":76561198272609196,"connected_time":5401000000000,"state":"active","ping":66},{"user_id":438,"name":"Team Fartpiss Poo","steam_id":76561199163591880,"connected_time":35000000000,"state":"active","ping":95},{"user_id":435,"name":"depressing","steam_id":76561198032121669,"connected_time":118000000000,"state":"active","ping":78},{"user_id":425,"name":"Plutakis","steam_id":76561198163575835,"connected_time":636000000000,"state":"active","ping":61},{"user_id":436,"name":"OmniMoto","steam_id":76561198091298557,"connected_time":101000000000,"state":"active","ping":76},{"user_id":390,"name":"Missing Minus","steam_id":76561198120822928,"connected_time":3142000000000,"state":"active","ping":62},{"user_id":369,"name":"*Gage*","steam_id":76561197975233869,"connected_time":4864000000000,"state":"active","ping":93},{"user_id":432,"name":"Infinitytacos","steam_id":76561198884260211,"connected_time":222000000000,"state":"active","ping":49}]},{"server_id":8,"name":"Uncletopia | Dallas | 1 | All Maps","name_short":"dal-1","host":"dal-1.us.uncletopia.com","port":27015,"enabled":true,"region":"us-central","cc":"us","latitude":32.779167,"longitude":-96.80889,"reserved":0,"last_update":"0001-01-01T00:00:00Z","name_a2s":"Uncletopia | Dallas | 1 | All Maps","protocol":17,"map":"pl_swiftwater_final1","folder":"tf","game":"Team Fortress","app_id":440,"player_count":24,"max_players":24,"Bots":0,"server_type":"Dedicated","server_os":"Linux","password":true,"vac":true,"version":"7757534","steam_id":85568392924469986,"keywords":["nocrits","nodmgspread","payload","uncletopia"],"game_id":440,"stv_port":27016,"stv_name":"Uncletopia | Dallas | 1 | All Maps | STV","players":[{"user_id":819,"name":"Levi","steam_id":76561198089832776,"connected_time":409000000000,"state":"active","ping":51},{"user_id":759,"name":"errant","steam_id":76561197961758410,"connected_time":5118000000000,"state":"active","ping":45},{"user_id":746,"name":"A Straw","steam_id":76561199367935846,"connected_time":6225000000000,"state":"active","ping":71},{"user_id":788,"name":"MeMyBongusAndTheGreatOutdoors","steam_id":76561198097708978,"connected_time":1961000000000,"state":"active","ping":52},{"user_id":804,"name":"Goldensliv","steam_id":76561198161673891,"connected_time":1564000000000,"state":"active","ping":107},{"user_id":789,"name":"Rudy","steam_id":76561198013456828,"connected_time":1947000000000,"state":"active","ping":76},{"user_id":790,"name":"milo","steam_id":76561199061380038,"connected_time":1940000000000,"state":"active","ping":60},{"user_id":815,"name":"Jack from Jack in The Box","steam_id":76561199083594971,"connected_time":506000000000,"state":"active","ping":64},{"user_id":782,"name":"big balls but only 2","steam_id":76561199001464827,"connected_time":2069000000000,"state":"active","ping":66},{"user_id":767,"name":"Not A Rapper","steam_id":76561198077523537,"connected_time":3793000000000,"state":"active","ping":94},{"user_id":765,"name":"leumas","steam_id":76561198240408540,"connected_time":4385000000000,"state":"active","ping":91},{"user_id":809,"name":"The Unknown","steam_id":76561198270013890,"connected_time":1083000000000,"state":"active","ping":85},{"user_id":813,"name":"Laxander","steam_id":76561198034106470,"connected_time":895000000000,"state":"active","ping":85},{"user_id":739,"name":"austintacious","steam_id":76561198054118061,"connected_time":6995000000000,"state":"active","ping":77},{"user_id":808,"name":"Darling","steam_id":76561198127525888,"connected_time":1134000000000,"state":"active","ping":58},{"user_id":783,"name":"Imrgrim","steam_id":76561198135866481,"connected_time":2022000000000,"state":"active","ping":71},{"user_id":774,"name":"Autism Cat","steam_id":76561198048476555,"connected_time":3468000000000,"state":"active","ping":78},{"user_id":756,"name":"me?","steam_id":76561198381136912,"connected_time":5138000000000,"state":"active","ping":76},{"user_id":818,"name":"Spaceman","steam_id":76561198098025074,"connected_time":430000000000,"state":"active","ping":82},{"user_id":795,"name":"ceres","steam_id":76561198291976960,"connected_time":1926000000000,"state":"active","ping":106},{"user_id":785,"name":"Jello","steam_id":76561198890633732,"connected_time":1987000000000,"state":"active","ping":65},{"user_id":745,"name":"Danger McHazard","steam_id":76561198059451274,"connected_time":6823000000000,"state":"active","ping":81},{"user_id":802,"name":"aidan long","steam_id":76561198073022833,"connected_time":1849000000000,"state":"active","ping":52},{"user_id":812,"name":"Sprit ♥","steam_id":76561198268780781,"connected_time":1022000000000,"state":"active","ping":74}]},{"server_id":108,"name":"Uncletopia | Dallas | 2 | All Maps","name_short":"dal-2","host":"dal-1.us.uncletopia.com","port":27025,"enabled":true,"region":"us-central","cc":"us","latitude":32.779167,"longitude":-96.80889,"reserved":0,"last_update":"0001-01-01T00:00:00Z","name_a2s":"Uncletopia | Dallas | 2 | All Maps","protocol":17,"map":"pl_barnblitz","folder":"tf","game":"Team Fortress","app_id":440,"player_count":23,"max_players":24,"Bots":0,"server_type":"Dedicated","server_os":"Linux","password":true,"vac":true,"version":"7757534","steam_id":85568392924469988,"keywords":["nocrits","nodmgspread","payload","uncletopia"],"game_id":440,"stv_port":27026,"stv_name":"Uncletopia | Dallas | 2 | All Maps | STV","players":[{"user_id":749,"name":"Schmeple Tank Head","steam_id":76561199010857399,"connected_time":137000000000,"state":"connecting","ping":96},{"user_id":750,"name":"Shamrock Shake Oct.10.2020 @8pm","steam_id":76561198833313201,"connected_time":135000000000,"state":"connecting","ping":89},{"user_id":686,"name":"STICKS","steam_id":76561198134811668,"connected_time":5525000000000,"state":"connecting","ping":84},{"user_id":740,"name":"Cool Goldfish","steam_id":76561198281528024,"connected_time":1313000000000,"state":"connecting","ping":97},{"user_id":716,"name":"iaPK","steam_id":76561198056618642,"connected_time":2682000000000,"state":"connecting","ping":52},{"user_id":685,"name":"KyePerson","steam_id":76561198145597212,"connected_time":5669000000000,"state":"connecting","ping":105},{"user_id":712,"name":"Antifa Supersoldier","steam_id":76561198141816516,"connected_time":3552000000000,"state":"connecting","ping":57},{"user_id":673,"name":"Raxberry","steam_id":76561198001546706,"connected_time":6624000000000,"state":"connecting","ping":104},{"user_id":752,"name":"如願","steam_id":76561198038486613,"connected_time":29000000000,"state":"connecting","ping":129},{"user_id":690,"name":"Shiny","steam_id":76561198172286358,"connected_time":5140000000000,"state":"connecting","ping":85},{"user_id":695,"name":"Gеяо","steam_id":76561198082463658,"connected_time":4671000000000,"state":"connecting","ping":119},{"user_id":739,"name":"gamers aren't real","steam_id":76561198113748347,"connected_time":1406000000000,"state":"connecting","ping":68},{"user_id":745,"name":"Bubba Bass","steam_id":76561198026767327,"connected_time":1029000000000,"state":"connecting","ping":58},{"user_id":753,"name":"ChottoAMinute","steam_id":76561198873157775,"connected_time":28000000000,"state":"connecting","ping":48},{"user_id":746,"name":"John16Mark","steam_id":76561198119445407,"connected_time":744000000000,"state":"connecting","ping":77},{"user_id":751,"name":"iluvtoust","steam_id":76561198869269207,"connected_time":34000000000,"state":"connecting","ping":66},{"user_id":744,"name":"wm1","steam_id":76561198265522923,"connected_time":1083000000000,"state":"connecting","ping":60},{"user_id":704,"name":"Meow","steam_id":76561198364079067,"connected_time":4213000000000,"state":"connecting","ping":77},{"user_id":742,"name":"Samrizo el Chorizo","steam_id":76561198009838162,"connected_time":1254000000000,"state":"connecting","ping":89},{"user_id":737,"name":"party pooper","steam_id":76561198068760559,"connected_time":1616000000000,"state":"connecting","ping":115},{"user_id":754,"name":"Grand Piano Tuna","steam_id":76561198135137213,"connected_time":28000000000,"state":"connecting","ping":116},{"user_id":756,"name":"sillychipz","steam_id":76561199220694333,"connected_time":5000000000,"state":"connecting","ping":76},{"user_id":755,"name":"Jag_Samurott","steam_id":76561198262036126,"connected_time":21000000000,"state":"connecting","ping":82}]},{"server_id":5,"name":"Uncletopia | Frankfurt | 1 | All Maps","name_short":"frk-1","host":"frk-1.de.uncletopia.com","port":27015,"enabled":true,"region":"eu","cc":"de","latitude":50.110924,"longitude":8.682127,"reserved":0,"last_update":"0001-01-01T00:00:00Z","name_a2s":"Uncletopia | Frankfurt | 1 | All Maps","protocol":17,"map":"pl_snowycoast","folder":"tf","game":"Team Fortress","app_id":440,"player_count":0,"max_players":24,"Bots":0,"server_type":"Dedicated","server_os":"Linux","password":true,"vac":true,"version":"7757534","steam_id":85568392924469989,"keywords":["nocrits","nodmgspread","payload","uncletopia"],"game_id":440,"stv_port":27016,"stv_name":"Uncletopia | Frankfurt | 1 | All Maps | STV","players":null},{"server_id":110,"name":"Uncletopia | Frankfurt | 2 | All Maps","name_short":"frk-2","host":"frk-1.de.uncletopia.com","port":27025,"enabled":true,"region":"eu","cc":"de","latitude":50.110924,"longitude":8.682127,"reserved":0,"last_update":"0001-01-01T00:00:00Z","name_a2s":"Uncletopia | Frankfurt | 2 | All Maps","protocol":17,"map":"cp_snakewater_final1","folder":"tf","game":"Team Fortress","app_id":440,"player_count":0,"max_players":24,"Bots":0,"server_type":"Dedicated","server_os":"Linux","password":true,"vac":true,"version":"7757534","steam_id":85568392924469990,"keywords":["cp","nocrits","nodmgspread","uncletopia"],"game_id":440,"stv_port":27026,"stv_name":"Uncletopia | Frankfurt | 2 | All Maps | STV","players":null},{"server_id":308,"name":"Uncletopia | Frankfurt | 3 | All Maps","name_short":"frk-3","host":"frk-1.de.uncletopia.com","port":27035,"enabled":true,"region":"eu","cc":"de","latitude":50.110924,"longitude":8.682127,"reserved":0,"last_update":"0001-01-01T00:00:00Z","name_a2s":"Uncletopia | Frankfurt | 3 | All Maps","protocol":17,"map":"pl_swiftwater_final1","folder":"tf","game":"Team Fortress","app_id":440,"player_count":0,"max_players":24,"Bots":0,"server_type":"Dedicated","server_os":"Linux","password":true,"vac":true,"version":"7757534","steam_id":85568392924504274,"keywords":["nocrits","nodmgspread","payload","uncletopia"],"game_id":440,"stv_port":27036,"stv_name":"Uncletopia | Frankfurt | 3 | All Maps | STV","players":null},{"server_id":309,"name":"Uncletopia | Frankfurt | 4 | All Maps","name_short":"frk-4","host":"frk-1.de.uncletopia.com","port":27045,"enabled":true,"region":"eu","cc":"de","latitude":50.110924,"longitude":8.682127,"reserved":0,"last_update":"0001-01-01T00:00:00Z","name_a2s":"Uncletopia | Frankfurt | 4 | All Maps","protocol":17,"map":"koth_viaduct","folder":"tf","game":"Team Fortress","app_id":440,"player_count":0,"max_players":24,"Bots":0,"server_type":"Dedicated","server_os":"Linux","password":true,"vac":true,"version":"7757534","steam_id":85568392924504275,"keywords":["cp","nocrits","nodmgspread","uncletopia"],"game_id":440,"stv_port":27046,"stv_name":"Uncletopia | Frankfurt | 4 | All Maps | STV","players":null},{"server_id":310,"name":"Uncletopia | Frankfurt | 5 | All Maps","name_short":"frk-5","host":"frk-1.de.uncletopia.com","port":27055,"enabled":true,"region":"eu","cc":"de","latitude":50.110924,"longitude":8.682127,"reserved":0,"last_update":"0001-01-01T00:00:00Z","name_a2s":"Uncletopia | Frankfurt | 5 | All Maps","protocol":17,"map":"koth_lakeside_final","folder":"tf","game":"Team Fortress","app_id":440,"player_count":0,"max_players":24,"Bots":0,"server_type":"Dedicated","server_os":"Linux","password":true,"vac":true,"version":"7757534","steam_id":85568392924504277,"keywords":["cp","nocrits","nodmgspread","uncletopia"],"game_id":440,"stv_port":27056,"stv_name":"Uncletopia | Frankfurt | 5 | All Maps | STV","players":null},{"server_id":311,"name":"Uncletopia | Frankfurt | 6 | All Maps","name_short":"frk-6","host":"frk-1.de.uncletopia.com","port":27065,"enabled":true,"region":"eu","cc":"de","latitude":50.110924,"longitude":8.682127,"reserved":0,"last_update":"0001-01-01T00:00:00Z","name_a2s":"Uncletopia | Frankfurt | 6 | All Maps","protocol":17,"map":"pl_frontier_final","folder":"tf","game":"Team Fortress","app_id":440,"player_count":0,"max_players":24,"Bots":0,"server_type":"Dedicated","server_os":"Linux","password":true,"vac":true,"version":"7757534","steam_id":85568392924504278,"keywords":["nocrits","nodmgspread","payload","uncletopia"],"game_id":440,"stv_port":27066,"stv_name":"Uncletopia | Frankfurt | 6 | All Maps | STV","players":null},{"server_id":23,"name":"Uncletopia | Frankfurt | 7 | Stopwatch Beta","name_short":"frk-7","host":"frk-1.de.uncletopia.com","port":27075,"enabled":true,"region":"eu","cc":"de","latitude":50.110924,"longitude":8.682127,"reserved":0,"last_update":"0001-01-01T00:00:00Z","name_a2s":"Uncletopia | Frankfurt | 7 | Stopwatch Beta","protocol":17,"map":"cp_sunshine","folder":"tf","game":"Team Fortress","app_id":440,"player_count":0,"max_players":24,"Bots":0,"server_type":"Dedicated","server_os":"Linux","password":true,"vac":true,"version":"7757534","steam_id":85568392924742827,"keywords":["cp","nocrits","nodmgspread","uncletopia"],"game_id":440,"stv_port":27076,"stv_name":"Uncletopia | Frankfurt | 7 | Stopwatch Beta | STV","players":null},{"server_id":24,"name":"Uncletopia | Frankfurt | 8 | Community","name_short":"frk-8","host":"frk-1.de.uncletopia.com","port":27085,"enabled":true,"region":"eu","cc":"de","latitude":50.110924,"longitude":8.682127,"reserved":0,"last_update":"0001-01-01T00:00:00Z","name_a2s":"Uncletopia | Frankfurt | 8 | Community","protocol":17,"map":"koth_lakeside_final","folder":"tf","game":"Team Fortress","app_id":440,"player_count":0,"max_players":24,"Bots":0,"server_type":"Dedicated","server_os":"Linux","password":true,"vac":true,"version":"7757534","steam_id":85568392924742828,"keywords":["cp","nocrits","nodmgspread","uncletopia"],"game_id":440,"stv_port":27086,"stv_name":"Uncletopia | Frankfurt | 8 | Community | STV","players":null},{"server_id":202,"name":"Uncletopia | Hong Kong | 1 | All Maps","name_short":"hgk-1","host":"hgk-1.hk.uncletopia.com","port":27015,"enabled":true,"region":"asia","cc":"hk","latitude":22.302711,"longitude":114.177216,"reserved":0,"last_update":"0001-01-01T00:00:00Z","name_a2s":"Uncletopia | Hong Kong | 1 | All Maps","protocol":17,"map":"cp_sunshine","folder":"tf","game":"Team Fortress","app_id":440,"player_count":24,"max_players":24,"Bots":0,"server_type":"Dedicated","server_os":"Linux","password":true,"vac":true,"version":"7757534","steam_id":85568392924494504,"keywords":["cp","nocrits","nodmgspread","uncletopia"],"game_id":440,"stv_port":27016,"stv_name":"Uncletopia | Hong Kong | 1 | All Maps | STV","players":[{"user_id":99,"name":"eyes","steam_id":76561198858606228,"connected_time":2862000000000,"state":"active","ping":55},{"user_id":113,"name":"炎技","steam_id":76561198322497572,"connected_time":519000000000,"state":"active","ping":68},{"user_id":49,"name":"_kobic","steam_id":76561199166938276,"connected_time":7505000000000,"state":"active","ping":71},{"user_id":121,"name":"tiden2000","steam_id":76561198092969425,"connected_time":89000000000,"state":"active","ping":109},{"user_id":82,"name":"oldman","steam_id":76561198748035294,"connected_time":4899000000000,"state":"active","ping":105},{"user_id":50,"name":"Hay","steam_id":76561199438952901,"connected_time":7357000000000,"state":"active","ping":50},{"user_id":66,"name":"corpse_cadaver","steam_id":76561199225360457,"connected_time":6229000000000,"state":"active","ping":70},{"user_id":112,"name":"yw","steam_id":76561199382726488,"connected_time":588000000000,"state":"active","ping":48},{"user_id":85,"name":"§aveh!","steam_id":76561198141410845,"connected_time":4768000000000,"state":"active","ping":57},{"user_id":75,"name":"bathtub","steam_id":76561198967804087,"connected_time":5342000000000,"state":"active","ping":102},{"user_id":109,"name":"monke mode","steam_id":76561198992723983,"connected_time":593000000000,"state":"active","ping":98},{"user_id":124,"name":"cellum95","steam_id":76561198172146871,"connected_time":3000000000,"state":"spawning","ping":51},{"user_id":86,"name":"UltraFat","steam_id":76561198253918132,"connected_time":4738000000000,"state":"active","ping":95},{"user_id":87,"name":"screaming sniper","steam_id":76561199085568674,"connected_time":4626000000000,"state":"active","ping":72},{"user_id":117,"name":"jeff","steam_id":76561198327306842,"connected_time":389000000000,"state":"active","ping":76},{"user_id":122,"name":"urotsuki with da doobie","steam_id":76561198074339034,"connected_time":74000000000,"state":"active","ping":74},{"user_id":105,"name":":)","steam_id":76561198437941450,"connected_time":1815000000000,"state":"active","ping":108},{"user_id":68,"name":"Gordon.Freeman","steam_id":76561198337746852,"connected_time":6122000000000,"state":"active","ping":70},{"user_id":119,"name":"생계형도둑","steam_id":76561198876779200,"connected_time":230000000000,"state":"active","ping":75},{"user_id":116,"name":"Vortex Medico","steam_id":76561198833527091,"connected_time":472000000000,"state":"active","ping":94},{"user_id":107,"name":"loki :D","steam_id":76561198127985312,"connected_time":1477000000000,"state":"active","ping":96},{"user_id":108,"name":"David Keithson","steam_id":76561199279393636,"connected_time":621000000000,"state":"active","ping":69},{"user_id":47,"name":"spinach (old mouse)","steam_id":76561198042539541,"connected_time":7721000000000,"state":"active","ping":86},{"user_id":123,"name":"白卡仔","steam_id":76561198061628689,"connected_time":54000000000,"state":"active","ping":47}]},{"server_id":1,"name":"Uncletopia | Los Angeles | 1 | All Maps","name_short":"lax-1","host":"lax-1.us.uncletopia.com","port":27015,"enabled":true,"region":"us-west","cc":"us","latitude":33.94279,"longitude":-118.41004,"reserved":0,"last_update":"0001-01-01T00:00:00Z","name_a2s":"Uncletopia | Los Angeles | 1 | All Maps","protocol":17,"map":"koth_brazil","folder":"tf","game":"Team Fortress","app_id":440,"player_count":24,"max_players":24,"Bots":0,"server_type":"Dedicated","server_os":"Linux","password":true,"vac":true,"version":"7757534","steam_id":85568392924469991,"keywords":["cp","nocrits","nodmgspread","uncletopia"],"game_id":440,"stv_port":27016,"stv_name":"Uncletopia | Los Angeles | 1 | All Maps | STV","players":[{"user_id":549,"name":"Gundam Guy","steam_id":76561198178453993,"connected_time":2880000000000,"state":"active","ping":72},{"user_id":556,"name":"HideOnTate","steam_id":76561198209880837,"connected_time":2028000000000,"state":"active","ping":76},{"user_id":529,"name":"Figgleton","steam_id":76561198044487282,"connected_time":4497000000000,"state":"active","ping":111},{"user_id":575,"name":"FI LO","steam_id":76561198976530881,"connected_time":340000000000,"state":"active","ping":45},{"user_id":554,"name":"Fake21","steam_id":76561198282065071,"connected_time":2360000000000,"state":"active","ping":77},{"user_id":573,"name":"Farseer Ulwithy","steam_id":76561197965179245,"connected_time":481000000000,"state":"active","ping":97},{"user_id":551,"name":"Kyna._","steam_id":76561198142758338,"connected_time":2665000000000,"state":"active","ping":54},{"user_id":483,"name":"Gold Member","steam_id":76561198054864682,"connected_time":8340000000000,"state":"active","ping":108},{"user_id":570,"name":"Gormungar","steam_id":76561198101969361,"connected_time":727000000000,"state":"active","ping":118},{"user_id":453,"name":"Snorflex","steam_id":76561198141862965,"connected_time":10585000000000,"state":"active","ping":52},{"user_id":485,"name":"Tav","steam_id":76561198047679077,"connected_time":8333000000000,"state":"active","ping":103},{"user_id":423,"name":"Giga","steam_id":76561198057351539,"connected_time":12312000000000,"state":"active","ping":70},{"user_id":537,"name":"Sole Flux","steam_id":76561198351794131,"connected_time":3760000000000,"state":"active","ping":106},{"user_id":566,"name":"a chicken","steam_id":76561198313121580,"connected_time":1156000000000,"state":"active","ping":47},{"user_id":559,"name":"Madeline (she/her)","steam_id":76561198310003666,"connected_time":1600000000000,"state":"active","ping":75},{"user_id":565,"name":"Dr. Major Balls","steam_id":76561198417358638,"connected_time":1391000000000,"state":"active","ping":59},{"user_id":555,"name":"Fuzzle_Buns","steam_id":76561198042336101,"connected_time":2356000000000,"state":"active","ping":119},{"user_id":561,"name":"eau:","steam_id":76561198110020262,"connected_time":1537000000000,"state":"active","ping":39},{"user_id":557,"name":"Rock Kickass","steam_id":76561198450510841,"connected_time":2006000000000,"state":"active","ping":83},{"user_id":534,"name":"Nemesis_421.EXE","steam_id":76561198311948563,"connected_time":3810000000000,"state":"active","ping":47},{"user_id":536,"name":"Skyrim killable children mod","steam_id":76561198862836173,"connected_time":3784000000000,"state":"active","ping":101},{"user_id":488,"name":"Froze","steam_id":76561198097561195,"connected_time":8321000000000,"state":"active","ping":115},{"user_id":526,"name":"themadlad67","steam_id":76561199309554436,"connected_time":4925000000000,"state":"active","ping":83},{"user_id":576,"name":"gabagool","steam_id":76561198882758067,"connected_time":224000000000,"state":"active","ping":98}]},{"server_id":112,"name":"Uncletopia | Los Angeles | 2 | All Maps","name_short":"lax-2","host":"lax-1.us.uncletopia.com","port":27025,"enabled":true,"region":"us-west","cc":"us","latitude":33.94279,"longitude":-118.41004,"reserved":0,"last_update":"0001-01-01T00:00:00Z","name_a2s":"Uncletopia | Los Angeles | 2 | All Maps","protocol":17,"map":"pl_frontier_final","folder":"tf","game":"Team Fortress","app_id":440,"player_count":24,"max_players":24,"Bots":0,"server_type":"Dedicated","server_os":"Linux","password":true,"vac":true,"version":"7757534","steam_id":85568392924469992,"keywords":["nocrits","nodmgspread","payload","uncletopia"],"game_id":440,"stv_port":27026,"stv_name":"Uncletopia | Los Angeles | 2 | All Maps | STV","players":[{"user_id":163,"name":"freak","steam_id":76561198263004448,"connected_time":2567000000000,"state":"active","ping":46},{"user_id":162,"name":"Celia [ +/- ] ✔","steam_id":76561198067164431,"connected_time":2738000000000,"state":"active","ping":36},{"user_id":186,"name":"Bludgeon","steam_id":76561198272009412,"connected_time":366000000000,"state":"active","ping":55},{"user_id":169,"name":"Real Demopan","steam_id":76561199077640506,"connected_time":1346000000000,"state":"active","ping":83},{"user_id":181,"name":"Professional Idiot Child","steam_id":76561198010275196,"connected_time":598000000000,"state":"active","ping":52},{"user_id":146,"name":"NagitoTheLucky","steam_id":76561198065096327,"connected_time":4401000000000,"state":"active","ping":60},{"user_id":187,"name":"Colonel Chikara","steam_id":76561198010021087,"connected_time":322000000000,"state":"active","ping":61},{"user_id":147,"name":"Elmaxo's strongest pyro","steam_id":76561198045309016,"connected_time":4215000000000,"state":"active","ping":74},{"user_id":170,"name":"i cant aim","steam_id":76561198065873462,"connected_time":1322000000000,"state":"active","ping":46},{"user_id":164,"name":"derek savage","steam_id":76561198139797454,"connected_time":2490000000000,"state":"active","ping":113},{"user_id":171,"name":"Cinna Mon","steam_id":76561198005840633,"connected_time":1273000000000,"state":"active","ping":124},{"user_id":183,"name":"reyerereryryo","steam_id":76561198453203619,"connected_time":409000000000,"state":"active","ping":47},{"user_id":178,"name":"vioxynteris","steam_id":76561198161428666,"connected_time":936000000000,"state":"active","ping":42},{"user_id":48,"name":"nori_420","steam_id":76561199117134203,"connected_time":11870000000000,"state":"active","ping":57},{"user_id":167,"name":"StarJesus","steam_id":76561198187728043,"connected_time":2241000000000,"state":"active","ping":50},{"user_id":144,"name":"Chalupa Jones","steam_id":76561198335855588,"connected_time":4779000000000,"state":"active","ping":49},{"user_id":188,"name":"Gender","steam_id":76561198040889761,"connected_time":242000000000,"state":"active","ping":63},{"user_id":174,"name":"H4V0C","steam_id":76561199129350925,"connected_time":1209000000000,"state":"active","ping":79},{"user_id":175,"name":"your mom calls me princess too","steam_id":76561198020400899,"connected_time":1180000000000,"state":"active","ping":75},{"user_id":176,"name":"✿mika✿","steam_id":76561198021771036,"connected_time":1176000000000,"state":"active","ping":133},{"user_id":156,"name":"Apprentice Pybro","steam_id":76561197996353534,"connected_time":3453000000000,"state":"active","ping":54},{"user_id":139,"name":"squid","steam_id":76561198070236972,"connected_time":4884000000000,"state":"active","ping":60},{"user_id":177,"name":"Poopie Babie","steam_id":76561198047500494,"connected_time":1165000000000,"state":"active","ping":75},{"user_id":140,"name":"Nugakku","steam_id":76561198082346219,"connected_time":4881000000000,"state":"active","ping":59}]},{"server_id":324,"name":"Uncletopia | Los Angeles | 3 | All Maps","name_short":"lax-3","host":"lax-1.us.uncletopia.com","port":27035,"enabled":true,"region":"us-west","cc":"us","latitude":33.94279,"longitude":-118.41004,"reserved":0,"last_update":"0001-01-01T00:00:00Z","name_a2s":"Uncletopia | Los Angeles | 3 | All Maps","protocol":17,"map":"pl_swiftwater_final1","folder":"tf","game":"Team Fortress","app_id":440,"player_count":24,"max_players":24,"Bots":0,"server_type":"Dedicated","server_os":"Linux","password":true,"vac":true,"version":"7757534","steam_id":85568392924510198,"keywords":["nocrits","nodmgspread","payload","uncletopia"],"game_id":440,"stv_port":27036,"stv_name":"Uncletopia | Los Angeles | 3 | All Maps | STV","players":[{"user_id":407,"name":"John Wick's puppy","steam_id":76561198064662875,"connected_time":516000000000,"state":"active","ping":53},{"user_id":406,"name":"HORSE KEGGO","steam_id":76561198055785246,"connected_time":619000000000,"state":"active","ping":52},{"user_id":364,"name":"kiviviviviviviviviviviviviviviv","steam_id":76561198838223023,"connected_time":3333000000000,"state":"active","ping":109},{"user_id":414,"name":"XxDragon4321xX","steam_id":76561198046705735,"connected_time":225000000000,"state":"active","ping":72},{"user_id":403,"name":"Clagger","steam_id":76561198066701092,"connected_time":868000000000,"state":"active","ping":64},{"user_id":402,"name":"jevolutionj","steam_id":76561198067844814,"connected_time":964000000000,"state":"active","ping":60},{"user_id":408,"name":"oomper","steam_id":76561199189982701,"connected_time":430000000000,"state":"active","ping":112},{"user_id":409,"name":"MaDeuce","steam_id":76561198110732835,"connected_time":317000000000,"state":"active","ping":103},{"user_id":393,"name":"soltuno","steam_id":76561198074430565,"connected_time":1624000000000,"state":"active","ping":64},{"user_id":394,"name":"Psychobanana","steam_id":76561199142143339,"connected_time":1593000000000,"state":"active","ping":64},{"user_id":380,"name":"Schroeder","steam_id":76561199045431242,"connected_time":2517000000000,"state":"active","ping":56},{"user_id":412,"name":"Agent Q","steam_id":76561198830829003,"connected_time":285000000000,"state":"active","ping":70},{"user_id":389,"name":"Chef Molbo","steam_id":76561198089045454,"connected_time":1835000000000,"state":"active","ping":85},{"user_id":390,"name":"momus","steam_id":76561198966979196,"connected_time":1823000000000,"state":"active","ping":52},{"user_id":373,"name":"i am clinically insane","steam_id":76561199013323529,"connected_time":2973000000000,"state":"active","ping":62},{"user_id":397,"name":"big car","steam_id":76561198067082350,"connected_time":1460000000000,"state":"active","ping":59},{"user_id":410,"name":"Witchings","steam_id":76561198247431254,"connected_time":316000000000,"state":"active","ping":129},{"user_id":411,"name":"Euclid","steam_id":76561198082882879,"connected_time":314000000000,"state":"active","ping":66},{"user_id":413,"name":"Bungus Stormblessed","steam_id":76561198121357619,"connected_time":279000000000,"state":"active","ping":71},{"user_id":381,"name":"eccuC","steam_id":76561198034818632,"connected_time":2506000000000,"state":"active","ping":114},{"user_id":357,"name":"walrooos","steam_id":76561198024521839,"connected_time":3722000000000,"state":"active","ping":40},{"user_id":360,"name":"mobe","steam_id":76561198121633820,"connected_time":3683000000000,"state":"active","ping":73},{"user_id":374,"name":"triph","steam_id":76561198067196509,"connected_time":2744000000000,"state":"active","ping":32},{"user_id":401,"name":"RyanTheKat","steam_id":76561198261728547,"connected_time":999000000000,"state":"active","ping":62}]},{"server_id":25,"name":"Uncletopia | Los Angeles | 4 | Stopwatch Beta","name_short":"lax-4","host":"lax-1.us.uncletopia.com","port":27045,"enabled":true,"region":"us-west","cc":"us","latitude":33.94279,"longitude":-118.41004,"reserved":0,"last_update":"0001-01-01T00:00:00Z","name_a2s":"Uncletopia | Los Angeles | 4 | Stopwatch Beta","protocol":17,"map":"cp_sunshine","folder":"tf","game":"Team Fortress","app_id":440,"player_count":3,"max_players":24,"Bots":0,"server_type":"Dedicated","server_os":"Linux","password":true,"vac":true,"version":"7757534","steam_id":85568392924510199,"keywords":["cp","nocrits","nodmgspread","uncletopia"],"game_id":440,"stv_port":27046,"stv_name":"Uncletopia | Los Angeles | 4 | Stopwatch Beta | STV","players":[{"user_id":11,"name":"CantPlayAtAll","steam_id":76561198132749765,"connected_time":725000000000,"state":"active","ping":59},{"user_id":13,"name":"Charcoal","steam_id":76561198268638706,"connected_time":600000000000,"state":"active","ping":62},{"user_id":15,"name":"Feddy","steam_id":76561198364645366,"connected_time":92000000000,"state":"active","ping":96}]},{"server_id":11,"name":"Uncletopia | London | 1 | All Maps","name_short":"lon-1","host":"lon-1.uk.uncletopia.com","port":27015,"enabled":true,"region":"eu","cc":"gb","latitude":51.509865,"longitude":-0.118092,"reserved":0,"last_update":"0001-01-01T00:00:00Z","name_a2s":"Uncletopia | London | 1 | All Maps","protocol":17,"map":"cp_sunshine","folder":"tf","game":"Team Fortress","app_id":440,"player_count":2,"max_players":24,"Bots":0,"server_type":"Dedicated","server_os":"Linux","password":true,"vac":true,"version":"7757534","steam_id":85568392924367362,"keywords":["cp","nocrits","nodmgspread","uncletopia"],"game_id":440,"stv_port":27016,"stv_name":"Uncletopia | London | 1 | All Maps | STV","players":[{"user_id":911,"name":"Mentally Insane Pyro","steam_id":76561199248138498,"connected_time":1565000000000,"state":"active","ping":199},{"user_id":912,"name":"DH-S 555","steam_id":76561198316416001,"connected_time":1537000000000,"state":"active","ping":202}]},{"server_id":114,"name":"Uncletopia | London | 2 | All Maps","name_short":"lon-2","host":"lon-1.uk.uncletopia.com","port":27025,"enabled":true,"region":"eu","cc":"gb","latitude":51.509865,"longitude":-0.118092,"reserved":0,"last_update":"0001-01-01T00:00:00Z","name_a2s":"Uncletopia | London | 2 | All Maps","protocol":17,"map":"ctf_2fort","folder":"tf","game":"Team Fortress","app_id":440,"player_count":0,"max_players":24,"Bots":0,"server_type":"Dedicated","server_os":"Linux","password":true,"vac":true,"version":"7757534","steam_id":85568392924470941,"keywords":["ctf","nocrits","nodmgspread","uncletopia"],"game_id":440,"stv_port":27026,"stv_name":"Uncletopia | London | 2 | All Maps | STV","players":null},{"server_id":320,"name":"Uncletopia | London | 3 | All Maps","name_short":"lon-3","host":"lon-1.uk.uncletopia.com","port":27035,"enabled":true,"region":"eu","cc":"gb","latitude":51.509865,"longitude":-0.118092,"reserved":0,"last_update":"0001-01-01T00:00:00Z","name_a2s":"Uncletopia | London | 3 | All Maps","protocol":17,"map":"pl_snowycoast","folder":"tf","game":"Team Fortress","app_id":440,"player_count":24,"max_players":24,"Bots":0,"server_type":"Dedicated","server_os":"Linux","password":true,"vac":true,"version":"7757534","steam_id":85568392924510192,"keywords":["nocrits","nodmgspread","payload","uncletopia"],"game_id":440,"stv_port":27036,"stv_name":"Uncletopia | London | 3 | All Maps | STV","players":[{"user_id":778,"name":"Zizman","steam_id":76561198446562910,"connected_time":758000000000,"state":"active","ping":139},{"user_id":734,"name":"gibb (official)","steam_id":76561198074097655,"connected_time":5391000000000,"state":"active","ping":33},{"user_id":727,"name":"Just_Chilling","steam_id":76561198036712229,"connected_time":6404000000000,"state":"active","ping":58},{"user_id":787,"name":"Dude Time","steam_id":76561198092991160,"connected_time":286000000000,"state":"active","ping":161},{"user_id":740,"name":"xTheDarkLight","steam_id":76561198239128298,"connected_time":4879000000000,"state":"active","ping":60},{"user_id":763,"name":"Entomono","steam_id":76561198189172213,"connected_time":2369000000000,"state":"active","ping":42},{"user_id":767,"name":"FoxyTheFish","steam_id":76561199074190919,"connected_time":1853000000000,"state":"active","ping":56},{"user_id":729,"name":"Homebound","steam_id":76561198531978435,"connected_time":6032000000000,"state":"active","ping":65},{"user_id":657,"name":"New","steam_id":76561198402195911,"connected_time":11570000000000,"state":"active","ping":111},{"user_id":770,"name":"DicyPicky","steam_id":76561198078873335,"connected_time":1635000000000,"state":"active","ping":74},{"user_id":765,"name":"IR","steam_id":76561199006752737,"connected_time":2337000000000,"state":"active","ping":62},{"user_id":724,"name":"Flamey","steam_id":76561198304303030,"connected_time":6572000000000,"state":"active","ping":51},{"user_id":786,"name":"Divorce Agreement","steam_id":76561198999493859,"connected_time":361000000000,"state":"active","ping":146},{"user_id":776,"name":"F2Player","steam_id":76561199446699562,"connected_time":816000000000,"state":"active","ping":147},{"user_id":777,"name":"Monara12th","steam_id":76561199478607360,"connected_time":805000000000,"state":"active","ping":56},{"user_id":783,"name":"apchistuz","steam_id":76561198368712503,"connected_time":456000000000,"state":"active","ping":166},{"user_id":706,"name":"zoinks!","steam_id":76561198068645362,"connected_time":8299000000000,"state":"active","ping":42},{"user_id":766,"name":"Arti","steam_id":76561197983352845,"connected_time":2096000000000,"state":"active","ping":52},{"user_id":781,"name":"Alcohol Hominid","steam_id":76561198320313950,"connected_time":605000000000,"state":"active","ping":166},{"user_id":762,"name":"Raine","steam_id":76561198098860903,"connected_time":2742000000000,"state":"active","ping":58},{"user_id":747,"name":"Fat Juicy Girlcock","steam_id":76561198022584980,"connected_time":4262000000000,"state":"active","ping":78},{"user_id":699,"name":"XPullaHiiri","steam_id":76561198031652375,"connected_time":8756000000000,"state":"active","ping":91},{"user_id":759,"name":"MooGoesCow","steam_id":76561199441528448,"connected_time":3130000000000,"state":"active","ping":64},{"user_id":769,"name":"Hleno","steam_id":76561198060442619,"connected_time":1680000000000,"state":"active","ping":58}]},{"server_id":321,"name":"Uncletopia | London | 4 | All Maps","name_short":"lon-4","host":"lon-1.uk.uncletopia.com","port":27045,"enabled":true,"region":"eu","cc":"gb","latitude":51.509865,"longitude":-0.118092,"reserved":0,"last_update":"0001-01-01T00:00:00Z","name_a2s":"Uncletopia | London | 4 | All Maps","protocol":17,"map":"koth_highpass","folder":"tf","game":"Team Fortress","app_id":440,"player_count":0,"max_players":24,"Bots":0,"server_type":"Dedicated","server_os":"Linux","password":true,"vac":true,"version":"7757534","steam_id":85568392924510193,"keywords":["cp","nocrits","nodmgspread","uncletopia"],"game_id":440,"stv_port":27046,"stv_name":"Uncletopia | London | 4 | All Maps | STV","players":null},{"server_id":21,"name":"Uncletopia | London | 5 | All Maps","name_short":"lon-5","host":"lon-1.uk.uncletopia.com","port":27055,"enabled":true,"region":"eu","cc":"gb","latitude":51.509865,"longitude":-0.118092,"reserved":0,"last_update":"0001-01-01T00:00:00Z","name_a2s":"Uncletopia | London | 5 | All Maps","protocol":17,"map":"koth_viaduct","folder":"tf","game":"Team Fortress","app_id":440,"player_count":0,"max_players":24,"Bots":0,"server_type":"Dedicated","server_os":"Linux","password":true,"vac":true,"version":"7757534","steam_id":85568392924742829,"keywords":["cp","nocrits","nodmgspread","uncletopia"],"game_id":440,"stv_port":27056,"stv_name":"Uncletopia | London | 5 | All Maps | STV","players":null},{"server_id":22,"name":"Uncletopia | London | 6 | All Maps","name_short":"lon-6","host":"lon-1.uk.uncletopia.com","port":27065,"enabled":true,"region":"eu","cc":"gb","latitude":51.509865,"longitude":-0.118092,"reserved":0,"last_update":"0001-01-01T00:00:00Z","name_a2s":"Uncletopia | London | 6 | All Maps","protocol":17,"map":"cp_snakewater_final1","folder":"tf","game":"Team Fortress","app_id":440,"player_count":0,"max_players":24,"Bots":0,"server_type":"Dedicated","server_os":"Linux","password":true,"vac":true,"version":"7757534","steam_id":85568392924742830,"keywords":["cp","nocrits","nodmgspread","uncletopia"],"game_id":440,"stv_port":27066,"stv_name":"Uncletopia | London | 6 | All Maps | STV","players":null},{"server_id":40,"name":"Uncletopia | London | 7 | No Payload","name_short":"lon-7","host":"lon-1.uk.uncletopia.com","port":27075,"enabled":true,"region":"eu","cc":"gb","latitude":51.509865,"longitude":-0.118092,"reserved":0,"last_update":"0001-01-01T00:00:00Z","name_a2s":"Uncletopia | London | 7 | No Payload","protocol":17,"map":"ctf_well","folder":"tf","game":"Team Fortress","app_id":440,"player_count":0,"max_players":24,"Bots":0,"server_type":"Dedicated","server_os":"Linux","password":true,"vac":true,"version":"7757534","steam_id":85568392924964314,"keywords":["ctf","nocrits","nodmgspread","uncletopia"],"game_id":440,"stv_port":27076,"stv_name":"Uncletopia | London | 7 | No Payload | STV","players":null},{"server_id":41,"name":"Uncletopia | London | 8 | Community","name_short":"lon-8","host":"lon-1.uk.uncletopia.com","port":27085,"enabled":true,"region":"eu","cc":"gb","latitude":51.509865,"longitude":-0.118092,"reserved":0,"last_update":"0001-01-01T00:00:00Z","name_a2s":"Uncletopia | London | 8 | Community","protocol":17,"map":"workshop/koth_bagel_rc6.ugc2514036946","folder":"tf","game":"Team Fortress","app_id":440,"player_count":0,"max_players":24,"Bots":0,"server_type":"Dedicated","server_os":"Linux","password":true,"vac":true,"version":"7757534","steam_id":85568392924964315,"keywords":["cp","nocrits","nodmgspread","uncletopia"],"game_id":440,"stv_port":27086,"stv_name":"Uncletopia | London | 8 | Community | STV","players":null},{"server_id":300,"name":"Uncletopia | Montréal | 1 | All Maps","name_short":"mtl-1","host":"mtl-1.ca.uncletopia.com","port":27015,"enabled":true,"region":"us-east","cc":"ca","latitude":45.50889,"longitude":-73.56167,"reserved":0,"last_update":"0001-01-01T00:00:00Z","name_a2s":"Uncletopia | Montréal | 1 | All Maps","protocol":17,"map":"cp_egypt_final","folder":"tf","game":"Team Fortress","app_id":440,"player_count":24,"max_players":24,"Bots":0,"server_type":"Dedicated","server_os":"Linux","password":true,"vac":true,"version":"7757534","steam_id":85568392924500087,"keywords":["cp","nocrits","nodmgspread","uncletopia"],"game_id":440,"stv_port":27016,"stv_name":"Uncletopia | Montréal | 1 | All Maps | STV","players":[{"user_id":283,"name":"Doodle gamer 23","steam_id":76561198407763630,"connected_time":2158000000000,"state":"active","ping":124},{"user_id":288,"name":"MegaMasterZ","steam_id":76561198164954173,"connected_time":1326000000000,"state":"active","ping":152},{"user_id":304,"name":"Shifty Louie","steam_id":76561197990872608,"connected_time":174000000000,"state":"active","ping":142},{"user_id":300,"name":"Sensitive Shooter","steam_id":76561198041439581,"connected_time":725000000000,"state":"active","ping":63},{"user_id":302,"name":"Crystal Toa","steam_id":76561198033861221,"connected_time":540000000000,"state":"active","ping":133},{"user_id":289,"name":"Mops","steam_id":76561198058213741,"connected_time":1272000000000,"state":"active","ping":53},{"user_id":276,"name":"Seaweed","steam_id":76561198331376583,"connected_time":2840000000000,"state":"active","ping":117},{"user_id":246,"name":"only a spoonful","steam_id":76561198113180616,"connected_time":4452000000000,"state":"active","ping":66},{"user_id":290,"name":"American Hogie","steam_id":76561198065822625,"connected_time":1241000000000,"state":"active","ping":102},{"user_id":296,"name":"Bawower","steam_id":76561198347769261,"connected_time":1150000000000,"state":"active","ping":53},{"user_id":215,"name":"Jerry Kool-Aid","steam_id":76561198030281560,"connected_time":7271000000000,"state":"active","ping":77},{"user_id":287,"name":"Snapdragron","steam_id":76561198348485302,"connected_time":1532000000000,"state":"active","ping":67},{"user_id":291,"name":"Heyday","steam_id":76561198001984882,"connected_time":1215000000000,"state":"active","ping":68},{"user_id":292,"name":"DOG WITH HOT MILK","steam_id":76561198022903061,"connected_time":1173000000000,"state":"active","ping":64},{"user_id":267,"name":"josie","steam_id":76561198170848553,"connected_time":3258000000000,"state":"active","ping":108},{"user_id":301,"name":"Zelumie","steam_id":76561198147335801,"connected_time":705000000000,"state":"active","ping":67},{"user_id":293,"name":"A Ninja","steam_id":76561198032679512,"connected_time":1168000000000,"state":"active","ping":67},{"user_id":254,"name":"NO MA'AM Local 420","steam_id":76561198160572249,"connected_time":4279000000000,"state":"active","ping":61},{"user_id":217,"name":"PizzaThot","steam_id":76561198278237289,"connected_time":7245000000000,"state":"active","ping":102},{"user_id":303,"name":"Lore","steam_id":76561198098407538,"connected_time":485000000000,"state":"active","ping":75},{"user_id":256,"name":"CupcakeWarlock","steam_id":76561198179963697,"connected_time":4226000000000,"state":"active","ping":70},{"user_id":257,"name":"Dermit the Fregg","steam_id":76561198055636485,"connected_time":4203000000000,"state":"active","ping":84},{"user_id":259,"name":"Zero","steam_id":76561199383267408,"connected_time":4165000000000,"state":"active","ping":86},{"user_id":295,"name":"UwU Enforcer","steam_id":76561198083684571,"connected_time":1166000000000,"state":"active","ping":129}]},{"server_id":301,"name":"Uncletopia | Montréal | 2 | All Maps","name_short":"mtl-2","host":"mtl-1.ca.uncletopia.com","port":27025,"enabled":true,"region":"us-east","cc":"ca","latitude":45.50889,"longitude":-73.56167,"reserved":0,"last_update":"0001-01-01T00:00:00Z","name_a2s":"Uncletopia | Montréal | 2 | All Maps","protocol":17,"map":"koth_viaduct","folder":"tf","game":"Team Fortress","app_id":440,"player_count":2,"max_players":24,"Bots":0,"server_type":"Dedicated","server_os":"Linux","password":true,"vac":true,"version":"7757534","steam_id":85568392924500088,"keywords":["cp","nocrits","nodmgspread","uncletopia"],"game_id":440,"stv_port":27026,"stv_name":"Uncletopia | Montréal | 2 | All Maps | STV","players":[{"user_id":13,"name":"kriglar","steam_id":76561198346652267,"connected_time":5648000000000,"state":"active","ping":75},{"user_id":14,"name":"Gwingoid44","steam_id":76561199017907100,"connected_time":5634000000000,"state":"active","ping":69}]},{"server_id":302,"name":"Uncletopia | Montréal | 3 | All Maps","name_short":"mtl-3","host":"mtl-1.ca.uncletopia.com","port":27035,"enabled":true,"region":"us-east","cc":"ca","latitude":45.50889,"longitude":-73.56167,"reserved":0,"last_update":"0001-01-01T00:00:00Z","name_a2s":"Uncletopia | Montréal | 3 | All Maps","protocol":17,"map":"pl_frontier_final","folder":"tf","game":"Team Fortress","app_id":440,"player_count":16,"max_players":24,"Bots":0,"server_type":"Dedicated","server_os":"Linux","password":true,"vac":true,"version":"7757534","steam_id":85568392924500089,"keywords":["nocrits","nodmgspread","payload","uncletopia"],"game_id":440,"stv_port":27036,"stv_name":"Uncletopia | Montréal | 3 | All Maps | STV","players":[{"user_id":220,"name":"naur","steam_id":76561198103496593,"connected_time":748000000000,"state":"active","ping":73},{"user_id":225,"name":"MofongoFist","steam_id":76561198115520358,"connected_time":488000000000,"state":"active","ping":87},{"user_id":179,"name":"K","steam_id":76561198233616048,"connected_time":4095000000000,"state":"active","ping":108},{"user_id":226,"name":"Watch Out!!!!","steam_id":76561198296867197,"connected_time":331000000000,"state":"active","ping":94},{"user_id":133,"name":"Penis Scout 2","steam_id":76561198801467075,"connected_time":7234000000000,"state":"active","ping":92},{"user_id":229,"name":"Fiftystorm","steam_id":76561198296894704,"connected_time":129000000000,"state":"active","ping":72},{"user_id":222,"name":"✿ teafy","steam_id":76561198406252824,"connected_time":697000000000,"state":"active","ping":129},{"user_id":214,"name":"amedei porcelana","steam_id":76561198150382695,"connected_time":1024000000000,"state":"active","ping":90},{"user_id":206,"name":"Eden Hazard","steam_id":76561198089241053,"connected_time":1365000000000,"state":"active","ping":47},{"user_id":228,"name":"Pxls_","steam_id":76561198151150175,"connected_time":177000000000,"state":"active","ping":64},{"user_id":230,"name":"ferin","steam_id":76561198137607046,"connected_time":119000000000,"state":"active","ping":40},{"user_id":217,"name":"soweli","steam_id":76561198044363630,"connected_time":964000000000,"state":"active","ping":51},{"user_id":218,"name":"OttoDogX","steam_id":76561198042007578,"connected_time":961000000000,"state":"active","ping":133},{"user_id":231,"name":"ʕ•ᴥ•ʔ the bear","steam_id":76561197989591976,"connected_time":103000000000,"state":"active","ping":68},{"user_id":232,"name":"sunny","steam_id":76561198069380992,"connected_time":42000000000,"state":"active","ping":100},{"user_id":131,"name":"snark","steam_id":76561198132980859,"connected_time":7329000000000,"state":"active","ping":56}]},{"server_id":303,"name":"Uncletopia | Montréal | 4 | No Payload","name_short":"mtl-4","host":"mtl-1.ca.uncletopia.com","port":27045,"enabled":true,"region":"us-east","cc":"ca","latitude":45.50889,"longitude":-73.56167,"reserved":0,"last_update":"0001-01-01T00:00:00Z","name_a2s":"Uncletopia | Montréal | 4 | No Payload","protocol":17,"map":"plr_pipeline","folder":"tf","game":"Team Fortress","app_id":440,"player_count":0,"max_players":24,"Bots":0,"server_type":"Dedicated","server_os":"Linux","password":true,"vac":true,"version":"7757534","steam_id":85568392924500090,"keywords":["nocrits","nodmgspread","payload","uncletopia"],"game_id":440,"stv_port":27046,"stv_name":"Uncletopia | Montréal | 4 | No Payload | STV","players":null},{"server_id":13,"name":"Uncletopia | New York City | 1 | All Maps","name_short":"nyc-1","host":"nyc-1.us.uncletopia.com","port":27015,"enabled":true,"region":"us-east","cc":"us","latitude":40.73061,"longitude":-73.93524,"reserved":0,"last_update":"0001-01-01T00:00:00Z","name_a2s":"Uncletopia | New York City | 1 | All Maps","protocol":17,"map":"pl_barnblitz","folder":"tf","game":"Team Fortress","app_id":440,"player_count":24,"max_players":24,"Bots":0,"server_type":"Dedicated","server_os":"Linux","password":true,"vac":true,"version":"7757534","steam_id":85568392924469993,"keywords":["nocrits","nodmgspread","payload","uncletopia"],"game_id":440,"stv_port":27016,"stv_name":"Uncletopia | New York City | 1 | All Maps | STV","players":[{"user_id":795,"name":"DJ Sheeve","steam_id":76561198095910139,"connected_time":722000000000,"state":"active","ping":93},{"user_id":789,"name":"DDM","steam_id":76561197989699054,"connected_time":797000000000,"state":"active","ping":52},{"user_id":796,"name":"Lancer47","steam_id":76561198020481475,"connected_time":599000000000,"state":"active","ping":67},{"user_id":797,"name":"Acómanas","steam_id":76561199031977210,"connected_time":597000000000,"state":"active","ping":67},{"user_id":802,"name":"tighty walter whities","steam_id":76561199122915452,"connected_time":272000000000,"state":"active","ping":120},{"user_id":794,"name":"single mother of 24/24 ctf_2for","steam_id":76561198034096805,"connected_time":756000000000,"state":"active","ping":78},{"user_id":787,"name":"Defiant Statement.","steam_id":76561199101373436,"connected_time":816000000000,"state":"active","ping":72},{"user_id":771,"name":"Simply Mystic","steam_id":76561198055495647,"connected_time":2944000000000,"state":"active","ping":82},{"user_id":800,"name":"woman respecter","steam_id":76561198083225542,"connected_time":383000000000,"state":"active","ping":65},{"user_id":788,"name":"ShaqtusHD(She/Her)","steam_id":76561199138286233,"connected_time":808000000000,"state":"active","ping":64},{"user_id":759,"name":"doro","steam_id":76561198099041747,"connected_time":3344000000000,"state":"active","ping":120},{"user_id":783,"name":"DroidX19","steam_id":76561198867783457,"connected_time":1796000000000,"state":"active","ping":115},{"user_id":782,"name":"Zeek","steam_id":76561197987204351,"connected_time":1840000000000,"state":"active","ping":47},{"user_id":778,"name":"Arctem","steam_id":76561198012937871,"connected_time":2118000000000,"state":"active","ping":90},{"user_id":799,"name":"Strangelove","steam_id":76561198353773611,"connected_time":537000000000,"state":"active","ping":94},{"user_id":784,"name":"HOT SOUP","steam_id":76561199077389918,"connected_time":1793000000000,"state":"active","ping":73},{"user_id":801,"name":"AADDAAMM","steam_id":76561198068584852,"connected_time":372000000000,"state":"active","ping":68},{"user_id":792,"name":"DO NOT call me BART SIMPSON!!","steam_id":76561198069113375,"connected_time":772000000000,"state":"active","ping":59},{"user_id":768,"name":"Whole Wheat Lemon","steam_id":76561199025265182,"connected_time":2989000000000,"state":"active","ping":55},{"user_id":781,"name":"Thermalpwn","steam_id":76561198027552989,"connected_time":1933000000000,"state":"active","ping":79},{"user_id":793,"name":"Cosmic sR","steam_id":76561198081738675,"connected_time":769000000000,"state":"active","ping":85},{"user_id":772,"name":"whoopsydoodle","steam_id":76561198045145360,"connected_time":2943000000000,"state":"active","ping":49},{"user_id":769,"name":"mrnotsogudguy","steam_id":76561199289893241,"connected_time":2989000000000,"state":"active","ping":109},{"user_id":779,"name":"Japheth","steam_id":76561198012902961,"connected_time":2048000000000,"state":"active","ping":70}]},{"server_id":14,"name":"Uncletopia | New York City | 2 | All Maps","name_short":"nyc-2","host":"nyc-1.us.uncletopia.com","port":27025,"enabled":true,"region":"us-east","cc":"us","latitude":40.73061,"longitude":-73.93524,"reserved":0,"last_update":"0001-01-01T00:00:00Z","name_a2s":"Uncletopia | New York City | 2 | All Maps","protocol":17,"map":"cp_dustbowl","folder":"tf","game":"Team Fortress","app_id":440,"player_count":24,"max_players":24,"Bots":0,"server_type":"Dedicated","server_os":"Linux","password":true,"vac":true,"version":"7757534","steam_id":85568392924469994,"keywords":["cp","nocrits","nodmgspread","uncletopia"],"game_id":440,"stv_port":27026,"stv_name":"Uncletopia | New York City | 2 | All Maps | STV","players":[{"user_id":801,"name":"Vacket","steam_id":76561198161868015,"connected_time":931000000000,"state":"active","ping":40},{"user_id":744,"name":"kbsfnk","steam_id":76561198036884600,"connected_time":6236000000000,"state":"active","ping":53},{"user_id":776,"name":"Juno","steam_id":76561198042417277,"connected_time":1857000000000,"state":"active","ping":90},{"user_id":794,"name":"Pizza","steam_id":76561198118748364,"connected_time":1394000000000,"state":"active","ping":74},{"user_id":777,"name":"tobexlol","steam_id":76561198803717994,"connected_time":1846000000000,"state":"active","ping":85},{"user_id":771,"name":"DededeMain | trade.tf","steam_id":76561198310951632,"connected_time":3027000000000,"state":"active","ping":64},{"user_id":810,"name":"gt","steam_id":76561198033033884,"connected_time":76000000000,"state":"active","ping":58},{"user_id":769,"name":"Bear bird","steam_id":76561198166769479,"connected_time":3410000000000,"state":"active","ping":68},{"user_id":773,"name":"xen","steam_id":76561198048568188,"connected_time":2660000000000,"state":"active","ping":46},{"user_id":804,"name":"info","steam_id":76561197989806185,"connected_time":845000000000,"state":"active","ping":75},{"user_id":779,"name":"C.R.E.A.M.","steam_id":76561198273966238,"connected_time":1826000000000,"state":"active","ping":37},{"user_id":787,"name":"Bottle","steam_id":76561198044031558,"connected_time":1757000000000,"state":"active","ping":52},{"user_id":811,"name":"Ludcmorais","steam_id":76561198359217809,"connected_time":69000000000,"state":"active","ping":175},{"user_id":720,"name":"silver_lama","steam_id":76561198101132894,"connected_time":7775000000000,"state":"active","ping":66},{"user_id":790,"name":"CORGI.EXE","steam_id":76561198077093432,"connected_time":1698000000000,"state":"active","ping":50},{"user_id":792,"name":"Wimojimo12","steam_id":76561198370459596,"connected_time":1478000000000,"state":"active","ping":47},{"user_id":795,"name":"tubby","steam_id":76561198174982661,"connected_time":1380000000000,"state":"active","ping":83},{"user_id":798,"name":"Marshall","steam_id":76561198042570322,"connected_time":1096000000000,"state":"active","ping":73},{"user_id":652,"name":"wool","steam_id":76561198869689933,"connected_time":13021000000000,"state":"active","ping":58},{"user_id":803,"name":"Gods Drunkest Driver","steam_id":76561198390108910,"connected_time":857000000000,"state":"active","ping":98},{"user_id":809,"name":"noided","steam_id":76561198353924837,"connected_time":305000000000,"state":"active","ping":74},{"user_id":807,"name":"sora","steam_id":76561198094256973,"connected_time":622000000000,"state":"active","ping":117},{"user_id":797,"name":"Capitán Äxis-Flores","steam_id":76561198353865006,"connected_time":1371000000000,"state":"active","ping":74},{"user_id":774,"name":"gmaay","steam_id":76561199104911185,"connected_time":1874000000000,"state":"active","ping":53}]},{"server_id":15,"name":"Uncletopia | New York City | 3 | Stopwatch Beta","name_short":"nyc-3","host":"nyc-1.us.uncletopia.com","port":27035,"enabled":true,"region":"us-east","cc":"us","latitude":40.73061,"longitude":-73.93524,"reserved":0,"last_update":"0001-01-01T00:00:00Z","name_a2s":"Uncletopia | New York City | 3 | Stopwatch Beta","protocol":17,"map":"workshop/pl_summercoast_rc8e.ugc1761528829","folder":"tf","game":"Team Fortress","app_id":440,"player_count":0,"max_players":24,"Bots":0,"server_type":"Dedicated","server_os":"Linux","password":true,"vac":true,"version":"7757534","steam_id":85568392924742820,"keywords":["nocrits","nodmgspread","payload","uncletopia"],"game_id":440,"stv_port":27036,"stv_name":"Uncletopia | New York City | 3 | Stopwatch Beta | STV","players":null},{"server_id":16,"name":"Uncletopia | New York City | 4 | Community","name_short":"nyc-4","host":"nyc-1.us.uncletopia.com","port":27045,"enabled":true,"region":"us-east","cc":"us","latitude":40.73061,"longitude":-73.93524,"reserved":0,"last_update":"0001-01-01T00:00:00Z","name_a2s":"Uncletopia | New York City | 4 | Community","protocol":17,"map":"workshop/pl_cactuscanyon_redux_final2.ugc2579644293","folder":"tf","game":"Team Fortress","app_id":440,"player_count":0,"max_players":24,"Bots":0,"server_type":"Dedicated","server_os":"Linux","password":true,"vac":true,"version":"7757534","steam_id":85568392924742821,"keywords":["nocrits","nodmgspread","payload","uncletopia"],"game_id":440,"stv_port":27046,"stv_name":"Uncletopia | New York City | 4 | Community | STV","players":null},{"server_id":142,"name":"Uncletopia | São Paulo | 1 | All Maps","name_short":"sao-1","host":"sao-1.br.uncletopia.com","port":27015,"enabled":true,"region":"sa","cc":"br","latitude":-23.533773,"longitude":-46.62529,"reserved":0,"last_update":"0001-01-01T00:00:00Z","name_a2s":"Uncletopia | São Paulo | 1 | All Maps","protocol":17,"map":"cp_altitude","folder":"tf","game":"Team Fortress","app_id":440,"player_count":0,"max_players":24,"Bots":0,"server_type":"Dedicated","server_os":"Linux","password":true,"vac":true,"version":"7757534","steam_id":85568392924469996,"keywords":["cp","nocrits","nodmgspread","uncletopia"],"game_id":440,"stv_port":27016,"stv_name":"Uncletopia | São Paulo | 1 | All Maps | STV","players":null},{"server_id":143,"name":"Uncletopia | São Paulo | 2 | All Maps","name_short":"sao-2","host":"sao-2.br.uncletopia.com","port":27015,"enabled":true,"region":"sa","cc":"br","latitude":-23.533773,"longitude":-46.62529,"reserved":0,"last_update":"0001-01-01T00:00:00Z","name_a2s":"Uncletopia | São Paulo | 2 | All Maps","protocol":17,"map":"cp_process_final","folder":"tf","game":"Team Fortress","app_id":440,"player_count":0,"max_players":24,"Bots":0,"server_type":"Dedicated","server_os":"Linux","password":true,"vac":true,"version":"7757534","steam_id":85568392924485349,"keywords":["cp","nocrits","nodmgspread","uncletopia"],"game_id":440,"stv_port":27016,"stv_name":"Uncletopia | São Paulo | 2 | All Maps | STV","players":null},{"server_id":7,"name":"Uncletopia | Seattle | 1 | All Maps","name_short":"sea-1","host":"sea-1.us.uncletopia.com","port":27015,"enabled":true,"region":"us-west","cc":"us","latitude":47.608013,"longitude":-122.33517,"reserved":0,"last_update":"0001-01-01T00:00:00Z","name_a2s":"Uncletopia | Seattle | 1 | All Maps","protocol":17,"map":"pl_badwater","folder":"tf","game":"Team Fortress","app_id":440,"player_count":24,"max_players":24,"Bots":0,"server_type":"Dedicated","server_os":"Linux","password":true,"vac":true,"version":"7757534","steam_id":85568392924469997,"keywords":["nocrits","nodmgspread","payload","uncletopia"],"game_id":440,"stv_port":27016,"stv_name":"Uncletopia | Seattle | 1 | All Maps | STV","players":[{"user_id":672,"name":"PopcornBucketGames","steam_id":76561199089562026,"connected_time":3717000000000,"state":"active","ping":54},{"user_id":646,"name":"Flesh Eating Turtle","steam_id":76561198116742139,"connected_time":5891000000000,"state":"active","ping":48},{"user_id":694,"name":"zzrat","steam_id":76561198014925415,"connected_time":31000000000,"state":"active","ping":58},{"user_id":650,"name":"DoctorHa","steam_id":76561198044026008,"connected_time":5258000000000,"state":"active","ping":85},{"user_id":612,"name":"DIGGY","steam_id":76561198991238982,"connected_time":9592000000000,"state":"active","ping":48},{"user_id":666,"name":"Duckyispoggers","steam_id":76561198357205322,"connected_time":4219000000000,"state":"active","ping":50},{"user_id":677,"name":"meowbop","steam_id":76561198130198601,"connected_time":2007000000000,"state":"active","ping":66},{"user_id":683,"name":"Skabbety","steam_id":76561198168044257,"connected_time":1593000000000,"state":"active","ping":41},{"user_id":687,"name":"gorlab","steam_id":76561198025089694,"connected_time":1057000000000,"state":"active","ping":66},{"user_id":674,"name":"ubiquitous man","steam_id":76561198073782350,"connected_time":3553000000000,"state":"active","ping":90},{"user_id":693,"name":"Wafflemuscle","steam_id":76561198868628982,"connected_time":210000000000,"state":"active","ping":49},{"user_id":691,"name":"Google","steam_id":76561198857237473,"connected_time":297000000000,"state":"active","ping":45},{"user_id":678,"name":"mega","steam_id":76561198089520959,"connected_time":1737000000000,"state":"active","ping":101},{"user_id":688,"name":"blinkerton city","steam_id":76561198054270410,"connected_time":1044000000000,"state":"active","ping":57},{"user_id":681,"name":"[Bandit]","steam_id":76561197986919852,"connected_time":1712000000000,"state":"active","ping":45},{"user_id":680,"name":"Ayayayayahuasca","steam_id":76561199002906056,"connected_time":1730000000000,"state":"active","ping":47},{"user_id":670,"name":"Agent86","steam_id":76561198046794593,"connected_time":4027000000000,"state":"active","ping":109},{"user_id":679,"name":"William P. Ennis","steam_id":76561198073464877,"connected_time":1735000000000,"state":"active","ping":58},{"user_id":685,"name":"Nakasmacka","steam_id":76561198049787270,"connected_time":1224000000000,"state":"active","ping":42},{"user_id":692,"name":"грустный","steam_id":76561198274550638,"connected_time":295000000000,"state":"active","ping":118},{"user_id":564,"name":"MCman","steam_id":76561198412110305,"connected_time":14329000000000,"state":"active","ping":75},{"user_id":665,"name":"𝓡𝔂𝓪𝓷","steam_id":76561198067641129,"connected_time":4317000000000,"state":"active","ping":53},{"user_id":615,"name":"Smile","steam_id":76561198110008786,"connected_time":9521000000000,"state":"active","ping":59},{"user_id":682,"name":"Jacob Highrise","steam_id":76561198346327753,"connected_time":1712000000000,"state":"active","ping":61}]},{"server_id":119,"name":"Uncletopia | Seattle | 2 | All Maps","name_short":"sea-2","host":"sea-1.us.uncletopia.com","port":27025,"enabled":true,"region":"us-west","cc":"us","latitude":47.608013,"longitude":-122.33517,"reserved":0,"last_update":"0001-01-01T00:00:00Z","name_a2s":"Uncletopia | Seattle | 2 | All Maps","protocol":17,"map":"pl_swiftwater_final1","folder":"tf","game":"Team Fortress","app_id":440,"player_count":24,"max_players":24,"Bots":0,"server_type":"Dedicated","server_os":"Linux","password":true,"vac":true,"version":"7757534","steam_id":85568392924469998,"keywords":["nocrits","nodmgspread","payload","uncletopia"],"game_id":440,"stv_port":27026,"stv_name":"Uncletopia | Seattle | 2 | All Maps | STV","players":[{"user_id":636,"name":"Keamy","steam_id":76561199471434875,"connected_time":2326000000000,"state":"active","ping":43},{"user_id":674,"name":"Stoney Goblin","steam_id":76561198141215376,"connected_time":1147000000000,"state":"active","ping":118},{"user_id":677,"name":"too funky ᗜˬᗜ","steam_id":76561199120399776,"connected_time":872000000000,"state":"active","ping":72},{"user_id":662,"name":"Acto","steam_id":76561198043025164,"connected_time":1565000000000,"state":"active","ping":55},{"user_id":640,"name":"Baker","steam_id":76561198055196430,"connected_time":2201000000000,"state":"active","ping":133},{"user_id":663,"name":"Master_kotu","steam_id":76561199437959320,"connected_time":1552000000000,"state":"active","ping":77},{"user_id":566,"name":"pandy fackler","steam_id":76561198833099152,"connected_time":6738000000000,"state":"active","ping":58},{"user_id":675,"name":"NumberOneHunter","steam_id":76561198352382852,"connected_time":1137000000000,"state":"active","ping":52},{"user_id":681,"name":"Eek","steam_id":76561199102985277,"connected_time":675000000000,"state":"active","ping":154},{"user_id":683,"name":"Thorngot","steam_id":76561198398094468,"connected_time":209000000000,"state":"active","ping":43},{"user_id":686,"name":"Schaephyr","steam_id":76561199153886364,"connected_time":48000000000,"state":"active","ping":58},{"user_id":635,"name":"Alpdhuez [✚]","steam_id":76561198013808837,"connected_time":2342000000000,"state":"active","ping":65},{"user_id":658,"name":"help me","steam_id":76561198844273999,"connected_time":1715000000000,"state":"active","ping":44},{"user_id":620,"name":"Semeka","steam_id":76561198405404117,"connected_time":3540000000000,"state":"active","ping":42},{"user_id":687,"name":"Jkbh1","steam_id":76561198093449670,"connected_time":15000000000,"state":"spawning","ping":232},{"user_id":645,"name":"El Gato Paranoico","steam_id":76561198116567116,"connected_time":2110000000000,"state":"active","ping":125},{"user_id":646,"name":"Rusty","steam_id":76561198055585129,"connected_time":2105000000000,"state":"active","ping":47},{"user_id":563,"name":"2j psych ward boiwife","steam_id":76561198206752128,"connected_time":6981000000000,"state":"active","ping":151},{"user_id":657,"name":"Uncle Feathers McGraw","steam_id":76561198046442707,"connected_time":1756000000000,"state":"active","ping":49},{"user_id":668,"name":"Bonks","steam_id":76561198972835565,"connected_time":1502000000000,"state":"active","ping":45},{"user_id":669,"name":"Floaty","steam_id":76561198100029503,"connected_time":1478000000000,"state":"active","ping":61},{"user_id":673,"name":"DaBigA","steam_id":76561198326492538,"connected_time":1158000000000,"state":"active","ping":49},{"user_id":608,"name":"Dosario","steam_id":76561198298095535,"connected_time":4259000000000,"state":"active","ping":60},{"user_id":685,"name":"i cant","steam_id":76561199009303697,"connected_time":193000000000,"state":"active","ping":64}]},{"server_id":406,"name":"Uncletopia | Seattle | 3 | Stopwatch Beta","name_short":"sea-3","host":"sea-1.us.uncletopia.com","port":27035,"enabled":true,"region":"us-west","cc":"us","latitude":47.608013,"longitude":-122.33517,"reserved":0,"last_update":"0001-01-01T00:00:00Z","name_a2s":"Uncletopia | Seattle | 3 | Stopwatch Beta","protocol":17,"map":"workshop/koth_clearcut_b15.ugc2107050255","folder":"tf","game":"Team Fortress","app_id":440,"player_count":0,"max_players":24,"Bots":0,"server_type":"Dedicated","server_os":"Linux","password":true,"vac":true,"version":"7757534","steam_id":85568392924515217,"keywords":["cp","nocrits","nodmgspread","uncletopia"],"game_id":440,"stv_port":27036,"stv_name":"Uncletopia | Seattle | 3 | Stopwatch Beta | STV","players":null},{"server_id":17,"name":"Uncletopia | San Francisco | 1 | All Maps","name_short":"sfo-1","host":"sfo-1.us.uncletopia.com","port":27015,"enabled":true,"region":"us-west","cc":"us","latitude":37.77397,"longitude":-122.4313,"reserved":0,"last_update":"0001-01-01T00:00:00Z","name_a2s":"Uncletopia | San Francisco | 1 | All Maps","protocol":17,"map":"pl_upward","folder":"tf","game":"Team Fortress","app_id":440,"player_count":24,"max_players":24,"Bots":0,"server_type":"Dedicated","server_os":"Linux","password":true,"vac":true,"version":"7757534","steam_id":85568392924469999,"keywords":["nocrits","nodmgspread","payload","uncletopia"],"game_id":440,"stv_port":27016,"stv_name":"Uncletopia | San Francisco | 1 | All Maps | STV","players":[{"user_id":385,"name":"GඞMER","steam_id":76561198340389876,"connected_time":3274000000000,"state":"active","ping":72},{"user_id":425,"name":"Sarita's Caramel Sundae Enjoyer","steam_id":76561199309781798,"connected_time":277000000000,"state":"active","ping":129},{"user_id":429,"name":"punished med","steam_id":76561198315674238,"connected_time":5000000000,"state":"spawning","ping":46},{"user_id":426,"name":"I THINK COOLSVILLE SUCKS","steam_id":76561198066855998,"connected_time":262000000000,"state":"active","ping":66},{"user_id":392,"name":"Mike Bean Burritos","steam_id":76561198173430607,"connected_time":2841000000000,"state":"active","ping":63},{"user_id":364,"name":"bballbhuddababyboy","steam_id":76561198079516052,"connected_time":3810000000000,"state":"active","ping":52},{"user_id":414,"name":"JawnyMac","steam_id":76561198179529599,"connected_time":1467000000000,"state":"active","ping":56},{"user_id":419,"name":"Murrdogg","steam_id":76561198210491188,"connected_time":1253000000000,"state":"active","ping":116},{"user_id":428,"name":"demomanfan2008","steam_id":76561198077030486,"connected_time":211000000000,"state":"active","ping":51},{"user_id":405,"name":"Miro","steam_id":76561198936412406,"connected_time":2152000000000,"state":"active","ping":124},{"user_id":411,"name":"Papa Panda","steam_id":76561198159061475,"connected_time":1640000000000,"state":"active","ping":57},{"user_id":329,"name":"ethiDumb","steam_id":76561197993345369,"connected_time":5701000000000,"state":"active","ping":106},{"user_id":383,"name":"Remedy Rex","steam_id":76561198181128247,"connected_time":3356000000000,"state":"active","ping":61},{"user_id":418,"name":"Funkmaster Yee","steam_id":76561198037738918,"connected_time":1279000000000,"state":"active","ping":61},{"user_id":394,"name":"elephant thumb","steam_id":76561198118859752,"connected_time":2743000000000,"state":"active","ping":49},{"user_id":422,"name":"viciousbeatmaker","steam_id":76561198086876652,"connected_time":532000000000,"state":"active","ping":56},{"user_id":406,"name":"Drake from State Farm","steam_id":76561199069029812,"connected_time":2095000000000,"state":"active","ping":51},{"user_id":400,"name":"DuckMan","steam_id":76561198184778438,"connected_time":2389000000000,"state":"active","ping":128},{"user_id":376,"name":"Cozungis","steam_id":76561198104471036,"connected_time":3551000000000,"state":"active","ping":74},{"user_id":382,"name":"gregory house m.d.","steam_id":76561199117672749,"connected_time":3394000000000,"state":"active","ping":75},{"user_id":423,"name":"Aspen-4","steam_id":76561198086828922,"connected_time":515000000000,"state":"active","ping":75},{"user_id":370,"name":"Sir Severus","steam_id":76561198061295188,"connected_time":3708000000000,"state":"active","ping":66},{"user_id":390,"name":"Robespierre Gaming","steam_id":76561198025476774,"connected_time":2898000000000,"state":"active","ping":57},{"user_id":417,"name":"ROBMANFRED09SPIRITBOMBSYNC","steam_id":76561198070136627,"connected_time":1371000000000,"state":"active","ping":60}]},{"server_id":18,"name":"Uncletopia | San Francisco | 2 | All Maps","name_short":"sfo-2","host":"sfo-1.us.uncletopia.com","port":27025,"enabled":true,"region":"us-west","cc":"us","latitude":37.77397,"longitude":-122.4313,"reserved":0,"last_update":"0001-01-01T00:00:00Z","name_a2s":"Uncletopia | San Francisco | 2 | All Maps","protocol":17,"map":"plr_bananabay","folder":"tf","game":"Team Fortress","app_id":440,"player_count":17,"max_players":24,"Bots":0,"server_type":"Dedicated","server_os":"Linux","password":true,"vac":true,"version":"7757534","steam_id":85568392924470000,"keywords":["nocrits","nodmgspread","payload","uncletopia"],"game_id":440,"stv_port":27026,"stv_name":"Uncletopia | San Francisco | 2 | All Maps | STV","players":[{"user_id":297,"name":"Dr DeFriend","steam_id":76561198081356344,"connected_time":261000000000,"state":"active","ping":79},{"user_id":289,"name":"reverie","steam_id":76561198168158637,"connected_time":1030000000000,"state":"active","ping":61},{"user_id":301,"name":"zeel107","steam_id":76561198063892990,"connected_time":225000000000,"state":"active","ping":61},{"user_id":276,"name":"fish (2:3)","steam_id":76561198134331073,"connected_time":3001000000000,"state":"active","ping":74},{"user_id":304,"name":"Mr. Unlucky","steam_id":76561198123471917,"connected_time":90000000000,"state":"active","ping":98},{"user_id":303,"name":"M4_Patriot","steam_id":76561198380134648,"connected_time":112000000000,"state":"active","ping":54},{"user_id":274,"name":"westward","steam_id":76561198805512350,"connected_time":3149000000000,"state":"active","ping":77},{"user_id":298,"name":"Kaos","steam_id":76561198059816476,"connected_time":254000000000,"state":"active","ping":71},{"user_id":219,"name":"Buswolley","steam_id":76561197995205571,"connected_time":6503000000000,"state":"active","ping":47},{"user_id":299,"name":"GeekyFox3","steam_id":76561198267733290,"connected_time":253000000000,"state":"active","ping":80},{"user_id":300,"name":"Zatrahel","steam_id":76561198262628370,"connected_time":247000000000,"state":"active","ping":76},{"user_id":305,"name":"pravus367","steam_id":76561198130024571,"connected_time":84000000000,"state":"active","ping":40},{"user_id":229,"name":"JellyRoll Jerry","steam_id":76561198037149474,"connected_time":6105000000000,"state":"active","ping":73},{"user_id":306,"name":"Ket","steam_id":76561198241951244,"connected_time":60000000000,"state":"active","ping":88},{"user_id":307,"name":"madi's sexy and crunchy pickle\ufffd","steam_id":76561198361917585,"connected_time":17000000000,"state":"spawning","ping":79},{"user_id":308,"name":"phlog reliant uncletopia player","steam_id":76561198046526036,"connected_time":0,"state":"spawning","ping":31},{"user_id":290,"name":"bash","steam_id":76561199161649534,"connected_time":1029000000000,"state":"active","ping":50}]},{"server_id":19,"name":"Uncletopia | San Francisco | 3 | Stopwatch Beta","name_short":"sfo-3","host":"sfo-1.us.uncletopia.com","port":27035,"enabled":true,"region":"us-west","cc":"us","latitude":37.77397,"longitude":-122.4313,"reserved":0,"last_update":"0001-01-01T00:00:00Z","name_a2s":"Uncletopia | San Francisco | 3 | Stopwatch Beta","protocol":17,"map":"koth_highpass","folder":"tf","game":"Team Fortress","app_id":440,"player_count":0,"max_players":24,"Bots":0,"server_type":"Dedicated","server_os":"Linux","password":true,"vac":true,"version":"7757534","steam_id":85568392924742824,"keywords":["cp","nocrits","nodmgspread","uncletopia"],"game_id":440,"stv_port":27036,"stv_name":"Uncletopia | San Francisco | 3 | Stopwatch Beta | STV","players":null},{"server_id":20,"name":"Uncletopia | San Francisco | 4 | Community","name_short":"sfo-4","host":"sfo-1.us.uncletopia.com","port":27045,"enabled":true,"region":"us-west","cc":"us","latitude":37.77397,"longitude":-122.4313,"reserved":0,"last_update":"0001-01-01T00:00:00Z","name_a2s":"Uncletopia | San Francisco | 4 | Community","protocol":17,"map":"workshop/koth_trenchfoot_b1a.ugc731436616","folder":"tf","game":"Team Fortress","app_id":440,"player_count":1,"max_players":24,"Bots":0,"server_type":"Dedicated","server_os":"Linux","password":true,"vac":true,"version":"7757534","steam_id":85568392924742826,"keywords":["cp","nocrits","nodmgspread","uncletopia"],"game_id":440,"stv_port":27046,"stv_name":"Uncletopia | San Francisco | 4 | Community | STV","players":[{"user_id":191,"name":"Thequirka","steam_id":76561198968058652,"connected_time":16000000000,"state":"active","ping":159}]},{"server_id":141,"name":"Uncletopia | Sydney | 1 | All Maps","name_short":"syd-1","host":"syd-1.au.uncletopia.com","port":27015,"enabled":true,"region":"au","cc":"au","latitude":-33.865143,"longitude":151.2099,"reserved":0,"last_update":"0001-01-01T00:00:00Z","name_a2s":"Uncletopia | Sydney | 1 | All Maps","protocol":17,"map":"pl_badwater","folder":"tf","game":"Team Fortress","app_id":440,"player_count":8,"max_players":24,"Bots":0,"server_type":"Dedicated","server_os":"Linux","password":true,"vac":true,"version":"7757534","steam_id":85568392924470001,"keywords":["nocrits","nodmgspread","payload","uncletopia"],"game_id":440,"stv_port":27016,"stv_name":"Uncletopia | Sydney | 1 | All Maps | STV","players":[{"user_id":54,"name":"burfdae boi","steam_id":76561199000827969,"connected_time":491000000000,"state":"active","ping":42},{"user_id":53,"name":"Jellyfish_kurage","steam_id":76561198425670698,"connected_time":1039000000000,"state":"active","ping":48},{"user_id":43,"name":"das conk creet baybee","steam_id":76561198256416570,"connected_time":4355000000000,"state":"active","ping":66},{"user_id":44,"name":"brock","steam_id":76561199015537819,"connected_time":4304000000000,"state":"active","ping":323},{"user_id":55,"name":"Sparky","steam_id":76561198117687688,"connected_time":298000000000,"state":"active","ping":60},{"user_id":64,"name":"mental institute gaming","steam_id":76561198815730749,"connected_time":193000000000,"state":"active","ping":55},{"user_id":65,"name":"SUSHIMAN","steam_id":76561199089989428,"connected_time":118000000000,"state":"active","ping":92},{"user_id":66,"name":"bigcartop","steam_id":76561198173782471,"connected_time":89000000000,"state":"active","ping":45}]},{"server_id":123,"name":"Uncletopia | Sydney | 2 | All Maps","name_short":"syd-2","host":"syd-1.au.uncletopia.com","port":27025,"enabled":true,"region":"au","cc":"au","latitude":-33.865143,"longitude":151.2099,"reserved":0,"last_update":"0001-01-01T00:00:00Z","name_a2s":"Uncletopia | Sydney | 2 | All Maps","protocol":17,"map":"cp_freight_final1","folder":"tf","game":"Team Fortress","app_id":440,"player_count":23,"max_players":24,"Bots":0,"server_type":"Dedicated","server_os":"Linux","password":true,"vac":true,"version":"7757534","steam_id":85568392924470002,"keywords":["cp","nocrits","nodmgspread","uncletopia"],"game_id":440,"stv_port":27026,"stv_name":"Uncletopia | Sydney | 2 | All Maps | STV","players":[{"user_id":261,"name":"soupy","steam_id":76561198073734936,"connected_time":3750000000000,"state":"active","ping":89},{"user_id":290,"name":"Banana Man","steam_id":76561198024023075,"connected_time":2106000000000,"state":"active","ping":45},{"user_id":318,"name":"helryeginn","steam_id":76561198202750573,"connected_time":326000000000,"state":"active","ping":48},{"user_id":315,"name":"JayCatnip","steam_id":76561198125106357,"connected_time":665000000000,"state":"active","ping":69},{"user_id":299,"name":"kisses you","steam_id":76561198288970258,"connected_time":1624000000000,"state":"active","ping":51},{"user_id":216,"name":"Shadow Puppeteer","steam_id":76561198151121997,"connected_time":5240000000000,"state":"active","ping":75},{"user_id":274,"name":"Fledges","steam_id":76561198017381539,"connected_time":2819000000000,"state":"active","ping":59},{"user_id":264,"name":"RustyMeat","steam_id":76561198119162442,"connected_time":3510000000000,"state":"active","ping":60},{"user_id":303,"name":"BackyardBonanza19943214","steam_id":76561198383642609,"connected_time":1445000000000,"state":"active","ping":61},{"user_id":309,"name":"jone","steam_id":76561198285234796,"connected_time":1109000000000,"state":"active","ping":121},{"user_id":272,"name":"Bill Nye","steam_id":76561198312898168,"connected_time":2957000000000,"state":"active","ping":61},{"user_id":281,"name":"wazza","steam_id":76561198081910343,"connected_time":2358000000000,"state":"active","ping":47},{"user_id":295,"name":"dumbvent","steam_id":76561198190062810,"connected_time":1987000000000,"state":"active","ping":60},{"user_id":317,"name":"yarbinator","steam_id":76561198204678828,"connected_time":507000000000,"state":"active","ping":50},{"user_id":319,"name":"Lancer","steam_id":76561198122813810,"connected_time":80000000000,"state":"active","ping":86},{"user_id":304,"name":"Owlenstein™","steam_id":76561198093983826,"connected_time":1432000000000,"state":"active","ping":126},{"user_id":306,"name":"Sexy Turtle","steam_id":76561198256865969,"connected_time":1336000000000,"state":"active","ping":41},{"user_id":312,"name":"hazz_mcpie -BvM-","steam_id":76561198092450084,"connected_time":917000000000,"state":"active","ping":86},{"user_id":307,"name":"Baldanders","steam_id":76561198049516900,"connected_time":1257000000000,"state":"active","ping":47},{"user_id":314,"name":"Bin","steam_id":76561199117653318,"connected_time":741000000000,"state":"active","ping":68},{"user_id":293,"name":"Noble Chernobyl","steam_id":76561198011803825,"connected_time":2069000000000,"state":"active","ping":51},{"user_id":296,"name":"Jodelkönig Franzl Lang","steam_id":76561198007667830,"connected_time":1945000000000,"state":"active","ping":53},{"user_id":320,"name":"cimpact","steam_id":76561198452258917,"connected_time":80000000000,"state":"active","ping":227}]},{"server_id":395,"name":"Uncletopia | Sydney | 3 | All Maps","name_short":"syd-3","host":"syd-1.au.uncletopia.com","port":27035,"enabled":true,"region":"au","cc":"au","latitude":-33.865143,"longitude":151.2099,"reserved":0,"last_update":"0001-01-01T00:00:00Z","name_a2s":"Uncletopia | Sydney | 3 | All Maps","protocol":17,"map":"pl_barnblitz","folder":"tf","game":"Team Fortress","app_id":440,"player_count":0,"max_players":24,"Bots":0,"server_type":"Dedicated","server_os":"Linux","password":true,"vac":true,"version":"7757534","steam_id":85568392925194467,"keywords":["nocrits","nodmgspread","payload","uncletopia"],"game_id":440,"stv_port":27036,"stv_name":"Uncletopia | Sydney | 3 | All Maps | STV","players":null},{"server_id":396,"name":"Uncletopia | Sydney | 4 | All Maps","name_short":"syd-4","host":"syd-1.au.uncletopia.com","port":27045,"enabled":true,"region":"au","cc":"au","latitude":-33.865143,"longitude":151.2099,"reserved":0,"last_update":"0001-01-01T00:00:00Z","name_a2s":"Uncletopia | Sydney | 4 | All Maps","protocol":17,"map":"koth_highpass","folder":"tf","game":"Team Fortress","app_id":440,"player_count":0,"max_players":24,"Bots":0,"server_type":"Dedicated","server_os":"Linux","password":true,"vac":true,"version":"7757534","steam_id":85568392925397958,"keywords":["cp","nocrits","nodmgspread","uncletopia"],"game_id":440,"stv_port":27046,"stv_name":"Uncletopia | Sydney | 4 | All Maps | STV","players":null},{"server_id":58,"name":"Uncletopia | Sydney | 5 | Stopwatch Beta","name_short":"syd-5","host":"syd-1.au.uncletopia.com","port":27055,"enabled":true,"region":"au","cc":"au","latitude":-33.865143,"longitude":151.2099,"reserved":0,"last_update":"0001-01-01T00:00:00Z","name_a2s":"Uncletopia | Sydney | 5 | Stopwatch Beta","protocol":17,"map":"workshop/pl_summercoast_rc8e.ugc1761528829","folder":"tf","game":"Team Fortress","app_id":440,"player_count":0,"max_players":24,"Bots":0,"server_type":"Dedicated","server_os":"Linux","password":true,"vac":true,"version":"7757534","steam_id":85568392925397959,"keywords":["nocrits","nodmgspread","payload","uncletopia"],"game_id":440,"stv_port":27056,"stv_name":"Uncletopia | Sydney | 5 | Stopwatch Beta | STV","players":null},{"server_id":59,"name":"Uncletopia | Sydney | 6 | Community","name_short":"syd-6","host":"syd-1.au.uncletopia.com","port":27065,"enabled":true,"region":"au","cc":"au","latitude":-33.865143,"longitude":151.2099,"reserved":0,"last_update":"0001-01-01T00:00:00Z","name_a2s":"Uncletopia | Sydney | 6 | Community","protocol":17,"map":"workshop/pl_corrode_rc2.ugc546577989","folder":"tf","game":"Team Fortress","app_id":440,"player_count":0,"max_players":24,"Bots":0,"server_type":"Dedicated","server_os":"Linux","password":true,"vac":true,"version":"7757534","steam_id":85568392925397960,"keywords":["nocrits","nodmgspread","payload","uncletopia"],"game_id":440,"stv_port":27066,"stv_name":"Uncletopia | Sydney | 6 | Community | STV","players":null},{"server_id":49,"name":"Uncletopia | Warsaw | 1 | All Maps","name_short":"waw-1","host":"waw-1.pl.uncletopia.com","port":27015,"enabled":true,"region":"eu","cc":"pl","latitude":52.2297,"longitude":21.017532,"reserved":0,"last_update":"0001-01-01T00:00:00Z","name_a2s":"","protocol":0,"map":"","folder":"","game":"","app_id":0,"player_count":0,"max_players":0,"Bots":0,"server_type":"","server_os":"","password":false,"vac":false,"version":"","steam_id":0,"keywords":null,"game_id":0,"stv_port":0,"stv_name":"","players":null},{"server_id":50,"name":"Uncletopia | Warsaw | 2 | All Maps","name_short":"waw-2","host":"waw-1.pl.uncletopia.com","port":27025,"enabled":true,"region":"eu","cc":"pl","latitude":52.2297,"longitude":21.017532,"reserved":0,"last_update":"0001-01-01T00:00:00Z","name_a2s":"Uncletopia | Warsaw | 2 | All Maps","protocol":17,"map":"koth_viaduct","folder":"tf","game":"Team Fortress","app_id":440,"player_count":0,"max_players":24,"Bots":0,"server_type":"Dedicated","server_os":"Linux","password":true,"vac":true,"version":"7757534","steam_id":85568392925397851,"keywords":["cp","nocrits","nodmgspread","uncletopia"],"game_id":440,"stv_port":27026,"stv_name":"Uncletopia | Warsaw | 2 | All Maps | STV","players":null},{"server_id":51,"name":"Uncletopia | Warsaw | 3 | All Maps","name_short":"waw-3","host":"waw-1.pl.uncletopia.com","port":27035,"enabled":true,"region":"eu","cc":"pl","latitude":52.2297,"longitude":21.017532,"reserved":0,"last_update":"0001-01-01T00:00:00Z","name_a2s":"Uncletopia | Warsaw | 3 | All Maps","protocol":17,"map":"pl_badwater","folder":"tf","game":"Team Fortress","app_id":440,"player_count":0,"max_players":24,"Bots":0,"server_type":"Dedicated","server_os":"Linux","password":true,"vac":true,"version":"7757534","steam_id":85568392925397852,"keywords":["nocrits","nodmgspread","payload","uncletopia"],"game_id":440,"stv_port":27036,"stv_name":"Uncletopia | Warsaw | 3 | All Maps | STV","players":null},{"server_id":52,"name":"Uncletopia | Warsaw | 4 | All Maps","name_short":"waw-4","host":"waw-1.pl.uncletopia.com","port":27045,"enabled":true,"region":"eu","cc":"pl","latitude":52.2297,"longitude":21.017532,"reserved":0,"last_update":"0001-01-01T00:00:00Z","name_a2s":"Uncletopia | Warsaw | 4 | All Maps","protocol":17,"map":"koth_lakeside_final","folder":"tf","game":"Team Fortress","app_id":440,"player_count":0,"max_players":24,"Bots":0,"server_type":"Dedicated","server_os":"Linux","password":true,"vac":true,"version":"7757534","steam_id":85568392925397853,"keywords":["cp","nocrits","nodmgspread","uncletopia"],"game_id":440,"stv_port":27046,"stv_name":"Uncletopia | Warsaw | 4 | All Maps | STV","players":null},{"server_id":53,"name":"Uncletopia | Warsaw | 5 | Stopwatch Beta","name_short":"waw-5","host":"waw-1.pl.uncletopia.com","port":27055,"enabled":true,"region":"eu","cc":"pl","latitude":52.2297,"longitude":21.017532,"reserved":0,"last_update":"0001-01-01T00:00:00Z","name_a2s":"Uncletopia | Warsaw | 5 | Stopwatch Beta","protocol":17,"map":"pl_borneo","folder":"tf","game":"Team Fortress","app_id":440,"player_count":0,"max_players":24,"Bots":0,"server_type":"Dedicated","server_os":"Linux","password":true,"vac":true,"version":"7757534","steam_id":85568392925397854,"keywords":["nocrits","nodmgspread","payload","uncletopia"],"game_id":440,"stv_port":27056,"stv_name":"Uncletopia | Warsaw | 5 | Stopwatch Beta | STV","players":null},{"server_id":54,"name":"Uncletopia | Warsaw | 6 | Community","name_short":"waw-6","host":"waw-1.pl.uncletopia.com","port":27065,"enabled":true,"region":"eu","cc":"pl","latitude":52.2297,"longitude":21.017532,"reserved":0,"last_update":"0001-01-01T00:00:00Z","name_a2s":"Uncletopia | Warsaw | 6 | Community","protocol":17,"map":"koth_lakeside_final","folder":"tf","game":"Team Fortress","app_id":440,"player_count":0,"max_players":24,"Bots":0,"server_type":"Dedicated","server_os":"Linux","password":true,"vac":true,"version":"7757534","steam_id":85568392925397856,"keywords":["cp","nocrits","nodmgspread","uncletopia"],"game_id":440,"stv_port":27066,"stv_name":"Uncletopia | Warsaw | 6 | Community | STV","players":null}]}