{"status":true,"message":"","result":[{"server_id":9,"name":"Uncletopia | Atlanta | 1 | All Maps","name_short":"atl-1","host":"atl-1.us.uncletopia.com","port":27015,"enabled":true,"region":"us-east","cc":"us","latitude":33.753746,"longitude":-84.38633,"reserved":0,"last_update":"0001-01-01T00:00:00Z","name_a2s":"Uncletopia | Atlanta | 1 | All Maps","protocol":17,"map":"koth_harvest_final","folder":"tf","game":"Team Fortress","app_id":440,"player_count":24,"max_players":24,"Bots":0,"server_type":"Dedicated","server_os":"Linux","password":true,"vac":true,"version":"7961495","steam_id":85568392924469982,"keywords":["cp","nocrits","nodmgspread","uncletopia"],"game_id":440,"stv_port":27016,"stv_name":"Uncletopia | Atlanta | 1 | All Maps | STV","players":[{"user_id":1083,"name":"Okpar","steam_id":76561199221067945,"connected_time":11147000000000,"state":"active","ping":68},{"user_id":1131,"name":"Femboy Menace","steam_id":76561199207174631,"connected_time":6916000000000,"state":"active","ping":109},{"user_id":1155,"name":"i play random (no audio)","steam_id":76561199468748840,"connected_time":4927000000000,"state":"active","ping":71},{"user_id":1079,"name":"Mer","steam_id":76561198192171041,"connected_time":11805000000000,"state":"active","ping":131},{"user_id":1108,"name":"Kerrplunk","steam_id":76561198058211496,"connected_time":9397000000000,"state":"active","ping":132},{"user_id":1151,"name":"lynt","steam_id":76561198988333976,"connected_time":5375000000000,"state":"active","ping":43},{"user_id":1207,"name":"irritable vowel syndrome","steam_id":76561198117033273,"connected_time":86000000000,"state":"active","ping":137},{"user_id":1195,"name":"kite","steam_id":76561198346516392,"connected_time":773000000000,"state":"active","ping":85},{"user_id":1175,"name":"marguerite","steam_id":76561198170873495,"connected_time":2569000000000,"state":"active","ping":51},{"user_id":1204,"name":"Nyle","steam_id":76561198045652639,"connected_time":227000000000,"state":"active","ping":117},{"user_id":1165,"name":"HarryjusttHarry","steam_id":76561198982810452,"connected_time":3459000000000,"state":"active","ping":83},{"user_id":1188,"name":"HARRY B HOLE","steam_id":76561198842067238,"connected_time":1282000000000,"state":"active","ping":67},{"user_id":1126,"name":"Ashes!","steam_id":76561197998475441,"connected_time":7778000000000,"state":"active","ping":77},{"user_id":1178,"name":"PewPew","steam_id":76561198011299099,"connected_time":2368000000000,"state":"active","ping":60},{"user_id":1201,"name":"Dr.Inkmix(femboy medic!)","steam_id":76561198854070384,"connected_time":468000000000,"state":"active","ping":119},{"user_id":1180,"name":"lu","steam_id":76561198080731872,"connected_time":2155000000000,"state":"active","ping":75},{"user_id":1167,"name":"Castrophy","steam_id":76561198014745908,"connected_time":3269000000000,"state":"active","ping":76},{"user_id":1206,"name":"Krissy","steam_id":76561197960848174,"connected_time":106000000000,"state":"active","ping":67},{"user_id":1208,"name":"bendera","steam_id":76561197965486503,"connected_time":67000000000,"state":"active","ping":85},{"user_id":1166,"name":"Underscorn","steam_id":76561198374209415,"connected_time":3300000000000,"state":"active","ping":74},{"user_id":1187,"name":"Skeeter","steam_id":76561199496028644,"connected_time":1449000000000,"state":"active","ping":82},{"user_id":1189,"name":"com lag","steam_id":76561198019019392,"connected_time":1281000000000,"state":"active","ping":74},{"user_id":1202,"name":"bill","steam_id":76561199142779872,"connected_time":437000000000,"state":"active","ping":89},{"user_id":1186,"name":"chexo4","steam_id":76561198150532531,"connected_time":1467000000000,"state":"active","ping":52}]},{"server_id":104,"name":"Uncletopia | Atlanta | 2 | All Maps","name_short":"atl-2","host":"atl-1.us.uncletopia.com","port":27025,"enabled":true,"region":"us-east","cc":"us","latitude":33.753746,"longitude":-84.38633,"reserved":0,"last_update":"0001-01-01T00:00:00Z","name_a2s":"Uncletopia | Atlanta | 2 | All Maps","protocol":17,"map":"koth_lakeside_final","folder":"tf","game":"Team Fortress","app_id":440,"player_count":0,"max_players":24,"Bots":0,"server_type":"Dedicated","server_os":"Linux","password":true,"vac":true,"version":"7961495","steam_id":85568392924469983,"keywords":["cp","nocrits","nodmgspread","uncletopia"],"game_id":440,"stv_port":27026,"stv_name":"Uncletopia | Atlanta | 2 | All Maps | STV","players":null},{"server_id":400,"name":"Uncletopia | Atlanta | 3 | Stopwatch","name_short":"atl-3","host":"atl-1.us.uncletopia.com","port":27035,"enabled":true,"region":"us-east","cc":"us","latitude":33.753746,"longitude":-84.38633,"reserved":0,"last_update":"0001-01-01T00:00:00Z","name_a2s":"Uncletopia | Atlanta | 3 | Stopwatch","protocol":17,"map":"koth_highpass","folder":"tf","game":"Team Fortress","app_id":440,"player_count":23,"max_players":24,"Bots":0,"server_type":"Dedicated","server_os":"Linux","password":true,"vac":true,"version":"7961495","steam_id":85568392924515187,"keywords":["cp","nocrits","nodmgspread","uncletopia"],"game_id":440,"stv_port":27036,"stv_name":"Uncletopia | Atlanta | 3 | Stopwatch | STV","players":[{"user_id":221,"name":"Rang Reveiws","steam_id":76561198968587541,"connected_time":1404000000000,"state":"active","ping":78},{"user_id":234,"name":"Master Lemons","steam_id":76561198272406084,"connected_time":581000000000,"state":"active","ping":64},{"user_id":222,"name":"Nickanader","steam_id":76561199122027856,"connected_time":1402000000000,"state":"active","ping":85},{"user_id":113,"name":"No_Dictators","steam_id":76561199065777321,"connected_time":9151000000000,"state":"active","ping":73},{"user_id":232,"name":"KUNG FU KOTAS","steam_id":76561198264385097,"connected_time":728000000000,"state":"active","ping":97},{"user_id":192,"name":"neet","steam_id":76561197968115168,"connected_time":3606000000000,"state":"active","ping":54},{"user_id":213,"name":"| L O S T |","steam_id":76561198062620333,"connected_time":1912000000000,"state":"active","ping":91},{"user_id":224,"name":"Gebbo","steam_id":76561198880773643,"connected_time":1291000000000,"state":"active","ping":165},{"user_id":233,"name":"ComedicRelief","steam_id":76561199078899720,"connected_time":703000000000,"state":"active","ping":45},{"user_id":215,"name":"snubcube","steam_id":76561198135880806,"connected_time":1767000000000,"state":"active","ping":61},{"user_id":242,"name":"Dendromancy","steam_id":76561198194850754,"connected_time":163000000000,"state":"active","ping":151},{"user_id":225,"name":"Kduck","steam_id":76561198092171095,"connected_time":1287000000000,"state":"active","ping":66},{"user_id":226,"name":"Rise","steam_id":76561198854203927,"connected_time":1204000000000,"state":"active","ping":83},{"user_id":235,"name":"Joe the Hooligan","steam_id":76561198814429079,"connected_time":560000000000,"state":"active","ping":59},{"user_id":198,"name":"The Chosen One","steam_id":76561199046984627,"connected_time":3172000000000,"state":"active","ping":70},{"user_id":228,"name":"malarkeyman","steam_id":76561198844473584,"connected_time":1013000000000,"state":"active","ping":45},{"user_id":231,"name":"Rock Kickass","steam_id":76561198450510841,"connected_time":824000000000,"state":"active","ping":114},{"user_id":243,"name":"slightly drunk","steam_id":76561198341574668,"connected_time":136000000000,"state":"active","ping":149},{"user_id":236,"name":"SlurpyTheDog","steam_id":76561198799733154,"connected_time":560000000000,"state":"active","ping":57},{"user_id":237,"name":"Toxic Ron","steam_id":76561198089302972,"connected_time":489000000000,"state":"active","ping":79},{"user_id":230,"name":"Butters495","steam_id":76561197998689042,"connected_time":949000000000,"state":"active","ping":86},{"user_id":208,"name":"¡No te entiendo inglés!","steam_id":76561198298364415,"connected_time":2693000000000,"state":"active","ping":101},{"user_id":245,"name":"JadeBun","steam_id":76561198118242806,"connected_time":112000000000,"state":"active","ping":72}]},{"server_id":401,"name":"Uncletopia | Atlanta | 4 | Community","name_short":"atl-4","host":"atl-1.us.uncletopia.com","port":27045,"enabled":true,"region":"us-east","cc":"us","latitude":33.753746,"longitude":-84.38633,"reserved":0,"last_update":"0001-01-01T00:00:00Z","name_a2s":"Uncletopia | Atlanta | 4 | Community","protocol":17,"map":"workshop/pl_cashworks_final1.ugc2904065412","folder":"tf","game":"Team Fortress","app_id":440,"player_count":15,"max_players":24,"Bots":0,"server_type":"Dedicated","server_os":"Linux","password":true,"vac":true,"version":"7961495","steam_id":85568392924515188,"keywords":["nocrits","nodmgspread","payload","uncletopia"],"game_id":440,"stv_port":27046,"stv_name":"Uncletopia | Atlanta | 4 | Community | STV","players":[{"user_id":238,"name":"The Feddie","steam_id":76561198024482079,"connected_time":1856000000000,"state":"active","ping":82},{"user_id":268,"name":"bumrusherz","steam_id":76561198440658195,"connected_time":137000000000,"state":"active","ping":86},{"user_id":263,"name":"The_Total_Train_Wreck","steam_id":76561199453505591,"connected_time":597000000000,"state":"active","ping":86},{"user_id":259,"name":"Travorski","steam_id":76561198072493142,"connected_time":902000000000,"state":"active","ping":99},{"user_id":209,"name":"torres","steam_id":76561198965797029,"connected_time":3433000000000,"state":"active","ping":98},{"user_id":241,"name":"replaycoding","steam_id":76561198289737954,"connected_time":1790000000000,"state":"active","ping":130},{"user_id":170,"name":"Kumatora","steam_id":76561198137748378,"connected_time":5308000000000,"state":"active","ping":88},{"user_id":242,"name":"illious","steam_id":76561198169925494,"connected_time":1747000000000,"state":"active","ping":56},{"user_id":267,"name":"peter kagamine","steam_id":76561199183372575,"connected_time":201000000000,"state":"active","ping":108},{"user_id":260,"name":"mel","steam_id":76561198097124190,"connected_time":774000000000,"state":"active","ping":86},{"user_id":250,"name":"Almonicus","steam_id":76561198044401351,"connected_time":1320000000000,"state":"active","ping":78},{"user_id":257,"name":"freddy fazbear","steam_id":76561198258062078,"connected_time":958000000000,"state":"active","ping":58},{"user_id":251,"name":"Trey The Awesome","steam_id":76561198370718264,"connected_time":1285000000000,"state":"active","ping":56},{"user_id":225,"name":"trianamarco780","steam_id":76561199084319677,"connected_time":2809000000000,"state":"active","ping":106},{"user_id":173,"name":"DrCoeloCephalo","steam_id":76561198102666293,"connected_time":5268000000000,"state":"active","ping":73}]},{"server_id":2,"name":"Uncletopia | Chicago | 1 | All Maps","name_short":"chi-1","host":"chi-1.us.uncletopia.com","port":27015,"enabled":true,"region":"us-central","cc":"us","latitude":41.881832,"longitude":-87.62318,"reserved":0,"last_update":"0001-01-01T00:00:00Z","name_a2s":"Uncletopia | Chicago | 1 | All Maps","protocol":17,"map":"pl_frontier_final","folder":"tf","game":"Team Fortress","app_id":440,"player_count":23,"max_players":24,"Bots":0,"server_type":"Dedicated","server_os":"Linux","password":true,"vac":true,"version":"7961495","steam_id":85568392924469984,"keywords":["nocrits","nodmgspread","payload","uncletopia"],"game_id":440,"stv_port":27016,"stv_name":"Uncletopia | Chicago | 1 | All Maps | STV","players":[{"user_id":521,"name":"cosmic ambiance","steam_id":76561198042788986,"connected_time":353000000000,"state":"active","ping":85},{"user_id":516,"name":"Headshots Se7en","steam_id":76561198020464802,"connected_time":971000000000,"state":"active","ping":64},{"user_id":486,"name":"Young-OG","steam_id":76561198058800479,"connected_time":2545000000000,"state":"active","ping":71},{"user_id":469,"name":"oppenheimer style","steam_id":76561198026664629,"connected_time":2795000000000,"state":"active","ping":60},{"user_id":508,"name":"Stew Eater","steam_id":76561198978307159,"connected_time":1246000000000,"state":"active","ping":67},{"user_id":509,"name":"HOMIE","steam_id":76561198057325155,"connected_time":1207000000000,"state":"active","ping":62},{"user_id":523,"name":"Legit_Jaxer","steam_id":76561198172234053,"connected_time":342000000000,"state":"active","ping":127},{"user_id":524,"name":"Sturmwolken [1312]","steam_id":76561198260905784,"connected_time":314000000000,"state":"active","ping":65},{"user_id":490,"name":"Milkmur","steam_id":76561198210043821,"connected_time":2291000000000,"state":"active","ping":69},{"user_id":527,"name":"Riff III","steam_id":76561198066921423,"connected_time":83000000000,"state":"active","ping":71},{"user_id":494,"name":"Mr Struggle","steam_id":76561198320434551,"connected_time":2081000000000,"state":"active","ping":91},{"user_id":499,"name":"A Very Confused Gentleman","steam_id":76561198051686391,"connected_time":1655000000000,"state":"active","ping":56},{"user_id":487,"name":"hyaz, +rep.","steam_id":76561199100342013,"connected_time":2458000000000,"state":"active","ping":92},{"user_id":503,"name":"Jo","steam_id":76561198060447015,"connected_time":1586000000000,"state":"active","ping":80},{"user_id":526,"name":"QuarticalPhysics","steam_id":76561198061386266,"connected_time":208000000000,"state":"active","ping":73},{"user_id":525,"name":"Fart Smella","steam_id":76561198377835843,"connected_time":294000000000,"state":"active","ping":44},{"user_id":518,"name":"ther","steam_id":76561199191376935,"connected_time":866000000000,"state":"active","ping":117},{"user_id":485,"name":"on that zaza?","steam_id":76561198038713198,"connected_time":2585000000000,"state":"active","ping":65},{"user_id":493,"name":"DinkleBerg","steam_id":76561198891626233,"connected_time":2134000000000,"state":"active","ping":63},{"user_id":495,"name":"Woody","steam_id":76561198020308956,"connected_time":1896000000000,"state":"active","ping":60},{"user_id":461,"name":"Lyathan","steam_id":76561198062773218,"connected_time":3207000000000,"state":"active","ping":69},{"user_id":515,"name":"Some_Arse","steam_id":76561198039095394,"connected_time":1036000000000,"state":"active","ping":66},{"user_id":466,"name":"♥Bunny♥Slut♥","steam_id":76561198206376851,"connected_time":3144000000000,"state":"active","ping":91}]},{"server_id":106,"name":"Uncletopia | Chicago | 2 | All Maps","name_short":"chi-2","host":"chi-1.us.uncletopia.com","port":27025,"enabled":true,"region":"us-central","cc":"us","latitude":41.881832,"longitude":-87.62318,"reserved":0,"last_update":"0001-01-01T00:00:00Z","name_a2s":"Uncletopia | Chicago | 2 | All Maps","protocol":17,"map":"pl_badwater","folder":"tf","game":"Team Fortress","app_id":440,"player_count":24,"max_players":24,"Bots":0,"server_type":"Dedicated","server_os":"Linux","password":true,"vac":true,"version":"7961495","steam_id":85568392924469985,"keywords":["nocrits","nodmgspread","payload","uncletopia"],"game_id":440,"stv_port":27026,"stv_name":"Uncletopia | Chicago | 2 | All Maps | STV","players":[{"user_id":426,"name":"Gotta Move That Gear Up","steam_id":76561197993467034,"connected_time":1393000000000,"state":"active","ping":45},{"user_id":423,"name":"Vin","steam_id":76561198043601929,"connected_time":1850000000000,"state":"active","ping":119},{"user_id":427,"name":"MedRed™ #IATAH","steam_id":76561198002962970,"connected_time":1384000000000,"state":"active","ping":96},{"user_id":399,"name":"Stanv","steam_id":76561198259530604,"connected_time":3501000000000,"state":"active","ping":49},{"user_id":401,"name":"vv","steam_id":76561198134813102,"connected_time":3234000000000,"state":"active","ping":65},{"user_id":446,"name":"jolo","steam_id":76561198042831480,"connected_time":184000000000,"state":"active","ping":70},{"user_id":447,"name":"child neglect","steam_id":76561198309823950,"connected_time":117000000000,"state":"active","ping":89},{"user_id":440,"name":"Toaster","steam_id":76561199275830628,"connected_time":793000000000,"state":"active","ping":100},{"user_id":384,"name":"Miner2495","steam_id":76561198445904523,"connected_time":5144000000000,"state":"active","ping":70},{"user_id":435,"name":"[12V] Marv","steam_id":76561198158638384,"connected_time":1116000000000,"state":"active","ping":73},{"user_id":437,"name":"Sensei Wu From Ninjago","steam_id":76561198424670596,"connected_time":954000000000,"state":"active","ping":118},{"user_id":443,"name":"c64guy","steam_id":76561198023022744,"connected_time":576000000000,"state":"active","ping":63},{"user_id":419,"name":"stupid name","steam_id":76561198012410589,"connected_time":2096000000000,"state":"active","ping":150},{"user_id":444,"name":"dipp","steam_id":76561198395577807,"connected_time":260000000000,"state":"active","ping":78},{"user_id":420,"name":"I have no idea what I am doing?","steam_id":76561198093152207,"connected_time":2083000000000,"state":"active","ping":75},{"user_id":407,"name":"caca sniffer","steam_id":76561199099914725,"connected_time":3170000000000,"state":"active","ping":103},{"user_id":398,"name":"Oli B\u003eQS/BP/Bulk w/ 1.5k+ keys","steam_id":76561198140316312,"connected_time":3707000000000,"state":"active","ping":54},{"user_id":430,"name":"Soy King","steam_id":76561198263025614,"connected_time":1359000000000,"state":"active","ping":107},{"user_id":424,"name":"NovaSc6ut","steam_id":76561198277163301,"connected_time":1677000000000,"state":"active","ping":66},{"user_id":425,"name":"Selment","steam_id":76561198026489601,"connected_time":1415000000000,"state":"active","ping":53},{"user_id":408,"name":"Ok 727","steam_id":76561198045891560,"connected_time":3154000000000,"state":"active","ping":59},{"user_id":436,"name":"shalankawanak","steam_id":76561198987719376,"connected_time":975000000000,"state":"active","ping":60},{"user_id":445,"name":"Raccoon Wizard","steam_id":76561198072562591,"connected_time":257000000000,"state":"active","ping":102},{"user_id":413,"name":"hej","steam_id":76561197996366940,"connected_time":2862000000000,"state":"active","ping":60}]},{"server_id":402,"name":"Uncletopia | Chicago | 3 | All Maps","name_short":"chi-3","host":"chi-1.us.uncletopia.com","port":27035,"enabled":true,"region":"us-central","cc":"us","latitude":41.881832,"longitude":-87.62318,"reserved":0,"last_update":"0001-01-01T00:00:00Z","name_a2s":"Uncletopia | Chicago | 3 | All Maps","protocol":17,"map":"pl_upward","folder":"tf","game":"Team Fortress","app_id":440,"player_count":24,"max_players":24,"Bots":0,"server_type":"Dedicated","server_os":"Linux","password":true,"vac":true,"version":"7961495","steam_id":85568392924515191,"keywords":["nocrits","nodmgspread","payload","uncletopia"],"game_id":440,"stv_port":27036,"stv_name":"Uncletopia | Chicago | 3 | All Maps | STV","players":[{"user_id":341,"name":"✨✨ BOILING PIZZA ✨✨","steam_id":76561198354108114,"connected_time":3292000000000,"state":"active","ping":79},{"user_id":365,"name":"disengage","steam_id":76561197992499738,"connected_time":902000000000,"state":"active","ping":62},{"user_id":354,"name":"jimmyfnaf172198yay","steam_id":76561198311446636,"connected_time":1279000000000,"state":"active","ping":58},{"user_id":357,"name":"kaoscontroller","steam_id":76561198353221791,"connected_time":1153000000000,"state":"active","ping":60},{"user_id":372,"name":"avantime","steam_id":76561199203175541,"connected_time":296000000000,"state":"active","ping":85},{"user_id":355,"name":"techchase rorschach test","steam_id":76561198408159536,"connected_time":1277000000000,"state":"active","ping":48},{"user_id":343,"name":"really hot pocket","steam_id":76561198239297686,"connected_time":3003000000000,"state":"active","ping":66},{"user_id":366,"name":"Jack Horner in a F-16","steam_id":76561198062438923,"connected_time":779000000000,"state":"active","ping":82},{"user_id":358,"name":"[NAME-REDACTED]","steam_id":76561198035682975,"connected_time":1114000000000,"state":"active","ping":61},{"user_id":344,"name":"Handsome Pancake","steam_id":76561198140850628,"connected_time":2944000000000,"state":"active","ping":84},{"user_id":350,"name":"Dokkibai","steam_id":76561198355935693,"connected_time":2211000000000,"state":"active","ping":45},{"user_id":359,"name":"The Grim Heaper","steam_id":76561197987759101,"connected_time":1098000000000,"state":"active","ping":104},{"user_id":353,"name":"Billy Mays","steam_id":76561197998876324,"connected_time":2056000000000,"state":"active","ping":115},{"user_id":325,"name":"Shaby_Frost","steam_id":76561198401334563,"connected_time":5028000000000,"state":"active","ping":45},{"user_id":360,"name":"twinblock","steam_id":76561198157414556,"connected_time":1092000000000,"state":"active","ping":85},{"user_id":374,"name":"Bladestorm, Hydro enthusiast","steam_id":76561198094852944,"connected_time":54000000000,"state":"active","ping":81},{"user_id":375,"name":"MaxTgaX","steam_id":76561198046287539,"connected_time":38000000000,"state":"active","ping":52},{"user_id":373,"name":"Howard Hamlin","steam_id":76561198881039861,"connected_time":257000000000,"state":"active","ping":48},{"user_id":376,"name":"daniely43","steam_id":76561199051703038,"connected_time":24000000000,"state":"active","ping":83},{"user_id":326,"name":"diarrhea","steam_id":76561199389283507,"connected_time":4943000000000,"state":"active","ping":68},{"user_id":364,"name":"Xsaber","steam_id":76561198285273249,"connected_time":1059000000000,"state":"active","ping":58},{"user_id":340,"name":"Diamond Stuff","steam_id":76561198064359644,"connected_time":3319000000000,"state":"active","ping":73},{"user_id":282,"name":"Ms Twig","steam_id":76561198144111736,"connected_time":7757000000000,"state":"active","ping":53},{"user_id":294,"name":"Lia_Rein","steam_id":76561198151569597,"connected_time":7075000000000,"state":"active","ping":147}]},{"server_id":403,"name":"Uncletopia | Chicago | 4 | All Maps","name_short":"chi-4","host":"chi-1.us.uncletopia.com","port":27045,"enabled":true,"region":"us-central","cc":"us","latitude":41.881832,"longitude":-87.62318,"reserved":0,"last_update":"0001-01-01T00:00:00Z","name_a2s":"Uncletopia | Chicago | 4 | All Maps","protocol":17,"map":"cp_dustbowl","folder":"tf","game":"Team Fortress","app_id":440,"player_count":24,"max_players":24,"Bots":0,"server_type":"Dedicated","server_os":"Linux","password":true,"vac":true,"version":"7961495","steam_id":85568392924515193,"keywords":["cp","nocrits","nodmgspread","uncletopia"],"game_id":440,"stv_port":27046,"stv_name":"Uncletopia | Chicago | 4 | All Maps | STV","players":[{"user_id":508,"name":"Tom","steam_id":76561198139202942,"connected_time":1753000000000,"state":"active","ping":69},{"user_id":509,"name":"smog monster","steam_id":76561198118954499,"connected_time":1481000000000,"state":"active","ping":85},{"user_id":524,"name":"Bigger Boot","steam_id":76561198150645469,"connected_time":1192000000000,"state":"active","ping":60},{"user_id":537,"name":"Jav","steam_id":76561198073633513,"connected_time":706000000000,"state":"active","ping":58},{"user_id":510,"name":"Soju","steam_id":76561198044130442,"connected_time":1447000000000,"state":"active","ping":79},{"user_id":536,"name":"MEET AND FUCK KINGDOM, STEVE","steam_id":76561198421249296,"connected_time":763000000000,"state":"active","ping":84},{"user_id":511,"name":"SIN K4RMA","steam_id":76561198869287223,"connected_time":1427000000000,"state":"active","ping":75},{"user_id":512,"name":"Ryu from the Streets","steam_id":76561198103183142,"connected_time":1420000000000,"state":"active","ping":150},{"user_id":533,"name":"Blanke","steam_id":76561198068912412,"connected_time":955000000000,"state":"active","ping":76},{"user_id":514,"name":"Bullwinkle J. Moose","steam_id":76561198075977196,"connected_time":1369000000000,"state":"active","ping":76},{"user_id":526,"name":"killeroverscore123","steam_id":76561199168131321,"connected_time":1095000000000,"state":"active","ping":88},{"user_id":531,"name":"CopperBox","steam_id":76561198068217248,"connected_time":1008000000000,"state":"active","ping":99},{"user_id":518,"name":"LegendaireNic","steam_id":76561198211753861,"connected_time":1364000000000,"state":"active","ping":66},{"user_id":449,"name":"deadass1215","steam_id":76561199052886723,"connected_time":5518000000000,"state":"active","ping":127},{"user_id":503,"name":"chrissweep","steam_id":76561198072826791,"connected_time":2085000000000,"state":"active","ping":72},{"user_id":444,"name":"fart card","steam_id":76561198057561955,"connected_time":5974000000000,"state":"active","ping":53},{"user_id":519,"name":"clash royale player","steam_id":76561199156054914,"connected_time":1324000000000,"state":"active","ping":69},{"user_id":538,"name":"YoteDab McFapDab.jpg","steam_id":76561197984870380,"connected_time":704000000000,"state":"active","ping":86},{"user_id":528,"name":"Soup0fTheDay","steam_id":76561199039857744,"connected_time":1067000000000,"state":"active","ping":51},{"user_id":521,"name":"Doodlebob","steam_id":76561198204886077,"connected_time":1308000000000,"state":"active","ping":61},{"user_id":529,"name":"Rhutebeer","steam_id":76561198018302761,"connected_time":1061000000000,"state":"active","ping":102},{"user_id":498,"name":"KaosInfinite","steam_id":76561198009126350,"connected_time":2364000000000,"state":"active","ping":102},{"user_id":534,"name":"-Avh-","steam_id":76561198087593160,"connected_time":881000000000,"state":"active","ping":69},{"user_id":532,"name":"garbo","steam_id":76561198149280150,"connected_time":999000000000,"state":"active","ping":89}]},{"server_id":36,"name":"Uncletopia | Chicago | 5 | All Maps","name_short":"chi-5","host":"chi-2.us.uncletopia.com","port":27015,"enabled":true,"region":"us-central","cc":"us","latitude":41.881832,"longitude":-87.62318,"reserved":0,"last_update":"0001-01-01T00:00:00Z","name_a2s":"Uncletopia | Chicago | 5 | All Maps","protocol":17,"map":"pl_upward","folder":"tf","game":"Team Fortress","app_id":440,"player_count":24,"max_players":24,"Bots":0,"server_type":"Dedicated","server_os":"Linux","password":true,"vac":true,"version":"7961495","steam_id":85568392924866362,"keywords":["nocrits","nodmgspread","payload","uncletopia"],"game_id":440,"stv_port":27016,"stv_name":"Uncletopia | Chicago | 5 | All Maps | STV","players":[{"user_id":423,"name":"Input Angle","steam_id":76561198042398878,"connected_time":2026000000000,"state":"active","ping":90},{"user_id":436,"name":"Jutsu","steam_id":76561198058671945,"connected_time":1627000000000,"state":"active","ping":93},{"user_id":426,"name":"EpsilonEagle","steam_id":76561197999126769,"connected_time":1814000000000,"state":"active","ping":130},{"user_id":453,"name":"Worst Scenario","steam_id":76561199052130229,"connected_time":955000000000,"state":"active","ping":63},{"user_id":452,"name":"Big Weeb Man","steam_id":76561198127819973,"connected_time":1033000000000,"state":"active","ping":74},{"user_id":454,"name":"Addy \u003c3","steam_id":76561198045819723,"connected_time":911000000000,"state":"active","ping":70},{"user_id":437,"name":"ethanf","steam_id":76561198103930234,"connected_time":1607000000000,"state":"active","ping":50},{"user_id":465,"name":"Majestic-A","steam_id":76561198988062101,"connected_time":88000000000,"state":"active","ping":86},{"user_id":461,"name":"fresco","steam_id":76561199101199477,"connected_time":534000000000,"state":"active","ping":61},{"user_id":456,"name":"Phillip Jeffries","steam_id":76561198064052174,"connected_time":768000000000,"state":"active","ping":62},{"user_id":459,"name":"The Washer of Dishes","steam_id":76561198028157625,"connected_time":742000000000,"state":"active","ping":83},{"user_id":434,"name":"Kamin","steam_id":76561198255299559,"connected_time":1698000000000,"state":"active","ping":92},{"user_id":430,"name":"Smelvin","steam_id":76561198073773532,"connected_time":1752000000000,"state":"active","ping":81},{"user_id":287,"name":"Mr.Pan","steam_id":76561198069030613,"connected_time":9050000000000,"state":"active","ping":69},{"user_id":424,"name":"Berries","steam_id":76561198109312962,"connected_time":1978000000000,"state":"active","ping":87},{"user_id":418,"name":"Antonin Scalia","steam_id":76561198080687598,"connected_time":2428000000000,"state":"active","ping":72},{"user_id":458,"name":"Yongle","steam_id":76561198068591156,"connected_time":765000000000,"state":"active","ping":47},{"user_id":464,"name":"aureli","steam_id":76561199031411031,"connected_time":273000000000,"state":"active","ping":74},{"user_id":410,"name":"你当我傻啊ᕕ(◠ڼ◠)ᕗ","steam_id":76561198155185583,"connected_time":3061000000000,"state":"active","ping":60},{"user_id":463,"name":"izzydex","steam_id":76561199101531034,"connected_time":477000000000,"state":"active","ping":66},{"user_id":440,"name":"Deluxe_Taco34","steam_id":76561199037653437,"connected_time":1601000000000,"state":"active","ping":114},{"user_id":414,"name":"Sanic","steam_id":76561198083124962,"connected_time":2769000000000,"state":"active","ping":84},{"user_id":441,"name":"Blue_car_Reid","steam_id":76561198161120719,"connected_time":1593000000000,"state":"active","ping":50},{"user_id":446,"name":"Window Licker #pride","steam_id":76561198386717007,"connected_time":1433000000000,"state":"active","ping":57}]},{"server_id":37,"name":"Uncletopia | Chicago | 6 | All Maps","name_short":"chi-6","host":"chi-2.us.uncletopia.com","port":27025,"enabled":true,"region":"us-central","cc":"us","latitude":41.881832,"longitude":-87.62318,"reserved":0,"last_update":"0001-01-01T00:00:00Z","name_a2s":"Uncletopia | Chicago | 6 | All Maps","protocol":17,"map":"pl_snowycoast","folder":"tf","game":"Team Fortress","app_id":440,"player_count":22,"max_players":24,"Bots":0,"server_type":"Dedicated","server_os":"Linux","password":true,"vac":true,"version":"7961495","steam_id":85568392924866363,"keywords":["nocrits","nodmgspread","payload","uncletopia"],"game_id":440,"stv_port":27026,"stv_name":"Uncletopia | Chicago | 6 | All Maps | STV","players":[{"user_id":331,"name":"Universe Man","steam_id":76561197997710655,"connected_time":1438000000000,"state":"active","ping":91},{"user_id":337,"name":"zuchima","steam_id":76561198026152104,"connected_time":1011000000000,"state":"active","ping":59},{"user_id":238,"name":"Clean Lines","steam_id":76561197960691518,"connected_time":8411000000000,"state":"active","ping":57},{"user_id":345,"name":"Jaded","steam_id":76561198272575611,"connected_time":7000000000,"state":"spawning","ping":100},{"user_id":308,"name":"Binary","steam_id":76561198080764770,"connected_time":3036000000000,"state":"active","ping":73},{"user_id":339,"name":"CamWtheDestroyer","steam_id":76561198950777742,"connected_time":155000000000,"state":"active","ping":153},{"user_id":340,"name":"Dan","steam_id":76561199236719411,"connected_time":151000000000,"state":"active","ping":65},{"user_id":299,"name":"Colossal Falafel","steam_id":76561198108086245,"connected_time":3512000000000,"state":"active","ping":57},{"user_id":335,"name":"kermeeee","steam_id":76561198106278670,"connected_time":1327000000000,"state":"active","ping":94},{"user_id":310,"name":"kikikikoboy","steam_id":76561198073380271,"connected_time":2980000000000,"state":"active","ping":81},{"user_id":324,"name":"sithreis","steam_id":76561198000564263,"connected_time":1711000000000,"state":"active","ping":69},{"user_id":325,"name":"java","steam_id":76561198030276792,"connected_time":1706000000000,"state":"active","ping":56},{"user_id":341,"name":"Erodplayer","steam_id":76561198183840185,"connected_time":62000000000,"state":"active","ping":79},{"user_id":327,"name":"lanoc","steam_id":76561198055415367,"connected_time":1697000000000,"state":"active","ping":60},{"user_id":342,"name":"sen","steam_id":76561198211308328,"connected_time":56000000000,"state":"active","ping":63},{"user_id":329,"name":"♥ Sashisusesasako","steam_id":76561198040522288,"connected_time":1635000000000,"state":"active","ping":60},{"user_id":343,"name":"qiulongtao","steam_id":76561198977558717,"connected_time":22000000000,"state":"active","ping":86},{"user_id":330,"name":"R♡bert Leonard III","steam_id":76561197995560676,"connected_time":1610000000000,"state":"active","ping":69},{"user_id":336,"name":"mr poop","steam_id":76561199195196632,"connected_time":1251000000000,"state":"active","ping":80},{"user_id":332,"name":"Tattletails","steam_id":76561198055690341,"connected_time":1400000000000,"state":"active","ping":181},{"user_id":344,"name":"grate_warior-232","steam_id":76561198073424589,"connected_time":21000000000,"state":"active","ping":64},{"user_id":305,"name":"Opie","steam_id":76561198058704365,"connected_time":3309000000000,"state":"active","ping":59}]},{"server_id":38,"name":"Uncletopia | Chicago | 7 | Stopwatch","name_short":"chi-7","host":"chi-2.us.uncletopia.com","port":27035,"enabled":true,"region":"us-central","cc":"us","latitude":41.881832,"longitude":-87.62318,"reserved":0,"last_update":"0001-01-01T00:00:00Z","name_a2s":"Uncletopia | Chicago | 7 | Stopwatch","protocol":17,"map":"koth_lakeside_final","folder":"tf","game":"Team Fortress","app_id":440,"player_count":0,"max_players":24,"Bots":0,"server_type":"Dedicated","server_os":"Linux","password":true,"vac":true,"version":"7961495","steam_id":85568392924866364,"keywords":["cp","nocrits","nodmgspread","uncletopia"],"game_id":440,"stv_port":27036,"stv_name":"Uncletopia | Chicago | 7 | Stopwatch | STV","players":null},{"server_id":39,"name":"Uncletopia | Chicago | 8 | Community","name_short":"chi-8","host":"chi-2.us.uncletopia.com","port":27045,"enabled":true,"region":"us-central","cc":"us","latitude":41.881832,"longitude":-87.62318,"reserved":0,"last_update":"0001-01-01T00:00:00Z","name_a2s":"Uncletopia | Chicago | 8 | Community","protocol":17,"map":"workshop/pl_cactuscanyon_redux_final2.ugc2579644293","folder":"tf","game":"Team Fortress","app_id":440,"player_count":19,"max_players":24,"Bots":0,"server_type":"Dedicated","server_os":"Linux","password":true,"vac":true,"version":"7961495","steam_id":85568392924866365,"keywords":["nocrits","nodmgspread","payload","uncletopia"],"game_id":440,"stv_port":27046,"stv_name":"Uncletopia | Chicago | 8 | Community | STV","players":[{"user_id":29,"name":"han","steam_id":76561198058374130,"connected_time":4007000000000,"state":"active","ping":57},{"user_id":30,"name":"SimplePants","steam_id":76561198059434838,"connected_time":3980000000000,"state":"active","ping":68},{"user_id":31,"name":"Zyzzyva","steam_id":76561198144188665,"connected_time":3970000000000,"state":"active","ping":53},{"user_id":75,"name":"Vic Chaos","steam_id":76561198951797353,"connected_time":100000000000,"state":"active","ping":116},{"user_id":76,"name":"buhers256","steam_id":76561198927077674,"connected_time":20000000000,"state":"spawning","ping":233},{"user_id":61,"name":"tuatramxo5","steam_id":76561198324441191,"connected_time":614000000000,"state":"active","ping":34},{"user_id":54,"name":"Calvin?","steam_id":76561198034069587,"connected_time":1273000000000,"state":"active","ping":84},{"user_id":60,"name":"Fishmonger","steam_id":76561198372237027,"connected_time":780000000000,"state":"active","ping":90},{"user_id":59,"name":"MO Jobro2000","steam_id":76561199034302012,"connected_time":931000000000,"state":"active","ping":81},{"user_id":48,"name":"Sarah.w","steam_id":76561199248461525,"connected_time":2145000000000,"state":"active","ping":83},{"user_id":51,"name":"Xx_PercyTheSmallEngineGamer6_xX","steam_id":76561198842297041,"connected_time":1814000000000,"state":"active","ping":114},{"user_id":56,"name":"green bean","steam_id":76561198113099204,"connected_time":1030000000000,"state":"active","ping":84},{"user_id":57,"name":"flm","steam_id":76561198144052860,"connected_time":979000000000,"state":"active","ping":86},{"user_id":58,"name":"Rodrick Knee","steam_id":76561198283021062,"connected_time":968000000000,"state":"active","ping":85},{"user_id":64,"name":"Wendy's Brand Trash","steam_id":76561198328346670,"connected_time":457000000000,"state":"active","ping":43},{"user_id":66,"name":"MintyGhoul666","steam_id":76561198232417796,"connected_time":442000000000,"state":"active","ping":65},{"user_id":68,"name":"Beholder03","steam_id":76561198261936347,"connected_time":379000000000,"state":"active","ping":111},{"user_id":69,"name":"TheSecretNewbie","steam_id":76561198194671218,"connected_time":363000000000,"state":"active","ping":54},{"user_id":70,"name":"King Sans","steam_id":76561198294198517,"connected_time":357000000000,"state":"active","ping":59}]},{"server_id":8,"name":"Uncletopia | Dallas | 1 | All Maps","name_short":"dal-1","host":"dal-1.us.uncletopia.com","port":27015,"enabled":true,"region":"us-central","cc":"us","latitude":32.779167,"longitude":-96.80889,"reserved":0,"last_update":"0001-01-01T00:00:00Z","name_a2s":"Uncletopia | Dallas | 1 | All Maps","protocol":17,"map":"pl_badwater","folder":"tf","game":"Team Fortress","app_id":440,"player_count":24,"max_players":24,"Bots":0,"server_type":"Dedicated","server_os":"Linux","password":true,"vac":true,"version":"7961495","steam_id":85568392924469986,"keywords":["nocrits","nodmgspread","payload","uncletopia"],"game_id":440,"stv_port":27016,"stv_name":"Uncletopia | Dallas | 1 | All Maps | STV","players":[{"user_id":362,"name":"SleepySinny","steam_id":76561198210764240,"connected_time":351000000000,"state":"active","ping":76},{"user_id":334,"name":"Imrgrim","steam_id":76561198135866481,"connected_time":1777000000000,"state":"active","ping":62},{"user_id":368,"name":"Bollar I din mun","steam_id":76561198334977151,"connected_time":203000000000,"state":"active","ping":88},{"user_id":376,"name":"Dillon Brooks 欢迎来到中\ufffd\ufffd","steam_id":76561198144909435,"connected_time":38000000000,"state":"active","ping":90},{"user_id":364,"name":"Draco6257","steam_id":76561199147322448,"connected_time":271000000000,"state":"active","ping":65},{"user_id":365,"name":"Small tiny feet","steam_id":76561199141538581,"connected_time":269000000000,"state":"active","ping":88},{"user_id":342,"name":"FI LO","steam_id":76561198976530881,"connected_time":1307000000000,"state":"active","ping":62},{"user_id":343,"name":"Lord GabeN","steam_id":76561198140862723,"connected_time":1303000000000,"state":"active","ping":86},{"user_id":366,"name":"Axis","steam_id":76561197969568037,"connected_time":241000000000,"state":"active","ping":81},{"user_id":360,"name":"Anor","steam_id":76561198356139775,"connected_time":539000000000,"state":"active","ping":83},{"user_id":367,"name":"Jarrod","steam_id":76561198992348469,"connected_time":234000000000,"state":"active","ping":99},{"user_id":327,"name":"corn","steam_id":76561199489247622,"connected_time":2388000000000,"state":"active","ping":58},{"user_id":369,"name":"Biscipline","steam_id":76561198019206178,"connected_time":190000000000,"state":"active","ping":82},{"user_id":371,"name":"It's the Juice","steam_id":76561198017333301,"connected_time":106000000000,"state":"active","ping":105},{"user_id":320,"name":"Motreir","steam_id":76561198151717946,"connected_time":2712000000000,"state":"active","ping":78},{"user_id":345,"name":"the keebler","steam_id":76561199486326945,"connected_time":1197000000000,"state":"active","ping":75},{"user_id":350,"name":"Alchemist","steam_id":76561198094238189,"connected_time":1011000000000,"state":"active","ping":62},{"user_id":370,"name":"Wistful","steam_id":76561198798187576,"connected_time":153000000000,"state":"active","ping":45},{"user_id":356,"name":"pipepeepi","steam_id":76561198845905873,"connected_time":658000000000,"state":"active","ping":81},{"user_id":352,"name":"My heart is COLD","steam_id":76561198046895822,"connected_time":916000000000,"state":"active","ping":68},{"user_id":372,"name":"Pacemaker","steam_id":76561198046865217,"connected_time":94000000000,"state":"active","ping":75},{"user_id":374,"name":"r0biN","steam_id":76561198097861434,"connected_time":89000000000,"state":"active","ping":85},{"user_id":358,"name":"meggie","steam_id":76561198038291026,"connected_time":561000000000,"state":"active","ping":40},{"user_id":375,"name":"finman","steam_id":76561198127639913,"connected_time":76000000000,"state":"active","ping":87}]},{"server_id":108,"name":"Uncletopia | Dallas | 2 | All Maps","name_short":"dal-2","host":"dal-1.us.uncletopia.com","port":27025,"enabled":true,"region":"us-central","cc":"us","latitude":32.779167,"longitude":-96.80889,"reserved":0,"last_update":"0001-01-01T00:00:00Z","name_a2s":"Uncletopia | Dallas | 2 | All Maps","protocol":17,"map":"pl_pier","folder":"tf","game":"Team Fortress","app_id":440,"player_count":24,"max_players":24,"Bots":0,"server_type":"Dedicated","server_os":"Linux","password":true,"vac":true,"version":"7961495","steam_id":85568392924469988,"keywords":["nocrits","nodmgspread","payload","uncletopia"],"game_id":440,"stv_port":27026,"stv_name":"Uncletopia | Dallas | 2 | All Maps | STV","players":[{"user_id":380,"name":"dubstept","steam_id":76561198884973306,"connected_time":130000000000,"state":"active","ping":99},{"user_id":370,"name":"BehindYou","steam_id":76561198987222560,"connected_time":765000000000,"state":"active","ping":77},{"user_id":353,"name":"Major Woody","steam_id":76561198835541533,"connected_time":1846000000000,"state":"active","ping":51},{"user_id":335,"name":"Alkimia","steam_id":76561198385763137,"connected_time":3222000000000,"state":"active","ping":128},{"user_id":379,"name":"Pathara44","steam_id":76561198048238620,"connected_time":178000000000,"state":"active","ping":78},{"user_id":381,"name":"copy of a","steam_id":76561198087200115,"connected_time":118000000000,"state":"active","ping":89},{"user_id":371,"name":"JustADuck","steam_id":76561198311260943,"connected_time":714000000000,"state":"active","ping":76},{"user_id":317,"name":"Dragus","steam_id":76561198032967285,"connected_time":4453000000000,"state":"active","ping":76},{"user_id":383,"name":"meta slave","steam_id":76561199467334502,"connected_time":73000000000,"state":"active","ping":82},{"user_id":382,"name":"GodPanda","steam_id":76561198838303653,"connected_time":84000000000,"state":"active","ping":101},{"user_id":384,"name":"Darling","steam_id":76561198127525888,"connected_time":59000000000,"state":"active","ping":52},{"user_id":362,"name":"Abled","steam_id":76561199122118530,"connected_time":1363000000000,"state":"active","ping":87},{"user_id":354,"name":"McCleric","steam_id":76561198448314273,"connected_time":1839000000000,"state":"active","ping":126},{"user_id":369,"name":"Bean Boy","steam_id":76561198279184347,"connected_time":861000000000,"state":"active","ping":70},{"user_id":364,"name":"Polygunner","steam_id":76561199165741650,"connected_time":1216000000000,"state":"active","ping":92},{"user_id":375,"name":"MrTea","steam_id":76561198265593563,"connected_time":504000000000,"state":"active","ping":78},{"user_id":385,"name":"Kenku","steam_id":76561199086762926,"connected_time":54000000000,"state":"active","ping":70},{"user_id":376,"name":"Crouching Noob Hidden Sniper","steam_id":76561197971328473,"connected_time":432000000000,"state":"active","ping":127},{"user_id":288,"name":"Van Tastic","steam_id":76561198063855523,"connected_time":6350000000000,"state":"active","ping":42},{"user_id":377,"name":"IlikeChowMien","steam_id":76561199466131782,"connected_time":428000000000,"state":"active","ping":106},{"user_id":346,"name":"JakeK","steam_id":76561198149375504,"connected_time":2505000000000,"state":"active","ping":100},{"user_id":386,"name":"L to the OG","steam_id":76561199215811448,"connected_time":48000000000,"state":"active","ping":108},{"user_id":358,"name":"Liebesträume","steam_id":76561198038862034,"connected_time":1740000000000,"state":"active","ping":75},{"user_id":338,"name":"f1a2s3s4","steam_id":76561198228400104,"connected_time":3134000000000,"state":"active","ping":103}]},{"server_id":404,"name":"Uncletopia | Dallas | 3 | All Maps","name_short":"dal-3","host":"dal-1.us.uncletopia.com","port":27035,"enabled":true,"region":"us-central","cc":"us","latitude":32.779167,"longitude":-96.80889,"reserved":0,"last_update":"0001-01-01T00:00:00Z","name_a2s":"Uncletopia | Dallas | 3 | All Maps","protocol":17,"map":"koth_cascade","folder":"tf","game":"Team Fortress","app_id":440,"player_count":16,"max_players":24,"Bots":0,"server_type":"Dedicated","server_os":"Linux","password":true,"vac":true,"version":"7961495","steam_id":85568392924515219,"keywords":["cp","nocrits","nodmgspread","uncletopia"],"game_id":440,"stv_port":27036,"stv_name":"Uncletopia | Dallas | 3 | All Maps | STV","players":[{"user_id":197,"name":"Matches_                       ","steam_id":76561198048925904,"connected_time":37000000000,"state":"active","ping":76},{"user_id":198,"name":"cuddles","steam_id":76561199471390987,"connected_time":31000000000,"state":"active","ping":74},{"user_id":193,"name":"WaWaSkittleTits","steam_id":76561198411234398,"connected_time":531000000000,"state":"active","ping":112},{"user_id":177,"name":"ham salmontizer","steam_id":76561198168840293,"connected_time":1789000000000,"state":"active","ping":77},{"user_id":190,"name":"Gold Trilby","steam_id":76561199009079261,"connected_time":737000000000,"state":"active","ping":85},{"user_id":199,"name":"boptart","steam_id":76561198391196440,"connected_time":27000000000,"state":"spawning","ping":43},{"user_id":196,"name":"veno","steam_id":76561198110261781,"connected_time":174000000000,"state":"active","ping":49},{"user_id":179,"name":"Ichibanprofen","steam_id":76561199192132061,"connected_time":1767000000000,"state":"active","ping":75},{"user_id":64,"name":"Drained","steam_id":76561198081974528,"connected_time":10386000000000,"state":"active","ping":62},{"user_id":175,"name":"Kung fu Mungus","steam_id":76561198069281556,"connected_time":1956000000000,"state":"active","ping":75},{"user_id":184,"name":"get scrongled, idiot","steam_id":76561198115874625,"connected_time":1220000000000,"state":"active","ping":92},{"user_id":156,"name":"DivineBanana","steam_id":76561198026529731,"connected_time":3312000000000,"state":"active","ping":90},{"user_id":157,"name":"459d","steam_id":76561198336142389,"connected_time":3307000000000,"state":"active","ping":79},{"user_id":176,"name":"Waesel","steam_id":76561198069188177,"connected_time":1803000000000,"state":"active","ping":76},{"user_id":186,"name":"Lv3 Kobold Shadow Sorcerer","steam_id":76561198042068995,"connected_time":1167000000000,"state":"active","ping":88},{"user_id":192,"name":"Rafl","steam_id":76561198055222756,"connected_time":715000000000,"state":"active","ping":44}]},{"server_id":405,"name":"Uncletopia | Dallas | 4 | Community","name_short":"dal-4","host":"dal-1.us.uncletopia.com","port":27045,"enabled":true,"region":"us-central","cc":"us","latitude":32.779167,"longitude":-96.80889,"reserved":0,"last_update":"0001-01-01T00:00:00Z","name_a2s":"Uncletopia | Dallas | 4 | Community","protocol":17,"map":"workshop/rd_asteroid_redux_b1.ugc2154902912","folder":"tf","game":"Team Fortress","app_id":440,"player_count":0,"max_players":24,"Bots":0,"server_type":"Dedicated","server_os":"Linux","password":true,"vac":true,"version":"7961495","steam_id":85568392924515220,"keywords":["beta","nocrits","nodmgspread","rd","uncletopia"],"game_id":440,"stv_port":27046,"stv_name":"Uncletopia | Dallas | 4 | Community | STV","players":null},{"server_id":5,"name":"Uncletopia | Frankfurt | 1 | All Maps","name_short":"frk-1","host":"frk-1.de.uncletopia.com","port":27015,"enabled":true,"region":"eu","cc":"de","latitude":50.110924,"longitude":8.682127,"reserved":0,"last_update":"0001-01-01T00:00:00Z","name_a2s":"Uncletopia | Frankfurt | 1 | All Maps","protocol":17,"map":"ctf_turbine","folder":"tf","game":"Team Fortress","app_id":440,"player_count":0,"max_players":24,"Bots":0,"server_type":"Dedicated","server_os":"Linux","password":true,"vac":true,"version":"7961495","steam_id":85568392924469989,"keywords":["ctf","nocrits","nodmgspread","uncletopia"],"game_id":440,"stv_port":27016,"stv_name":"Uncletopia | Frankfurt | 1 | All Maps | STV","players":null},{"server_id":110,"name":"Uncletopia | Frankfurt | 2 | All Maps","name_short":"frk-2","host":"frk-1.de.uncletopia.com","port":27025,"enabled":true,"region":"eu","cc":"de","latitude":50.110924,"longitude":8.682127,"reserved":0,"last_update":"0001-01-01T00:00:00Z","name_a2s":"Uncletopia | Frankfurt | 2 | All Maps","protocol":17,"map":"koth_cascade","folder":"tf","game":"Team Fortress","app_id":440,"player_count":2,"max_players":24,"Bots":0,"server_type":"Dedicated","server_os":"Linux","password":true,"vac":true,"version":"7961495","steam_id":85568392924469990,"keywords":["cp","nocrits","nodmgspread","uncletopia"],"game_id":440,"stv_port":27026,"stv_name":"Uncletopia | Frankfurt | 2 | All Maps | STV","players":[{"user_id":863,"name":"Fabian","steam_id":76561199071627976,"connected_time":246000000000,"state":"active","ping":55},{"user_id":843,"name":"Nome","steam_id":76561198867982828,"connected_time":2364000000000,"state":"active","ping":100}]},{"server_id":308,"name":"Uncletopia | Frankfurt | 3 | All Maps","name_short":"frk-3","host":"frk-1.de.uncletopia.com","port":27035,"enabled":true,"region":"eu","cc":"de","latitude":50.110924,"longitude":8.682127,"reserved":0,"last_update":"0001-01-01T00:00:00Z","name_a2s":"Uncletopia | Frankfurt | 3 | All Maps","protocol":17,"map":"koth_viaduct","folder":"tf","game":"Team Fortress","app_id":440,"player_count":23,"max_players":24,"Bots":0,"server_type":"Dedicated","server_os":"Linux","password":true,"vac":true,"version":"7961495","steam_id":85568392924504274,"keywords":["cp","nocrits","nodmgspread","uncletopia"],"game_id":440,"stv_port":27036,"stv_name":"Uncletopia | Frankfurt | 3 | All Maps | STV","players":[{"user_id":647,"name":"Zoppox","steam_id":76561198033930332,"connected_time":2289000000000,"state":"active","ping":61},{"user_id":663,"name":"Hoxton","steam_id":76561198129209505,"connected_time":588000000000,"state":"active","ping":63},{"user_id":631,"name":"Littleyoshifan","steam_id":76561198445491045,"connected_time":4794000000000,"state":"active","ping":57},{"user_id":606,"name":"lol","steam_id":76561198104438656,"connected_time":6259000000000,"state":"active","ping":74},{"user_id":675,"name":"Yip","steam_id":76561198946540436,"connected_time":173000000000,"state":"active","ping":55},{"user_id":646,"name":"Happy Broccol","steam_id":76561198180667795,"connected_time":2334000000000,"state":"active","ping":71},{"user_id":582,"name":"CiVillain","steam_id":76561198059617732,"connected_time":7689000000000,"state":"active","ping":58},{"user_id":648,"name":"HappyWoo","steam_id":76561198259558303,"connected_time":2276000000000,"state":"active","ping":85},{"user_id":665,"name":"idenburg","steam_id":76561198063574956,"connected_time":533000000000,"state":"active","ping":61},{"user_id":666,"name":"Zonts","steam_id":76561198850176432,"connected_time":514000000000,"state":"active","ping":74},{"user_id":659,"name":"Strawberry","steam_id":76561198052255586,"connected_time":1124000000000,"state":"active","ping":68},{"user_id":667,"name":"Piikov","steam_id":76561198142941074,"connected_time":488000000000,"state":"active","ping":61},{"user_id":672,"name":"for the king","steam_id":76561197973488858,"connected_time":339000000000,"state":"active","ping":134},{"user_id":673,"name":"filthy","steam_id":76561198089069719,"connected_time":295000000000,"state":"active","ping":64},{"user_id":625,"name":"[ALT_F4]dottor_cacabula_m8","steam_id":76561198173192267,"connected_time":4927000000000,"state":"active","ping":72},{"user_id":669,"name":"Dr Bondus Bolongus Dongus","steam_id":76561198378657692,"connected_time":475000000000,"state":"active","ping":59},{"user_id":670,"name":"4nalpr0d","steam_id":76561198052092018,"connected_time":461000000000,"state":"active","ping":49},{"user_id":671,"name":"Atrix","steam_id":76561198364012823,"connected_time":436000000000,"state":"active","ping":70},{"user_id":640,"name":"odeg","steam_id":76561198326615982,"connected_time":3539000000000,"state":"active","ping":66},{"user_id":641,"name":"MrKampfCookie","steam_id":76561198085490175,"connected_time":3486000000000,"state":"active","ping":40},{"user_id":651,"name":"Rezzarezz","steam_id":76561198092020043,"connected_time":2174000000000,"state":"active","ping":60},{"user_id":644,"name":"Dirocks","steam_id":76561198138494815,"connected_time":2415000000000,"state":"active","ping":78},{"user_id":652,"name":"Blackgdkcb","steam_id":76561199027950389,"connected_time":2166000000000,"state":"active","ping":47}]},{"server_id":309,"name":"Uncletopia | Frankfurt | 4 | All Maps","name_short":"frk-4","host":"frk-1.de.uncletopia.com","port":27045,"enabled":true,"region":"eu","cc":"de","latitude":50.110924,"longitude":8.682127,"reserved":0,"last_update":"0001-01-01T00:00:00Z","name_a2s":"Uncletopia | Frankfurt | 4 | All Maps","protocol":17,"map":"pl_frontier_final","folder":"tf","game":"Team Fortress","app_id":440,"player_count":0,"max_players":24,"Bots":0,"server_type":"Dedicated","server_os":"Linux","password":true,"vac":true,"version":"7961495","steam_id":85568392924504275,"keywords":["nocrits","nodmgspread","payload","uncletopia"],"game_id":440,"stv_port":27046,"stv_name":"Uncletopia | Frankfurt | 4 | All Maps | STV","players":null},{"server_id":310,"name":"Uncletopia | Frankfurt | 5 | All Maps","name_short":"frk-5","host":"frk-1.de.uncletopia.com","port":27055,"enabled":true,"region":"eu","cc":"de","latitude":50.110924,"longitude":8.682127,"reserved":0,"last_update":"0001-01-01T00:00:00Z","name_a2s":"Uncletopia | Frankfurt | 5 | All Maps","protocol":17,"map":"pl_swiftwater_final1","folder":"tf","game":"Team Fortress","app_id":440,"player_count":0,"max_players":24,"Bots":0,"server_type":"Dedicated","server_os":"Linux","password":true,"vac":true,"version":"7961495","steam_id":85568392924504277,"keywords":["nocrits","nodmgspread","payload","uncletopia"],"game_id":440,"stv_port":27056,"stv_name":"Uncletopia | Frankfurt | 5 | All Maps | STV","players":null},{"server_id":311,"name":"Uncletopia | Frankfurt | 6 | All Maps","name_short":"frk-6","host":"frk-1.de.uncletopia.com","port":27065,"enabled":true,"region":"eu","cc":"de","latitude":50.110924,"longitude":8.682127,"reserved":0,"last_update":"0001-01-01T00:00:00Z","name_a2s":"Uncletopia | Frankfurt | 6 | All Maps","protocol":17,"map":"cp_mountainlab","folder":"tf","game":"Team Fortress","app_id":440,"player_count":0,"max_players":24,"Bots":0,"server_type":"Dedicated","server_os":"Linux","password":true,"vac":true,"version":"7961495","steam_id":85568392924504278,"keywords":["cp","nocrits","nodmgspread","uncletopia"],"game_id":440,"stv_port":27066,"stv_name":"Uncletopia | Frankfurt | 6 | All Maps | STV","players":null},{"server_id":23,"name":"Uncletopia | Frankfurt | 7 | Stopwatch","name_short":"frk-7","host":"frk-1.de.uncletopia.com","port":27075,"enabled":true,"region":"eu","cc":"de","latitude":50.110924,"longitude":8.682127,"reserved":0,"last_update":"0001-01-01T00:00:00Z","name_a2s":"Uncletopia | Frankfurt | 7 | Stopwatch","protocol":17,"map":"koth_highpass","folder":"tf","game":"Team Fortress","app_id":440,"player_count":0,"max_players":24,"Bots":0,"server_type":"Dedicated","server_os":"Linux","password":true,"vac":true,"version":"7961495","steam_id":85568392924742827,"keywords":["cp","nocrits","nodmgspread","uncletopia"],"game_id":440,"stv_port":27076,"stv_name":"Uncletopia | Frankfurt | 7 | Stopwatch | STV","players":null},{"server_id":24,"name":"Uncletopia | Frankfurt | 8 | Community","name_short":"frk-8","host":"frk-1.de.uncletopia.com","port":27085,"enabled":true,"region":"eu","cc":"de","latitude":50.110924,"longitude":8.682127,"reserved":0,"last_update":"0001-01-01T00:00:00Z","name_a2s":"Uncletopia | Frankfurt | 8 | Community","protocol":17,"map":"workshop/koth_ashville_final.ugc2130459942","folder":"tf","game":"Team Fortress","app_id":440,"player_count":0,"max_players":24,"Bots":0,"server_type":"Dedicated","server_os":"Linux","password":true,"vac":true,"version":"7961495","steam_id":85568392924742828,"keywords":["cp","nocrits","nodmgspread","uncletopia"],"game_id":440,"stv_port":27086,"stv_name":"Uncletopia | Frankfurt | 8 | Community | STV","players":null},{"server_id":202,"name":"Uncletopia | Hong Kong | 1 | All Maps","name_short":"hgk-1","host":"hgk-1.hk.uncletopia.com","port":27015,"enabled":true,"region":"asia","cc":"hk","latitude":22.302711,"longitude":114.177216,"reserved":0,"last_update":"0001-01-01T00:00:00Z","name_a2s":"Uncletopia | Hong Kong | 1 | All Maps","protocol":17,"map":"cp_dustbowl","folder":"tf","game":"Team Fortress","app_id":440,"player_count":0,"max_players":24,"Bots":0,"server_type":"Dedicated","server_os":"Linux","password":true,"vac":true,"version":"7961495","steam_id":85568392924494504,"keywords":["cp","nocrits","nodmgspread","uncletopia"],"game_id":440,"stv_port":27016,"stv_name":"Uncletopia | Hong Kong | 1 | All Maps | STV","players":null},{"server_id":1,"name":"Uncletopia | Los Angeles | 1 | All Maps","name_short":"lax-1","host":"lax-1.us.uncletopia.com","port":27015,"enabled":true,"region":"us-west","cc":"us","latitude":33.94279,"longitude":-118.41004,"reserved":0,"last_update":"0001-01-01T00:00:00Z","name_a2s":"Uncletopia | Los Angeles | 1 | All Maps","protocol":17,"map":"cp_steel","folder":"tf","game":"Team Fortress","app_id":440,"player_count":15,"max_players":24,"Bots":0,"server_type":"Dedicated","server_os":"Linux","password":true,"vac":true,"version":"7961495","steam_id":85568392924469991,"keywords":["cp","nocrits","nodmgspread","uncletopia"],"game_id":440,"stv_port":27016,"stv_name":"Uncletopia | Los Angeles | 1 | All Maps | STV","players":[{"user_id":409,"name":"Grim","steam_id":76561198016978310,"connected_time":64000000000,"state":"active","ping":71},{"user_id":378,"name":"Chafn","steam_id":76561197969386702,"connected_time":1662000000000,"state":"active","ping":53},{"user_id":406,"name":"Atrick07","steam_id":76561198381603908,"connected_time":164000000000,"state":"active","ping":46},{"user_id":383,"name":"lil uzi squirt","steam_id":76561198045926594,"connected_time":1556000000000,"state":"active","ping":66},{"user_id":393,"name":"moe","steam_id":76561198929586245,"connected_time":650000000000,"state":"active","ping":65},{"user_id":400,"name":"elephant thumb","steam_id":76561198118859752,"connected_time":414000000000,"state":"active","ping":45},{"user_id":395,"name":"Overmeme","steam_id":76561199455124144,"connected_time":616000000000,"state":"active","ping":80},{"user_id":367,"name":"skgmanuel","steam_id":76561198947005948,"connected_time":2074000000000,"state":"active","ping":153},{"user_id":407,"name":"Pizghetti","steam_id":76561199362454584,"connected_time":154000000000,"state":"active","ping":57},{"user_id":349,"name":"LOVE OF THE S*N","steam_id":76561198065662025,"connected_time":2577000000000,"state":"active","ping":56},{"user_id":408,"name":"sobaka","steam_id":76561198116008934,"connected_time":146000000000,"state":"connecting","ping":45},{"user_id":397,"name":"Hectic_Puppy (bday in 3 DAYS)","steam_id":76561198111645213,"connected_time":553000000000,"state":"active","ping":45},{"user_id":398,"name":"Greskrendtregk","steam_id":76561197969553142,"connected_time":513000000000,"state":"active","ping":73},{"user_id":350,"name":"Human Resources Manager","steam_id":76561198066386411,"connected_time":2577000000000,"state":"active","ping":56},{"user_id":402,"name":"Oktayey","steam_id":76561198143213426,"connected_time":364000000000,"state":"active","ping":53}]},{"server_id":112,"name":"Uncletopia | Los Angeles | 2 | All Maps","name_short":"lax-2","host":"lax-1.us.uncletopia.com","port":27025,"enabled":true,"region":"us-west","cc":"us","latitude":33.94279,"longitude":-118.41004,"reserved":0,"last_update":"0001-01-01T00:00:00Z","name_a2s":"Uncletopia | Los Angeles | 2 | All Maps","protocol":17,"map":"koth_viaduct","folder":"tf","game":"Team Fortress","app_id":440,"player_count":0,"max_players":24,"Bots":0,"server_type":"Dedicated","server_os":"Linux","password":true,"vac":true,"version":"7961495","steam_id":85568392924469992,"keywords":["cp","nocrits","nodmgspread","uncletopia"],"game_id":440,"stv_port":27026,"stv_name":"Uncletopia | Los Angeles | 2 | All Maps | STV","players":null},{"server_id":324,"name":"Uncletopia | Los Angeles | 3 | All Maps","name_short":"lax-3","host":"lax-1.us.uncletopia.com","port":27035,"enabled":true,"region":"us-west","cc":"us","latitude":33.94279,"longitude":-118.41004,"reserved":0,"last_update":"0001-01-01T00:00:00Z","name_a2s":"Uncletopia | Los Angeles | 3 | All Maps","protocol":17,"map":"cp_process_final","folder":"tf","game":"Team Fortress","app_id":440,"player_count":0,"max_players":24,"Bots":0,"server_type":"Dedicated","server_os":"Linux","password":true,"vac":true,"version":"7961495","steam_id":85568392924510198,"keywords":["cp","nocrits","nodmgspread","uncletopia"],"game_id":440,"stv_port":27036,"stv_name":"Uncletopia | Los Angeles | 3 | All Maps | STV","players":null},{"server_id":25,"name":"Uncletopia | Los Angeles | 4 | Stopwatch","name_short":"lax-4","host":"lax-1.us.uncletopia.com","port":27045,"enabled":true,"region":"us-west","cc":"us","latitude":33.94279,"longitude":-118.41004,"reserved":0,"last_update":"0001-01-01T00:00:00Z","name_a2s":"Uncletopia | Los Angeles | 4 | Stopwatch","protocol":17,"map":"workshop/koth_ashville_final.ugc2130459942","folder":"tf","game":"Team Fortress","app_id":440,"player_count":0,"max_players":24,"Bots":0,"server_type":"Dedicated","server_os":"Linux","password":true,"vac":true,"version":"7961495","steam_id":85568392924510199,"keywords":["cp","nocrits","nodmgspread","uncletopia"],"game_id":440,"stv_port":27046,"stv_name":"Uncletopia | Los Angeles | 4 | Stopwatch | STV","players":null},{"server_id":11,"name":"Uncletopia | London | 1 | All Maps","name_short":"lon-1","host":"lon-1.uk.uncletopia.com","port":27015,"enabled":true,"region":"eu","cc":"gb","latitude":51.509865,"longitude":-0.118092,"reserved":0,"last_update":"0001-01-01T00:00:00Z","name_a2s":"Uncletopia | London | 1 | All Maps","protocol":17,"map":"ctf_doublecross","folder":"tf","game":"Team Fortress","app_id":440,"player_count":24,"max_players":24,"Bots":0,"server_type":"Dedicated","server_os":"Linux","password":true,"vac":true,"version":"7961495","steam_id":85568392924367362,"keywords":["ctf","nocrits","nodmgspread","uncletopia"],"game_id":440,"stv_port":27016,"stv_name":"Uncletopia | London | 1 | All Maps | STV","players":[{"user_id":583,"name":"Not A Fake Uncletopia Server","steam_id":76561198152871288,"connected_time":2053000000000,"state":"active","ping":62},{"user_id":561,"name":"tobi ^︿^","steam_id":76561198023388785,"connected_time":3951000000000,"state":"active","ping":61},{"user_id":584,"name":"Mei","steam_id":76561198363464483,"connected_time":2051000000000,"state":"active","ping":80},{"user_id":573,"name":"Mirror","steam_id":76561197963954925,"connected_time":3118000000000,"state":"active","ping":32},{"user_id":501,"name":"Anri Okita's Massive Milkers","steam_id":76561199186352720,"connected_time":10109000000000,"state":"active","ping":68},{"user_id":508,"name":"sora","steam_id":76561198096547662,"connected_time":8428000000000,"state":"active","ping":52},{"user_id":588,"name":"Isaac Boush","steam_id":76561198179746529,"connected_time":1753000000000,"state":"active","ping":81},{"user_id":554,"name":"IDENTITY CRISIS","steam_id":76561198106802803,"connected_time":4716000000000,"state":"active","ping":83},{"user_id":544,"name":"Yelowchy","steam_id":76561198199416121,"connected_time":5684000000000,"state":"active","ping":69},{"user_id":558,"name":"Sherlock Bond","steam_id":76561198042045955,"connected_time":4426000000000,"state":"active","ping":50},{"user_id":547,"name":"KnugenIV","steam_id":76561198127091993,"connected_time":5250000000000,"state":"active","ping":57},{"user_id":594,"name":"gibb (official)","steam_id":76561198074097655,"connected_time":77000000000,"state":"active","ping":61},{"user_id":492,"name":"shlifer","steam_id":76561198110531281,"connected_time":10917000000000,"state":"active","ping":68},{"user_id":593,"name":"REN","steam_id":76561198000596385,"connected_time":877000000000,"state":"active","ping":85},{"user_id":574,"name":"TheEmeraldStar","steam_id":76561198072942529,"connected_time":3081000000000,"state":"active","ping":66},{"user_id":589,"name":"TheRedBaron","steam_id":76561198251312256,"connected_time":1414000000000,"state":"active","ping":42},{"user_id":564,"name":"beebo","steam_id":76561199120277007,"connected_time":3553000000000,"state":"active","ping":44},{"user_id":504,"name":"Minimi","steam_id":76561198873850443,"connected_time":8998000000000,"state":"active","ping":45},{"user_id":585,"name":"Noob_with_source","steam_id":76561198870362103,"connected_time":2016000000000,"state":"active","ping":60},{"user_id":577,"name":"Purps","steam_id":76561198053886680,"connected_time":3006000000000,"state":"active","ping":37},{"user_id":555,"name":"ONI","steam_id":76561199038860035,"connected_time":4673000000000,"state":"active","ping":60},{"user_id":595,"name":"Aaron","steam_id":76561197990046953,"connected_time":76000000000,"state":"active","ping":51},{"user_id":591,"name":"Oldworldjazz","steam_id":76561198184632645,"connected_time":1122000000000,"state":"active","ping":106},{"user_id":587,"name":"ho hoe HO","steam_id":76561198117335523,"connected_time":1917000000000,"state":"active","ping":90}]},{"server_id":114,"name":"Uncletopia | London | 2 | All Maps","name_short":"lon-2","host":"lon-1.uk.uncletopia.com","port":27025,"enabled":true,"region":"eu","cc":"gb","latitude":51.509865,"longitude":-0.118092,"reserved":0,"last_update":"0001-01-01T00:00:00Z","name_a2s":"Uncletopia | London | 2 | All Maps","protocol":17,"map":"pl_snowycoast","folder":"tf","game":"Team Fortress","app_id":440,"player_count":24,"max_players":24,"Bots":0,"server_type":"Dedicated","server_os":"Linux","password":true,"vac":true,"version":"7961495","steam_id":85568392924470941,"keywords":["nocrits","nodmgspread","payload","uncletopia"],"game_id":440,"stv_port":27026,"stv_name":"Uncletopia | London | 2 | All Maps | STV","players":[{"user_id":689,"name":"wG toemon$terr","steam_id":76561198815271970,"connected_time":699000000000,"state":"active","ping":64},{"user_id":708,"name":"forklift certified spy","steam_id":76561199195985387,"connected_time":12000000000,"state":"active","ping":112},{"user_id":670,"name":"jjkun786","steam_id":76561199438517484,"connected_time":1541000000000,"state":"active","ping":75},{"user_id":681,"name":"Nyoom","steam_id":76561198054585002,"connected_time":843000000000,"state":"active","ping":53},{"user_id":700,"name":"CreepyYellowDuck","steam_id":76561198000479387,"connected_time":429000000000,"state":"active","ping":35},{"user_id":688,"name":"frutta","steam_id":76561198131786352,"connected_time":754000000000,"state":"active","ping":85},{"user_id":652,"name":"LogainAblar","steam_id":76561198353261190,"connected_time":2053000000000,"state":"active","ping":63},{"user_id":671,"name":"I'm bored","steam_id":76561198380504471,"connected_time":1493000000000,"state":"active","ping":127},{"user_id":701,"name":"JellyParrot","steam_id":76561199190990163,"connected_time":423000000000,"state":"active","ping":140},{"user_id":646,"name":"Goobie","steam_id":76561198047375383,"connected_time":2304000000000,"state":"active","ping":40},{"user_id":685,"name":"MeleeMeta","steam_id":76561198237963558,"connected_time":794000000000,"state":"active","ping":61},{"user_id":698,"name":"Exgone","steam_id":76561198296655773,"connected_time":465000000000,"state":"active","ping":65},{"user_id":663,"name":"william","steam_id":76561198214413081,"connected_time":1853000000000,"state":"active","ping":81},{"user_id":664,"name":"tonald drump","steam_id":76561198160625404,"connected_time":1722000000000,"state":"active","ping":75},{"user_id":704,"name":"Uncle Dale","steam_id":76561199144302768,"connected_time":388000000000,"state":"active","ping":113},{"user_id":703,"name":"eMcP","steam_id":76561198382509396,"connected_time":400000000000,"state":"active","ping":58},{"user_id":707,"name":"positive vibes","steam_id":76561198080524596,"connected_time":23000000000,"state":"active","ping":44},{"user_id":645,"name":"Wilderhammer","steam_id":76561198132133702,"connected_time":2622000000000,"state":"active","ping":56},{"user_id":653,"name":"Tennis","steam_id":76561198122109096,"connected_time":2047000000000,"state":"active","ping":70},{"user_id":654,"name":"sussy gussy","steam_id":76561198079461874,"connected_time":2041000000000,"state":"active","ping":69},{"user_id":686,"name":"Bajas","steam_id":76561198179339326,"connected_time":790000000000,"state":"active","ping":78},{"user_id":702,"name":"pabbott123110","steam_id":76561199231739796,"connected_time":421000000000,"state":"active","ping":141},{"user_id":696,"name":"Suetolog","steam_id":76561199053090212,"connected_time":531000000000,"state":"active","ping":62},{"user_id":687,"name":"Solid Snake holding a pepsi","steam_id":76561198348396493,"connected_time":780000000000,"state":"active","ping":44}]},{"server_id":320,"name":"Uncletopia | London | 3 | All Maps","name_short":"lon-3","host":"lon-1.uk.uncletopia.com","port":27035,"enabled":true,"region":"eu","cc":"gb","latitude":51.509865,"longitude":-0.118092,"reserved":0,"last_update":"0001-01-01T00:00:00Z","name_a2s":"Uncletopia | London | 3 | All Maps","protocol":17,"map":"koth_viaduct","folder":"tf","game":"Team Fortress","app_id":440,"player_count":2,"max_players":24,"Bots":0,"server_type":"Dedicated","server_os":"Linux","password":true,"vac":true,"version":"7961495","steam_id":85568392924510192,"keywords":["cp","nocrits","nodmgspread","uncletopia"],"game_id":440,"stv_port":27036,"stv_name":"Uncletopia | London | 3 | All Maps | STV","players":[{"user_id":838,"name":"sarge","steam_id":76561198243380546,"connected_time":614000000000,"state":"active","ping":56},{"user_id":839,"name":"yuno appreciator","steam_id":76561198083286511,"connected_time":374000000000,"state":"active","ping":32}]},{"server_id":321,"name":"Uncletopia | London | 4 | All Maps","name_short":"lon-4","host":"lon-1.uk.uncletopia.com","port":27045,"enabled":true,"region":"eu","cc":"gb","latitude":51.509865,"longitude":-0.118092,"reserved":0,"last_update":"0001-01-01T00:00:00Z","name_a2s":"Uncletopia | London | 4 | All Maps","protocol":17,"map":"koth_cascade","folder":"tf","game":"Team Fortress","app_id":440,"player_count":0,"max_players":24,"Bots":0,"server_type":"Dedicated","server_os":"Linux","password":true,"vac":true,"version":"7961495","steam_id":85568392924510193,"keywords":["cp","nocrits","nodmgspread","uncletopia"],"game_id":440,"stv_port":27046,"stv_name":"Uncletopia | London | 4 | All Maps | STV","players":null},{"server_id":21,"name":"Uncletopia | London | 5 | All Maps","name_short":"lon-5","host":"lon-1.uk.uncletopia.com","port":27055,"enabled":true,"region":"eu","cc":"gb","latitude":51.509865,"longitude":-0.118092,"reserved":0,"last_update":"0001-01-01T00:00:00Z","name_a2s":"Uncletopia | London | 5 | All Maps","protocol":17,"map":"pl_borneo","folder":"tf","game":"Team Fortress","app_id":440,"player_count":24,"max_players":24,"Bots":0,"server_type":"Dedicated","server_os":"Linux","password":true,"vac":true,"version":"7961495","steam_id":85568392924742829,"keywords":["nocrits","nodmgspread","payload","uncletopia"],"game_id":440,"stv_port":27056,"stv_name":"Uncletopia | London | 5 | All Maps | STV","players":[{"user_id":881,"name":"Swayer","steam_id":76561198056192460,"connected_time":1499000000000,"state":"active","ping":65},{"user_id":860,"name":"Rhan","steam_id":76561198021035666,"connected_time":2557000000000,"state":"active","ping":75},{"user_id":863,"name":"vexioz","steam_id":76561198000542476,"connected_time":2510000000000,"state":"active","ping":75},{"user_id":802,"name":"Ruvik","steam_id":76561198031040533,"connected_time":6462000000000,"state":"active","ping":59},{"user_id":868,"name":"GREENbot","steam_id":76561198062378708,"connected_time":2303000000000,"state":"active","ping":83},{"user_id":798,"name":"STARRI","steam_id":76561198245784188,"connected_time":6516000000000,"state":"active","ping":48},{"user_id":858,"name":"Adam","steam_id":76561198083655265,"connected_time":2822000000000,"state":"active","ping":49},{"user_id":879,"name":"[UwU] Blackblood909","steam_id":76561198079427660,"connected_time":1551000000000,"state":"active","ping":73},{"user_id":891,"name":"Penis Contortionist","steam_id":76561198073663784,"connected_time":812000000000,"state":"active","ping":35},{"user_id":892,"name":"Black Tom","steam_id":76561198335730273,"connected_time":807000000000,"state":"active","ping":64},{"user_id":842,"name":"team fortress","steam_id":76561198801207748,"connected_time":4273000000000,"state":"active","ping":127},{"user_id":897,"name":"Morskittar","steam_id":76561198153394861,"connected_time":340000000000,"state":"active","ping":60},{"user_id":874,"name":"GunGuy","steam_id":76561198124510978,"connected_time":2077000000000,"state":"active","ping":40},{"user_id":878,"name":"Bronchius Bonehead","steam_id":76561198133961416,"connected_time":1994000000000,"state":"active","ping":55},{"user_id":893,"name":"LiterallyRyanGosling","steam_id":76561199017856691,"connected_time":804000000000,"state":"active","ping":57},{"user_id":883,"name":"DDGAF","steam_id":76561198257836694,"connected_time":1413000000000,"state":"active","ping":36},{"user_id":853,"name":"travis","steam_id":76561198138119811,"connected_time":3723000000000,"state":"active","ping":45},{"user_id":875,"name":"zayd","steam_id":76561198895235231,"connected_time":2064000000000,"state":"active","ping":60},{"user_id":885,"name":"Cock Man","steam_id":76561198283638723,"connected_time":1373000000000,"state":"active","ping":59},{"user_id":896,"name":"Keke","steam_id":76561198042032908,"connected_time":754000000000,"state":"active","ping":46},{"user_id":887,"name":"superbug3003","steam_id":76561198311447642,"connected_time":1340000000000,"state":"active","ping":144},{"user_id":849,"name":"❤G a n K","steam_id":76561199125995565,"connected_time":4115000000000,"state":"active","ping":63},{"user_id":895,"name":"zulfie","steam_id":76561198117390056,"connected_time":795000000000,"state":"active","ping":39},{"user_id":866,"name":"gagalak","steam_id":76561198089979108,"connected_time":2431000000000,"state":"active","ping":103}]},{"server_id":22,"name":"Uncletopia | London | 6 | All Maps","name_short":"lon-6","host":"lon-1.uk.uncletopia.com","port":27065,"enabled":true,"region":"eu","cc":"gb","latitude":51.509865,"longitude":-0.118092,"reserved":0,"last_update":"0001-01-01T00:00:00Z","name_a2s":"Uncletopia | London | 6 | All Maps","protocol":17,"map":"pl_pier","folder":"tf","game":"Team Fortress","app_id":440,"player_count":24,"max_players":24,"Bots":0,"server_type":"Dedicated","server_os":"Linux","password":true,"vac":true,"version":"7961495","steam_id":85568392924742830,"keywords":["nocrits","nodmgspread","payload","uncletopia"],"game_id":440,"stv_port":27066,"stv_name":"Uncletopia | London | 6 | All Maps | STV","players":[{"user_id":867,"name":"torn","steam_id":76561198223003236,"connected_time":838000000000,"state":"active","ping":36},{"user_id":872,"name":"ducks","steam_id":76561198166148685,"connected_time":535000000000,"state":"active","ping":32},{"user_id":844,"name":"tm`","steam_id":76561197993580412,"connected_time":2375000000000,"state":"active","ping":71},{"user_id":849,"name":"Ninjeg","steam_id":76561197995307947,"connected_time":1845000000000,"state":"active","ping":57},{"user_id":797,"name":"Mr_Pulse_","steam_id":76561198095001602,"connected_time":5630000000000,"state":"active","ping":114},{"user_id":764,"name":"Marquis de Hoto","steam_id":76561198080687708,"connected_time":8478000000000,"state":"active","ping":72},{"user_id":829,"name":"paypig","steam_id":76561198035137115,"connected_time":3595000000000,"state":"active","ping":53},{"user_id":870,"name":"Pasta","steam_id":76561198057463587,"connected_time":618000000000,"state":"active","ping":137},{"user_id":754,"name":"Just Navlis (Moss-Ologist)","steam_id":76561198090479609,"connected_time":9354000000000,"state":"active","ping":58},{"user_id":868,"name":"Vinnidict","steam_id":76561198037087000,"connected_time":743000000000,"state":"active","ping":76},{"user_id":871,"name":"no squares in my circle","steam_id":76561198051852765,"connected_time":570000000000,"state":"active","ping":75},{"user_id":857,"name":"Scatter","steam_id":76561198258085271,"connected_time":1445000000000,"state":"active","ping":82},{"user_id":875,"name":"HazelForest","steam_id":76561198171827033,"connected_time":149000000000,"state":"active","ping":52},{"user_id":851,"name":"MustangCricket","steam_id":76561197963408317,"connected_time":1732000000000,"state":"active","ping":56},{"user_id":745,"name":"Cabbch","steam_id":76561198045955679,"connected_time":10294000000000,"state":"active","ping":48},{"user_id":877,"name":"Kiogeki","steam_id":76561197996707843,"connected_time":94000000000,"state":"active","ping":38},{"user_id":853,"name":"Zedifo","steam_id":76561198044032070,"connected_time":1619000000000,"state":"active","ping":46},{"user_id":814,"name":"RadialMount","steam_id":76561198063002562,"connected_time":4846000000000,"state":"active","ping":72},{"user_id":873,"name":"Mortified","steam_id":76561198010225496,"connected_time":367000000000,"state":"active","ping":53},{"user_id":837,"name":"xTheDarkLight","steam_id":76561198239128298,"connected_time":2873000000000,"state":"active","ping":63},{"user_id":846,"name":"Valen","steam_id":76561198049614521,"connected_time":2362000000000,"state":"active","ping":75},{"user_id":819,"name":"glyph","steam_id":76561197980736364,"connected_time":4797000000000,"state":"active","ping":82},{"user_id":856,"name":"KittyKate ❤","steam_id":76561198116340817,"connected_time":1470000000000,"state":"active","ping":62},{"user_id":866,"name":"ExtraFlames","steam_id":76561199136146246,"connected_time":881000000000,"state":"active","ping":55}]},{"server_id":40,"name":"Uncletopia | London | 7 | Stopwatch","name_short":"lon-7","host":"lon-1.uk.uncletopia.com","port":27075,"enabled":true,"region":"eu","cc":"gb","latitude":51.509865,"longitude":-0.118092,"reserved":0,"last_update":"0001-01-01T00:00:00Z","name_a2s":"Uncletopia | London | 7 | Stopwatch","protocol":17,"map":"workshop/koth_ashville_final.ugc2130459942","folder":"tf","game":"Team Fortress","app_id":440,"player_count":0,"max_players":24,"Bots":0,"server_type":"Dedicated","server_os":"Linux","password":true,"vac":true,"version":"7961495","steam_id":85568392924964314,"keywords":["cp","nocrits","nodmgspread","uncletopia"],"game_id":440,"stv_port":27076,"stv_name":"Uncletopia | London | 7 | Stopwatch | STV","players":null},{"server_id":41,"name":"Uncletopia | London | 8 | Community","name_short":"lon-8","host":"lon-1.uk.uncletopia.com","port":27085,"enabled":true,"region":"eu","cc":"gb","latitude":51.509865,"longitude":-0.118092,"reserved":0,"last_update":"0001-01-01T00:00:00Z","name_a2s":"Uncletopia | London | 8 | Community","protocol":17,"map":"workshop/pl_boundary_final1.ugc456799153","folder":"tf","game":"Team Fortress","app_id":440,"player_count":0,"max_players":24,"Bots":0,"server_type":"Dedicated","server_os":"Linux","password":true,"vac":true,"version":"7961495","steam_id":85568392924964315,"keywords":["nocrits","nodmgspread","payload","uncletopia"],"game_id":440,"stv_port":27086,"stv_name":"Uncletopia | London | 8 | Community | STV","players":null},{"server_id":300,"name":"Uncletopia | Montréal | 1 | One Thousand Uncles","name_short":"mtl-1","host":"mtl-1.ca.uncletopia.com","port":27015,"enabled":true,"region":"us-east","cc":"ca","latitude":45.50889,"longitude":-73.56167,"reserved":0,"last_update":"0001-01-01T00:00:00Z","name_a2s":"","protocol":0,"map":"","folder":"","game":"","app_id":0,"player_count":9,"max_players":0,"Bots":0,"server_type":"","server_os":"","password":false,"vac":false,"version":"","steam_id":0,"keywords":null,"game_id":0,"stv_port":0,"stv_name":"","players":[{"user_id":27,"name":"unnamed","steam_id":76561198961548221,"connected_time":924000000000,"state":"active","ping":49},{"user_id":3,"name":"Waning Sanity","steam_id":76561197963089845,"connected_time":1922000000000,"state":"active","ping":81},{"user_id":25,"name":"muck","steam_id":76561198120437909,"connected_time":1393000000000,"state":"active","ping":76},{"user_id":21,"name":"Im Groot","steam_id":76561198294943420,"connected_time":1894000000000,"state":"active","ping":81},{"user_id":30,"name":"Shadowwalker","steam_id":76561198344642637,"connected_time":368000000000,"state":"active","ping":80},{"user_id":26,"name":"ArcticRescue","steam_id":76561198055362404,"connected_time":1133000000000,"state":"active","ping":50},{"user_id":33,"name":"ExplodingPie","steam_id":76561199007746780,"connected_time":62000000000,"state":"active","ping":43},{"user_id":29,"name":"WM1 PYRO","steam_id":76561198045893896,"connected_time":584000000000,"state":"active","ping":97},{"user_id":31,"name":"Yankee_Pirate","steam_id":76561198260667117,"connected_time":341000000000,"state":"active","ping":50}]},{"server_id":301,"name":"Uncletopia | Montréal | 2 | One Thousand Uncles","name_short":"mtl-2","host":"mtl-1.ca.uncletopia.com","port":27025,"enabled":true,"region":"us-east","cc":"ca","latitude":45.50889,"longitude":-73.56167,"reserved":0,"last_update":"0001-01-01T00:00:00Z","name_a2s":"","protocol":0,"map":"","folder":"","game":"","app_id":0,"player_count":0,"max_players":0,"Bots":0,"server_type":"","server_os":"","password":false,"vac":false,"version":"","steam_id":0,"keywords":null,"game_id":0,"stv_port":0,"stv_name":"","players":null},{"server_id":302,"name":"Uncletopia | Montréal | 3 | One Thousand Uncles","name_short":"mtl-3","host":"mtl-1.ca.uncletopia.com","port":27035,"enabled":true,"region":"us-east","cc":"ca","latitude":45.50889,"longitude":-73.56167,"reserved":0,"last_update":"0001-01-01T00:00:00Z","name_a2s":"","protocol":0,"map":"","folder":"","game":"","app_id":0,"player_count":0,"max_players":0,"Bots":0,"server_type":"","server_os":"","password":false,"vac":false,"version":"","steam_id":0,"keywords":null,"game_id":0,"stv_port":0,"stv_name":"","players":null},{"server_id":13,"name":"Uncletopia | New York City | 1 | All Maps","name_short":"nyc-1","host":"nyc-1.us.uncletopia.com","port":27015,"enabled":true,"region":"us-east","cc":"us","latitude":40.73061,"longitude":-73.93524,"reserved":0,"last_update":"0001-01-01T00:00:00Z","name_a2s":"Uncletopia | New York City | 1 | All Maps","protocol":17,"map":"pl_upward","folder":"tf","game":"Team Fortress","app_id":440,"player_count":24,"max_players":24,"Bots":0,"server_type":"Dedicated","server_os":"Linux","password":true,"vac":true,"version":"7961495","steam_id":85568392924469993,"keywords":["nocrits","nodmgspread","payload","uncletopia"],"game_id":440,"stv_port":27016,"stv_name":"Uncletopia | New York City | 1 | All Maps | STV","players":[{"user_id":518,"name":"stargaze","steam_id":76561198103614972,"connected_time":2014000000000,"state":"active","ping":113},{"user_id":530,"name":"Sweet Jesus","steam_id":76561198060068046,"connected_time":1054000000000,"state":"active","ping":86},{"user_id":532,"name":"Mr. Videogame","steam_id":76561198007087691,"connected_time":752000000000,"state":"active","ping":57},{"user_id":519,"name":"cbert","steam_id":76561198040999362,"connected_time":1978000000000,"state":"active","ping":48},{"user_id":535,"name":"ylgurb","steam_id":76561198422363266,"connected_time":721000000000,"state":"active","ping":60},{"user_id":534,"name":"Professor Shaggy","steam_id":76561198276926724,"connected_time":731000000000,"state":"active","ping":44},{"user_id":536,"name":"vortexgamer","steam_id":76561197999435527,"connected_time":715000000000,"state":"active","ping":85},{"user_id":475,"name":"WibbyOne","steam_id":76561198052843846,"connected_time":6162000000000,"state":"active","ping":39},{"user_id":504,"name":"BadLuck","steam_id":76561198096452401,"connected_time":3753000000000,"state":"active","ping":65},{"user_id":499,"name":"Mysterious Stranger","steam_id":76561198212044371,"connected_time":4235000000000,"state":"active","ping":60},{"user_id":525,"name":"Dark","steam_id":76561198004855334,"connected_time":1374000000000,"state":"active","ping":80},{"user_id":537,"name":"Hot Apple Cider","steam_id":76561198094641783,"connected_time":698000000000,"state":"active","ping":82},{"user_id":545,"name":"Leavingsnake","steam_id":76561199048590521,"connected_time":539000000000,"state":"active","ping":63},{"user_id":501,"name":"aoefjwoef","steam_id":76561198046948758,"connected_time":4033000000000,"state":"active","ping":52},{"user_id":527,"name":"you forgot the sauce","steam_id":76561198387016713,"connected_time":1127000000000,"state":"active","ping":57},{"user_id":538,"name":"Zeno","steam_id":76561197984901291,"connected_time":698000000000,"state":"active","ping":85},{"user_id":523,"name":"Peepster","steam_id":76561198297854733,"connected_time":1893000000000,"state":"active","ping":74},{"user_id":542,"name":"dietcokefan42","steam_id":76561198135307995,"connected_time":623000000000,"state":"active","ping":58},{"user_id":539,"name":"n00bcreeper45 | hotdogexperimen","steam_id":76561198039180450,"connected_time":694000000000,"state":"active","ping":84},{"user_id":531,"name":"KitKatsz/PH","steam_id":76561197970839355,"connected_time":1001000000000,"state":"active","ping":70},{"user_id":526,"name":"two_chans","steam_id":76561198837793098,"connected_time":1320000000000,"state":"active","ping":100},{"user_id":540,"name":"Cs2 TRADEBOT 3","steam_id":76561198143634233,"connected_time":683000000000,"state":"active","ping":73},{"user_id":503,"name":"Chicken Burger","steam_id":76561198358529311,"connected_time":3915000000000,"state":"active","ping":96},{"user_id":541,"name":"Tomato Sauce","steam_id":76561198815374376,"connected_time":681000000000,"state":"active","ping":136}]},{"server_id":14,"name":"Uncletopia | New York City | 2 | All Maps","name_short":"nyc-2","host":"nyc-1.us.uncletopia.com","port":27025,"enabled":true,"region":"us-east","cc":"us","latitude":40.73061,"longitude":-73.93524,"reserved":0,"last_update":"0001-01-01T00:00:00Z","name_a2s":"Uncletopia | New York City | 2 | All Maps","protocol":17,"map":"pl_upward","folder":"tf","game":"Team Fortress","app_id":440,"player_count":24,"max_players":24,"Bots":0,"server_type":"Dedicated","server_os":"Linux","password":true,"vac":true,"version":"7961495","steam_id":85568392924469994,"keywords":["nocrits","nodmgspread","payload","uncletopia"],"game_id":440,"stv_port":27026,"stv_name":"Uncletopia | New York City | 2 | All Maps | STV","players":[{"user_id":589,"name":"Nerrrd_","steam_id":76561198870129960,"connected_time":34000000000,"state":"active","ping":33},{"user_id":585,"name":"trzepaczkaadam","steam_id":76561199480520243,"connected_time":85000000000,"state":"active","ping":66},{"user_id":588,"name":"CHIKN","steam_id":76561198277792665,"connected_time":60000000000,"state":"spawning","ping":140},{"user_id":587,"name":"Bartholomew Binglebottom","steam_id":76561198347286009,"connected_time":77000000000,"state":"active","ping":52},{"user_id":512,"name":"Hi, I'm Jesus","steam_id":76561198015327152,"connected_time":5875000000000,"state":"active","ping":47},{"user_id":590,"name":"lego star wars on the psp","steam_id":76561198148014773,"connected_time":29000000000,"state":"active","ping":57},{"user_id":562,"name":"beast from the east","steam_id":76561198267624034,"connected_time":2151000000000,"state":"active","ping":63},{"user_id":563,"name":"crabapples","steam_id":76561198075818655,"connected_time":2100000000000,"state":"active","ping":54},{"user_id":576,"name":"hot house cucumber","steam_id":76561198148135489,"connected_time":868000000000,"state":"active","ping":147},{"user_id":572,"name":"John Fortnite","steam_id":76561198076608253,"connected_time":1399000000000,"state":"active","ping":60},{"user_id":584,"name":"Parth Makeo","steam_id":76561198002516581,"connected_time":130000000000,"state":"active","ping":42},{"user_id":579,"name":"Rev","steam_id":76561198045651005,"connected_time":677000000000,"state":"active","ping":71},{"user_id":591,"name":"Bdog1092","steam_id":76561199228923100,"connected_time":7000000000,"state":"spawning","ping":68},{"user_id":580,"name":"HRTless","steam_id":76561198394284595,"connected_time":659000000000,"state":"active","ping":35},{"user_id":581,"name":"lft fluffy brain stab #deleteC+","steam_id":76561198055867856,"connected_time":639000000000,"state":"active","ping":24},{"user_id":582,"name":"MeKaso TropStar","steam_id":76561199109895840,"connected_time":580000000000,"state":"active","ping":54},{"user_id":565,"name":"Atomic Ursa","steam_id":76561198032246421,"connected_time":2054000000000,"state":"active","ping":69},{"user_id":542,"name":"SHPEE","steam_id":76561198091611460,"connected_time":4220000000000,"state":"active","ping":81},{"user_id":586,"name":"Jeffery Epstein #TheReturn","steam_id":76561198143826450,"connected_time":81000000000,"state":"active","ping":65},{"user_id":551,"name":"Sableye","steam_id":76561198061247147,"connected_time":3575000000000,"state":"active","ping":75},{"user_id":583,"name":"esoobac","steam_id":76561198010370396,"connected_time":479000000000,"state":"active","ping":63},{"user_id":549,"name":"Olifont","steam_id":76561198141162919,"connected_time":3823000000000,"state":"active","ping":63},{"user_id":567,"name":"Tank Chili","steam_id":76561198161183031,"connected_time":1998000000000,"state":"active","ping":71},{"user_id":592,"name":"Nyet","steam_id":76561198806684394,"connected_time":1000000000,"state":"spawning","ping":36}]},{"server_id":15,"name":"Uncletopia | New York City | 3 | Stopwatch","name_short":"nyc-3","host":"nyc-1.us.uncletopia.com","port":27035,"enabled":true,"region":"us-east","cc":"us","latitude":40.73061,"longitude":-73.93524,"reserved":0,"last_update":"0001-01-01T00:00:00Z","name_a2s":"Uncletopia | New York City | 3 | Stopwatch","protocol":17,"map":"workshop/pl_vigil_rc10.ugc1266210012","folder":"tf","game":"Team Fortress","app_id":440,"player_count":0,"max_players":24,"Bots":0,"server_type":"Dedicated","server_os":"Linux","password":true,"vac":true,"version":"7961495","steam_id":85568392924742820,"keywords":["nocrits","nodmgspread","payload","uncletopia"],"game_id":440,"stv_port":27036,"stv_name":"Uncletopia | New York City | 3 | Stopwatch | STV","players":null},{"server_id":16,"name":"Uncletopia | New York City | 4 | Community","name_short":"nyc-4","host":"nyc-1.us.uncletopia.com","port":27045,"enabled":true,"region":"us-east","cc":"us","latitude":40.73061,"longitude":-73.93524,"reserved":0,"last_update":"0001-01-01T00:00:00Z","name_a2s":"Uncletopia | New York City | 4 | Community","protocol":17,"map":"workshop/koth_ramjam_rc1.ugc459778887","folder":"tf","game":"Team Fortress","app_id":440,"player_count":0,"max_players":24,"Bots":0,"server_type":"Dedicated","server_os":"Linux","password":true,"vac":true,"version":"7961495","steam_id":85568392924742821,"keywords":["cp","nocrits","nodmgspread","uncletopia"],"game_id":440,"stv_port":27046,"stv_name":"Uncletopia | New York City | 4 | Community | STV","players":null},{"server_id":142,"name":"Uncletopia | São Paulo | 1 | All Maps","name_short":"sao-1","host":"sao-1.br.uncletopia.com","port":27015,"enabled":true,"region":"sa","cc":"br","latitude":-23.533773,"longitude":-46.62529,"reserved":0,"last_update":"0001-01-01T00:00:00Z","name_a2s":"Uncletopia | São Paulo | 1 | All Maps","protocol":17,"map":"pl_pier","folder":"tf","game":"Team Fortress","app_id":440,"player_count":0,"max_players":24,"Bots":0,"server_type":"Dedicated","server_os":"Linux","password":true,"vac":true,"version":"7961495","steam_id":85568392924469996,"keywords":["nocrits","nodmgspread","payload","uncletopia"],"game_id":440,"stv_port":27016,"stv_name":"Uncletopia | São Paulo | 1 | All Maps | STV","players":null},{"server_id":143,"name":"Uncletopia | São Paulo | 2 | Community","name_short":"sao-2","host":"sao-2.br.uncletopia.com","port":27015,"enabled":true,"region":"sa","cc":"br","latitude":-23.533773,"longitude":-46.62529,"reserved":0,"last_update":"0001-01-01T00:00:00Z","name_a2s":"Uncletopia | São Paulo | 2 | Community","protocol":17,"map":"workshop/pl_eruption_b9a.ugc2807898013","folder":"tf","game":"Team Fortress","app_id":440,"player_count":3,"max_players":24,"Bots":0,"server_type":"Dedicated","server_os":"Linux","password":true,"vac":true,"version":"7961495","steam_id":85568392924485349,"keywords":["nocrits","nodmgspread","payload","uncletopia"],"game_id":440,"stv_port":27016,"stv_name":"Uncletopia | São Paulo | 2 | Community | STV","players":[{"user_id":83,"name":"eriquesaltos02","steam_id":76561199440339479,"connected_time":4668000000000,"state":"active","ping":50},{"user_id":88,"name":"bad at tf2 episode 2","steam_id":76561198349204525,"connected_time":2981000000000,"state":"active","ping":48},{"user_id":89,"name":":|","steam_id":76561198317090330,"connected_time":2711000000000,"state":"active","ping":59}]},{"server_id":7,"name":"Uncletopia | Seattle | 1 | All Maps","name_short":"sea-1","host":"sea-1.us.uncletopia.com","port":27015,"enabled":true,"region":"us-west","cc":"us","latitude":47.608013,"longitude":-122.33517,"reserved":0,"last_update":"0001-01-01T00:00:00Z","name_a2s":"Uncletopia | Seattle | 1 | All Maps","protocol":17,"map":"koth_lakeside_final","folder":"tf","game":"Team Fortress","app_id":440,"player_count":24,"max_players":24,"Bots":0,"server_type":"Dedicated","server_os":"Linux","password":true,"vac":true,"version":"7961495","steam_id":85568392924469997,"keywords":["cp","nocrits","nodmgspread","uncletopia"],"game_id":440,"stv_port":27016,"stv_name":"Uncletopia | Seattle | 1 | All Maps | STV","players":[{"user_id":442,"name":"Nightshade","steam_id":76561199011017814,"connected_time":5138000000000,"state":"active","ping":71},{"user_id":422,"name":"OxOoxen841","steam_id":76561198297981993,"connected_time":6383000000000,"state":"active","ping":76},{"user_id":499,"name":"nolove","steam_id":76561198274550638,"connected_time":907000000000,"state":"active","ping":106},{"user_id":468,"name":"ORANGE","steam_id":76561198000401769,"connected_time":3153000000000,"state":"active","ping":49},{"user_id":503,"name":"oo","steam_id":76561198119626492,"connected_time":685000000000,"state":"active","ping":68},{"user_id":492,"name":"you just got dyked on","steam_id":76561198018977723,"connected_time":1447000000000,"state":"active","ping":52},{"user_id":455,"name":"soup","steam_id":76561198043209046,"connected_time":4363000000000,"state":"active","ping":66},{"user_id":507,"name":"hovietchil","steam_id":76561198880622567,"connected_time":281000000000,"state":"active","ping":154},{"user_id":485,"name":"Outta Kenya","steam_id":76561198153604875,"connected_time":1776000000000,"state":"active","ping":56},{"user_id":477,"name":"ShackerJack","steam_id":76561198118017448,"connected_time":2009000000000,"state":"active","ping":60},{"user_id":496,"name":"Rev","steam_id":76561199060355036,"connected_time":1181000000000,"state":"active","ping":41},{"user_id":498,"name":"Paperclip","steam_id":76561198057076337,"connected_time":1068000000000,"state":"active","ping":48},{"user_id":501,"name":"*The* Wardoug41","steam_id":76561198255780869,"connected_time":762000000000,"state":"active","ping":136},{"user_id":502,"name":"azureglxy","steam_id":76561198861388315,"connected_time":717000000000,"state":"active","ping":67},{"user_id":504,"name":"1000 Ping","steam_id":76561198098330939,"connected_time":659000000000,"state":"active","ping":88},{"user_id":491,"name":"bear1boss fan","steam_id":76561198047850813,"connected_time":1521000000000,"state":"active","ping":74},{"user_id":482,"name":"Haven","steam_id":76561198087584756,"connected_time":1939000000000,"state":"active","ping":61},{"user_id":467,"name":"BLU3","steam_id":76561198059652670,"connected_time":3181000000000,"state":"active","ping":45},{"user_id":483,"name":"Henchie!","steam_id":76561198047567464,"connected_time":1926000000000,"state":"active","ping":87},{"user_id":461,"name":"Winter the Witchie","steam_id":76561198151971178,"connected_time":3978000000000,"state":"active","ping":102},{"user_id":487,"name":"vfa","steam_id":76561198055729118,"connected_time":1674000000000,"state":"active","ping":58},{"user_id":495,"name":"jizz gaming","steam_id":76561198984762462,"connected_time":1222000000000,"state":"active","ping":69},{"user_id":505,"name":"squart guy","steam_id":76561199411560141,"connected_time":623000000000,"state":"active","ping":43},{"user_id":489,"name":"Streamline","steam_id":76561198031098638,"connected_time":1602000000000,"state":"active","ping":103}]},{"server_id":119,"name":"Uncletopia | Seattle | 2 | All Maps","name_short":"sea-2","host":"sea-1.us.uncletopia.com","port":27025,"enabled":true,"region":"us-west","cc":"us","latitude":47.608013,"longitude":-122.33517,"reserved":0,"last_update":"0001-01-01T00:00:00Z","name_a2s":"Uncletopia | Seattle | 2 | All Maps","protocol":17,"map":"pl_frontier_final","folder":"tf","game":"Team Fortress","app_id":440,"player_count":24,"max_players":24,"Bots":0,"server_type":"Dedicated","server_os":"Linux","password":true,"vac":true,"version":"7961495","steam_id":85568392924469998,"keywords":["nocrits","nodmgspread","payload","uncletopia"],"game_id":440,"stv_port":27026,"stv_name":"Uncletopia | Seattle | 2 | All Maps | STV","players":[{"user_id":206,"name":"Gamekiller839","steam_id":76561199475400469,"connected_time":1466000000000,"state":"active","ping":29},{"user_id":154,"name":"Morse","steam_id":76561198039944542,"connected_time":4036000000000,"state":"active","ping":51},{"user_id":211,"name":"Jetstream Sam","steam_id":76561198878974709,"connected_time":1060000000000,"state":"active","ping":75},{"user_id":212,"name":"Tritium","steam_id":76561198043305626,"connected_time":1024000000000,"state":"active","ping":63},{"user_id":190,"name":"ark","steam_id":76561198041066271,"connected_time":2300000000000,"state":"active","ping":83},{"user_id":157,"name":"Ratchet55","steam_id":76561198208655521,"connected_time":3919000000000,"state":"active","ping":96},{"user_id":222,"name":"Rude Dog","steam_id":76561197980385816,"connected_time":535000000000,"state":"active","ping":42},{"user_id":225,"name":"jerma but crying and lesbian","steam_id":76561198110661425,"connected_time":474000000000,"state":"active","ping":88},{"user_id":213,"name":"albert581_gaming","steam_id":76561198219209367,"connected_time":1021000000000,"state":"active","ping":56},{"user_id":194,"name":"Necronics","steam_id":76561198072673123,"connected_time":2206000000000,"state":"active","ping":55},{"user_id":218,"name":"♥ Osana Najimi ♥ (Soupcan)","steam_id":76561198056269538,"connected_time":724000000000,"state":"active","ping":45},{"user_id":228,"name":"Lawnmower","steam_id":76561198186680197,"connected_time":178000000000,"state":"active","ping":57},{"user_id":152,"name":"A UsedNom","steam_id":76561198402832756,"connected_time":4096000000000,"state":"active","ping":59},{"user_id":198,"name":"Maid 'n' China","steam_id":76561198423392976,"connected_time":2074000000000,"state":"active","ping":60},{"user_id":215,"name":"zackdarkstar","steam_id":76561198039986133,"connected_time":923000000000,"state":"active","ping":50},{"user_id":163,"name":"bingus :3","steam_id":76561199198633203,"connected_time":3843000000000,"state":"active","ping":84},{"user_id":216,"name":"Useless","steam_id":76561198116079299,"connected_time":841000000000,"state":"active","ping":46},{"user_id":226,"name":"Primordial pouch","steam_id":76561198077993687,"connected_time":451000000000,"state":"active","ping":119},{"user_id":229,"name":"sleePI","steam_id":76561198450073779,"connected_time":90000000000,"state":"active","ping":45},{"user_id":181,"name":"PPFitzenreit","steam_id":76561199381005210,"connected_time":2527000000000,"state":"active","ping":75},{"user_id":221,"name":"Mr.Autistik","steam_id":76561198861596654,"connected_time":577000000000,"state":"active","ping":69},{"user_id":219,"name":"goblin","steam_id":76561198074500319,"connected_time":647000000000,"state":"active","ping":112},{"user_id":164,"name":"bonk man","steam_id":76561198386542309,"connected_time":3837000000000,"state":"active","ping":79},{"user_id":192,"name":"B.","steam_id":76561198040445907,"connected_time":2267000000000,"state":"active","ping":121}]},{"server_id":406,"name":"Uncletopia | Seattle | 3 | Stopwatch","name_short":"sea-3","host":"sea-1.us.uncletopia.com","port":27035,"enabled":true,"region":"us-west","cc":"us","latitude":47.608013,"longitude":-122.33517,"reserved":0,"last_update":"0001-01-01T00:00:00Z","name_a2s":"Uncletopia | Seattle | 3 | Stopwatch","protocol":17,"map":"workshop/koth_bagel_rc6.ugc2514036946","folder":"tf","game":"Team Fortress","app_id":440,"player_count":0,"max_players":24,"Bots":0,"server_type":"Dedicated","server_os":"Linux","password":true,"vac":true,"version":"7961495","steam_id":85568392924515217,"keywords":["cp","nocrits","nodmgspread","uncletopia"],"game_id":440,"stv_port":27036,"stv_name":"Uncletopia | Seattle | 3 | Stopwatch | STV","players":null},{"server_id":17,"name":"Uncletopia | San Francisco | 1 | All Maps","name_short":"sfo-1","host":"sfo-1.us.uncletopia.com","port":27015,"enabled":true,"region":"us-west","cc":"us","latitude":37.77397,"longitude":-122.4313,"reserved":0,"last_update":"0001-01-01T00:00:00Z","name_a2s":"Uncletopia | San Francisco | 1 | All Maps","protocol":17,"map":"koth_cascade","folder":"tf","game":"Team Fortress","app_id":440,"player_count":0,"max_players":24,"Bots":0,"server_type":"Dedicated","server_os":"Linux","password":true,"vac":true,"version":"7961495","steam_id":85568392924469999,"keywords":["cp","nocrits","nodmgspread","uncletopia"],"game_id":440,"stv_port":27016,"stv_name":"Uncletopia | San Francisco | 1 | All Maps | STV","players":null},{"server_id":18,"name":"Uncletopia | San Francisco | 2 | All Maps","name_short":"sfo-2","host":"sfo-1.us.uncletopia.com","port":27025,"enabled":true,"region":"us-west","cc":"us","latitude":37.77397,"longitude":-122.4313,"reserved":0,"last_update":"0001-01-01T00:00:00Z","name_a2s":"Uncletopia | San Francisco | 2 | All Maps","protocol":17,"map":"cp_snakewater_final1","folder":"tf","game":"Team Fortress","app_id":440,"player_count":0,"max_players":24,"Bots":0,"server_type":"Dedicated","server_os":"Linux","password":true,"vac":true,"version":"7961495","steam_id":85568392924470000,"keywords":["cp","nocrits","nodmgspread","uncletopia"],"game_id":440,"stv_port":27026,"stv_name":"Uncletopia | San Francisco | 2 | All Maps | STV","players":null},{"server_id":19,"name":"Uncletopia | San Francisco | 3 | Stopwatch","name_short":"sfo-3","host":"sfo-1.us.uncletopia.com","port":27035,"enabled":true,"region":"us-west","cc":"us","latitude":37.77397,"longitude":-122.4313,"reserved":0,"last_update":"0001-01-01T00:00:00Z","name_a2s":"Uncletopia | San Francisco | 3 | Stopwatch","protocol":17,"map":"cp_sunshine","folder":"tf","game":"Team Fortress","app_id":440,"player_count":0,"max_players":24,"Bots":0,"server_type":"Dedicated","server_os":"Linux","password":true,"vac":true,"version":"7961495","steam_id":85568392924742824,"keywords":["cp","nocrits","nodmgspread","uncletopia"],"game_id":440,"stv_port":27036,"stv_name":"Uncletopia | San Francisco | 3 | Stopwatch | STV","players":null},{"server_id":20,"name":"Uncletopia | San Francisco | 4 | Community","name_short":"sfo-4","host":"sfo-1.us.uncletopia.com","port":27045,"enabled":true,"region":"us-west","cc":"us","latitude":37.77397,"longitude":-122.4313,"reserved":0,"last_update":"0001-01-01T00:00:00Z","name_a2s":"Uncletopia | San Francisco | 4 | Community","protocol":17,"map":"workshop/koth_trenchfoot_b1a.ugc731436616","folder":"tf","game":"Team Fortress","app_id":440,"player_count":0,"max_players":24,"Bots":0,"server_type":"Dedicated","server_os":"Linux","password":true,"vac":true,"version":"7961495","steam_id":85568392924742826,"keywords":["cp","nocrits","nodmgspread","uncletopia"],"game_id":440,"stv_port":27046,"stv_name":"Uncletopia | San Francisco | 4 | Community | STV","players":null},{"server_id":141,"name":"Uncletopia | Sydney | 1 | All Maps","name_short":"syd-1","host":"syd-1.au.uncletopia.com","port":27015,"enabled":true,"region":"au","cc":"au","latitude":-33.865143,"longitude":151.2099,"reserved":0,"last_update":"0001-01-01T00:00:00Z","name_a2s":"Uncletopia | Sydney | 1 | All Maps","protocol":17,"map":"koth_viaduct","folder":"tf","game":"Team Fortress","app_id":440,"player_count":0,"max_players":24,"Bots":0,"server_type":"Dedicated","server_os":"Linux","password":true,"vac":true,"version":"7961495","steam_id":85568392924470001,"keywords":["cp","nocrits","nodmgspread","uncletopia"],"game_id":440,"stv_port":27016,"stv_name":"Uncletopia | Sydney | 1 | All Maps | STV","players":null},{"server_id":123,"name":"Uncletopia | Sydney | 2 | All Maps","name_short":"syd-2","host":"syd-1.au.uncletopia.com","port":27025,"enabled":true,"region":"au","cc":"au","latitude":-33.865143,"longitude":151.2099,"reserved":0,"last_update":"0001-01-01T00:00:00Z","name_a2s":"Uncletopia | Sydney | 2 | All Maps","protocol":17,"map":"koth_lakeside_final","folder":"tf","game":"Team Fortress","app_id":440,"player_count":0,"max_players":24,"Bots":0,"server_type":"Dedicated","server_os":"Linux","password":true,"vac":true,"version":"7961495","steam_id":85568392924470002,"keywords":["cp","nocrits","nodmgspread","uncletopia"],"game_id":440,"stv_port":27026,"stv_name":"Uncletopia | Sydney | 2 | All Maps | STV","players":null},{"server_id":395,"name":"Uncletopia | Sydney | 3 | All Maps","name_short":"syd-3","host":"syd-1.au.uncletopia.com","port":27035,"enabled":true,"region":"au","cc":"au","latitude":-33.865143,"longitude":151.2099,"reserved":0,"last_update":"0001-01-01T00:00:00Z","name_a2s":"Uncletopia | Sydney | 3 | All Maps","protocol":17,"map":"pl_frontier_final","folder":"tf","game":"Team Fortress","app_id":440,"player_count":0,"max_players":24,"Bots":0,"server_type":"Dedicated","server_os":"Linux","password":true,"vac":true,"version":"7961495","steam_id":85568392925194467,"keywords":["nocrits","nodmgspread","payload","uncletopia"],"game_id":440,"stv_port":27036,"stv_name":"Uncletopia | Sydney | 3 | All Maps | STV","players":null},{"server_id":396,"name":"Uncletopia | Sydney | 4 | All Maps","name_short":"syd-4","host":"syd-1.au.uncletopia.com","port":27045,"enabled":true,"region":"au","cc":"au","latitude":-33.865143,"longitude":151.2099,"reserved":0,"last_update":"0001-01-01T00:00:00Z","name_a2s":"Uncletopia | Sydney | 4 | All Maps","protocol":17,"map":"cp_snakewater_final1","folder":"tf","game":"Team Fortress","app_id":440,"player_count":2,"max_players":24,"Bots":0,"server_type":"Dedicated","server_os":"Linux","password":true,"vac":true,"version":"7961495","steam_id":85568392925397958,"keywords":["cp","nocrits","nodmgspread","uncletopia"],"game_id":440,"stv_port":27046,"stv_name":"Uncletopia | Sydney | 4 | All Maps | STV","players":[{"user_id":3,"name":"Sonicspeeder2021","steam_id":76561199167652053,"connected_time":201000000000,"state":"active","ping":69},{"user_id":4,"name":"Lachstar","steam_id":76561199137135419,"connected_time":24000000000,"state":"active","ping":58}]},{"server_id":58,"name":"Uncletopia | Sydney | 5 | Stopwatch","name_short":"syd-5","host":"syd-1.au.uncletopia.com","port":27055,"enabled":true,"region":"au","cc":"au","latitude":-33.865143,"longitude":151.2099,"reserved":0,"last_update":"0001-01-01T00:00:00Z","name_a2s":"Uncletopia | Sydney | 5 | Stopwatch","protocol":17,"map":"pl_frontier_final","folder":"tf","game":"Team Fortress","app_id":440,"player_count":0,"max_players":24,"Bots":0,"server_type":"Dedicated","server_os":"Linux","password":true,"vac":true,"version":"7961495","steam_id":85568392925397959,"keywords":["nocrits","nodmgspread","payload","uncletopia"],"game_id":440,"stv_port":27056,"stv_name":"Uncletopia | Sydney | 5 | Stopwatch | STV","players":null},{"server_id":59,"name":"Uncletopia | Sydney | 6 | Community","name_short":"syd-6","host":"syd-1.au.uncletopia.com","port":27065,"enabled":true,"region":"au","cc":"au","latitude":-33.865143,"longitude":151.2099,"reserved":0,"last_update":"0001-01-01T00:00:00Z","name_a2s":"Uncletopia | Sydney | 6 | Community","protocol":17,"map":"cp_sunshine","folder":"tf","game":"Team Fortress","app_id":440,"player_count":0,"max_players":24,"Bots":0,"server_type":"Dedicated","server_os":"Linux","password":true,"vac":true,"version":"7961495","steam_id":85568392925397960,"keywords":["cp","nocrits","nodmgspread","uncletopia"],"game_id":440,"stv_port":27066,"stv_name":"Uncletopia | Sydney | 6 | Community | STV","players":null},{"server_id":49,"name":"Uncletopia | Warsaw | 1 | One Thousand Uncles","name_short":"waw-1","host":"waw-1.pl.uncletopia.com","port":27015,"enabled":true,"region":"eu","cc":"pl","latitude":52.2297,"longitude":21.017532,"reserved":0,"last_update":"0001-01-01T00:00:00Z","name_a2s":"Uncletopia | Warsaw | 1 | One Thousand Uncles","protocol":17,"map":"pl_thundermountain","folder":"tf","game":"Team Fortress","app_id":440,"player_count":20,"max_players":32,"Bots":16,"server_type":"Dedicated","server_os":"Linux","password":true,"vac":true,"version":"7961495","steam_id":85568392925397850,"keywords":["alltalk","bots","danepve","increased_maxplayers","nocrits","norespawntime","payload","uncletopia"],"game_id":440,"stv_port":0,"stv_name":"","players":[{"user_id":484,"name":"finnish sniper","steam_id":76561199226847880,"connected_time":33000000000,"state":"active","ping":119},{"user_id":460,"name":"Philosophos_Alpha","steam_id":76561198951264580,"connected_time":2216000000000,"state":"active","ping":104},{"user_id":463,"name":"Edgy Name","steam_id":76561198378270820,"connected_time":1485000000000,"state":"active","ping":41},{"user_id":402,"name":"Pain in a Box","steam_id":76561197990777173,"connected_time":7246000000000,"state":"active","ping":64}]},{"server_id":50,"name":"Uncletopia | Warsaw | 2 | One Thousand Uncles","name_short":"waw-2","host":"waw-1.pl.uncletopia.com","port":27025,"enabled":true,"region":"eu","cc":"pl","latitude":52.2297,"longitude":21.017532,"reserved":0,"last_update":"0001-01-01T00:00:00Z","name_a2s":"Uncletopia | Warsaw | 2 | One Thousand Uncles","protocol":17,"map":"pl_upward","folder":"tf","game":"Team Fortress","app_id":440,"player_count":0,"max_players":32,"Bots":0,"server_type":"Dedicated","server_os":"Linux","password":true,"vac":true,"version":"7961495","steam_id":85568392925397851,"keywords":["alltalk","danepve","increased_maxplayers","nocrits","norespawntime","payload","uncletopia"],"game_id":440,"stv_port":0,"stv_name":"","players":null},{"server_id":51,"name":"Uncletopia | Warsaw | 3 | All Maps","name_short":"waw-3","host":"waw-1.pl.uncletopia.com","port":27035,"enabled":true,"region":"eu","cc":"pl","latitude":52.2297,"longitude":21.017532,"reserved":0,"last_update":"0001-01-01T00:00:00Z","name_a2s":"Uncletopia | Warsaw | 3 | All Maps","protocol":17,"map":"koth_lakeside_final","folder":"tf","game":"Team Fortress","app_id":440,"player_count":0,"max_players":24,"Bots":0,"server_type":"Dedicated","server_os":"Linux","password":true,"vac":true,"version":"7961495","steam_id":85568392925397852,"keywords":["cp","nocrits","nodmgspread","uncletopia"],"game_id":440,"stv_port":27036,"stv_name":"Uncletopia | Warsaw | 3 | All Maps | STV","players":null},{"server_id":52,"name":"Uncletopia | Warsaw | 4 | All Maps","name_short":"waw-4","host":"waw-1.pl.uncletopia.com","port":27045,"enabled":true,"region":"eu","cc":"pl","latitude":52.2297,"longitude":21.017532,"reserved":0,"last_update":"0001-01-01T00:00:00Z","name_a2s":"Uncletopia | Warsaw | 4 | All Maps","protocol":17,"map":"koth_viaduct","folder":"tf","game":"Team Fortress","app_id":440,"player_count":0,"max_players":24,"Bots":0,"server_type":"Dedicated","server_os":"Linux","password":true,"vac":true,"version":"7961495","steam_id":85568392925397853,"keywords":["cp","nocrits","nodmgspread","uncletopia"],"game_id":440,"stv_port":27046,"stv_name":"Uncletopia | Warsaw | 4 | All Maps | STV","players":null},{"server_id":53,"name":"Uncletopia | Warsaw | 5 | Stopwatch","name_short":"waw-5","host":"waw-1.pl.uncletopia.com","port":27055,"enabled":true,"region":"eu","cc":"pl","latitude":52.2297,"longitude":21.017532,"reserved":0,"last_update":"0001-01-01T00:00:00Z","name_a2s":"Uncletopia | Warsaw | 5 | Stopwatch","protocol":17,"map":"koth_highpass","folder":"tf","game":"Team Fortress","app_id":440,"player_count":0,"max_players":24,"Bots":0,"server_type":"Dedicated","server_os":"Linux","password":true,"vac":true,"version":"7961495","steam_id":85568392925397854,"keywords":["cp","nocrits","nodmgspread","uncletopia"],"game_id":440,"stv_port":27056,"stv_name":"Uncletopia | Warsaw | 5 | Stopwatch | STV","players":null},{"server_id":54,"name":"Uncletopia | Warsaw | 6 | Community","name_short":"waw-6","host":"waw-1.pl.uncletopia.com","port":27065,"enabled":true,"region":"eu","cc":"pl","latitude":52.2297,"longitude":21.017532,"reserved":0,"last_update":"0001-01-01T00:00:00Z","name_a2s":"Uncletopia | Warsaw | 6 | Community","protocol":17,"map":"workshop/koth_synthetic_rc6a.ugc1549817316","folder":"tf","game":"Team Fortress","app_id":440,"player_count":4,"max_players":24,"Bots":0,"server_type":"Dedicated","server_os":"Linux","password":true,"vac":true,"version":"7961495","steam_id":85568392925397856,"keywords":["cp","nocrits","nodmgspread","uncletopia"],"game_id":440,"stv_port":27066,"stv_name":"Uncletopia | Warsaw | 6 | Community | STV","players":[{"user_id":53,"name":"[Plotholers] odacovA","steam_id":76561199383345208,"connected_time":1620000000000,"state":"active","ping":164},{"user_id":51,"name":"Truegr","steam_id":76561198811912339,"connected_time":2681000000000,"state":"active","ping":61},{"user_id":52,"name":"kdhbuilder","steam_id":76561199058095193,"connected_time":2378000000000,"state":"active","ping":179},{"user_id":48,"name":"A.D.A.","steam_id":76561198838499234,"connected_time":3879000000000,"state":"active","ping":55}]}]}