{"status":true,"message":"","result":[{"server_id":9,"name":"Uncletopia | Atlanta | 1 | All Maps","name_short":"atl-1","host":"atl-1.us.uncletopia.com","port":27015,"enabled":true,"region":"us-east","cc":"us","latitude":33.753746,"longitude":-84.38633,"reserved":0,"last_update":"0001-01-01T00:00:00Z","name_a2s":"Uncletopia | Atlanta | 1 | All Maps","protocol":17,"map":"pl_snowycoast","folder":"tf","game":"Team Fortress","app_id":440,"player_count":24,"max_players":24,"Bots":0,"server_type":"Dedicated","server_os":"Linux","password":true,"vac":true,"version":"7757534","steam_id":85568392924469982,"keywords":["nocrits","nodmgspread","payload","uncletopia"],"game_id":440,"stv_port":27016,"stv_name":"Uncletopia | Atlanta | 1 | All Maps | STV","players":[{"user_id":178,"name":"hyuck","steam_id":76561198319990195,"connected_time":540000000000,"state":"active","ping":75},{"user_id":167,"name":"MELT MY EYEZ SEE YOUR FUTURE","steam_id":76561198397009880,"connected_time":1603000000000,"state":"active","ping":46},{"user_id":165,"name":"lu","steam_id":76561198080731872,"connected_time":1607000000000,"state":"active","ping":60},{"user_id":159,"name":"dr drip.","steam_id":76561198393681429,"connected_time":2396000000000,"state":"active","ping":87},{"user_id":163,"name":"[AD THE ZEBRA!]","steam_id":76561198084121940,"connected_time":1832000000000,"state":"active","ping":94},{"user_id":168,"name":"Johnny Lawrence #JohnnyMaxxing","steam_id":76561199367141671,"connected_time":1563000000000,"state":"active","ping":62},{"user_id":169,"name":"tavi alert!","steam_id":76561198050192689,"connected_time":1446000000000,"state":"active","ping":105},{"user_id":152,"name":"hunterbunney (TRUE BUT REAL)","steam_id":76561198070672899,"connected_time":3114000000000,"state":"active","ping":59},{"user_id":170,"name":"hooley","steam_id":76561198041923067,"connected_time":1432000000000,"state":"active","ping":75},{"user_id":171,"name":"ATL1 | Bandicario","steam_id":76561198432036026,"connected_time":1387000000000,"state":"active","ping":55},{"user_id":172,"name":"smells like dust and moonlight","steam_id":76561198048110137,"connected_time":1363000000000,"state":"active","ping":72},{"user_id":164,"name":"Sweet Baby Zain","steam_id":76561198046392267,"connected_time":1622000000000,"state":"active","ping":84},{"user_id":173,"name":"Genetic Komodo","steam_id":76561198174806758,"connected_time":1348000000000,"state":"active","ping":58},{"user_id":155,"name":"sansa musa","steam_id":76561198163723555,"connected_time":2821000000000,"state":"active","ping":74},{"user_id":146,"name":"SUSSY AMOGUS o_O","steam_id":76561199401875693,"connected_time":3361000000000,"state":"active","ping":80},{"user_id":174,"name":"Loke","steam_id":76561198140026338,"connected_time":1330000000000,"state":"active","ping":78},{"user_id":135,"name":"RED1 | icyy","steam_id":76561198968001329,"connected_time":3875000000000,"state":"active","ping":53},{"user_id":175,"name":"Marshy","steam_id":76561198421784454,"connected_time":1303000000000,"state":"active","ping":122},{"user_id":151,"name":"nhbiker","steam_id":76561198081277675,"connected_time":3147000000000,"state":"active","ping":68},{"user_id":180,"name":"Brown_Dream","steam_id":76561198975766145,"connected_time":381000000000,"state":"active","ping":85},{"user_id":177,"name":"Bottom Trans Cowgirl","steam_id":76561198304239680,"connected_time":738000000000,"state":"active","ping":77},{"user_id":179,"name":"Jin Gulilo","steam_id":76561198065151242,"connected_time":399000000000,"state":"active","ping":83},{"user_id":182,"name":"Blu1 Quality","steam_id":76561198361132101,"connected_time":336000000000,"state":"active","ping":78},{"user_id":72,"name":"lil hog","steam_id":76561199230929836,"connected_time":8553000000000,"state":"active","ping":84}]},{"server_id":400,"name":"Uncletopia | Atlanta | 3 | Community","name_short":"atl-3","host":"atl-1.us.uncletopia.com","port":27035,"enabled":true,"region":"us-east","cc":"us","latitude":33.753746,"longitude":-84.38633,"reserved":0,"last_update":"0001-01-01T00:00:00Z","name_a2s":"Uncletopia | Atlanta | 3 | Community","protocol":17,"map":"workshop/pl_eruption_b9a.ugc2807898013","folder":"tf","game":"Team Fortress","app_id":440,"player_count":1,"max_players":24,"Bots":0,"server_type":"Dedicated","server_os":"Linux","password":true,"vac":true,"version":"7757534","steam_id":85568392924515187,"keywords":["nocrits","nodmgspread","payload","uncletopia"],"game_id":440,"stv_port":27036,"stv_name":"Uncletopia | Atlanta | 3 | Community | STV","players":[{"user_id":328,"name":"I-die-often","steam_id":76561197996780327,"connected_time":67000000000,"state":"connecting","ping":82}]},{"server_id":401,"name":"Uncletopia | Atlanta | 4 | No Payload","name_short":"atl-4","host":"atl-1.us.uncletopia.com","port":27045,"enabled":true,"region":"us-east","cc":"us","latitude":33.753746,"longitude":-84.38633,"reserved":0,"last_update":"0001-01-01T00:00:00Z","name_a2s":"","protocol":0,"map":"","folder":"","game":"","app_id":0,"player_count":0,"max_players":0,"Bots":0,"server_type":"","server_os":"","password":false,"vac":false,"version":"","steam_id":0,"keywords":null,"game_id":0,"stv_port":0,"stv_name":"","players":null},{"server_id":2,"name":"Uncletopia | Chicago | 1 | All Maps","name_short":"chi-1","host":"chi-1.us.uncletopia.com","port":27015,"enabled":true,"region":"us-central","cc":"us","latitude":41.881832,"longitude":-87.62318,"reserved":0,"last_update":"0001-01-01T00:00:00Z","name_a2s":"Uncletopia | Chicago | 1 | All Maps","protocol":17,"map":"cp_snakewater_final1","folder":"tf","game":"Team Fortress","app_id":440,"player_count":24,"max_players":24,"Bots":0,"server_type":"Dedicated","server_os":"Linux","password":true,"vac":true,"version":"7757534","steam_id":85568392924469984,"keywords":["cp","nocrits","nodmgspread","uncletopia"],"game_id":440,"stv_port":27016,"stv_name":"Uncletopia | Chicago | 1 | All Maps | STV","players":[{"user_id":371,"name":"PKBEAST_7","steam_id":76561198177136537,"connected_time":11405000000000,"state":"active","ping":86},{"user_id":479,"name":"Enron Hubbard","steam_id":76561198012951411,"connected_time":2352000000000,"state":"active","ping":57},{"user_id":494,"name":"Sleapy","steam_id":76561198057793679,"connected_time":516000000000,"state":"active","ping":141},{"user_id":465,"name":"SparksKitsune","steam_id":76561198066890691,"connected_time":3424000000000,"state":"active","ping":60},{"user_id":484,"name":"volta","steam_id":76561199214283884,"connected_time":1494000000000,"state":"active","ping":104},{"user_id":458,"name":"gangster tom","steam_id":76561198031675881,"connected_time":3680000000000,"state":"active","ping":62},{"user_id":495,"name":"citrus","steam_id":76561198294606679,"connected_time":460000000000,"state":"active","ping":70},{"user_id":482,"name":"OwlTrowl","steam_id":76561198071179817,"connected_time":1588000000000,"state":"active","ping":66},{"user_id":492,"name":"Lampshade","steam_id":76561198082925095,"connected_time":973000000000,"state":"active","ping":55},{"user_id":469,"name":"Crimson","steam_id":76561198129326627,"connected_time":3028000000000,"state":"active","ping":76},{"user_id":485,"name":"iamnomnoms","steam_id":76561198177740091,"connected_time":1443000000000,"state":"active","ping":77},{"user_id":483,"name":"Godfinger","steam_id":76561198426346549,"connected_time":1586000000000,"state":"active","ping":61},{"user_id":449,"name":"Nic0","steam_id":76561198305690218,"connected_time":4266000000000,"state":"active","ping":68},{"user_id":430,"name":"gasparmx","steam_id":76561197998611994,"connected_time":5524000000000,"state":"active","ping":108},{"user_id":489,"name":"the deadliest pyroshark","steam_id":76561198374227766,"connected_time":1151000000000,"state":"active","ping":64},{"user_id":450,"name":"‚ô• Femboy‚ô•Ventily ‚ô•","steam_id":76561198157260335,"connected_time":3925000000000,"state":"active","ping":44},{"user_id":436,"name":"Jill the Owl","steam_id":76561197999210583,"connected_time":4663000000000,"state":"active","ping":71},{"user_id":463,"name":"Quark","steam_id":76561198328155605,"connected_time":3651000000000,"state":"active","ping":63},{"user_id":486,"name":"Spid3r","steam_id":76561198038041859,"connected_time":1443000000000,"state":"active","ping":85},{"user_id":476,"name":"kametro4","steam_id":76561198835430429,"connected_time":2646000000000,"state":"active","ping":76},{"user_id":357,"name":"gaming is for girls","steam_id":76561198240344950,"connected_time":12688000000000,"state":"active","ping":113},{"user_id":445,"name":"fax","steam_id":76561198094228710,"connected_time":4510000000000,"state":"active","ping":50},{"user_id":490,"name":"BossBaby","steam_id":76561198099132293,"connected_time":1074000000000,"state":"active","ping":102},{"user_id":496,"name":"Big Phony","steam_id":76561199092395311,"connected_time":225000000000,"state":"active","ping":66}]},{"server_id":106,"name":"Uncletopia | Chicago | 2 | All Maps","name_short":"chi-2","host":"chi-1.us.uncletopia.com","port":27025,"enabled":true,"region":"us-central","cc":"us","latitude":41.881832,"longitude":-87.62318,"reserved":0,"last_update":"0001-01-01T00:00:00Z","name_a2s":"Uncletopia | Chicago | 2 | All Maps","protocol":17,"map":"pl_snowycoast","folder":"tf","game":"Team Fortress","app_id":440,"player_count":24,"max_players":24,"Bots":0,"server_type":"Dedicated","server_os":"Linux","password":true,"vac":true,"version":"7757534","steam_id":85568392924469985,"keywords":["nocrits","nodmgspread","payload","uncletopia"],"game_id":440,"stv_port":27026,"stv_name":"Uncletopia | Chicago | 2 | All Maps | STV","players":[{"user_id":260,"name":"Dee's Nuts","steam_id":76561198330058347,"connected_time":193000000000,"state":"active","ping":66},{"user_id":253,"name":"An old sandwich on the floor!","steam_id":76561198108791583,"connected_time":445000000000,"state":"active","ping":62},{"user_id":234,"name":"Dr.BendyBones","steam_id":76561198048846641,"connected_time":1390000000000,"state":"active","ping":64},{"user_id":258,"name":"pizzaroger2003 #savejulia","steam_id":76561198179785873,"connected_time":308000000000,"state":"active","ping":82},{"user_id":235,"name":"BucketOfGondor","steam_id":76561198313660223,"connected_time":1380000000000,"state":"active","ping":70},{"user_id":225,"name":"North","steam_id":76561199173696836,"connected_time":2877000000000,"state":"active","ping":83},{"user_id":231,"name":"$3.99 Shrimps","steam_id":76561198077272494,"connected_time":2576000000000,"state":"active","ping":46},{"user_id":186,"name":"pumba","steam_id":76561198207881077,"connected_time":6326000000000,"state":"active","ping":90},{"user_id":262,"name":"Litmixtape","steam_id":76561198010772256,"connected_time":178000000000,"state":"active","ping":90},{"user_id":255,"name":"jorjor wells","steam_id":76561199073429082,"connected_time":319000000000,"state":"active","ping":65},{"user_id":267,"name":"juhg, koop","steam_id":76561198388955908,"connected_time":87000000000,"state":"active","ping":99},{"user_id":236,"name":"M249 | Spectre","steam_id":76561198118334485,"connected_time":1325000000000,"state":"active","ping":77},{"user_id":254,"name":"-iwnl- Unc #savetf2","steam_id":76561198311004039,"connected_time":412000000000,"state":"active","ping":102},{"user_id":266,"name":"K2f","steam_id":76561198049600563,"connected_time":113000000000,"state":"active","ping":90},{"user_id":198,"name":"Yuhh","steam_id":76561199112894955,"connected_time":5147000000000,"state":"active","ping":85},{"user_id":268,"name":"Joshy","steam_id":76561198061405421,"connected_time":87000000000,"state":"active","ping":88},{"user_id":244,"name":"ZodiacThundaga","steam_id":76561199025117814,"connected_time":869000000000,"state":"active","ping":66},{"user_id":238,"name":"Gibby","steam_id":76561199336569123,"connected_time":1257000000000,"state":"active","ping":153},{"user_id":243,"name":"Young-OG","steam_id":76561198058800479,"connected_time":952000000000,"state":"active","ping":85},{"user_id":261,"name":"Mr. Tickle","steam_id":76561198126684647,"connected_time":192000000000,"state":"active","ping":60},{"user_id":265,"name":"Athaz","steam_id":76561198296557673,"connected_time":142000000000,"state":"active","ping":61},{"user_id":256,"name":"no.1 dragonvale player","steam_id":76561198124365349,"connected_time":311000000000,"state":"active","ping":102},{"user_id":213,"name":"Yukon Cornelius","steam_id":76561198261512781,"connected_time":3643000000000,"state":"active","ping":71},{"user_id":209,"name":"Aviyarn","steam_id":76561199074194652,"connected_time":4589000000000,"state":"active","ping":76}]},{"server_id":402,"name":"Uncletopia | Chicago | 3 | All Maps","name_short":"chi-3","host":"chi-1.us.uncletopia.com","port":27035,"enabled":true,"region":"us-central","cc":"us","latitude":41.881832,"longitude":-87.62318,"reserved":0,"last_update":"0001-01-01T00:00:00Z","name_a2s":"Uncletopia | Chicago | 3 | All Maps","protocol":17,"map":"pl_borneo","folder":"tf","game":"Team Fortress","app_id":440,"player_count":24,"max_players":24,"Bots":0,"server_type":"Dedicated","server_os":"Linux","password":true,"vac":true,"version":"7757534","steam_id":85568392924515191,"keywords":["nocrits","nodmgspread","payload","uncletopia"],"game_id":440,"stv_port":27036,"stv_name":"Uncletopia | Chicago | 3 | All Maps | STV","players":[{"user_id":97,"name":"Rifter","steam_id":76561198077430698,"connected_time":2197000000000,"state":"active","ping":60},{"user_id":121,"name":"Glory","steam_id":76561198013975080,"connected_time":544000000000,"state":"active","ping":72},{"user_id":100,"name":"StarLy","steam_id":76561198174428289,"connected_time":1928000000000,"state":"active","ping":74},{"user_id":116,"name":"Œ≤eta","steam_id":76561198978885260,"connected_time":802000000000,"state":"active","ping":54},{"user_id":101,"name":"Adorable Cat","steam_id":76561198165453127,"connected_time":1912000000000,"state":"active","ping":82},{"user_id":51,"name":"RiverEgg","steam_id":76561198888913405,"connected_time":5794000000000,"state":"active","ping":55},{"user_id":89,"name":"C papi","steam_id":76561198027779564,"connected_time":3188000000000,"state":"active","ping":77},{"user_id":102,"name":"Gian","steam_id":76561198041434512,"connected_time":1902000000000,"state":"active","ping":117},{"user_id":111,"name":"Steen","steam_id":76561198122992510,"connected_time":1101000000000,"state":"active","ping":136},{"user_id":113,"name":"LoGrove","steam_id":76561197969305602,"connected_time":934000000000,"state":"active","ping":86},{"user_id":103,"name":"LukeLeal","steam_id":76561198049822995,"connected_time":1902000000000,"state":"active","ping":175},{"user_id":117,"name":"--_Cook_--","steam_id":76561198080855748,"connected_time":747000000000,"state":"active","ping":47},{"user_id":114,"name":"Tyrone","steam_id":76561198189429665,"connected_time":924000000000,"state":"active","ping":82},{"user_id":86,"name":"Rappitor (washed)","steam_id":76561198105613110,"connected_time":3275000000000,"state":"active","ping":56},{"user_id":63,"name":"Goromi from the hit game Yakuza","steam_id":76561198173087634,"connected_time":5111000000000,"state":"active","ping":153},{"user_id":38,"name":"abomination","steam_id":76561198167974713,"connected_time":6524000000000,"state":"active","ping":69},{"user_id":107,"name":"Esnuper","steam_id":76561198049737604,"connected_time":1746000000000,"state":"active","ping":71},{"user_id":33,"name":"Mug Moment Gaming","steam_id":76561198233098136,"connected_time":6623000000000,"state":"active","ping":63},{"user_id":106,"name":"tree","steam_id":76561198116885731,"connected_time":1837000000000,"state":"active","ping":54},{"user_id":125,"name":"Chicken Nugget","steam_id":76561198082601232,"connected_time":114000000000,"state":"active","ping":71},{"user_id":122,"name":"Pink","steam_id":76561198042140694,"connected_time":536000000000,"state":"active","ping":65},{"user_id":94,"name":"TheManOWar #SaveTF2","steam_id":76561198192268385,"connected_time":2567000000000,"state":"active","ping":69},{"user_id":126,"name":"Vladikr1","steam_id":76561198401495362,"connected_time":109000000000,"state":"active","ping":62},{"user_id":123,"name":"Envidia","steam_id":76561198141640643,"connected_time":536000000000,"state":"active","ping":131}]},{"server_id":403,"name":"Uncletopia | Chicago | 4 | All Maps","name_short":"chi-4","host":"chi-1.us.uncletopia.com","port":27045,"enabled":true,"region":"us-central","cc":"us","latitude":41.881832,"longitude":-87.62318,"reserved":0,"last_update":"0001-01-01T00:00:00Z","name_a2s":"Uncletopia | Chicago | 4 | All Maps","protocol":17,"map":"koth_viaduct","folder":"tf","game":"Team Fortress","app_id":440,"player_count":0,"max_players":24,"Bots":0,"server_type":"Dedicated","server_os":"Linux","password":true,"vac":true,"version":"7757534","steam_id":85568392924515193,"keywords":["cp","nocrits","nodmgspread","uncletopia"],"game_id":440,"stv_port":27046,"stv_name":"Uncletopia | Chicago | 4 | All Maps | STV","players":null},{"server_id":36,"name":"Uncletopia | Chicago | 5 | All Maps","name_short":"chi-5","host":"chi-2.us.uncletopia.com","port":27015,"enabled":true,"region":"us-central","cc":"us","latitude":41.881832,"longitude":-87.62318,"reserved":0,"last_update":"0001-01-01T00:00:00Z","name_a2s":"Uncletopia | Chicago | 5 | All Maps","protocol":17,"map":"cp_sunshine","folder":"tf","game":"Team Fortress","app_id":440,"player_count":24,"max_players":24,"Bots":0,"server_type":"Dedicated","server_os":"Linux","password":true,"vac":true,"version":"7757534","steam_id":85568392924866362,"keywords":["cp","nocrits","nodmgspread","uncletopia"],"game_id":440,"stv_port":27016,"stv_name":"Uncletopia | Chicago | 5 | All Maps | STV","players":[{"user_id":291,"name":"The Big Iron","steam_id":76561198117276391,"connected_time":2096000000000,"state":"active","ping":80},{"user_id":301,"name":"bingle","steam_id":76561198359413453,"connected_time":1737000000000,"state":"active","ping":78},{"user_id":286,"name":"neet","steam_id":76561197968115168,"connected_time":2283000000000,"state":"active","ping":51},{"user_id":272,"name":"Weak","steam_id":76561198857135096,"connected_time":4231000000000,"state":"active","ping":82},{"user_id":303,"name":"Saber king of f2p's","steam_id":76561199146302602,"connected_time":1662000000000,"state":"active","ping":72},{"user_id":270,"name":"Fresh0c0","steam_id":76561198271933283,"connected_time":4242000000000,"state":"active","ping":60},{"user_id":311,"name":"Couriadore","steam_id":76561198055814008,"connected_time":1330000000000,"state":"active","ping":76},{"user_id":281,"name":"Warzard","steam_id":76561199154051413,"connected_time":2411000000000,"state":"active","ping":115},{"user_id":262,"name":"Totouri","steam_id":76561198004229789,"connected_time":4522000000000,"state":"active","ping":60},{"user_id":242,"name":"Blitzy","steam_id":76561198149472890,"connected_time":6313000000000,"state":"active","ping":73},{"user_id":265,"name":"Inevitable","steam_id":76561198210050169,"connected_time":4296000000000,"state":"active","ping":62},{"user_id":315,"name":"Landrow","steam_id":76561199156068210,"connected_time":101000000000,"state":"active","ping":112},{"user_id":283,"name":"Kasane","steam_id":76561198209006780,"connected_time":2398000000000,"state":"active","ping":79},{"user_id":314,"name":"Jabberwock","steam_id":76561198882010720,"connected_time":326000000000,"state":"active","ping":57},{"user_id":307,"name":"Alaiye","steam_id":76561198099223854,"connected_time":1594000000000,"state":"active","ping":63},{"user_id":308,"name":"Doofus McGoof","steam_id":76561198007273673,"connected_time":1592000000000,"state":"active","ping":70},{"user_id":297,"name":"Monkey","steam_id":76561198031015186,"connected_time":1802000000000,"state":"active","ping":77},{"user_id":313,"name":"soundwave | sfm comms open!","steam_id":76561198454725718,"connected_time":845000000000,"state":"active","ping":52},{"user_id":302,"name":"Xete","steam_id":76561198403414092,"connected_time":1733000000000,"state":"active","ping":65},{"user_id":306,"name":"Danger Daniel","steam_id":76561199085838474,"connected_time":1644000000000,"state":"active","ping":90},{"user_id":227,"name":"Windex","steam_id":76561198105561395,"connected_time":7241000000000,"state":"active","ping":75},{"user_id":252,"name":"Fudgely","steam_id":76561198039425862,"connected_time":5767000000000,"state":"active","ping":75},{"user_id":279,"name":"Dispenser (Twan)","steam_id":76561197991064908,"connected_time":2511000000000,"state":"active","ping":61},{"user_id":244,"name":"üÖúüÖîüÖîüÖöüÖ¢üÖ£üÖî\ufffd\ufffd\ufffd","steam_id":76561197999748343,"connected_time":6305000000000,"state":"active","ping":74}]},{"server_id":37,"name":"Uncletopia | Chicago | 6 | All Maps","name_short":"chi-6","host":"chi-2.us.uncletopia.com","port":27025,"enabled":true,"region":"us-central","cc":"us","latitude":41.881832,"longitude":-87.62318,"reserved":0,"last_update":"0001-01-01T00:00:00Z","name_a2s":"Uncletopia | Chicago | 6 | All Maps","protocol":17,"map":"koth_cascade","folder":"tf","game":"Team Fortress","app_id":440,"player_count":0,"max_players":24,"Bots":0,"server_type":"Dedicated","server_os":"Linux","password":true,"vac":true,"version":"7757534","steam_id":85568392924866363,"keywords":["cp","nocrits","nodmgspread","uncletopia"],"game_id":440,"stv_port":27026,"stv_name":"Uncletopia | Chicago | 6 | All Maps | STV","players":null},{"server_id":38,"name":"Uncletopia | Chicago | 7 | Stopwatch Beta","name_short":"chi-7","host":"chi-2.us.uncletopia.com","port":27035,"enabled":true,"region":"us-central","cc":"us","latitude":41.881832,"longitude":-87.62318,"reserved":0,"last_update":"0001-01-01T00:00:00Z","name_a2s":"Uncletopia | Chicago | 7 | Stopwatch Beta","protocol":17,"map":"pl_upward","folder":"tf","game":"Team Fortress","app_id":440,"player_count":0,"max_players":24,"Bots":0,"server_type":"Dedicated","server_os":"Linux","password":true,"vac":true,"version":"7757534","steam_id":85568392924866364,"keywords":["nocrits","nodmgspread","payload","uncletopia"],"game_id":440,"stv_port":27036,"stv_name":"Uncletopia | Chicago | 7 | Stopwatch Beta | STV","players":null},{"server_id":39,"name":"Uncletopia | Chicago | 8 | Community","name_short":"chi-8","host":"chi-2.us.uncletopia.com","port":27045,"enabled":true,"region":"us-central","cc":"us","latitude":41.881832,"longitude":-87.62318,"reserved":0,"last_update":"0001-01-01T00:00:00Z","name_a2s":"Uncletopia | Chicago | 8 | Community","protocol":17,"map":"workshop/cp_bruhstbowl_b5.ugc2878604990","folder":"tf","game":"Team Fortress","app_id":440,"player_count":6,"max_players":24,"Bots":0,"server_type":"Dedicated","server_os":"Linux","password":true,"vac":true,"version":"7757534","steam_id":85568392924866365,"keywords":["cp","nocrits","nodmgspread","uncletopia"],"game_id":440,"stv_port":27046,"stv_name":"Uncletopia | Chicago | 8 | Community | STV","players":[{"user_id":25,"name":"Militant Pacifist","steam_id":76561198290691432,"connected_time":1148000000000,"state":"active","ping":76},{"user_id":27,"name":"Stomp","steam_id":76561198167765748,"connected_time":1124000000000,"state":"active","ping":39},{"user_id":32,"name":"0xness","steam_id":76561199186175096,"connected_time":651000000000,"state":"spawning","ping":170},{"user_id":31,"name":"slimjim557","steam_id":76561199094710853,"connected_time":806000000000,"state":"active","ping":66},{"user_id":34,"name":"Gary","steam_id":76561198133309753,"connected_time":53000000000,"state":"active","ping":96},{"user_id":35,"name":"Viokik","steam_id":76561198408846602,"connected_time":1000000000,"state":"spawning","ping":49}]},{"server_id":8,"name":"Uncletopia | Dallas | 1 | All Maps","name_short":"dal-1","host":"dal-1.us.uncletopia.com","port":27015,"enabled":true,"region":"us-central","cc":"us","latitude":32.779167,"longitude":-96.80889,"reserved":0,"last_update":"0001-01-01T00:00:00Z","name_a2s":"Uncletopia | Dallas | 1 | All Maps","protocol":17,"map":"pl_barnblitz","folder":"tf","game":"Team Fortress","app_id":440,"player_count":24,"max_players":24,"Bots":0,"server_type":"Dedicated","server_os":"Linux","password":true,"vac":true,"version":"7757534","steam_id":85568392924469986,"keywords":["nocrits","nodmgspread","payload","uncletopia"],"game_id":440,"stv_port":27016,"stv_name":"Uncletopia | Dallas | 1 | All Maps | STV","players":[{"user_id":448,"name":"whool","steam_id":76561198332704108,"connected_time":2781000000000,"state":"active","ping":75},{"user_id":469,"name":"Wolverine Fingerblaster","steam_id":76561198095394582,"connected_time":1280000000000,"state":"active","ping":58},{"user_id":455,"name":"NW","steam_id":76561199092907535,"connected_time":2325000000000,"state":"active","ping":145},{"user_id":450,"name":"dog","steam_id":76561198263873491,"connected_time":2712000000000,"state":"active","ping":60},{"user_id":454,"name":"Wolbey","steam_id":76561198042148095,"connected_time":2411000000000,"state":"active","ping":70},{"user_id":464,"name":"plat","steam_id":76561198974178569,"connected_time":1578000000000,"state":"active","ping":111},{"user_id":395,"name":"Hunto","steam_id":76561198328052562,"connected_time":4455000000000,"state":"active","ping":113},{"user_id":372,"name":"Junky","steam_id":76561198049612322,"connected_time":5309000000000,"state":"active","ping":74},{"user_id":341,"name":"Drakon","steam_id":76561198078210822,"connected_time":7881000000000,"state":"active","ping":90},{"user_id":471,"name":"hierodule","steam_id":76561198023229665,"connected_time":1172000000000,"state":"active","ping":95},{"user_id":444,"name":"the12xu","steam_id":76561198197086561,"connected_time":2852000000000,"state":"active","ping":93},{"user_id":474,"name":"radiohead enjoyer","steam_id":76561198397662124,"connected_time":53000000000,"state":"active","ping":57},{"user_id":351,"name":"\"Gay Panic\"","steam_id":76561198132531594,"connected_time":7128000000000,"state":"active","ping":73},{"user_id":472,"name":"dara","steam_id":76561198079451856,"connected_time":171000000000,"state":"active","ping":68},{"user_id":390,"name":"Cookies The Fox","steam_id":76561198200960402,"connected_time":4599000000000,"state":"active","ping":98},{"user_id":467,"name":"barker bill","steam_id":76561198018451994,"connected_time":1439000000000,"state":"active","ping":59},{"user_id":461,"name":"Fishstall","steam_id":76561198038126034,"connected_time":2036000000000,"state":"active","ping":68},{"user_id":462,"name":"Zamboni","steam_id":76561199084964927,"connected_time":1701000000000,"state":"active","ping":95},{"user_id":456,"name":"Randy \"the Man\" Johnson","steam_id":76561198039124445,"connected_time":2323000000000,"state":"active","ping":100},{"user_id":447,"name":"ewer","steam_id":76561198046613374,"connected_time":2824000000000,"state":"active","ping":122},{"user_id":459,"name":"mepng","steam_id":76561199018758598,"connected_time":2219000000000,"state":"active","ping":84},{"user_id":463,"name":"Colonel Salt","steam_id":76561198207009563,"connected_time":1701000000000,"state":"active","ping":59},{"user_id":440,"name":"box","steam_id":76561198985635309,"connected_time":3152000000000,"state":"active","ping":97},{"user_id":381,"name":"Blue Protogen - 001198","steam_id":76561198145791867,"connected_time":4820000000000,"state":"active","ping":80}]},{"server_id":108,"name":"Uncletopia | Dallas | 2 | All Maps","name_short":"dal-2","host":"dal-1.us.uncletopia.com","port":27025,"enabled":true,"region":"us-central","cc":"us","latitude":32.779167,"longitude":-96.80889,"reserved":0,"last_update":"0001-01-01T00:00:00Z","name_a2s":"Uncletopia | Dallas | 2 | All Maps","protocol":17,"map":"pl_barnblitz","folder":"tf","game":"Team Fortress","app_id":440,"player_count":21,"max_players":24,"Bots":0,"server_type":"Dedicated","server_os":"Linux","password":true,"vac":true,"version":"7757534","steam_id":85568392924469988,"keywords":["nocrits","nodmgspread","payload","uncletopia"],"game_id":440,"stv_port":27026,"stv_name":"Uncletopia | Dallas | 2 | All Maps | STV","players":[{"user_id":270,"name":"reece","steam_id":76561198065924206,"connected_time":2939000000000,"state":"active","ping":79},{"user_id":300,"name":"Kleine","steam_id":76561198042556857,"connected_time":1218000000000,"state":"active","ping":61},{"user_id":294,"name":"Jack Celliers","steam_id":76561198060983357,"connected_time":1539000000000,"state":"active","ping":47},{"user_id":253,"name":"MerkyWaters","steam_id":76561197998853063,"connected_time":4254000000000,"state":"active","ping":81},{"user_id":306,"name":"Underscore","steam_id":76561198374209415,"connected_time":547000000000,"state":"active","ping":54},{"user_id":290,"name":"Snimca","steam_id":76561198453519709,"connected_time":1756000000000,"state":"active","ping":60},{"user_id":285,"name":"Dojoloachfr","steam_id":76561198826298849,"connected_time":1882000000000,"state":"active","ping":95},{"user_id":296,"name":"evan_is_sauce","steam_id":76561199086802383,"connected_time":1450000000000,"state":"active","ping":69},{"user_id":304,"name":"Polygunner","steam_id":76561199165741650,"connected_time":662000000000,"state":"active","ping":97},{"user_id":293,"name":"Bart Harley Jarvis","steam_id":76561199215811448,"connected_time":1567000000000,"state":"active","ping":96},{"user_id":309,"name":"rlty","steam_id":76561198009395055,"connected_time":14000000000,"state":"spawning","ping":73},{"user_id":305,"name":"Duo34","steam_id":76561198000464258,"connected_time":644000000000,"state":"active","ping":100},{"user_id":307,"name":"Indigolake","steam_id":76561198202215807,"connected_time":289000000000,"state":"active","ping":105},{"user_id":308,"name":"-W3E- grim10465","steam_id":76561198045698581,"connected_time":212000000000,"state":"active","ping":68},{"user_id":276,"name":"Cam(era)","steam_id":76561198285054047,"connected_time":2430000000000,"state":"active","ping":70},{"user_id":299,"name":"Dallas","steam_id":76561198066542919,"connected_time":1336000000000,"state":"active","ping":114},{"user_id":266,"name":"Revolver Ocelot","steam_id":76561198282747929,"connected_time":3495000000000,"state":"active","ping":105},{"user_id":271,"name":"–°–ª–æ–∂–∏–≤–µ–π! :o3","steam_id":76561199121632136,"connected_time":2806000000000,"state":"active","ping":66},{"user_id":301,"name":"Toast","steam_id":76561198234616616,"connected_time":1216000000000,"state":"active","ping":80},{"user_id":224,"name":"K o y ≈ç t e","steam_id":76561198397407059,"connected_time":5936000000000,"state":"active","ping":93},{"user_id":295,"name":"alfonzo_ju√°rez","steam_id":76561198339090627,"connected_time":1486000000000,"state":"active","ping":70}]},{"server_id":5,"name":"Uncletopia | Frankfurt | 1 | All Maps","name_short":"frk-1","host":"frk-1.de.uncletopia.com","port":27015,"enabled":true,"region":"eu","cc":"de","latitude":50.110924,"longitude":8.682127,"reserved":0,"last_update":"0001-01-01T00:00:00Z","name_a2s":"Uncletopia | Frankfurt | 1 | All Maps","protocol":17,"map":"pl_swiftwater_final1","folder":"tf","game":"Team Fortress","app_id":440,"player_count":24,"max_players":24,"Bots":0,"server_type":"Dedicated","server_os":"Linux","password":true,"vac":true,"version":"7757534","steam_id":85568392924469989,"keywords":["nocrits","nodmgspread","payload","uncletopia"],"game_id":440,"stv_port":27016,"stv_name":"Uncletopia | Frankfurt | 1 | All Maps | STV","players":[{"user_id":555,"name":"_Starlight_","steam_id":76561197993885738,"connected_time":11000000000,"state":"spawning","ping":59},{"user_id":536,"name":"Alabamo","steam_id":76561198161589377,"connected_time":1983000000000,"state":"active","ping":47},{"user_id":522,"name":"Archos","steam_id":76561198181820631,"connected_time":2441000000000,"state":"active","ping":96},{"user_id":512,"name":"n//bu","steam_id":76561198307037169,"connected_time":2619000000000,"state":"active","ping":72},{"user_id":547,"name":"Ox","steam_id":76561198137424821,"connected_time":737000000000,"state":"active","ping":59},{"user_id":545,"name":"heykikidom","steam_id":76561198267574417,"connected_time":758000000000,"state":"active","ping":96},{"user_id":509,"name":"tomydjoh","steam_id":76561198077421906,"connected_time":2817000000000,"state":"active","ping":57},{"user_id":554,"name":"Alexei","steam_id":76561197987169026,"connected_time":45000000000,"state":"active","ping":53},{"user_id":530,"name":"Dispenser (Lopata)","steam_id":76561198820264239,"connected_time":2172000000000,"state":"active","ping":83},{"user_id":513,"name":"Yngwie J. Malmsteen","steam_id":76561198242834532,"connected_time":2615000000000,"state":"active","ping":71},{"user_id":531,"name":"/hm/","steam_id":76561199213268288,"connected_time":2165000000000,"state":"active","ping":75},{"user_id":514,"name":"Pan Pan","steam_id":76561199074670515,"connected_time":2609000000000,"state":"active","ping":78},{"user_id":518,"name":"UptownFall","steam_id":76561198356707725,"connected_time":2543000000000,"state":"active","ping":58},{"user_id":552,"name":"Bobo","steam_id":76561198052308399,"connected_time":68000000000,"state":"active","ping":60},{"user_id":544,"name":"Leszy","steam_id":76561198372172135,"connected_time":1066000000000,"state":"active","ping":65},{"user_id":532,"name":"Robotato","steam_id":76561198055581924,"connected_time":2112000000000,"state":"active","ping":77},{"user_id":543,"name":"Matteo Besho","steam_id":76561199159657855,"connected_time":1114000000000,"state":"active","ping":50},{"user_id":516,"name":"Yung Pussy Baker","steam_id":76561198353865337,"connected_time":2600000000000,"state":"active","ping":58},{"user_id":542,"name":"RataDeOrdenador","steam_id":76561198071291263,"connected_time":1407000000000,"state":"active","ping":79},{"user_id":442,"name":"Suetolog","steam_id":76561199053090212,"connected_time":10237000000000,"state":"active","ping":59},{"user_id":505,"name":"mohemmedmokhter2005","steam_id":76561199197650506,"connected_time":3109000000000,"state":"active","ping":106},{"user_id":553,"name":"itsTay","steam_id":76561198202990635,"connected_time":67000000000,"state":"active","ping":64},{"user_id":526,"name":"BIGGERDANGO","steam_id":76561198247876394,"connected_time":2413000000000,"state":"active","ping":60},{"user_id":541,"name":"TheTerminator","steam_id":76561198390314734,"connected_time":1449000000000,"state":"active","ping":66}]},{"server_id":110,"name":"Uncletopia | Frankfurt | 2 | All Maps","name_short":"frk-2","host":"frk-1.de.uncletopia.com","port":27025,"enabled":true,"region":"eu","cc":"de","latitude":50.110924,"longitude":8.682127,"reserved":0,"last_update":"0001-01-01T00:00:00Z","name_a2s":"Uncletopia | Frankfurt | 2 | All Maps","protocol":17,"map":"pl_upward","folder":"tf","game":"Team Fortress","app_id":440,"player_count":23,"max_players":24,"Bots":0,"server_type":"Dedicated","server_os":"Linux","password":true,"vac":true,"version":"7757534","steam_id":85568392924469990,"keywords":["nocrits","nodmgspread","payload","uncletopia"],"game_id":440,"stv_port":27026,"stv_name":"Uncletopia | Frankfurt | 2 | All Maps | STV","players":[{"user_id":297,"name":"w4gthp0h","steam_id":76561198133193445,"connected_time":349000000000,"state":"active","ping":81},{"user_id":283,"name":"beamer","steam_id":76561198206037191,"connected_time":1319000000000,"state":"active","ping":65},{"user_id":272,"name":"Cosmetic brain","steam_id":76561198055936410,"connected_time":2332000000000,"state":"active","ping":85},{"user_id":269,"name":"Wade Wilson's Spoilt C4","steam_id":76561198013884709,"connected_time":2708000000000,"state":"active","ping":75},{"user_id":285,"name":"pezza","steam_id":76561197995173247,"connected_time":1261000000000,"state":"active","ping":71},{"user_id":286,"name":"Dachowiec","steam_id":76561198195408281,"connected_time":1239000000000,"state":"active","ping":61},{"user_id":266,"name":"Cocsam","steam_id":76561198050827179,"connected_time":2930000000000,"state":"active","ping":63},{"user_id":287,"name":"Garbo","steam_id":76561198133885944,"connected_time":1235000000000,"state":"active","ping":81},{"user_id":250,"name":"Laax","steam_id":76561198938409558,"connected_time":3432000000000,"state":"active","ping":82},{"user_id":295,"name":"It's Salt","steam_id":76561198003994592,"connected_time":609000000000,"state":"active","ping":65},{"user_id":288,"name":"Raven","steam_id":76561198087296188,"connected_time":1222000000000,"state":"active","ping":70},{"user_id":280,"name":"penisfinger","steam_id":76561198103904286,"connected_time":1663000000000,"state":"active","ping":71},{"user_id":276,"name":"donal rump","steam_id":76561198136239861,"connected_time":1819000000000,"state":"active","ping":62},{"user_id":253,"name":"Elon Ma","steam_id":76561199018053264,"connected_time":3286000000000,"state":"active","ping":70},{"user_id":289,"name":"LoboPaciente","steam_id":76561198088870962,"connected_time":1219000000000,"state":"active","ping":69},{"user_id":298,"name":"NozAr","steam_id":76561198313286576,"connected_time":278000000000,"state":"active","ping":112},{"user_id":299,"name":"dn4k","steam_id":76561199221755690,"connected_time":197000000000,"state":"active","ping":76},{"user_id":290,"name":"Bat in a thousand","steam_id":76561198320506848,"connected_time":1210000000000,"state":"active","ping":54},{"user_id":275,"name":"xXauntmildredXx","steam_id":76561198013299640,"connected_time":2150000000000,"state":"active","ping":73},{"user_id":143,"name":"Jesus","steam_id":76561198042593027,"connected_time":9639000000000,"state":"active","ping":86},{"user_id":291,"name":"KingPotatoChips","steam_id":76561198035156465,"connected_time":1204000000000,"state":"active","ping":66},{"user_id":263,"name":"Volcyy","steam_id":76561198063979124,"connected_time":3024000000000,"state":"active","ping":40},{"user_id":279,"name":"Mike Kerman","steam_id":76561198038257570,"connected_time":1743000000000,"state":"active","ping":83}]},{"server_id":308,"name":"Uncletopia | Frankfurt | 3 | All Maps","name_short":"frk-3","host":"frk-1.de.uncletopia.com","port":27035,"enabled":true,"region":"eu","cc":"de","latitude":50.110924,"longitude":8.682127,"reserved":0,"last_update":"0001-01-01T00:00:00Z","name_a2s":"Uncletopia | Frankfurt | 3 | All Maps","protocol":17,"map":"cp_sunshine","folder":"tf","game":"Team Fortress","app_id":440,"player_count":0,"max_players":24,"Bots":0,"server_type":"Dedicated","server_os":"Linux","password":true,"vac":true,"version":"7757534","steam_id":85568392924504274,"keywords":["cp","nocrits","nodmgspread","uncletopia"],"game_id":440,"stv_port":27036,"stv_name":"Uncletopia | Frankfurt | 3 | All Maps | STV","players":null},{"server_id":309,"name":"Uncletopia | Frankfurt | 4 | All Maps","name_short":"frk-4","host":"frk-1.de.uncletopia.com","port":27045,"enabled":true,"region":"eu","cc":"de","latitude":50.110924,"longitude":8.682127,"reserved":0,"last_update":"0001-01-01T00:00:00Z","name_a2s":"Uncletopia | Frankfurt | 4 | All Maps","protocol":17,"map":"koth_lakeside_final","folder":"tf","game":"Team Fortress","app_id":440,"player_count":0,"max_players":24,"Bots":0,"server_type":"Dedicated","server_os":"Linux","password":true,"vac":true,"version":"7757534","steam_id":85568392924504275,"keywords":["cp","nocrits","nodmgspread","uncletopia"],"game_id":440,"stv_port":27046,"stv_name":"Uncletopia | Frankfurt | 4 | All Maps | STV","players":null},{"server_id":310,"name":"Uncletopia | Frankfurt | 5 | All Maps","name_short":"frk-5","host":"frk-1.de.uncletopia.com","port":27055,"enabled":true,"region":"eu","cc":"de","latitude":50.110924,"longitude":8.682127,"reserved":0,"last_update":"0001-01-01T00:00:00Z","name_a2s":"Uncletopia | Frankfurt | 5 | All Maps","protocol":17,"map":"cp_dustbowl","folder":"tf","game":"Team Fortress","app_id":440,"player_count":0,"max_players":24,"Bots":0,"server_type":"Dedicated","server_os":"Linux","password":true,"vac":true,"version":"7757534","steam_id":85568392924504277,"keywords":["cp","nocrits","nodmgspread","uncletopia"],"game_id":440,"stv_port":27056,"stv_name":"Uncletopia | Frankfurt | 5 | All Maps | STV","players":null},{"server_id":311,"name":"Uncletopia | Frankfurt | 6 | All Maps","name_short":"frk-6","host":"frk-1.de.uncletopia.com","port":27065,"enabled":true,"region":"eu","cc":"de","latitude":50.110924,"longitude":8.682127,"reserved":0,"last_update":"0001-01-01T00:00:00Z","name_a2s":"Uncletopia | Frankfurt | 6 | All Maps","protocol":17,"map":"pl_rumford_event","folder":"tf","game":"Team Fortress","app_id":440,"player_count":16,"max_players":24,"Bots":0,"server_type":"Dedicated","server_os":"Linux","password":true,"vac":true,"version":"7757534","steam_id":85568392924504278,"keywords":["nocrits","nodmgspread","payload","uncletopia"],"game_id":440,"stv_port":27066,"stv_name":"Uncletopia | Frankfurt | 6 | All Maps | STV","players":[{"user_id":381,"name":"Subaru WRX","steam_id":76561198444734173,"connected_time":64000000000,"state":"active","ping":129},{"user_id":379,"name":"yush","steam_id":76561198121688934,"connected_time":294000000000,"state":"active","ping":90},{"user_id":382,"name":"Vershal Smershal","steam_id":76561198116223995,"connected_time":12000000000,"state":"spawning","ping":53},{"user_id":383,"name":"Cabbch","steam_id":76561198045955679,"connected_time":9000000000,"state":"spawning","ping":44},{"user_id":384,"name":"lelyxu","steam_id":76561199124666322,"connected_time":3000000000,"state":"spawning","ping":62},{"user_id":348,"name":"dochris.2","steam_id":76561198026478625,"connected_time":1887000000000,"state":"active","ping":45},{"user_id":327,"name":"Economic crisis","steam_id":76561198063562843,"connected_time":3544000000000,"state":"active","ping":56},{"user_id":330,"name":"Fortuit","steam_id":76561198065143703,"connected_time":3316000000000,"state":"active","ping":68},{"user_id":371,"name":"Yangus","steam_id":76561198147796010,"connected_time":631000000000,"state":"active","ping":61},{"user_id":369,"name":"Zero (Orbital Gear Mastermind)","steam_id":76561198017416816,"connected_time":804000000000,"state":"active","ping":54},{"user_id":354,"name":"unicorn.sausage","steam_id":76561198065415053,"connected_time":1736000000000,"state":"active","ping":49},{"user_id":357,"name":"^6demoknight66 trade.tf\"","steam_id":76561198104631920,"connected_time":1679000000000,"state":"active","ping":60},{"user_id":368,"name":"Jappy","steam_id":76561198112444032,"connected_time":813000000000,"state":"active","ping":46},{"user_id":366,"name":"buying quickfixes","steam_id":76561198410955546,"connected_time":1095000000000,"state":"active","ping":75},{"user_id":360,"name":"LadyMissfit","steam_id":76561198042236349,"connected_time":1627000000000,"state":"active","ping":75},{"user_id":376,"name":"sareena","steam_id":76561198810194062,"connected_time":478000000000,"state":"active","ping":76}]},{"server_id":23,"name":"Uncletopia | Frankfurt | 7 | Stopwatch Beta","name_short":"frk-7","host":"frk-1.de.uncletopia.com","port":27075,"enabled":true,"region":"eu","cc":"de","latitude":50.110924,"longitude":8.682127,"reserved":0,"last_update":"0001-01-01T00:00:00Z","name_a2s":"Uncletopia | Frankfurt | 7 | Stopwatch Beta","protocol":17,"map":"workshop/koth_bagel_rc5.ugc2514036946","folder":"tf","game":"Team Fortress","app_id":440,"player_count":0,"max_players":24,"Bots":0,"server_type":"Dedicated","server_os":"Linux","password":true,"vac":true,"version":"7757534","steam_id":85568392924742827,"keywords":["cp","nocrits","nodmgspread","uncletopia"],"game_id":440,"stv_port":27076,"stv_name":"Uncletopia | Frankfurt | 7 | Stopwatch Beta | STV","players":null},{"server_id":24,"name":"Uncletopia | Frankfurt | 8 | Community","name_short":"frk-8","host":"frk-1.de.uncletopia.com","port":27085,"enabled":true,"region":"eu","cc":"de","latitude":50.110924,"longitude":8.682127,"reserved":0,"last_update":"0001-01-01T00:00:00Z","name_a2s":"Uncletopia | Frankfurt | 8 | Community","protocol":17,"map":"workshop/koth_trenchfoot_b1a.ugc731436616","folder":"tf","game":"Team Fortress","app_id":440,"player_count":0,"max_players":24,"Bots":0,"server_type":"Dedicated","server_os":"Linux","password":true,"vac":true,"version":"7757534","steam_id":85568392924742828,"keywords":["cp","nocrits","nodmgspread","uncletopia"],"game_id":440,"stv_port":27086,"stv_name":"Uncletopia | Frankfurt | 8 | Community | STV","players":null},{"server_id":202,"name":"Uncletopia | Hong Kong | 1 | All Maps","name_short":"hgk-1","host":"hgk-1.hk.uncletopia.com","port":27015,"enabled":true,"region":"asia","cc":"hk","latitude":22.302711,"longitude":114.177216,"reserved":0,"last_update":"0001-01-01T00:00:00Z","name_a2s":"Uncletopia | Hong Kong | 1 | All Maps","protocol":17,"map":"cp_dustbowl","folder":"tf","game":"Team Fortress","app_id":440,"player_count":0,"max_players":24,"Bots":0,"server_type":"Dedicated","server_os":"Linux","password":true,"vac":true,"version":"7757534","steam_id":85568392924494504,"keywords":["cp","nocrits","nodmgspread","uncletopia"],"game_id":440,"stv_port":27016,"stv_name":"Uncletopia | Hong Kong | 1 | All Maps | STV","players":null},{"server_id":1,"name":"Uncletopia | Los Angeles | 1 | All Maps","name_short":"lax-1","host":"lax-1.us.uncletopia.com","port":27015,"enabled":true,"region":"us-west","cc":"us","latitude":33.94279,"longitude":-118.41004,"reserved":0,"last_update":"0001-01-01T00:00:00Z","name_a2s":"Uncletopia | Los Angeles | 1 | All Maps","protocol":17,"map":"pl_badwater","folder":"tf","game":"Team Fortress","app_id":440,"player_count":24,"max_players":24,"Bots":0,"server_type":"Dedicated","server_os":"Linux","password":true,"vac":true,"version":"7757534","steam_id":85568392924469991,"keywords":["nocrits","nodmgspread","payload","uncletopia"],"game_id":440,"stv_port":27016,"stv_name":"Uncletopia | Los Angeles | 1 | All Maps | STV","players":[{"user_id":152,"name":"mr.edderkopper","steam_id":76561198152614478,"connected_time":472000000000,"state":"active","ping":76},{"user_id":95,"name":"Zykron","steam_id":76561199056400800,"connected_time":5478000000000,"state":"active","ping":54},{"user_id":124,"name":"Koko","steam_id":76561199227724794,"connected_time":3183000000000,"state":"active","ping":142},{"user_id":137,"name":"WhatDoYouCallACowWithNoLegs?","steam_id":76561198126299723,"connected_time":1784000000000,"state":"active","ping":54},{"user_id":150,"name":"kebo","steam_id":76561198237159430,"connected_time":583000000000,"state":"active","ping":56},{"user_id":130,"name":"Hsepirn","steam_id":76561198152395431,"connected_time":2951000000000,"state":"active","ping":60},{"user_id":134,"name":"Bodude","steam_id":76561198131893063,"connected_time":1870000000000,"state":"active","ping":82},{"user_id":153,"name":"uzr","steam_id":76561198799343084,"connected_time":454000000000,"state":"active","ping":48},{"user_id":151,"name":"Boat","steam_id":76561198319185335,"connected_time":501000000000,"state":"active","ping":63},{"user_id":138,"name":"Casey_Is_Cool","steam_id":76561198267658555,"connected_time":1777000000000,"state":"active","ping":40},{"user_id":133,"name":"spherewithahat","steam_id":76561199122192660,"connected_time":2335000000000,"state":"active","ping":123},{"user_id":68,"name":"LazyDoll","steam_id":76561198053186338,"connected_time":7286000000000,"state":"active","ping":47},{"user_id":132,"name":"SpottedRuby","steam_id":76561198871250632,"connected_time":2656000000000,"state":"active","ping":69},{"user_id":154,"name":"tani","steam_id":76561198137381904,"connected_time":411000000000,"state":"active","ping":66},{"user_id":159,"name":"sk","steam_id":76561198133360797,"connected_time":272000000000,"state":"active","ping":55},{"user_id":144,"name":"Toon","steam_id":76561198395437335,"connected_time":1187000000000,"state":"active","ping":151},{"user_id":127,"name":"Anxiety","steam_id":76561198365627687,"connected_time":3111000000000,"state":"active","ping":53},{"user_id":158,"name":"SLiPpeRyJoe.nosound","steam_id":76561197977206359,"connected_time":296000000000,"state":"active","ping":129},{"user_id":143,"name":"Shamrock Shake Oct.10.2020 @8pm","steam_id":76561198833313201,"connected_time":1452000000000,"state":"active","ping":56},{"user_id":58,"name":"‡ºò ‚ãÜÀöüéßCaffeine‚òï*Àñ¬∞","steam_id":76561199259309294,"connected_time":7834000000000,"state":"active","ping":137},{"user_id":145,"name":"isaiah","steam_id":76561197962607364,"connected_time":1175000000000,"state":"active","ping":111},{"user_id":128,"name":"autumn","steam_id":76561199000378486,"connected_time":3101000000000,"state":"active","ping":83},{"user_id":129,"name":"Tiny","steam_id":76561198840220161,"connected_time":3096000000000,"state":"active","ping":100},{"user_id":63,"name":"Belmore","steam_id":76561198009355231,"connected_time":7786000000000,"state":"active","ping":61}]},{"server_id":112,"name":"Uncletopia | Los Angeles | 2 | All Maps","name_short":"lax-2","host":"lax-1.us.uncletopia.com","port":27025,"enabled":true,"region":"us-west","cc":"us","latitude":33.94279,"longitude":-118.41004,"reserved":0,"last_update":"0001-01-01T00:00:00Z","name_a2s":"Uncletopia | Los Angeles | 2 | All Maps","protocol":17,"map":"koth_cascade","folder":"tf","game":"Team Fortress","app_id":440,"player_count":0,"max_players":24,"Bots":0,"server_type":"Dedicated","server_os":"Linux","password":true,"vac":true,"version":"7757534","steam_id":85568392924469992,"keywords":["cp","nocrits","nodmgspread","uncletopia"],"game_id":440,"stv_port":27026,"stv_name":"Uncletopia | Los Angeles | 2 | All Maps | STV","players":null},{"server_id":324,"name":"Uncletopia | Los Angeles | 3 | All Maps","name_short":"lax-3","host":"lax-1.us.uncletopia.com","port":27035,"enabled":true,"region":"us-west","cc":"us","latitude":33.94279,"longitude":-118.41004,"reserved":0,"last_update":"0001-01-01T00:00:00Z","name_a2s":"Uncletopia | Los Angeles | 3 | All Maps","protocol":17,"map":"koth_viaduct","folder":"tf","game":"Team Fortress","app_id":440,"player_count":0,"max_players":24,"Bots":0,"server_type":"Dedicated","server_os":"Linux","password":true,"vac":true,"version":"7757534","steam_id":85568392924510198,"keywords":["cp","nocrits","nodmgspread","uncletopia"],"game_id":440,"stv_port":27036,"stv_name":"Uncletopia | Los Angeles | 3 | All Maps | STV","players":null},{"server_id":25,"name":"Uncletopia | Los Angeles | 4 | Stopwatch Beta","name_short":"lax-4","host":"lax-1.us.uncletopia.com","port":27045,"enabled":true,"region":"us-west","cc":"us","latitude":33.94279,"longitude":-118.41004,"reserved":0,"last_update":"0001-01-01T00:00:00Z","name_a2s":"Uncletopia | Los Angeles | 4 | Stopwatch Beta","protocol":17,"map":"pl_frontier_final","folder":"tf","game":"Team Fortress","app_id":440,"player_count":0,"max_players":24,"Bots":0,"server_type":"Dedicated","server_os":"Linux","password":true,"vac":true,"version":"7757534","steam_id":85568392924510199,"keywords":["nocrits","nodmgspread","payload","uncletopia"],"game_id":440,"stv_port":27046,"stv_name":"Uncletopia | Los Angeles | 4 | Stopwatch Beta | STV","players":null},{"server_id":11,"name":"Uncletopia | London | 1 | All Maps","name_short":"lon-1","host":"lon-1.uk.uncletopia.com","port":27015,"enabled":true,"region":"eu","cc":"gb","latitude":51.509865,"longitude":-0.118092,"reserved":0,"last_update":"0001-01-01T00:00:00Z","name_a2s":"Uncletopia | London | 1 | All Maps","protocol":17,"map":"pl_borneo","folder":"tf","game":"Team Fortress","app_id":440,"player_count":24,"max_players":24,"Bots":0,"server_type":"Dedicated","server_os":"Linux","password":true,"vac":true,"version":"7757534","steam_id":85568392924367362,"keywords":["nocrits","nodmgspread","payload","uncletopia"],"game_id":440,"stv_port":27016,"stv_name":"Uncletopia | London | 1 | All Maps | STV","players":[{"user_id":489,"name":"MarioThePlumber","steam_id":76561198314229530,"connected_time":3243000000000,"state":"active","ping":76},{"user_id":520,"name":"Bell","steam_id":76561199454586928,"connected_time":449000000000,"state":"active","ping":120},{"user_id":527,"name":"manKe","steam_id":76561198008564860,"connected_time":174000000000,"state":"active","ping":52},{"user_id":398,"name":"dec","steam_id":76561198009660168,"connected_time":10257000000000,"state":"active","ping":58},{"user_id":462,"name":"betterthanyou'lleverbe-AA-","steam_id":76561198102195119,"connected_time":4581000000000,"state":"active","ping":39},{"user_id":456,"name":"Max Andrew","steam_id":76561198158955194,"connected_time":5631000000000,"state":"active","ping":57},{"user_id":463,"name":"Samus","steam_id":76561198045943019,"connected_time":4581000000000,"state":"active","ping":59},{"user_id":402,"name":"nudjura","steam_id":76561198281986139,"connected_time":9682000000000,"state":"active","ping":45},{"user_id":522,"name":"shniper","steam_id":76561199023476841,"connected_time":444000000000,"state":"active","ping":146},{"user_id":523,"name":"homeinvasion$","steam_id":76561199111905021,"connected_time":438000000000,"state":"active","ping":116},{"user_id":502,"name":"General Petrov","steam_id":76561198027204104,"connected_time":1592000000000,"state":"active","ping":79},{"user_id":517,"name":"Dr. Le Quack","steam_id":76561197995711176,"connected_time":863000000000,"state":"active","ping":101},{"user_id":526,"name":"‚ú™ Danny","steam_id":76561198104483241,"connected_time":254000000000,"state":"active","ping":49},{"user_id":504,"name":"Roe Jogan","steam_id":76561198871991529,"connected_time":1546000000000,"state":"active","ping":61},{"user_id":528,"name":"Orsull","steam_id":76561198122467486,"connected_time":169000000000,"state":"active","ping":57},{"user_id":498,"name":"Wedgeridoo","steam_id":76561198082813907,"connected_time":2426000000000,"state":"active","ping":155},{"user_id":529,"name":"Homicidal Tendencies","steam_id":76561198828681043,"connected_time":71000000000,"state":"active","ping":72},{"user_id":519,"name":"BRUCE BEE","steam_id":76561198083063005,"connected_time":581000000000,"state":"active","ping":37},{"user_id":513,"name":":)","steam_id":76561198103988618,"connected_time":1298000000000,"state":"active","ping":70},{"user_id":530,"name":"UltimateAura","steam_id":76561198338361324,"connected_time":48000000000,"state":"active","ping":48},{"user_id":516,"name":"Bentley","steam_id":76561197978252169,"connected_time":1108000000000,"state":"active","ping":61},{"user_id":500,"name":"DesmondTheBear","steam_id":76561198038847568,"connected_time":1936000000000,"state":"active","ping":44},{"user_id":429,"name":"Pronton","steam_id":76561198082502910,"connected_time":7249000000000,"state":"active","ping":60},{"user_id":510,"name":"Piteras","steam_id":76561198858532207,"connected_time":1406000000000,"state":"active","ping":84}]},{"server_id":114,"name":"Uncletopia | London | 2 | All Maps","name_short":"lon-2","host":"lon-1.uk.uncletopia.com","port":27025,"enabled":true,"region":"eu","cc":"gb","latitude":51.509865,"longitude":-0.118092,"reserved":0,"last_update":"0001-01-01T00:00:00Z","name_a2s":"Uncletopia | London | 2 | All Maps","protocol":17,"map":"cp_gravelpit","folder":"tf","game":"Team Fortress","app_id":440,"player_count":24,"max_players":24,"Bots":0,"server_type":"Dedicated","server_os":"Linux","password":true,"vac":true,"version":"7757534","steam_id":85568392924470941,"keywords":["cp","nocrits","nodmgspread","uncletopia"],"game_id":440,"stv_port":27026,"stv_name":"Uncletopia | London | 2 | All Maps | STV","players":[{"user_id":729,"name":"rajAs","steam_id":76561198035928111,"connected_time":1166000000000,"state":"active","ping":93},{"user_id":651,"name":"Johan","steam_id":76561197999517316,"connected_time":5202000000000,"state":"active","ping":83},{"user_id":720,"name":"zino","steam_id":76561199183496272,"connected_time":1620000000000,"state":"active","ping":103},{"user_id":420,"name":"Mozza","steam_id":76561198035915570,"connected_time":14382000000000,"state":"active","ping":78},{"user_id":730,"name":"KillerQueen (he/they/she)","steam_id":76561199019399725,"connected_time":1163000000000,"state":"active","ping":46},{"user_id":725,"name":"Big Mac Gaming","steam_id":76561198158209651,"connected_time":1354000000000,"state":"active","ping":61},{"user_id":711,"name":"Duarte‚Ñ¢","steam_id":76561198131456324,"connected_time":2002000000000,"state":"active","ping":77},{"user_id":722,"name":"Speibsackerl","steam_id":76561198058135257,"connected_time":1604000000000,"state":"active","ping":83},{"user_id":726,"name":"hnz","steam_id":76561198136606222,"connected_time":1343000000000,"state":"active","ping":59},{"user_id":705,"name":"Pintarolas","steam_id":76561198124839451,"connected_time":2580000000000,"state":"active","ping":101},{"user_id":655,"name":"Sgreff","steam_id":76561198036304365,"connected_time":4943000000000,"state":"active","ping":44},{"user_id":736,"name":"Baki „ÉÑ","steam_id":76561198193615529,"connected_time":867000000000,"state":"active","ping":62},{"user_id":739,"name":"nomshi momshi","steam_id":76561198333873657,"connected_time":715000000000,"state":"active","ping":60},{"user_id":742,"name":"Ibelieveto","steam_id":76561198831479712,"connected_time":298000000000,"state":"active","ping":54},{"user_id":733,"name":"Mantis Toboggan, M.D","steam_id":76561197963562704,"connected_time":1105000000000,"state":"active","ping":76},{"user_id":741,"name":"remic dubestop","steam_id":76561198027033926,"connected_time":390000000000,"state":"active","ping":45},{"user_id":743,"name":"Fratm_Wolf","steam_id":76561199100512277,"connected_time":263000000000,"state":"active","ping":75},{"user_id":687,"name":"NotNecessary","steam_id":76561199451938365,"connected_time":3468000000000,"state":"active","ping":61},{"user_id":734,"name":"Prinz Eugen","steam_id":76561198129154766,"connected_time":920000000000,"state":"active","ping":58},{"user_id":707,"name":"darktheif54","steam_id":76561198043650119,"connected_time":2459000000000,"state":"active","ping":58},{"user_id":682,"name":"83TB of Genshin Impact hentai","steam_id":76561198329640236,"connected_time":3611000000000,"state":"active","ping":45},{"user_id":738,"name":"jo","steam_id":76561198109074418,"connected_time":844000000000,"state":"active","ping":71},{"user_id":744,"name":"ULTIMATE_GORDON","steam_id":76561198044470038,"connected_time":184000000000,"state":"active","ping":44},{"user_id":706,"name":"randompixel","steam_id":76561198003941207,"connected_time":2505000000000,"state":"active","ping":58}]},{"server_id":320,"name":"Uncletopia | London | 3 | All Maps","name_short":"lon-3","host":"lon-1.uk.uncletopia.com","port":27035,"enabled":true,"region":"eu","cc":"gb","latitude":51.509865,"longitude":-0.118092,"reserved":0,"last_update":"0001-01-01T00:00:00Z","name_a2s":"Uncletopia | London | 3 | All Maps","protocol":17,"map":"pl_upward","folder":"tf","game":"Team Fortress","app_id":440,"player_count":0,"max_players":24,"Bots":0,"server_type":"Dedicated","server_os":"Linux","password":true,"vac":true,"version":"7757534","steam_id":85568392924510192,"keywords":["nocrits","nodmgspread","payload","uncletopia"],"game_id":440,"stv_port":27036,"stv_name":"Uncletopia | London | 3 | All Maps | STV","players":null},{"server_id":321,"name":"Uncletopia | London | 4 | All Maps","name_short":"lon-4","host":"lon-1.uk.uncletopia.com","port":27045,"enabled":true,"region":"eu","cc":"gb","latitude":51.509865,"longitude":-0.118092,"reserved":0,"last_update":"0001-01-01T00:00:00Z","name_a2s":"Uncletopia | London | 4 | All Maps","protocol":17,"map":"cp_dustbowl","folder":"tf","game":"Team Fortress","app_id":440,"player_count":0,"max_players":24,"Bots":0,"server_type":"Dedicated","server_os":"Linux","password":true,"vac":true,"version":"7757534","steam_id":85568392924510193,"keywords":["cp","nocrits","nodmgspread","uncletopia"],"game_id":440,"stv_port":27046,"stv_name":"Uncletopia | London | 4 | All Maps | STV","players":null},{"server_id":21,"name":"Uncletopia | London | 5 | All Maps","name_short":"lon-5","host":"lon-1.uk.uncletopia.com","port":27055,"enabled":true,"region":"eu","cc":"gb","latitude":51.509865,"longitude":-0.118092,"reserved":0,"last_update":"0001-01-01T00:00:00Z","name_a2s":"Uncletopia | London | 5 | All Maps","protocol":17,"map":"cp_process_final","folder":"tf","game":"Team Fortress","app_id":440,"player_count":20,"max_players":24,"Bots":0,"server_type":"Dedicated","server_os":"Linux","password":true,"vac":true,"version":"7757534","steam_id":85568392924742829,"keywords":["cp","nocrits","nodmgspread","uncletopia"],"game_id":440,"stv_port":27056,"stv_name":"Uncletopia | London | 5 | All Maps | STV","players":[{"user_id":197,"name":"Houf LFT HL!!!","steam_id":76561198448050535,"connected_time":1846000000000,"state":"active","ping":72},{"user_id":209,"name":"aseu.","steam_id":76561199011293286,"connected_time":997000000000,"state":"active","ping":84},{"user_id":210,"name":"Merca #savetf2","steam_id":76561198088782472,"connected_time":990000000000,"state":"active","ping":57},{"user_id":212,"name":"Spajro","steam_id":76561198257383813,"connected_time":943000000000,"state":"active","ping":57},{"user_id":206,"name":"mumbler","steam_id":76561197970641239,"connected_time":1036000000000,"state":"active","ping":57},{"user_id":218,"name":"mtyxrst","steam_id":76561198057256978,"connected_time":823000000000,"state":"active","ping":57},{"user_id":214,"name":"Tedkon","steam_id":76561198034141061,"connected_time":903000000000,"state":"active","ping":152},{"user_id":178,"name":"koira","steam_id":76561197996199669,"connected_time":3631000000000,"state":"active","ping":75},{"user_id":215,"name":"Munibe","steam_id":76561198107967904,"connected_time":878000000000,"state":"active","ping":54},{"user_id":216,"name":"S0LDaTo","steam_id":76561198269413360,"connected_time":850000000000,"state":"active","ping":66},{"user_id":225,"name":"PK Blizzard","steam_id":76561198039836567,"connected_time":98000000000,"state":"spawning","ping":44},{"user_id":182,"name":"Penis Contortionist","steam_id":76561198073663784,"connected_time":3100000000000,"state":"active","ping":85},{"user_id":226,"name":"medical encouragement","steam_id":76561198198581079,"connected_time":52000000000,"state":"active","ping":76},{"user_id":219,"name":"G","steam_id":76561198061227689,"connected_time":817000000000,"state":"active","ping":71},{"user_id":220,"name":"FireStorm","steam_id":76561198350478325,"connected_time":752000000000,"state":"active","ping":39},{"user_id":227,"name":"boo da la krava","steam_id":76561198146147833,"connected_time":11000000000,"state":"active","ping":51},{"user_id":228,"name":"Blobbaz","steam_id":76561198031076278,"connected_time":11000000000,"state":"spawning","ping":30},{"user_id":196,"name":"Meki","steam_id":76561198108279631,"connected_time":1882000000000,"state":"active","ping":83},{"user_id":184,"name":"Gnaisse","steam_id":76561198010560642,"connected_time":3087000000000,"state":"active","ping":89},{"user_id":221,"name":"Lubrsi","steam_id":76561198040208195,"connected_time":730000000000,"state":"active","ping":45}]},{"server_id":22,"name":"Uncletopia | London | 6 | All Maps","name_short":"lon-6","host":"lon-1.uk.uncletopia.com","port":27065,"enabled":true,"region":"eu","cc":"gb","latitude":51.509865,"longitude":-0.118092,"reserved":0,"last_update":"0001-01-01T00:00:00Z","name_a2s":"Uncletopia | London | 6 | All Maps","protocol":17,"map":"pl_goldrush","folder":"tf","game":"Team Fortress","app_id":440,"player_count":24,"max_players":24,"Bots":0,"server_type":"Dedicated","server_os":"Linux","password":true,"vac":true,"version":"7757534","steam_id":85568392924742830,"keywords":["nocrits","nodmgspread","payload","uncletopia"],"game_id":440,"stv_port":27066,"stv_name":"Uncletopia | London | 6 | All Maps | STV","players":[{"user_id":163,"name":"Guuse","steam_id":76561198030956814,"connected_time":1107000000000,"state":"active","ping":67},{"user_id":169,"name":"Ged","steam_id":76561198079288943,"connected_time":854000000000,"state":"active","ping":127},{"user_id":164,"name":"Ê¨†Á®éÂì•","steam_id":76561199118856462,"connected_time":1085000000000,"state":"active","ping":54},{"user_id":142,"name":"omnibombulator","steam_id":76561198025858897,"connected_time":2031000000000,"state":"active","ping":49},{"user_id":120,"name":"QuimKong","steam_id":76561198176501842,"connected_time":4015000000000,"state":"active","ping":88},{"user_id":159,"name":"S164","steam_id":76561198802694108,"connected_time":1143000000000,"state":"active","ping":70},{"user_id":157,"name":"komantoN^-","steam_id":76561198017929662,"connected_time":1180000000000,"state":"active","ping":61},{"user_id":133,"name":"Dewotter","steam_id":76561198007653168,"connected_time":3648000000000,"state":"active","ping":60},{"user_id":100,"name":"eeeeee","steam_id":76561198017786875,"connected_time":5734000000000,"state":"active","ping":70},{"user_id":172,"name":"kicker of elves","steam_id":76561198334042273,"connected_time":373000000000,"state":"active","ping":74},{"user_id":161,"name":"Welder","steam_id":76561198355300561,"connected_time":1129000000000,"state":"active","ping":71},{"user_id":156,"name":"Mr_Pulse_","steam_id":76561198095001602,"connected_time":1184000000000,"state":"active","ping":111},{"user_id":132,"name":"s a i","steam_id":76561197970379754,"connected_time":3719000000000,"state":"active","ping":66},{"user_id":130,"name":"\u003c\u003cD.A.E.\u003e\u003e","steam_id":76561198992220268,"connected_time":3793000000000,"state":"active","ping":107},{"user_id":119,"name":"Juiceydough","steam_id":76561197997323419,"connected_time":4028000000000,"state":"active","ping":90},{"user_id":110,"name":"Blank","steam_id":76561198212308677,"connected_time":4251000000000,"state":"active","ping":74},{"user_id":170,"name":"‚Ä¢stepbro‚Ä¢","steam_id":76561198119607160,"connected_time":846000000000,"state":"active","ping":83},{"user_id":155,"name":"Temporon","steam_id":76561198035031928,"connected_time":1237000000000,"state":"active","ping":69},{"user_id":171,"name":"Sparky","steam_id":76561198036754195,"connected_time":845000000000,"state":"active","ping":47},{"user_id":103,"name":"Carrotcracker","steam_id":76561198034862396,"connected_time":5543000000000,"state":"active","ping":84},{"user_id":152,"name":"Johnny Cockroach","steam_id":76561198049648277,"connected_time":1463000000000,"state":"active","ping":104},{"user_id":167,"name":"Cumbustible Punda #SaveTF2","steam_id":76561197974274677,"connected_time":1031000000000,"state":"active","ping":59},{"user_id":145,"name":"supermariogrows","steam_id":76561198200238915,"connected_time":1847000000000,"state":"active","ping":44},{"user_id":168,"name":"LeP0tato","steam_id":76561198077615937,"connected_time":981000000000,"state":"active","ping":75}]},{"server_id":40,"name":"Uncletopia | London | 7 | No Payload","name_short":"lon-7","host":"lon-1.uk.uncletopia.com","port":27075,"enabled":true,"region":"eu","cc":"gb","latitude":51.509865,"longitude":-0.118092,"reserved":0,"last_update":"0001-01-01T00:00:00Z","name_a2s":"Uncletopia | London | 7 | No Payload","protocol":17,"map":"koth_badlands","folder":"tf","game":"Team Fortress","app_id":440,"player_count":0,"max_players":24,"Bots":0,"server_type":"Dedicated","server_os":"Linux","password":true,"vac":true,"version":"7757534","steam_id":85568392924964314,"keywords":["cp","nocrits","nodmgspread","uncletopia"],"game_id":440,"stv_port":27076,"stv_name":"Uncletopia | London | 7 | No Payload | STV","players":null},{"server_id":41,"name":"Uncletopia | London | 8 | Community","name_short":"lon-8","host":"lon-1.uk.uncletopia.com","port":27085,"enabled":true,"region":"eu","cc":"gb","latitude":51.509865,"longitude":-0.118092,"reserved":0,"last_update":"0001-01-01T00:00:00Z","name_a2s":"Uncletopia | London | 8 | Community","protocol":17,"map":"workshop/pl_eruption_b9a.ugc2807898013","folder":"tf","game":"Team Fortress","app_id":440,"player_count":0,"max_players":24,"Bots":0,"server_type":"Dedicated","server_os":"Linux","password":true,"vac":true,"version":"7757534","steam_id":85568392924964315,"keywords":["nocrits","nodmgspread","payload","uncletopia"],"game_id":440,"stv_port":27086,"stv_name":"Uncletopia | London | 8 | Community | STV","players":null},{"server_id":300,"name":"Uncletopia | Montr√©al | 1 | All Maps","name_short":"mtl-1","host":"mtl-1.ca.uncletopia.com","port":27015,"enabled":true,"region":"us-east","cc":"ca","latitude":45.50889,"longitude":-73.56167,"reserved":0,"last_update":"0001-01-01T00:00:00Z","name_a2s":"Uncletopia | Montr√©al | 1 | All Maps","protocol":17,"map":"pl_snowycoast","folder":"tf","game":"Team Fortress","app_id":440,"player_count":0,"max_players":24,"Bots":0,"server_type":"Dedicated","server_os":"Linux","password":true,"vac":true,"version":"7757534","steam_id":85568392924500087,"keywords":["nocrits","nodmgspread","payload","uncletopia"],"game_id":440,"stv_port":27016,"stv_name":"Uncletopia | Montr√©al | 1 | All Maps | STV","players":null},{"server_id":301,"name":"Uncletopia | Montr√©al | 2 | All Maps","name_short":"mtl-2","host":"mtl-1.ca.uncletopia.com","port":27025,"enabled":true,"region":"us-east","cc":"ca","latitude":45.50889,"longitude":-73.56167,"reserved":0,"last_update":"0001-01-01T00:00:00Z","name_a2s":"Uncletopia | Montr√©al | 2 | All Maps","protocol":17,"map":"pl_snowycoast","folder":"tf","game":"Team Fortress","app_id":440,"player_count":0,"max_players":24,"Bots":0,"server_type":"Dedicated","server_os":"Linux","password":true,"vac":true,"version":"7757534","steam_id":85568392924500088,"keywords":["nocrits","nodmgspread","payload","uncletopia"],"game_id":440,"stv_port":27026,"stv_name":"Uncletopia | Montr√©al | 2 | All Maps | STV","players":null},{"server_id":302,"name":"Uncletopia | Montr√©al | 3 | All Maps","name_short":"mtl-3","host":"mtl-1.ca.uncletopia.com","port":27035,"enabled":true,"region":"us-east","cc":"ca","latitude":45.50889,"longitude":-73.56167,"reserved":0,"last_update":"0001-01-01T00:00:00Z","name_a2s":"Uncletopia | Montr√©al | 3 | All Maps","protocol":17,"map":"cp_dustbowl","folder":"tf","game":"Team Fortress","app_id":440,"player_count":0,"max_players":24,"Bots":0,"server_type":"Dedicated","server_os":"Linux","password":true,"vac":true,"version":"7757534","steam_id":85568392924500089,"keywords":["cp","nocrits","nodmgspread","uncletopia"],"game_id":440,"stv_port":27036,"stv_name":"Uncletopia | Montr√©al | 3 | All Maps | STV","players":null},{"server_id":303,"name":"Uncletopia | Montr√©al | 4 | No Payload","name_short":"mtl-4","host":"mtl-1.ca.uncletopia.com","port":27045,"enabled":true,"region":"us-east","cc":"ca","latitude":45.50889,"longitude":-73.56167,"reserved":0,"last_update":"0001-01-01T00:00:00Z","name_a2s":"Uncletopia | Montr√©al | 4 | No Payload","protocol":17,"map":"pl_borneo","folder":"tf","game":"Team Fortress","app_id":440,"player_count":0,"max_players":24,"Bots":0,"server_type":"Dedicated","server_os":"Linux","password":true,"vac":true,"version":"7757534","steam_id":85568392924500090,"keywords":["nocrits","nodmgspread","payload","uncletopia"],"game_id":440,"stv_port":27046,"stv_name":"Uncletopia | Montr√©al | 4 | No Payload | STV","players":null},{"server_id":13,"name":"Uncletopia | New York City | 1 | All Maps","name_short":"nyc-1","host":"nyc-1.us.uncletopia.com","port":27015,"enabled":true,"region":"us-east","cc":"us","latitude":40.73061,"longitude":-73.93524,"reserved":0,"last_update":"0001-01-01T00:00:00Z","name_a2s":"Uncletopia | New York City | 1 | All Maps","protocol":17,"map":"cp_dustbowl","folder":"tf","game":"Team Fortress","app_id":440,"player_count":25,"max_players":24,"Bots":0,"server_type":"Dedicated","server_os":"Linux","password":true,"vac":true,"version":"7757534","steam_id":85568392924469993,"keywords":["cp","nocrits","nodmgspread","uncletopia"],"game_id":440,"stv_port":27016,"stv_name":"Uncletopia | New York City | 1 | All Maps | STV","players":[{"user_id":128,"name":"Salmon","steam_id":76561198285883040,"connected_time":4190000000000,"state":"active","ping":130},{"user_id":148,"name":"BowlzingShoes","steam_id":76561199127110073,"connected_time":2303000000000,"state":"active","ping":87},{"user_id":135,"name":"Uncle Majic the Hip Hop Magicia","steam_id":76561198107924303,"connected_time":3339000000000,"state":"active","ping":38},{"user_id":150,"name":"Strange Festive Femboy","steam_id":76561198050385093,"connected_time":2254000000000,"state":"active","ping":68},{"user_id":26,"name":"moodi catgirl","steam_id":76561198124028045,"connected_time":12341000000000,"state":"active","ping":70},{"user_id":151,"name":"arjun.patel34","steam_id":76561198117181511,"connected_time":2242000000000,"state":"active","ping":67},{"user_id":130,"name":"the_capybara_bandit","steam_id":76561198372030749,"connected_time":3927000000000,"state":"active","ping":84},{"user_id":161,"name":"Araaksa","steam_id":76561198931153864,"connected_time":1107000000000,"state":"active","ping":70},{"user_id":34,"name":"Buswolley","steam_id":76561197995205571,"connected_time":12146000000000,"state":"active","ping":120},{"user_id":173,"name":"Swifgz","steam_id":76561198162875756,"connected_time":320000000000,"state":"active","ping":43},{"user_id":170,"name":"Sergeant Joker #savetf2","steam_id":76561198854616604,"connected_time":380000000000,"state":"active","ping":61},{"user_id":171,"name":"no","steam_id":76561198069065342,"connected_time":377000000000,"state":"active","ping":68},{"user_id":167,"name":"XxGamesmasterXx","steam_id":76561198320604061,"connected_time":449000000000,"state":"active","ping":81},{"user_id":156,"name":"RaixaR","steam_id":76561198025289430,"connected_time":1980000000000,"state":"active","ping":89},{"user_id":157,"name":"the whoremonger","steam_id":76561198063970639,"connected_time":1971000000000,"state":"active","ping":54},{"user_id":162,"name":"Ripley","steam_id":76561198080766916,"connected_time":987000000000,"state":"active","ping":65},{"user_id":168,"name":"Ursus Ludius","steam_id":76561198025470722,"connected_time":416000000000,"state":"active","ping":69},{"user_id":120,"name":"R4wb33fG4m1ng73","steam_id":76561198121372198,"connected_time":5321000000000,"state":"active","ping":83},{"user_id":174,"name":"judesro","steam_id":76561198352244888,"connected_time":241000000000,"state":"active","ping":71},{"user_id":122,"name":"HollyBlocky","steam_id":76561198030156100,"connected_time":5148000000000,"state":"active","ping":82},{"user_id":44,"name":"Public Library Warrior","steam_id":76561198817866879,"connected_time":11840000000000,"state":"active","ping":67},{"user_id":159,"name":"JoCaleb02","steam_id":76561198272389829,"connected_time":1782000000000,"state":"active","ping":64},{"user_id":83,"name":"ndvr","steam_id":76561199379200102,"connected_time":8199000000000,"state":"active","ping":53},{"user_id":177,"name":"dirt but extremly realistic","steam_id":76561198828036535,"connected_time":6000000000,"state":"spawning","ping":262},{"user_id":164,"name":"Havok","steam_id":76561198063455003,"connected_time":886000000000,"state":"active","ping":50}]},{"server_id":14,"name":"Uncletopia | New York City | 2 | All Maps","name_short":"nyc-2","host":"nyc-1.us.uncletopia.com","port":27025,"enabled":true,"region":"us-east","cc":"us","latitude":40.73061,"longitude":-73.93524,"reserved":0,"last_update":"0001-01-01T00:00:00Z","name_a2s":"Uncletopia | New York City | 2 | All Maps","protocol":17,"map":"koth_lakeside_final","folder":"tf","game":"Team Fortress","app_id":440,"player_count":0,"max_players":24,"Bots":0,"server_type":"Dedicated","server_os":"Linux","password":true,"vac":true,"version":"7757534","steam_id":85568392924469994,"keywords":["cp","nocrits","nodmgspread","uncletopia"],"game_id":440,"stv_port":27026,"stv_name":"Uncletopia | New York City | 2 | All Maps | STV","players":null},{"server_id":15,"name":"Uncletopia | New York City | 3 | Stopwatch Beta","name_short":"nyc-3","host":"nyc-1.us.uncletopia.com","port":27035,"enabled":true,"region":"us-east","cc":"us","latitude":40.73061,"longitude":-73.93524,"reserved":0,"last_update":"0001-01-01T00:00:00Z","name_a2s":"Uncletopia | New York City | 3 | Stopwatch Beta","protocol":17,"map":"cp_granary","folder":"tf","game":"Team Fortress","app_id":440,"player_count":0,"max_players":24,"Bots":0,"server_type":"Dedicated","server_os":"Linux","password":true,"vac":true,"version":"7757534","steam_id":85568392924742820,"keywords":["cp","nocrits","nodmgspread","uncletopia"],"game_id":440,"stv_port":27036,"stv_name":"Uncletopia | New York City | 3 | Stopwatch Beta | STV","players":null},{"server_id":16,"name":"Uncletopia | New York City | 4 | Community","name_short":"nyc-4","host":"nyc-1.us.uncletopia.com","port":27045,"enabled":true,"region":"us-east","cc":"us","latitude":40.73061,"longitude":-73.93524,"reserved":0,"last_update":"0001-01-01T00:00:00Z","name_a2s":"Uncletopia | New York City | 4 | Community","protocol":17,"map":"workshop/cp_indulge.ugc528106646","folder":"tf","game":"Team Fortress","app_id":440,"player_count":0,"max_players":24,"Bots":0,"server_type":"Dedicated","server_os":"Linux","password":true,"vac":true,"version":"7757534","steam_id":85568392924742821,"keywords":["cp","nocrits","nodmgspread","uncletopia"],"game_id":440,"stv_port":27046,"stv_name":"Uncletopia | New York City | 4 | Community | STV","players":null},{"server_id":142,"name":"Uncletopia | S√£o Paulo | 1 | All Maps","name_short":"sao-1","host":"sao-1.br.uncletopia.com","port":27015,"enabled":true,"region":"sa","cc":"br","latitude":-23.533773,"longitude":-46.62529,"reserved":0,"last_update":"0001-01-01T00:00:00Z","name_a2s":"Uncletopia | S√£o Paulo | 1 | All Maps","protocol":17,"map":"pl_swiftwater_final1","folder":"tf","game":"Team Fortress","app_id":440,"player_count":13,"max_players":24,"Bots":0,"server_type":"Dedicated","server_os":"Linux","password":true,"vac":true,"version":"7757534","steam_id":85568392924469996,"keywords":["nocrits","nodmgspread","payload","uncletopia"],"game_id":440,"stv_port":27016,"stv_name":"Uncletopia | S√£o Paulo | 1 | All Maps | STV","players":[{"user_id":25,"name":"archi","steam_id":76561198895061602,"connected_time":132000000000,"state":"active","ping":110},{"user_id":12,"name":"churros","steam_id":76561199359501901,"connected_time":1304000000000,"state":"active","ping":41},{"user_id":7,"name":"ShinGojira[BR]","steam_id":76561199199037141,"connected_time":2076000000000,"state":"active","ping":97},{"user_id":13,"name":"PapaidosMagos","steam_id":76561198064250097,"connected_time":1156000000000,"state":"active","ping":44},{"user_id":10,"name":"demson","steam_id":76561199087663959,"connected_time":1769000000000,"state":"active","ping":62},{"user_id":14,"name":"carlosalobog17","steam_id":76561199412962152,"connected_time":899000000000,"state":"active","ping":106},{"user_id":21,"name":"swish","steam_id":76561199273735517,"connected_time":319000000000,"state":"active","ping":48},{"user_id":18,"name":"Tanqr‚Ñ¢","steam_id":76561199443597895,"connected_time":646000000000,"state":"active","ping":36},{"user_id":19,"name":"O Grande Ratinho","steam_id":76561199082074514,"connected_time":582000000000,"state":"active","ping":45},{"user_id":20,"name":"ahd21","steam_id":76561198366052681,"connected_time":524000000000,"state":"active","ping":47},{"user_id":22,"name":"Motsu","steam_id":76561198257717275,"connected_time":312000000000,"state":"active","ping":58},{"user_id":24,"name":"amikousteam07","steam_id":76561199122713039,"connected_time":220000000000,"state":"active","ping":103}]},{"server_id":143,"name":"Uncletopia | S√£o Paulo | 2 | All Maps","name_short":"sao-2","host":"sao-2.br.uncletopia.com","port":27015,"enabled":true,"region":"sa","cc":"br","latitude":-23.533773,"longitude":-46.62529,"reserved":0,"last_update":"0001-01-01T00:00:00Z","name_a2s":"Uncletopia | S√£o Paulo | 2 | All Maps","protocol":17,"map":"koth_viaduct","folder":"tf","game":"Team Fortress","app_id":440,"player_count":0,"max_players":24,"Bots":0,"server_type":"Dedicated","server_os":"Linux","password":true,"vac":true,"version":"7757534","steam_id":85568392924485349,"keywords":["cp","nocrits","nodmgspread","uncletopia"],"game_id":440,"stv_port":27016,"stv_name":"Uncletopia | S√£o Paulo | 2 | All Maps | STV","players":null},{"server_id":7,"name":"Uncletopia | Seattle | 1 | All Maps","name_short":"sea-1","host":"sea-1.us.uncletopia.com","port":27015,"enabled":true,"region":"us-west","cc":"us","latitude":47.608013,"longitude":-122.33517,"reserved":0,"last_update":"0001-01-01T00:00:00Z","name_a2s":"Uncletopia | Seattle | 1 | All Maps","protocol":17,"map":"pl_badwater","folder":"tf","game":"Team Fortress","app_id":440,"player_count":9,"max_players":24,"Bots":0,"server_type":"Dedicated","server_os":"Linux","password":true,"vac":true,"version":"7757534","steam_id":85568392924469997,"keywords":["nocrits","nodmgspread","payload","uncletopia"],"game_id":440,"stv_port":27016,"stv_name":"Uncletopia | Seattle | 1 | All Maps | STV","players":[{"user_id":23,"name":"Dry Gin","steam_id":76561198196503877,"connected_time":963000000000,"state":"active","ping":35},{"user_id":24,"name":"ELECTRA","steam_id":76561199075130898,"connected_time":761000000000,"state":"active","ping":51},{"user_id":25,"name":"vartion","steam_id":76561198272996824,"connected_time":587000000000,"state":"active","ping":51},{"user_id":26,"name":"goldhed","steam_id":76561198051751133,"connected_time":500000000000,"state":"active","ping":59},{"user_id":27,"name":"Blender Cube (Captain_Geff)","steam_id":76561199073206872,"connected_time":285000000000,"state":"active","ping":75},{"user_id":28,"name":"Gmacn","steam_id":76561198081008296,"connected_time":215000000000,"state":"active","ping":106},{"user_id":29,"name":"Elbis Premsly","steam_id":76561198067717795,"connected_time":154000000000,"state":"active","ping":71},{"user_id":30,"name":"BIGGEST MAC","steam_id":76561198847517098,"connected_time":11000000000,"state":"active","ping":123},{"user_id":31,"name":"Milly","steam_id":76561198885055475,"connected_time":5000000000,"state":"spawning","ping":50}]},{"server_id":119,"name":"Uncletopia | Seattle | 2 | All Maps","name_short":"sea-2","host":"sea-1.us.uncletopia.com","port":27025,"enabled":true,"region":"us-west","cc":"us","latitude":47.608013,"longitude":-122.33517,"reserved":0,"last_update":"0001-01-01T00:00:00Z","name_a2s":"Uncletopia | Seattle | 2 | All Maps","protocol":17,"map":"pl_borneo","folder":"tf","game":"Team Fortress","app_id":440,"player_count":24,"max_players":24,"Bots":0,"server_type":"Dedicated","server_os":"Linux","password":true,"vac":true,"version":"7757534","steam_id":85568392924469998,"keywords":["nocrits","nodmgspread","payload","uncletopia"],"game_id":440,"stv_port":27026,"stv_name":"Uncletopia | Seattle | 2 | All Maps | STV","players":[{"user_id":371,"name":"klevin","steam_id":76561198799106535,"connected_time":340000000000,"state":"active","ping":109},{"user_id":372,"name":"ognoob3000","steam_id":76561199105856641,"connected_time":334000000000,"state":"active","ping":128},{"user_id":311,"name":"chanoc","steam_id":76561198026734746,"connected_time":5801000000000,"state":"active","ping":67},{"user_id":293,"name":"m1","steam_id":76561198004133638,"connected_time":7753000000000,"state":"active","ping":79},{"user_id":354,"name":"Lazy","steam_id":76561198802747832,"connected_time":2263000000000,"state":"active","ping":55},{"user_id":373,"name":"Sudden Pyro Event","steam_id":76561198085815757,"connected_time":326000000000,"state":"active","ping":113},{"user_id":374,"name":"Karazu","steam_id":76561198026674301,"connected_time":319000000000,"state":"active","ping":74},{"user_id":350,"name":"KingTinkerer","steam_id":76561198226856548,"connected_time":2714000000000,"state":"active","ping":73},{"user_id":362,"name":"Pizzalover_2014","steam_id":76561198870649125,"connected_time":1632000000000,"state":"active","ping":70},{"user_id":366,"name":"Naffers","steam_id":76561198195957335,"connected_time":712000000000,"state":"active","ping":44},{"user_id":363,"name":"Cardboardcoin","steam_id":76561199421284163,"connected_time":1590000000000,"state":"active","ping":66},{"user_id":367,"name":"Astroa","steam_id":76561199190565830,"connected_time":420000000000,"state":"active","ping":180},{"user_id":375,"name":"Dubstepninjas","steam_id":76561198258038232,"connected_time":317000000000,"state":"active","ping":111},{"user_id":369,"name":"rat gets the cheese","steam_id":76561198031234032,"connected_time":401000000000,"state":"active","ping":99},{"user_id":361,"name":"ScoutMoment420","steam_id":76561199316368867,"connected_time":1708000000000,"state":"active","ping":121},{"user_id":295,"name":"pizzaguy4","steam_id":76561198058821622,"connected_time":7401000000000,"state":"active","ping":90},{"user_id":370,"name":"What are you doing?!","steam_id":76561198405248691,"connected_time":389000000000,"state":"active","ping":78},{"user_id":377,"name":"em","steam_id":76561198000208873,"connected_time":45000000000,"state":"active","ping":55},{"user_id":347,"name":"fwoov","steam_id":76561198129166260,"connected_time":3347000000000,"state":"active","ping":90},{"user_id":314,"name":"jacix3 [gay wolfgirl]{she/it}","steam_id":76561198205004165,"connected_time":5488000000000,"state":"active","ping":64},{"user_id":356,"name":"„Ä£dust„Ä£ -she/her-","steam_id":76561198045218909,"connected_time":2003000000000,"state":"active","ping":44},{"user_id":349,"name":"mega","steam_id":76561198089520959,"connected_time":2742000000000,"state":"active","ping":121},{"user_id":306,"name":"yeemsta supreme","steam_id":76561199141828157,"connected_time":5955000000000,"state":"active","ping":66},{"user_id":365,"name":"Bubbamanme","steam_id":76561198119778504,"connected_time":839000000000,"state":"active","ping":68}]},{"server_id":406,"name":"Uncletopia | Seattle | 3 | Stopwatch Beta","name_short":"sea-3","host":"sea-1.us.uncletopia.com","port":27035,"enabled":true,"region":"us-west","cc":"us","latitude":47.608013,"longitude":-122.33517,"reserved":0,"last_update":"0001-01-01T00:00:00Z","name_a2s":"Uncletopia | Seattle | 3 | Stopwatch Beta","protocol":17,"map":"pl_barnblitz","folder":"tf","game":"Team Fortress","app_id":440,"player_count":0,"max_players":24,"Bots":0,"server_type":"Dedicated","server_os":"Linux","password":true,"vac":true,"version":"7757534","steam_id":85568392924515217,"keywords":["nocrits","nodmgspread","payload","uncletopia"],"game_id":440,"stv_port":27036,"stv_name":"Uncletopia | Seattle | 3 | Stopwatch Beta | STV","players":null},{"server_id":17,"name":"Uncletopia | San Francisco | 1 | All Maps","name_short":"sfo-1","host":"sfo-1.us.uncletopia.com","port":27015,"enabled":true,"region":"us-west","cc":"us","latitude":37.77397,"longitude":-122.4313,"reserved":0,"last_update":"0001-01-01T00:00:00Z","name_a2s":"Uncletopia | San Francisco | 1 | All Maps","protocol":17,"map":"koth_viaduct","folder":"tf","game":"Team Fortress","app_id":440,"player_count":24,"max_players":24,"Bots":0,"server_type":"Dedicated","server_os":"Linux","password":true,"vac":true,"version":"7757534","steam_id":85568392924469999,"keywords":["cp","nocrits","nodmgspread","uncletopia"],"game_id":440,"stv_port":27016,"stv_name":"Uncletopia | San Francisco | 1 | All Maps | STV","players":[{"user_id":67,"name":"tax_evasion","steam_id":76561198094818557,"connected_time":1884000000000,"state":"active","ping":42},{"user_id":110,"name":"DaBeatGoOff?","steam_id":76561198106507400,"connected_time":197000000000,"state":"active","ping":54},{"user_id":98,"name":"Arenovas","steam_id":76561198042341811,"connected_time":501000000000,"state":"active","ping":61},{"user_id":114,"name":"CrazyM3rc","steam_id":76561199025383150,"connected_time":2000000000,"state":"spawning","ping":71},{"user_id":94,"name":"Mr. Mystical Perfection","steam_id":76561198036444997,"connected_time":524000000000,"state":"active","ping":61},{"user_id":71,"name":"huiei","steam_id":76561198073763735,"connected_time":1476000000000,"state":"active","ping":53},{"user_id":112,"name":"Lil Spoook","steam_id":76561198115638936,"connected_time":175000000000,"state":"active","ping":99},{"user_id":82,"name":"Daddy Topps","steam_id":76561198203594332,"connected_time":962000000000,"state":"active","ping":58},{"user_id":99,"name":"The Wise Guy","steam_id":76561198031080216,"connected_time":498000000000,"state":"active","ping":96},{"user_id":73,"name":"ajitterysquirrel","steam_id":76561199095830530,"connected_time":1448000000000,"state":"active","ping":97},{"user_id":90,"name":"pete_the_cat_2014","steam_id":76561198199266047,"connected_time":562000000000,"state":"active","ping":102},{"user_id":100,"name":"my monitor is off","steam_id":76561198074499537,"connected_time":493000000000,"state":"active","ping":58},{"user_id":74,"name":"Skeletor","steam_id":76561198396811465,"connected_time":1436000000000,"state":"active","ping":89},{"user_id":76,"name":"Serene Salamander","steam_id":76561198001094770,"connected_time":1275000000000,"state":"active","ping":70},{"user_id":105,"name":"whimmu","steam_id":76561198370839794,"connected_time":418000000000,"state":"active","ping":87},{"user_id":77,"name":"Shark Sandwich","steam_id":76561198025007938,"connected_time":1252000000000,"state":"active","ping":83},{"user_id":84,"name":"IPlayGamez","steam_id":76561198041387508,"connected_time":888000000000,"state":"active","ping":109},{"user_id":33,"name":"ComputerFritz","steam_id":76561198368730970,"connected_time":3543000000000,"state":"active","ping":61},{"user_id":101,"name":"o o o o o o o o o","steam_id":76561197993757506,"connected_time":487000000000,"state":"active","ping":48},{"user_id":108,"name":"the private","steam_id":76561198232500756,"connected_time":345000000000,"state":"active","ping":92},{"user_id":111,"name":"Ignited","steam_id":76561198385604391,"connected_time":183000000000,"state":"active","ping":105},{"user_id":109,"name":"GarlicDipp","steam_id":76561198064438763,"connected_time":326000000000,"state":"active","ping":100},{"user_id":54,"name":"Dangerous_Dave76","steam_id":76561199230056550,"connected_time":2530000000000,"state":"active","ping":80},{"user_id":113,"name":"gnome","steam_id":76561198262275475,"connected_time":131000000000,"state":"active","ping":129}]},{"server_id":18,"name":"Uncletopia | San Francisco | 2 | All Maps","name_short":"sfo-2","host":"sfo-1.us.uncletopia.com","port":27025,"enabled":true,"region":"us-west","cc":"us","latitude":37.77397,"longitude":-122.4313,"reserved":0,"last_update":"0001-01-01T00:00:00Z","name_a2s":"Uncletopia | San Francisco | 2 | All Maps","protocol":17,"map":"pl_badwater","folder":"tf","game":"Team Fortress","app_id":440,"player_count":24,"max_players":24,"Bots":0,"server_type":"Dedicated","server_os":"Linux","password":true,"vac":true,"version":"7757534","steam_id":85568392924470000,"keywords":["nocrits","nodmgspread","payload","uncletopia"],"game_id":440,"stv_port":27026,"stv_name":"Uncletopia | San Francisco | 2 | All Maps | STV","players":[{"user_id":18,"name":"John Fortress 2","steam_id":76561199241277109,"connected_time":4131000000000,"state":"active","ping":110},{"user_id":19,"name":"Festive Turnip","steam_id":76561198215801344,"connected_time":4068000000000,"state":"active","ping":85},{"user_id":20,"name":"The One True Pineapple #SaveTF2","steam_id":76561198083157236,"connected_time":3362000000000,"state":"active","ping":83},{"user_id":23,"name":"Warrenator","steam_id":76561198132094572,"connected_time":2378000000000,"state":"active","ping":101},{"user_id":48,"name":"AspenIsPoplar","steam_id":76561198346382060,"connected_time":858000000000,"state":"active","ping":86},{"user_id":26,"name":"b_cho503","steam_id":76561199404873970,"connected_time":2108000000000,"state":"active","ping":84},{"user_id":27,"name":"Kuma","steam_id":76561199100813140,"connected_time":2101000000000,"state":"active","ping":71},{"user_id":29,"name":"Tristan The Turkey Dinner","steam_id":76561197998941304,"connected_time":1857000000000,"state":"active","ping":136},{"user_id":45,"name":"lukamine","steam_id":76561198166827208,"connected_time":969000000000,"state":"active","ping":68},{"user_id":53,"name":"TheRiGuy21","steam_id":76561199466243640,"connected_time":503000000000,"state":"active","ping":87},{"user_id":54,"name":"SLJhammer","steam_id":76561198236320848,"connected_time":65000000000,"state":"active","ping":87},{"user_id":34,"name":"Spoofle","steam_id":76561199003655066,"connected_time":1431000000000,"state":"active","ping":48},{"user_id":35,"name":"tum","steam_id":76561198084712019,"connected_time":1375000000000,"state":"active","ping":69},{"user_id":36,"name":"Pile of Spinach","steam_id":76561198043068841,"connected_time":1277000000000,"state":"active","ping":75},{"user_id":38,"name":"Hornis the Great","steam_id":76561198139929833,"connected_time":1224000000000,"state":"active","ping":66},{"user_id":39,"name":"Tiko #SaveTF2","steam_id":76561199066864469,"connected_time":1154000000000,"state":"active","ping":76},{"user_id":41,"name":"Casaaterrizador","steam_id":76561199388911950,"connected_time":1064000000000,"state":"active","ping":113},{"user_id":42,"name":"Tritium","steam_id":76561198043305626,"connected_time":1055000000000,"state":"active","ping":54},{"user_id":52,"name":"Lane","steam_id":76561197965828506,"connected_time":726000000000,"state":"active","ping":86},{"user_id":46,"name":"whole fat unpasteurized noob","steam_id":76561198133234284,"connected_time":966000000000,"state":"active","ping":71},{"user_id":47,"name":"Team Fortress 2","steam_id":76561199196604410,"connected_time":904000000000,"state":"active","ping":74},{"user_id":49,"name":"times table","steam_id":76561198341452558,"connected_time":807000000000,"state":"active","ping":90},{"user_id":50,"name":"wAck","steam_id":76561198072385729,"connected_time":770000000000,"state":"active","ping":59},{"user_id":51,"name":"soultheori","steam_id":76561198065538342,"connected_time":744000000000,"state":"active","ping":93}]},{"server_id":19,"name":"Uncletopia | San Francisco | 3 | Stopwatch Beta","name_short":"sfo-3","host":"sfo-1.us.uncletopia.com","port":27035,"enabled":true,"region":"us-west","cc":"us","latitude":37.77397,"longitude":-122.4313,"reserved":0,"last_update":"0001-01-01T00:00:00Z","name_a2s":"Uncletopia | San Francisco | 3 | Stopwatch Beta","protocol":17,"map":"pl_borneo","folder":"tf","game":"Team Fortress","app_id":440,"player_count":0,"max_players":24,"Bots":0,"server_type":"Dedicated","server_os":"Linux","password":true,"vac":true,"version":"7757534","steam_id":85568392924742824,"keywords":["nocrits","nodmgspread","payload","uncletopia"],"game_id":440,"stv_port":27036,"stv_name":"Uncletopia | San Francisco | 3 | Stopwatch Beta | STV","players":null},{"server_id":20,"name":"Uncletopia | San Francisco | 4 | Community","name_short":"sfo-4","host":"sfo-1.us.uncletopia.com","port":27045,"enabled":true,"region":"us-west","cc":"us","latitude":37.77397,"longitude":-122.4313,"reserved":0,"last_update":"0001-01-01T00:00:00Z","name_a2s":"Uncletopia | San Francisco | 4 | Community","protocol":17,"map":"koth_highpass","folder":"tf","game":"Team Fortress","app_id":440,"player_count":0,"max_players":24,"Bots":0,"server_type":"Dedicated","server_os":"Linux","password":true,"vac":true,"version":"7757534","steam_id":85568392924742826,"keywords":["cp","nocrits","nodmgspread","uncletopia"],"game_id":440,"stv_port":27046,"stv_name":"Uncletopia | San Francisco | 4 | Community | STV","players":null},{"server_id":141,"name":"Uncletopia | Sydney | 1 | All Maps","name_short":"syd-1","host":"syd-1.au.uncletopia.com","port":27015,"enabled":true,"region":"au","cc":"au","latitude":-33.865143,"longitude":151.2099,"reserved":0,"last_update":"0001-01-01T00:00:00Z","name_a2s":"Uncletopia | Sydney | 1 | All Maps","protocol":17,"map":"cp_process_final","folder":"tf","game":"Team Fortress","app_id":440,"player_count":0,"max_players":24,"Bots":0,"server_type":"Dedicated","server_os":"Linux","password":true,"vac":true,"version":"7757534","steam_id":85568392924470001,"keywords":["cp","nocrits","nodmgspread","uncletopia"],"game_id":440,"stv_port":27016,"stv_name":"Uncletopia | Sydney | 1 | All Maps | STV","players":null},{"server_id":123,"name":"Uncletopia | Sydney | 2 | All Maps","name_short":"syd-2","host":"syd-1.au.uncletopia.com","port":27025,"enabled":true,"region":"au","cc":"au","latitude":-33.865143,"longitude":151.2099,"reserved":0,"last_update":"0001-01-01T00:00:00Z","name_a2s":"Uncletopia | Sydney | 2 | All Maps","protocol":17,"map":"koth_viaduct","folder":"tf","game":"Team Fortress","app_id":440,"player_count":0,"max_players":24,"Bots":0,"server_type":"Dedicated","server_os":"Linux","password":true,"vac":true,"version":"7757534","steam_id":85568392924470002,"keywords":["cp","nocrits","nodmgspread","uncletopia"],"game_id":440,"stv_port":27026,"stv_name":"Uncletopia | Sydney | 2 | All Maps | STV","players":null},{"server_id":395,"name":"Uncletopia | Sydney | 3 | All Maps","name_short":"syd-3","host":"syd-1.au.uncletopia.com","port":27035,"enabled":true,"region":"au","cc":"au","latitude":-33.865143,"longitude":151.2099,"reserved":0,"last_update":"0001-01-01T00:00:00Z","name_a2s":"Uncletopia | Sydney | 3 | All Maps","protocol":17,"map":"pl_upward","folder":"tf","game":"Team Fortress","app_id":440,"player_count":0,"max_players":24,"Bots":0,"server_type":"Dedicated","server_os":"Linux","password":true,"vac":true,"version":"7757534","steam_id":85568392925194467,"keywords":["nocrits","nodmgspread","payload","uncletopia"],"game_id":440,"stv_port":27036,"stv_name":"Uncletopia | Sydney | 3 | All Maps | STV","players":null},{"server_id":396,"name":"Uncletopia | Sydney | 4 | All Maps","name_short":"syd-4","host":"syd-1.au.uncletopia.com","port":27045,"enabled":true,"region":"au","cc":"au","latitude":-33.865143,"longitude":151.2099,"reserved":0,"last_update":"0001-01-01T00:00:00Z","name_a2s":"Uncletopia | Sydney | 4 | All Maps","protocol":17,"map":"koth_lakeside_final","folder":"tf","game":"Team Fortress","app_id":440,"player_count":0,"max_players":24,"Bots":0,"server_type":"Dedicated","server_os":"Linux","password":true,"vac":true,"version":"7757534","steam_id":85568392925397958,"keywords":["cp","nocrits","nodmgspread","uncletopia"],"game_id":440,"stv_port":27046,"stv_name":"Uncletopia | Sydney | 4 | All Maps | STV","players":null},{"server_id":58,"name":"Uncletopia | Sydney | 5 | Stopwatch Beta","name_short":"syd-5","host":"syd-1.au.uncletopia.com","port":27055,"enabled":true,"region":"au","cc":"au","latitude":-33.865143,"longitude":151.2099,"reserved":0,"last_update":"0001-01-01T00:00:00Z","name_a2s":"Uncletopia | Sydney | 5 | Stopwatch Beta","protocol":17,"map":"koth_highpass","folder":"tf","game":"Team Fortress","app_id":440,"player_count":0,"max_players":24,"Bots":0,"server_type":"Dedicated","server_os":"Linux","password":true,"vac":true,"version":"7757534","steam_id":85568392925397959,"keywords":["cp","nocrits","nodmgspread","uncletopia"],"game_id":440,"stv_port":27056,"stv_name":"Uncletopia | Sydney | 5 | Stopwatch Beta | STV","players":null},{"server_id":59,"name":"Uncletopia | Sydney | 6 | Community","name_short":"syd-6","host":"syd-1.au.uncletopia.com","port":27065,"enabled":true,"region":"au","cc":"au","latitude":-33.865143,"longitude":151.2099,"reserved":0,"last_update":"0001-01-01T00:00:00Z","name_a2s":"Uncletopia | Sydney | 6 | Community","protocol":17,"map":"cp_sunshine","folder":"tf","game":"Team Fortress","app_id":440,"player_count":0,"max_players":24,"Bots":0,"server_type":"Dedicated","server_os":"Linux","password":true,"vac":true,"version":"7757534","steam_id":85568392925397960,"keywords":["cp","nocrits","nodmgspread","uncletopia"],"game_id":440,"stv_port":27066,"stv_name":"Uncletopia | Sydney | 6 | Community | STV","players":null},{"server_id":49,"name":"Uncletopia | Warsaw | 1 | All Maps","name_short":"waw-1","host":"waw-1.pl.uncletopia.com","port":27015,"enabled":true,"region":"eu","cc":"pl","latitude":52.2297,"longitude":21.017532,"reserved":0,"last_update":"0001-01-01T00:00:00Z","name_a2s":"","protocol":0,"map":"","folder":"","game":"","app_id":0,"player_count":0,"max_players":0,"Bots":0,"server_type":"","server_os":"","password":false,"vac":false,"version":"","steam_id":0,"keywords":null,"game_id":0,"stv_port":0,"stv_name":"","players":null},{"server_id":50,"name":"Uncletopia | Warsaw | 2 | All Maps","name_short":"waw-2","host":"waw-1.pl.uncletopia.com","port":27025,"enabled":true,"region":"eu","cc":"pl","latitude":52.2297,"longitude":21.017532,"reserved":0,"last_update":"0001-01-01T00:00:00Z","name_a2s":"Uncletopia | Warsaw | 2 | All Maps","protocol":17,"map":"cp_snakewater_final1","folder":"tf","game":"Team Fortress","app_id":440,"player_count":0,"max_players":24,"Bots":0,"server_type":"Dedicated","server_os":"Linux","password":true,"vac":true,"version":"7757534","steam_id":85568392925397851,"keywords":["cp","nocrits","nodmgspread","uncletopia"],"game_id":440,"stv_port":27026,"stv_name":"Uncletopia | Warsaw | 2 | All Maps | STV","players":null},{"server_id":51,"name":"Uncletopia | Warsaw | 3 | All Maps","name_short":"waw-3","host":"waw-1.pl.uncletopia.com","port":27035,"enabled":true,"region":"eu","cc":"pl","latitude":52.2297,"longitude":21.017532,"reserved":0,"last_update":"0001-01-01T00:00:00Z","name_a2s":"Uncletopia | Warsaw | 3 | All Maps","protocol":17,"map":"pl_badwater","folder":"tf","game":"Team Fortress","app_id":440,"player_count":0,"max_players":24,"Bots":0,"server_type":"Dedicated","server_os":"Linux","password":true,"vac":true,"version":"7757534","steam_id":85568392925397852,"keywords":["nocrits","nodmgspread","payload","uncletopia"],"game_id":440,"stv_port":27036,"stv_name":"Uncletopia | Warsaw | 3 | All Maps | STV","players":null},{"server_id":52,"name":"Uncletopia | Warsaw | 4 | All Maps","name_short":"waw-4","host":"waw-1.pl.uncletopia.com","port":27045,"enabled":true,"region":"eu","cc":"pl","latitude":52.2297,"longitude":21.017532,"reserved":0,"last_update":"0001-01-01T00:00:00Z","name_a2s":"Uncletopia | Warsaw | 4 | All Maps","protocol":17,"map":"pl_snowycoast","folder":"tf","game":"Team Fortress","app_id":440,"player_count":0,"max_players":24,"Bots":0,"server_type":"Dedicated","server_os":"Linux","password":true,"vac":true,"version":"7757534","steam_id":85568392925397853,"keywords":["nocrits","nodmgspread","payload","uncletopia"],"game_id":440,"stv_port":27046,"stv_name":"Uncletopia | Warsaw | 4 | All Maps | STV","players":null},{"server_id":53,"name":"Uncletopia | Warsaw | 5 | Stopwatch Beta","name_short":"waw-5","host":"waw-1.pl.uncletopia.com","port":27055,"enabled":true,"region":"eu","cc":"pl","latitude":52.2297,"longitude":21.017532,"reserved":0,"last_update":"0001-01-01T00:00:00Z","name_a2s":"Uncletopia | Warsaw | 5 | Stopwatch Beta","protocol":17,"map":"workshop/pl_badwater_pro_v12.ugc2142942074","folder":"tf","game":"Team Fortress","app_id":440,"player_count":0,"max_players":24,"Bots":0,"server_type":"Dedicated","server_os":"Linux","password":true,"vac":true,"version":"7757534","steam_id":85568392925397854,"keywords":["nocrits","nodmgspread","payload","uncletopia"],"game_id":440,"stv_port":27056,"stv_name":"Uncletopia | Warsaw | 5 | Stopwatch Beta | STV","players":null},{"server_id":54,"name":"Uncletopia | Warsaw | 6 | Community","name_short":"waw-6","host":"waw-1.pl.uncletopia.com","port":27065,"enabled":true,"region":"eu","cc":"pl","latitude":52.2297,"longitude":21.017532,"reserved":0,"last_update":"0001-01-01T00:00:00Z","name_a2s":"Uncletopia | Warsaw | 6 | Community","protocol":17,"map":"workshop/cp_logjam_rc12.ugc454812035","folder":"tf","game":"Team Fortress","app_id":440,"player_count":0,"max_players":24,"Bots":0,"server_type":"Dedicated","server_os":"Linux","password":true,"vac":true,"version":"7757534","steam_id":85568392925397856,"keywords":["cp","nocrits","nodmgspread","uncletopia"],"game_id":440,"stv_port":27066,"stv_name":"Uncletopia | Warsaw | 6 | Community | STV","players":null}]}