{"status":true,"message":"","result":[{"server_id":9,"name":"Uncletopia | Atlanta | 1 | All Maps","name_short":"atl-1","host":"atl-1.us.uncletopia.com","port":27015,"enabled":true,"region":"us-east","cc":"us","latitude":33.753746,"longitude":-84.38633,"reserved":0,"last_update":"0001-01-01T00:00:00Z","name_a2s":"Uncletopia | Atlanta | 1 | All Maps","protocol":17,"map":"pl_snowycoast","folder":"tf","game":"Team Fortress","app_id":440,"player_count":0,"max_players":24,"Bots":0,"server_type":"Dedicated","server_os":"Linux","password":true,"vac":true,"version":"7742253","steam_id":85568392924469982,"keywords":["nocrits","nodmgspread","payload","uncletopia"],"game_id":440,"stv_port":27016,"stv_name":"Uncletopia | Atlanta | 1 | All Maps | STV","players":null},{"server_id":400,"name":"Uncletopia | Atlanta | 3 | Stopwatch Beta","name_short":"atl-3","host":"atl-1.us.uncletopia.com","port":27035,"enabled":true,"region":"us-east","cc":"us","latitude":33.753746,"longitude":-84.38633,"reserved":0,"last_update":"0001-01-01T00:00:00Z","name_a2s":"Uncletopia | Atlanta | 3 | Stopwatch Beta","protocol":17,"map":"pl_pier","folder":"tf","game":"Team Fortress","app_id":440,"player_count":0,"max_players":24,"Bots":0,"server_type":"Dedicated","server_os":"Linux","password":true,"vac":true,"version":"7742253","steam_id":85568392924515187,"keywords":["nocrits","nodmgspread","payload","uncletopia"],"game_id":440,"stv_port":27036,"stv_name":"Uncletopia | Atlanta | 3 | Stopwatch Beta | STV","players":null},{"server_id":401,"name":"Uncletopia | Atlanta | 4 | No Payload","name_short":"atl-4","host":"atl-1.us.uncletopia.com","port":27045,"enabled":true,"region":"us-east","cc":"us","latitude":33.753746,"longitude":-84.38633,"reserved":0,"last_update":"0001-01-01T00:00:00Z","name_a2s":"Uncletopia | Atlanta | 4 | No Payload","protocol":17,"map":"pl_pier","folder":"tf","game":"Team Fortress","app_id":440,"player_count":0,"max_players":24,"Bots":0,"server_type":"Dedicated","server_os":"Linux","password":true,"vac":true,"version":"7723704","steam_id":85568392924515188,"keywords":["nocrits","nodmgspread","payload","uncletopia"],"game_id":440,"stv_port":27046,"stv_name":"Uncletopia | Atlanta | 4 | No Payload | STV","players":null},{"server_id":2,"name":"Uncletopia | Chicago | 1 | All Maps","name_short":"chi-1","host":"chi-1.us.uncletopia.com","port":27015,"enabled":true,"region":"us-central","cc":"us","latitude":41.881832,"longitude":-87.62318,"reserved":0,"last_update":"0001-01-01T00:00:00Z","name_a2s":"Uncletopia | Chicago | 1 | All Maps","protocol":17,"map":"koth_cascade","folder":"tf","game":"Team Fortress","app_id":440,"player_count":0,"max_players":24,"Bots":0,"server_type":"Dedicated","server_os":"Linux","password":true,"vac":true,"version":"7742253","steam_id":85568392924469984,"keywords":["cp","nocrits","nodmgspread","uncletopia"],"game_id":440,"stv_port":27016,"stv_name":"Uncletopia | Chicago | 1 | All Maps | STV","players":null},{"server_id":106,"name":"Uncletopia | Chicago | 2 | All Maps","name_short":"chi-2","host":"chi-1.us.uncletopia.com","port":27025,"enabled":true,"region":"us-central","cc":"us","latitude":41.881832,"longitude":-87.62318,"reserved":0,"last_update":"0001-01-01T00:00:00Z","name_a2s":"Uncletopia | Chicago | 2 | All Maps","protocol":17,"map":"pl_borneo","folder":"tf","game":"Team Fortress","app_id":440,"player_count":0,"max_players":24,"Bots":0,"server_type":"Dedicated","server_os":"Linux","password":true,"vac":true,"version":"7742253","steam_id":85568392924469985,"keywords":["nocrits","nodmgspread","payload","uncletopia"],"game_id":440,"stv_port":27026,"stv_name":"Uncletopia | Chicago | 2 | All Maps | STV","players":null},{"server_id":402,"name":"Uncletopia | Chicago | 3 | All Maps","name_short":"chi-3","host":"chi-1.us.uncletopia.com","port":27035,"enabled":true,"region":"us-central","cc":"us","latitude":41.881832,"longitude":-87.62318,"reserved":0,"last_update":"0001-01-01T00:00:00Z","name_a2s":"Uncletopia | Chicago | 3 | All Maps","protocol":17,"map":"koth_cascade","folder":"tf","game":"Team Fortress","app_id":440,"player_count":0,"max_players":24,"Bots":0,"server_type":"Dedicated","server_os":"Linux","password":true,"vac":true,"version":"7742253","steam_id":85568392924515191,"keywords":["cp","nocrits","nodmgspread","uncletopia"],"game_id":440,"stv_port":27036,"stv_name":"Uncletopia | Chicago | 3 | All Maps | STV","players":null},{"server_id":403,"name":"Uncletopia | Chicago | 4 | All Maps","name_short":"chi-4","host":"chi-1.us.uncletopia.com","port":27045,"enabled":true,"region":"us-central","cc":"us","latitude":41.881832,"longitude":-87.62318,"reserved":0,"last_update":"0001-01-01T00:00:00Z","name_a2s":"Uncletopia | Chicago | 4 | All Maps","protocol":17,"map":"cp_mountainlab","folder":"tf","game":"Team Fortress","app_id":440,"player_count":0,"max_players":24,"Bots":0,"server_type":"Dedicated","server_os":"Linux","password":true,"vac":true,"version":"7742253","steam_id":85568392924515193,"keywords":["cp","nocrits","nodmgspread","uncletopia"],"game_id":440,"stv_port":27046,"stv_name":"Uncletopia | Chicago | 4 | All Maps | STV","players":null},{"server_id":36,"name":"Uncletopia | Chicago | 5 | All Maps","name_short":"chi-5","host":"chi-2.us.uncletopia.com","port":27015,"enabled":true,"region":"us-central","cc":"us","latitude":41.881832,"longitude":-87.62318,"reserved":0,"last_update":"0001-01-01T00:00:00Z","name_a2s":"Uncletopia | Chicago | 5 | All Maps","protocol":17,"map":"cp_mountainlab","folder":"tf","game":"Team Fortress","app_id":440,"player_count":24,"max_players":24,"Bots":0,"server_type":"Dedicated","server_os":"Linux","password":true,"vac":true,"version":"7742253","steam_id":85568392924866362,"keywords":["cp","nocrits","nodmgspread","uncletopia"],"game_id":440,"stv_port":27016,"stv_name":"Uncletopia | Chicago | 5 | All Maps | STV","players":[{"user_id":318,"name":"mucho mejor","steam_id":76561198122854617,"connected_time":921000000000,"state":"active","ping":56},{"user_id":276,"name":"Sir Galahad","steam_id":76561198195999859,"connected_time":5724000000000,"state":"active","ping":96},{"user_id":325,"name":"Huey","steam_id":76561198972816386,"connected_time":585000000000,"state":"active","ping":76},{"user_id":275,"name":"‚òÜShinyMew112","steam_id":76561198042820161,"connected_time":5768000000000,"state":"active","ping":59},{"user_id":305,"name":"kametro4","steam_id":76561198835430429,"connected_time":2693000000000,"state":"active","ping":83},{"user_id":313,"name":"Harmon","steam_id":76561198209786241,"connected_time":1554000000000,"state":"active","ping":78},{"user_id":319,"name":"PERC·µâ","steam_id":76561198300393063,"connected_time":920000000000,"state":"active","ping":50},{"user_id":297,"name":"The Caretaker","steam_id":76561198125241411,"connected_time":3072000000000,"state":"active","ping":90},{"user_id":326,"name":"‚Ñì0‚ÑìO","steam_id":76561198026811744,"connected_time":576000000000,"state":"active","ping":70},{"user_id":303,"name":"JFK Gamer","steam_id":76561199229169396,"connected_time":2764000000000,"state":"active","ping":62},{"user_id":229,"name":"lafredricson","steam_id":76561198300270056,"connected_time":9177000000000,"state":"active","ping":56},{"user_id":309,"name":"mos","steam_id":76561198146126212,"connected_time":2368000000000,"state":"active","ping":59},{"user_id":322,"name":"peachy","steam_id":76561198026664629,"connected_time":791000000000,"state":"active","ping":59},{"user_id":315,"name":"noah","steam_id":76561198140305002,"connected_time":1389000000000,"state":"active","ping":96},{"user_id":304,"name":"festivized autism girl","steam_id":76561198008908085,"connected_time":2763000000000,"state":"active","ping":90},{"user_id":323,"name":"Casual Costanza","steam_id":76561198024409325,"connected_time":658000000000,"state":"active","ping":62},{"user_id":328,"name":"hunter","steam_id":76561198214002073,"connected_time":248000000000,"state":"active","ping":65},{"user_id":316,"name":"A Rhino with Coronavirus","steam_id":76561197999451366,"connected_time":973000000000,"state":"active","ping":67},{"user_id":241,"name":"Swaggeroth","steam_id":76561198093911181,"connected_time":8380000000000,"state":"active","ping":44},{"user_id":278,"name":"Jolly Old Saint Nickeltoon","steam_id":76561198027738883,"connected_time":5502000000000,"state":"active","ping":54},{"user_id":307,"name":"kramer","steam_id":76561198117761965,"connected_time":2419000000000,"state":"active","ping":61},{"user_id":311,"name":"Wug","steam_id":76561198084112264,"connected_time":1704000000000,"state":"active","ping":87},{"user_id":295,"name":"Rizz Khalifa","steam_id":76561198805499264,"connected_time":4304000000000,"state":"active","ping":78},{"user_id":324,"name":"Iru","steam_id":76561198077602040,"connected_time":653000000000,"state":"active","ping":137}]},{"server_id":37,"name":"Uncletopia | Chicago | 6 | All Maps","name_short":"chi-6","host":"chi-2.us.uncletopia.com","port":27025,"enabled":true,"region":"us-central","cc":"us","latitude":41.881832,"longitude":-87.62318,"reserved":0,"last_update":"0001-01-01T00:00:00Z","name_a2s":"Uncletopia | Chicago | 6 | All Maps","protocol":17,"map":"cp_snakewater_final1","folder":"tf","game":"Team Fortress","app_id":440,"player_count":0,"max_players":24,"Bots":0,"server_type":"Dedicated","server_os":"Linux","password":true,"vac":true,"version":"7742253","steam_id":85568392924866363,"keywords":["cp","nocrits","nodmgspread","uncletopia"],"game_id":440,"stv_port":27026,"stv_name":"Uncletopia | Chicago | 6 | All Maps | STV","players":null},{"server_id":38,"name":"Uncletopia | Chicago | 7 | Stopwatch Beta","name_short":"chi-7","host":"chi-2.us.uncletopia.com","port":27035,"enabled":true,"region":"us-central","cc":"us","latitude":41.881832,"longitude":-87.62318,"reserved":0,"last_update":"0001-01-01T00:00:00Z","name_a2s":"Uncletopia | Chicago | 7 | Stopwatch Beta","protocol":17,"map":"pl_swiftwater_final1","folder":"tf","game":"Team Fortress","app_id":440,"player_count":0,"max_players":24,"Bots":0,"server_type":"Dedicated","server_os":"Linux","password":true,"vac":true,"version":"7742253","steam_id":85568392924866364,"keywords":["nocrits","nodmgspread","payload","uncletopia"],"game_id":440,"stv_port":27036,"stv_name":"Uncletopia | Chicago | 7 | Stopwatch Beta | STV","players":null},{"server_id":39,"name":"Uncletopia | Chicago | 8 | Community","name_short":"chi-8","host":"chi-2.us.uncletopia.com","port":27045,"enabled":true,"region":"us-central","cc":"us","latitude":41.881832,"longitude":-87.62318,"reserved":0,"last_update":"0001-01-01T00:00:00Z","name_a2s":"Uncletopia | Chicago | 8 | Community","protocol":17,"map":"koth_lakeside_final","folder":"tf","game":"Team Fortress","app_id":440,"player_count":0,"max_players":24,"Bots":0,"server_type":"Dedicated","server_os":"Linux","password":true,"vac":true,"version":"7742253","steam_id":85568392924866365,"keywords":["cp","nocrits","nodmgspread","uncletopia"],"game_id":440,"stv_port":27046,"stv_name":"Uncletopia | Chicago | 8 | Community | STV","players":null},{"server_id":8,"name":"Uncletopia | Dallas | 1 | All Maps","name_short":"dal-1","host":"dal-1.us.uncletopia.com","port":27015,"enabled":true,"region":"us-central","cc":"us","latitude":32.779167,"longitude":-96.80889,"reserved":0,"last_update":"0001-01-01T00:00:00Z","name_a2s":"Uncletopia | Dallas | 1 | All Maps","protocol":17,"map":"pl_snowycoast","folder":"tf","game":"Team Fortress","app_id":440,"player_count":21,"max_players":24,"Bots":0,"server_type":"Dedicated","server_os":"Linux","password":true,"vac":true,"version":"7742253","steam_id":85568392924469986,"keywords":["nocrits","nodmgspread","payload","uncletopia"],"game_id":440,"stv_port":27016,"stv_name":"Uncletopia | Dallas | 1 | All Maps | STV","players":[{"user_id":309,"name":"burial","steam_id":76561198069431694,"connected_time":504000000000,"state":"active","ping":97},{"user_id":260,"name":"aqua","steam_id":76561199407709552,"connected_time":4360000000000,"state":"active","ping":60},{"user_id":286,"name":"Kosmo","steam_id":76561198079015843,"connected_time":2847000000000,"state":"active","ping":59},{"user_id":284,"name":"Rusted Cake","steam_id":76561198209755931,"connected_time":2892000000000,"state":"active","ping":75},{"user_id":310,"name":"deskmedic","steam_id":76561198295640486,"connected_time":369000000000,"state":"active","ping":73},{"user_id":299,"name":"Ayyyy","steam_id":76561198121729211,"connected_time":1925000000000,"state":"active","ping":75},{"user_id":291,"name":"Brynkiwi","steam_id":76561198052177917,"connected_time":2662000000000,"state":"active","ping":100},{"user_id":287,"name":"dzcreeper","steam_id":76561198072250723,"connected_time":2806000000000,"state":"active","ping":105},{"user_id":311,"name":"s0so ;)","steam_id":76561198339017271,"connected_time":277000000000,"state":"active","ping":72},{"user_id":288,"name":"Original","steam_id":76561198949138095,"connected_time":2787000000000,"state":"active","ping":89},{"user_id":307,"name":"Critical","steam_id":76561198123744966,"connected_time":1078000000000,"state":"active","ping":90},{"user_id":298,"name":"CheeseCake488","steam_id":76561199407617942,"connected_time":2047000000000,"state":"active","ping":127},{"user_id":303,"name":"The Watchtower Troupe","steam_id":76561198142275303,"connected_time":1467000000000,"state":"active","ping":79},{"user_id":289,"name":"AmyPercent","steam_id":76561198071896932,"connected_time":2759000000000,"state":"active","ping":70},{"user_id":297,"name":"Rockgraham101","steam_id":76561198171740458,"connected_time":2201000000000,"state":"active","ping":70},{"user_id":226,"name":"Aegis","steam_id":76561198272052750,"connected_time":7582000000000,"state":"active","ping":78},{"user_id":308,"name":"jimsunhong","steam_id":76561198997807831,"connected_time":1073000000000,"state":"active","ping":90},{"user_id":313,"name":"1000 Ping","steam_id":76561198098330939,"connected_time":239000000000,"state":"active","ping":93},{"user_id":272,"name":"Stan","steam_id":76561199057962816,"connected_time":3992000000000,"state":"active","ping":75},{"user_id":315,"name":"The Magic Whip","steam_id":76561198116408865,"connected_time":130000000000,"state":"active","ping":81},{"user_id":268,"name":"Heillion","steam_id":76561198037205922,"connected_time":4208000000000,"state":"active","ping":104}]},{"server_id":108,"name":"Uncletopia | Dallas | 2 | All Maps","name_short":"dal-2","host":"dal-1.us.uncletopia.com","port":27025,"enabled":true,"region":"us-central","cc":"us","latitude":32.779167,"longitude":-96.80889,"reserved":0,"last_update":"0001-01-01T00:00:00Z","name_a2s":"Uncletopia | Dallas | 2 | All Maps","protocol":17,"map":"pl_upward","folder":"tf","game":"Team Fortress","app_id":440,"player_count":0,"max_players":24,"Bots":0,"server_type":"Dedicated","server_os":"Linux","password":true,"vac":true,"version":"7742253","steam_id":85568392924469988,"keywords":["nocrits","nodmgspread","payload","uncletopia"],"game_id":440,"stv_port":27026,"stv_name":"Uncletopia | Dallas | 2 | All Maps | STV","players":null},{"server_id":5,"name":"Uncletopia | Frankfurt | 1 | All Maps","name_short":"frk-1","host":"frk-1.de.uncletopia.com","port":27015,"enabled":true,"region":"eu","cc":"de","latitude":50.110924,"longitude":8.682127,"reserved":0,"last_update":"0001-01-01T00:00:00Z","name_a2s":"Uncletopia | Frankfurt | 1 | All Maps","protocol":17,"map":"pl_barnblitz","folder":"tf","game":"Team Fortress","app_id":440,"player_count":24,"max_players":24,"Bots":0,"server_type":"Dedicated","server_os":"Linux","password":true,"vac":true,"version":"7742253","steam_id":85568392924469989,"keywords":["nocrits","nodmgspread","payload","uncletopia"],"game_id":440,"stv_port":27016,"stv_name":"Uncletopia | Frankfurt | 1 | All Maps | STV","players":[{"user_id":6,"name":"TheShadowScribe","steam_id":76561199037525945,"connected_time":8492000000000,"state":"active","ping":73},{"user_id":161,"name":"Marloo","steam_id":76561198210792815,"connected_time":909000000000,"state":"active","ping":69},{"user_id":90,"name":"syzy2","steam_id":76561198010854110,"connected_time":2243000000000,"state":"active","ping":52},{"user_id":153,"name":"Mr. Hunts","steam_id":76561197981910397,"connected_time":1202000000000,"state":"active","ping":76},{"user_id":155,"name":"Porsches look like frogs","steam_id":76561198102459034,"connected_time":1142000000000,"state":"active","ping":57},{"user_id":154,"name":"cheezy27","steam_id":76561198071067236,"connected_time":1157000000000,"state":"active","ping":88},{"user_id":157,"name":"BSantos57","steam_id":76561198000597094,"connected_time":1104000000000,"state":"active","ping":81},{"user_id":119,"name":"ALARM","steam_id":76561198120686521,"connected_time":1748000000000,"state":"active","ping":60},{"user_id":156,"name":"catgirl (real)","steam_id":76561199045736884,"connected_time":1136000000000,"state":"active","ping":61},{"user_id":171,"name":"Pastill","steam_id":76561198067484436,"connected_time":649000000000,"state":"active","ping":92},{"user_id":159,"name":"this is a love letter","steam_id":76561198058656179,"connected_time":1071000000000,"state":"active","ping":54},{"user_id":143,"name":"–°–ê–ù–Ø –í–û–î–Ü–õ–ê","steam_id":76561198343380238,"connected_time":1406000000000,"state":"active","ping":70},{"user_id":160,"name":"player","steam_id":76561198054474684,"connected_time":1032000000000,"state":"active","ping":75},{"user_id":170,"name":"Sara Rem","steam_id":76561198889728504,"connected_time":756000000000,"state":"active","ping":94},{"user_id":93,"name":"Zateske","steam_id":76561198047446276,"connected_time":2022000000000,"state":"active","ping":67},{"user_id":163,"name":"daniel","steam_id":76561198167580006,"connected_time":893000000000,"state":"active","ping":59},{"user_id":164,"name":"Joe Byron","steam_id":76561198044465070,"connected_time":882000000000,"state":"active","ping":90},{"user_id":83,"name":"beeper","steam_id":76561198130416479,"connected_time":2727000000000,"state":"active","ping":56},{"user_id":165,"name":"Tea guy","steam_id":76561198797847641,"connected_time":845000000000,"state":"active","ping":70},{"user_id":172,"name":"yuh","steam_id":76561199005555839,"connected_time":497000000000,"state":"active","ping":76},{"user_id":97,"name":"Jerr_074","steam_id":76561198395931148,"connected_time":1935000000000,"state":"active","ping":69},{"user_id":167,"name":"dafydd","steam_id":76561198052200325,"connected_time":838000000000,"state":"active","ping":76},{"user_id":168,"name":"d u k k i","steam_id":76561198071807437,"connected_time":829000000000,"state":"active","ping":82},{"user_id":46,"name":"Dithmarschen","steam_id":76561198068917140,"connected_time":6003000000000,"state":"active","ping":93}]},{"server_id":110,"name":"Uncletopia | Frankfurt | 2 | All Maps","name_short":"frk-2","host":"frk-1.de.uncletopia.com","port":27025,"enabled":true,"region":"eu","cc":"de","latitude":50.110924,"longitude":8.682127,"reserved":0,"last_update":"0001-01-01T00:00:00Z","name_a2s":"Uncletopia | Frankfurt | 2 | All Maps","protocol":17,"map":"pl_swiftwater_final1","folder":"tf","game":"Team Fortress","app_id":440,"player_count":0,"max_players":24,"Bots":0,"server_type":"Dedicated","server_os":"Linux","password":true,"vac":true,"version":"7742253","steam_id":85568392924469990,"keywords":["nocrits","nodmgspread","payload","uncletopia"],"game_id":440,"stv_port":27026,"stv_name":"Uncletopia | Frankfurt | 2 | All Maps | STV","players":null},{"server_id":308,"name":"Uncletopia | Frankfurt | 3 | All Maps","name_short":"frk-3","host":"frk-1.de.uncletopia.com","port":27035,"enabled":true,"region":"eu","cc":"de","latitude":50.110924,"longitude":8.682127,"reserved":0,"last_update":"0001-01-01T00:00:00Z","name_a2s":"Uncletopia | Frankfurt | 3 | All Maps","protocol":17,"map":"cp_dustbowl","folder":"tf","game":"Team Fortress","app_id":440,"player_count":0,"max_players":24,"Bots":0,"server_type":"Dedicated","server_os":"Linux","password":true,"vac":true,"version":"7742253","steam_id":85568392924504274,"keywords":["cp","nocrits","nodmgspread","uncletopia"],"game_id":440,"stv_port":27036,"stv_name":"Uncletopia | Frankfurt | 3 | All Maps | STV","players":null},{"server_id":309,"name":"Uncletopia | Frankfurt | 4 | All Maps","name_short":"frk-4","host":"frk-1.de.uncletopia.com","port":27045,"enabled":true,"region":"eu","cc":"de","latitude":50.110924,"longitude":8.682127,"reserved":0,"last_update":"0001-01-01T00:00:00Z","name_a2s":"Uncletopia | Frankfurt | 4 | All Maps","protocol":17,"map":"cp_sunshine","folder":"tf","game":"Team Fortress","app_id":440,"player_count":0,"max_players":24,"Bots":0,"server_type":"Dedicated","server_os":"Linux","password":true,"vac":true,"version":"7742253","steam_id":85568392924504275,"keywords":["cp","nocrits","nodmgspread","uncletopia"],"game_id":440,"stv_port":27046,"stv_name":"Uncletopia | Frankfurt | 4 | All Maps | STV","players":null},{"server_id":310,"name":"Uncletopia | Frankfurt | 5 | All Maps","name_short":"frk-5","host":"frk-1.de.uncletopia.com","port":27055,"enabled":true,"region":"eu","cc":"de","latitude":50.110924,"longitude":8.682127,"reserved":0,"last_update":"0001-01-01T00:00:00Z","name_a2s":"Uncletopia | Frankfurt | 5 | All Maps","protocol":17,"map":"pl_upward","folder":"tf","game":"Team Fortress","app_id":440,"player_count":0,"max_players":24,"Bots":0,"server_type":"Dedicated","server_os":"Linux","password":true,"vac":true,"version":"7742253","steam_id":85568392924504277,"keywords":["nocrits","nodmgspread","payload","uncletopia"],"game_id":440,"stv_port":27056,"stv_name":"Uncletopia | Frankfurt | 5 | All Maps | STV","players":null},{"server_id":311,"name":"Uncletopia | Frankfurt | 6 | All Maps","name_short":"frk-6","host":"frk-1.de.uncletopia.com","port":27065,"enabled":true,"region":"eu","cc":"de","latitude":50.110924,"longitude":8.682127,"reserved":0,"last_update":"0001-01-01T00:00:00Z","name_a2s":"Uncletopia | Frankfurt | 6 | All Maps","protocol":17,"map":"koth_lakeside_final","folder":"tf","game":"Team Fortress","app_id":440,"player_count":24,"max_players":24,"Bots":0,"server_type":"Dedicated","server_os":"Linux","password":true,"vac":true,"version":"7742253","steam_id":85568392924504278,"keywords":["cp","nocrits","nodmgspread","uncletopia"],"game_id":440,"stv_port":27066,"stv_name":"Uncletopia | Frankfurt | 6 | All Maps | STV","players":[{"user_id":3,"name":"fried","steam_id":76561198307522022,"connected_time":2425000000000,"state":"active","ping":56},{"user_id":30,"name":"Miƒôtha","steam_id":76561199446829027,"connected_time":897000000000,"state":"active","ping":63},{"user_id":5,"name":"SODA!!!!!!!","steam_id":76561198107362485,"connected_time":2155000000000,"state":"active","ping":56},{"user_id":29,"name":"VioBeeyo","steam_id":76561198066258544,"connected_time":963000000000,"state":"active","ping":73},{"user_id":7,"name":"Jonas Destark","steam_id":76561198030327441,"connected_time":2030000000000,"state":"active","ping":56},{"user_id":31,"name":"tori_spring #savetf2","steam_id":76561199375975842,"connected_time":816000000000,"state":"active","ping":58},{"user_id":9,"name":"Dominus.","steam_id":76561199065917088,"connected_time":1847000000000,"state":"active","ping":70},{"user_id":14,"name":"DSL","steam_id":76561198186770547,"connected_time":1567000000000,"state":"active","ping":92},{"user_id":15,"name":"Beb","steam_id":76561198106119248,"connected_time":1556000000000,"state":"active","ping":65},{"user_id":23,"name":"√Ñ√§rik ‚ô£","steam_id":76561198131871737,"connected_time":1214000000000,"state":"active","ping":46},{"user_id":33,"name":"Nakano","steam_id":76561198866569125,"connected_time":698000000000,"state":"active","ping":75},{"user_id":34,"name":"‚ú™Matiasju01‚ú™","steam_id":76561198169444473,"connected_time":696000000000,"state":"active","ping":85},{"user_id":48,"name":"Senfbaron","steam_id":76561198070370608,"connected_time":126000000000,"state":"active","ping":58},{"user_id":43,"name":"The Funny Cat-Heaby","steam_id":76561198439978112,"connected_time":360000000000,"state":"active","ping":100},{"user_id":37,"name":"Virgil","steam_id":76561198248786778,"connected_time":579000000000,"state":"active","ping":111},{"user_id":38,"name":"name me pls","steam_id":76561199273576072,"connected_time":524000000000,"state":"active","ping":63},{"user_id":39,"name":"Untermenshh","steam_id":76561198284636705,"connected_time":512000000000,"state":"active","ping":90},{"user_id":41,"name":"Czebosak","steam_id":76561198958118225,"connected_time":457000000000,"state":"active","ping":87},{"user_id":42,"name":"Feelin' Supersonic","steam_id":76561198005738407,"connected_time":436000000000,"state":"active","ping":76},{"user_id":44,"name":"gion","steam_id":76561199065121816,"connected_time":356000000000,"state":"active","ping":95},{"user_id":45,"name":"nogavec","steam_id":76561199095329565,"connected_time":330000000000,"state":"active","ping":55},{"user_id":46,"name":"Gordon Feetman","steam_id":76561198047577393,"connected_time":321000000000,"state":"active","ping":57},{"user_id":47,"name":"szebniok ‚òÉ‚ùÑüéÑ","steam_id":76561198031435395,"connected_time":310000000000,"state":"active","ping":66}]},{"server_id":23,"name":"Uncletopia | Frankfurt | 7 | Stopwatch Beta","name_short":"frk-7","host":"frk-1.de.uncletopia.com","port":27075,"enabled":true,"region":"eu","cc":"de","latitude":50.110924,"longitude":8.682127,"reserved":0,"last_update":"0001-01-01T00:00:00Z","name_a2s":"Uncletopia | Frankfurt | 7 | Stopwatch Beta","protocol":17,"map":"pl_badwater","folder":"tf","game":"Team Fortress","app_id":440,"player_count":0,"max_players":24,"Bots":0,"server_type":"Dedicated","server_os":"Linux","password":true,"vac":true,"version":"7742253","steam_id":85568392924742827,"keywords":["nocrits","nodmgspread","payload","uncletopia"],"game_id":440,"stv_port":27076,"stv_name":"Uncletopia | Frankfurt | 7 | Stopwatch Beta | STV","players":null},{"server_id":24,"name":"Uncletopia | Frankfurt | 8 | Community","name_short":"frk-8","host":"frk-1.de.uncletopia.com","port":27085,"enabled":true,"region":"eu","cc":"de","latitude":50.110924,"longitude":8.682127,"reserved":0,"last_update":"0001-01-01T00:00:00Z","name_a2s":"Uncletopia | Frankfurt | 8 | Community","protocol":17,"map":"koth_cascade","folder":"tf","game":"Team Fortress","app_id":440,"player_count":0,"max_players":24,"Bots":0,"server_type":"Dedicated","server_os":"Linux","password":true,"vac":true,"version":"7742253","steam_id":85568392924742828,"keywords":["cp","nocrits","nodmgspread","uncletopia"],"game_id":440,"stv_port":27086,"stv_name":"Uncletopia | Frankfurt | 8 | Community | STV","players":null},{"server_id":202,"name":"Uncletopia | Hong Kong | 1 | All Maps","name_short":"hgk-1","host":"hgk-1.hk.uncletopia.com","port":27015,"enabled":true,"region":"asia","cc":"hk","latitude":22.302711,"longitude":114.177216,"reserved":0,"last_update":"0001-01-01T00:00:00Z","name_a2s":"Uncletopia | Hong Kong | 1 | All Maps","protocol":17,"map":"pl_upward","folder":"tf","game":"Team Fortress","app_id":440,"player_count":24,"max_players":24,"Bots":0,"server_type":"Dedicated","server_os":"Linux","password":true,"vac":true,"version":"7742253","steam_id":85568392924494504,"keywords":["nocrits","nodmgspread","payload","uncletopia"],"game_id":440,"stv_port":27016,"stv_name":"Uncletopia | Hong Kong | 1 | All Maps | STV","players":[{"user_id":478,"name":"Momru","steam_id":76561198275587172,"connected_time":5253000000000,"state":"active","ping":106},{"user_id":524,"name":"PocoLoco","steam_id":76561198834044246,"connected_time":1716000000000,"state":"active","ping":103},{"user_id":533,"name":"tuxy","steam_id":76561198996816684,"connected_time":943000000000,"state":"active","ping":110},{"user_id":526,"name":"Telekhine","steam_id":76561198387120618,"connected_time":1554000000000,"state":"active","ping":53},{"user_id":536,"name":"SICSIN","steam_id":76561198083923462,"connected_time":831000000000,"state":"active","ping":77},{"user_id":506,"name":"zsb","steam_id":76561198073857914,"connected_time":2514000000000,"state":"active","ping":76},{"user_id":514,"name":"cellum95","steam_id":76561198172146871,"connected_time":2123000000000,"state":"active","ping":64},{"user_id":505,"name":"Puddin","steam_id":76561198140052918,"connected_time":2520000000000,"state":"active","ping":93},{"user_id":525,"name":"Half measure","steam_id":76561199135173894,"connected_time":1571000000000,"state":"active","ping":85},{"user_id":490,"name":"Pochita","steam_id":76561198203073201,"connected_time":3904000000000,"state":"active","ping":59},{"user_id":427,"name":"Gold","steam_id":76561199008543001,"connected_time":9578000000000,"state":"active","ping":61},{"user_id":499,"name":"bocchi the oppai","steam_id":76561198008307645,"connected_time":2901000000000,"state":"active","ping":73},{"user_id":508,"name":"Alan the Annihilator","steam_id":76561198346128694,"connected_time":2440000000000,"state":"active","ping":64},{"user_id":538,"name":"itrash","steam_id":76561199068229379,"connected_time":511000000000,"state":"active","ping":54},{"user_id":530,"name":"Giouri","steam_id":76561199152247162,"connected_time":1364000000000,"state":"active","ping":80},{"user_id":504,"name":"Bertengkar","steam_id":76561198213031155,"connected_time":2772000000000,"state":"active","ping":110},{"user_id":495,"name":"TomCat","steam_id":76561198133744053,"connected_time":3660000000000,"state":"active","ping":119},{"user_id":523,"name":"Buttman","steam_id":76561198044693388,"connected_time":1828000000000,"state":"active","ping":52},{"user_id":535,"name":"I will sex you [cant chat]","steam_id":76561198997267036,"connected_time":937000000000,"state":"active","ping":86},{"user_id":469,"name":"Zacy","steam_id":76561198114841670,"connected_time":6427000000000,"state":"active","ping":71},{"user_id":510,"name":"Foxyfiverz","steam_id":76561198999957871,"connected_time":2380000000000,"state":"active","ping":89},{"user_id":511,"name":"MigBac","steam_id":76561199063505872,"connected_time":2366000000000,"state":"active","ping":132},{"user_id":512,"name":"33GA itsmejc_97 (f2p)","steam_id":76561199217594855,"connected_time":2345000000000,"state":"active","ping":116},{"user_id":528,"name":"Vladimir Spencer Pootis","steam_id":76561198144686119,"connected_time":1541000000000,"state":"active","ping":70}]},{"server_id":1,"name":"Uncletopia | Los Angeles | 1 | All Maps","name_short":"lax-1","host":"lax-1.us.uncletopia.com","port":27015,"enabled":true,"region":"us-west","cc":"us","latitude":33.94279,"longitude":-118.41004,"reserved":0,"last_update":"0001-01-01T00:00:00Z","name_a2s":"Uncletopia | Los Angeles | 1 | All Maps","protocol":17,"map":"pl_snowycoast","folder":"tf","game":"Team Fortress","app_id":440,"player_count":0,"max_players":24,"Bots":0,"server_type":"Dedicated","server_os":"Linux","password":true,"vac":true,"version":"7742253","steam_id":85568392924469991,"keywords":["nocrits","nodmgspread","payload","uncletopia"],"game_id":440,"stv_port":27016,"stv_name":"Uncletopia | Los Angeles | 1 | All Maps | STV","players":null},{"server_id":112,"name":"Uncletopia | Los Angeles | 2 | All Maps","name_short":"lax-2","host":"lax-1.us.uncletopia.com","port":27025,"enabled":true,"region":"us-west","cc":"us","latitude":33.94279,"longitude":-118.41004,"reserved":0,"last_update":"0001-01-01T00:00:00Z","name_a2s":"Uncletopia | Los Angeles | 2 | All Maps","protocol":17,"map":"ctf_turbine","folder":"tf","game":"Team Fortress","app_id":440,"player_count":0,"max_players":24,"Bots":0,"server_type":"Dedicated","server_os":"Linux","password":true,"vac":true,"version":"7742253","steam_id":85568392924469992,"keywords":["ctf","nocrits","nodmgspread","uncletopia"],"game_id":440,"stv_port":27026,"stv_name":"Uncletopia | Los Angeles | 2 | All Maps | STV","players":null},{"server_id":324,"name":"Uncletopia | Los Angeles | 3 | All Maps","name_short":"lax-3","host":"lax-1.us.uncletopia.com","port":27035,"enabled":true,"region":"us-west","cc":"us","latitude":33.94279,"longitude":-118.41004,"reserved":0,"last_update":"0001-01-01T00:00:00Z","name_a2s":"Uncletopia | Los Angeles | 3 | All Maps","protocol":17,"map":"pl_swiftwater_final1","folder":"tf","game":"Team Fortress","app_id":440,"player_count":0,"max_players":24,"Bots":0,"server_type":"Dedicated","server_os":"Linux","password":true,"vac":true,"version":"7742253","steam_id":85568392924510198,"keywords":["nocrits","nodmgspread","payload","uncletopia"],"game_id":440,"stv_port":27036,"stv_name":"Uncletopia | Los Angeles | 3 | All Maps | STV","players":null},{"server_id":25,"name":"Uncletopia | Los Angeles | 4 | Stopwatch Beta","name_short":"lax-4","host":"lax-1.us.uncletopia.com","port":27045,"enabled":true,"region":"us-west","cc":"us","latitude":33.94279,"longitude":-118.41004,"reserved":0,"last_update":"0001-01-01T00:00:00Z","name_a2s":"Uncletopia | Los Angeles | 4 | Stopwatch Beta","protocol":17,"map":"pl_borneo","folder":"tf","game":"Team Fortress","app_id":440,"player_count":0,"max_players":24,"Bots":0,"server_type":"Dedicated","server_os":"Linux","password":true,"vac":true,"version":"7742253","steam_id":85568392924510199,"keywords":["nocrits","nodmgspread","payload","uncletopia"],"game_id":440,"stv_port":27046,"stv_name":"Uncletopia | Los Angeles | 4 | Stopwatch Beta | STV","players":null},{"server_id":11,"name":"Uncletopia | London | 1 | All Maps","name_short":"lon-1","host":"lon-1.uk.uncletopia.com","port":27015,"enabled":true,"region":"eu","cc":"gb","latitude":51.509865,"longitude":-0.118092,"reserved":0,"last_update":"0001-01-01T00:00:00Z","name_a2s":"Uncletopia | London | 1 | All Maps","protocol":17,"map":"pl_upward","folder":"tf","game":"Team Fortress","app_id":440,"player_count":0,"max_players":24,"Bots":0,"server_type":"Dedicated","server_os":"Linux","password":true,"vac":true,"version":"7742253","steam_id":85568392924367362,"keywords":["nocrits","nodmgspread","payload","uncletopia"],"game_id":440,"stv_port":27016,"stv_name":"Uncletopia | London | 1 | All Maps | STV","players":null},{"server_id":114,"name":"Uncletopia | London | 2 | All Maps","name_short":"lon-2","host":"lon-1.uk.uncletopia.com","port":27025,"enabled":true,"region":"eu","cc":"gb","latitude":51.509865,"longitude":-0.118092,"reserved":0,"last_update":"0001-01-01T00:00:00Z","name_a2s":"Uncletopia | London | 2 | All Maps","protocol":17,"map":"pl_badwater","folder":"tf","game":"Team Fortress","app_id":440,"player_count":0,"max_players":24,"Bots":0,"server_type":"Dedicated","server_os":"Linux","password":true,"vac":true,"version":"7742253","steam_id":85568392924470941,"keywords":["nocrits","nodmgspread","payload","uncletopia"],"game_id":440,"stv_port":27026,"stv_name":"Uncletopia | London | 2 | All Maps | STV","players":null},{"server_id":320,"name":"Uncletopia | London | 3 | All Maps","name_short":"lon-3","host":"lon-1.uk.uncletopia.com","port":27035,"enabled":true,"region":"eu","cc":"gb","latitude":51.509865,"longitude":-0.118092,"reserved":0,"last_update":"0001-01-01T00:00:00Z","name_a2s":"Uncletopia | London | 3 | All Maps","protocol":17,"map":"pl_upward","folder":"tf","game":"Team Fortress","app_id":440,"player_count":0,"max_players":24,"Bots":0,"server_type":"Dedicated","server_os":"Linux","password":true,"vac":true,"version":"7742253","steam_id":85568392924510192,"keywords":["nocrits","nodmgspread","payload","uncletopia"],"game_id":440,"stv_port":27036,"stv_name":"Uncletopia | London | 3 | All Maps | STV","players":null},{"server_id":321,"name":"Uncletopia | London | 4 | All Maps","name_short":"lon-4","host":"lon-1.uk.uncletopia.com","port":27045,"enabled":true,"region":"eu","cc":"gb","latitude":51.509865,"longitude":-0.118092,"reserved":0,"last_update":"0001-01-01T00:00:00Z","name_a2s":"Uncletopia | London | 4 | All Maps","protocol":17,"map":"pl_borneo","folder":"tf","game":"Team Fortress","app_id":440,"player_count":24,"max_players":24,"Bots":0,"server_type":"Dedicated","server_os":"Linux","password":true,"vac":true,"version":"7742253","steam_id":85568392924510193,"keywords":["nocrits","nodmgspread","payload","uncletopia"],"game_id":440,"stv_port":27046,"stv_name":"Uncletopia | London | 4 | All Maps | STV","players":[{"user_id":179,"name":"El`Capitano Flex","steam_id":76561198061813730,"connected_time":6034000000000,"state":"active","ping":74},{"user_id":219,"name":"Graf von Scyth","steam_id":76561198198497733,"connected_time":3525000000000,"state":"active","ping":36},{"user_id":243,"name":"SirVitek","steam_id":76561198142961758,"connected_time":995000000000,"state":"active","ping":52},{"user_id":260,"name":"chgivan","steam_id":76561198060010064,"connected_time":7000000000,"state":"spawning","ping":213},{"user_id":245,"name":"kickflip","steam_id":76561199245051414,"connected_time":940000000000,"state":"active","ping":52},{"user_id":241,"name":"Ian","steam_id":76561198159334435,"connected_time":1086000000000,"state":"active","ping":172},{"user_id":253,"name":"MarioThePlumber","steam_id":76561198314229530,"connected_time":647000000000,"state":"active","ping":75},{"user_id":240,"name":"Mike Ehrmantraut","steam_id":76561197998338481,"connected_time":1088000000000,"state":"active","ping":61},{"user_id":247,"name":"Haunted Holmes","steam_id":76561198092371786,"connected_time":885000000000,"state":"active","ping":41},{"user_id":256,"name":"Jonkheervanflep","steam_id":76561198006853101,"connected_time":179000000000,"state":"active","ping":76},{"user_id":242,"name":"Rask","steam_id":76561198052934944,"connected_time":1082000000000,"state":"active","ping":84},{"user_id":249,"name":"yasser","steam_id":76561198103973320,"connected_time":837000000000,"state":"active","ping":107},{"user_id":250,"name":"xXx_AimDemon420_xXx","steam_id":76561198267463398,"connected_time":824000000000,"state":"active","ping":60},{"user_id":252,"name":"r√∏ss","steam_id":76561198028996002,"connected_time":756000000000,"state":"active","ping":54},{"user_id":254,"name":"11037","steam_id":76561198351154533,"connected_time":639000000000,"state":"active","ping":54},{"user_id":255,"name":"Munibe","steam_id":76561198107967904,"connected_time":609000000000,"state":"active","ping":58},{"user_id":235,"name":"I'm using Tilt Controls.","steam_id":76561198077864552,"connected_time":1677000000000,"state":"active","ping":42},{"user_id":194,"name":"Bruschetta","steam_id":76561198251927162,"connected_time":4934000000000,"state":"active","ping":57},{"user_id":218,"name":"kreeekz","steam_id":76561198014431602,"connected_time":3621000000000,"state":"active","ping":80},{"user_id":258,"name":"cof","steam_id":76561199128417805,"connected_time":150000000000,"state":"active","ping":52},{"user_id":259,"name":"666sammy","steam_id":76561198016607625,"connected_time":146000000000,"state":"active","ping":82},{"user_id":228,"name":"Slazaa","steam_id":76561197993252446,"connected_time":2880000000000,"state":"active","ping":46},{"user_id":232,"name":"some edgy nickname","steam_id":76561198040241299,"connected_time":1865000000000,"state":"active","ping":80}]},{"server_id":21,"name":"Uncletopia | London | 5 | All Maps","name_short":"lon-5","host":"lon-1.uk.uncletopia.com","port":27055,"enabled":true,"region":"eu","cc":"gb","latitude":51.509865,"longitude":-0.118092,"reserved":0,"last_update":"0001-01-01T00:00:00Z","name_a2s":"Uncletopia | London | 5 | All Maps","protocol":17,"map":"pl_frontier_final","folder":"tf","game":"Team Fortress","app_id":440,"player_count":0,"max_players":24,"Bots":0,"server_type":"Dedicated","server_os":"Linux","password":true,"vac":true,"version":"7742253","steam_id":85568392924742829,"keywords":["nocrits","nodmgspread","payload","uncletopia"],"game_id":440,"stv_port":27056,"stv_name":"Uncletopia | London | 5 | All Maps | STV","players":null},{"server_id":22,"name":"Uncletopia | London | 6 | All Maps","name_short":"lon-6","host":"lon-1.uk.uncletopia.com","port":27065,"enabled":true,"region":"eu","cc":"gb","latitude":51.509865,"longitude":-0.118092,"reserved":0,"last_update":"0001-01-01T00:00:00Z","name_a2s":"Uncletopia | London | 6 | All Maps","protocol":17,"map":"pl_borneo","folder":"tf","game":"Team Fortress","app_id":440,"player_count":0,"max_players":24,"Bots":0,"server_type":"Dedicated","server_os":"Linux","password":true,"vac":true,"version":"7742253","steam_id":85568392924742830,"keywords":["nocrits","nodmgspread","payload","uncletopia"],"game_id":440,"stv_port":27066,"stv_name":"Uncletopia | London | 6 | All Maps | STV","players":null},{"server_id":40,"name":"Uncletopia | London | 7 | No Payload","name_short":"lon-7","host":"lon-1.uk.uncletopia.com","port":27075,"enabled":true,"region":"eu","cc":"gb","latitude":51.509865,"longitude":-0.118092,"reserved":0,"last_update":"0001-01-01T00:00:00Z","name_a2s":"Uncletopia | London | 7 | No Payload","protocol":17,"map":"koth_viaduct","folder":"tf","game":"Team Fortress","app_id":440,"player_count":0,"max_players":24,"Bots":0,"server_type":"Dedicated","server_os":"Linux","password":true,"vac":true,"version":"7742253","steam_id":85568392924964314,"keywords":["cp","nocrits","nodmgspread","uncletopia"],"game_id":440,"stv_port":27076,"stv_name":"Uncletopia | London | 7 | No Payload | STV","players":null},{"server_id":41,"name":"Uncletopia | London | 8 | Community","name_short":"lon-8","host":"lon-1.uk.uncletopia.com","port":27085,"enabled":true,"region":"eu","cc":"gb","latitude":51.509865,"longitude":-0.118092,"reserved":0,"last_update":"0001-01-01T00:00:00Z","name_a2s":"Uncletopia | London | 8 | Community","protocol":17,"map":"cp_altitude","folder":"tf","game":"Team Fortress","app_id":440,"player_count":0,"max_players":24,"Bots":0,"server_type":"Dedicated","server_os":"Linux","password":true,"vac":true,"version":"7742253","steam_id":85568392924964315,"keywords":["cp","nocrits","nodmgspread","uncletopia"],"game_id":440,"stv_port":27086,"stv_name":"Uncletopia | London | 8 | Community | STV","players":null},{"server_id":300,"name":"Uncletopia | Montr√©al | 1 | All Maps","name_short":"mtl-1","host":"mtl-1.ca.uncletopia.com","port":27015,"enabled":true,"region":"us-east","cc":"ca","latitude":45.50889,"longitude":-73.56167,"reserved":0,"last_update":"0001-01-01T00:00:00Z","name_a2s":"Uncletopia | Montr√©al | 1 | All Maps","protocol":17,"map":"cp_snakewater_final1","folder":"tf","game":"Team Fortress","app_id":440,"player_count":0,"max_players":24,"Bots":0,"server_type":"Dedicated","server_os":"Linux","password":true,"vac":true,"version":"7742253","steam_id":85568392924500087,"keywords":["cp","nocrits","nodmgspread","uncletopia"],"game_id":440,"stv_port":27016,"stv_name":"Uncletopia | Montr√©al | 1 | All Maps | STV","players":null},{"server_id":301,"name":"Uncletopia | Montr√©al | 2 | All Maps","name_short":"mtl-2","host":"mtl-1.ca.uncletopia.com","port":27025,"enabled":true,"region":"us-east","cc":"ca","latitude":45.50889,"longitude":-73.56167,"reserved":0,"last_update":"0001-01-01T00:00:00Z","name_a2s":"Uncletopia | Montr√©al | 2 | All Maps","protocol":17,"map":"koth_highpass","folder":"tf","game":"Team Fortress","app_id":440,"player_count":0,"max_players":24,"Bots":0,"server_type":"Dedicated","server_os":"Linux","password":true,"vac":true,"version":"7742253","steam_id":85568392924500088,"keywords":["cp","nocrits","nodmgspread","uncletopia"],"game_id":440,"stv_port":27026,"stv_name":"Uncletopia | Montr√©al | 2 | All Maps | STV","players":null},{"server_id":302,"name":"Uncletopia | Montr√©al | 3 | All Maps","name_short":"mtl-3","host":"mtl-1.ca.uncletopia.com","port":27035,"enabled":true,"region":"us-east","cc":"ca","latitude":45.50889,"longitude":-73.56167,"reserved":0,"last_update":"0001-01-01T00:00:00Z","name_a2s":"Uncletopia | Montr√©al | 3 | All Maps","protocol":17,"map":"cp_mountainlab","folder":"tf","game":"Team Fortress","app_id":440,"player_count":0,"max_players":24,"Bots":0,"server_type":"Dedicated","server_os":"Linux","password":true,"vac":true,"version":"7742253","steam_id":85568392924500089,"keywords":["cp","nocrits","nodmgspread","uncletopia"],"game_id":440,"stv_port":27036,"stv_name":"Uncletopia | Montr√©al | 3 | All Maps | STV","players":null},{"server_id":303,"name":"Uncletopia | Montr√©al | 4 | No Payload","name_short":"mtl-4","host":"mtl-1.ca.uncletopia.com","port":27045,"enabled":true,"region":"us-east","cc":"ca","latitude":45.50889,"longitude":-73.56167,"reserved":0,"last_update":"0001-01-01T00:00:00Z","name_a2s":"Uncletopia | Montr√©al | 4 | No Payload","protocol":17,"map":"cp_snakewater_final1","folder":"tf","game":"Team Fortress","app_id":440,"player_count":0,"max_players":24,"Bots":0,"server_type":"Dedicated","server_os":"Linux","password":true,"vac":true,"version":"7742253","steam_id":85568392924500090,"keywords":["cp","nocrits","nodmgspread","uncletopia"],"game_id":440,"stv_port":27046,"stv_name":"Uncletopia | Montr√©al | 4 | No Payload | STV","players":null},{"server_id":13,"name":"Uncletopia | New York City | 1 | All Maps","name_short":"nyc-1","host":"nyc-1.us.uncletopia.com","port":27015,"enabled":true,"region":"us-east","cc":"us","latitude":40.73061,"longitude":-73.93524,"reserved":0,"last_update":"0001-01-01T00:00:00Z","name_a2s":"Uncletopia | New York City | 1 | All Maps","protocol":17,"map":"cp_mountainlab","folder":"tf","game":"Team Fortress","app_id":440,"player_count":0,"max_players":24,"Bots":0,"server_type":"Dedicated","server_os":"Linux","password":true,"vac":true,"version":"7742253","steam_id":85568392924469993,"keywords":["cp","nocrits","nodmgspread","uncletopia"],"game_id":440,"stv_port":27016,"stv_name":"Uncletopia | New York City | 1 | All Maps | STV","players":null},{"server_id":14,"name":"Uncletopia | New York City | 2 | All Maps","name_short":"nyc-2","host":"nyc-1.us.uncletopia.com","port":27025,"enabled":true,"region":"us-east","cc":"us","latitude":40.73061,"longitude":-73.93524,"reserved":0,"last_update":"0001-01-01T00:00:00Z","name_a2s":"Uncletopia | New York City | 2 | All Maps","protocol":17,"map":"cp_altitude","folder":"tf","game":"Team Fortress","app_id":440,"player_count":0,"max_players":24,"Bots":0,"server_type":"Dedicated","server_os":"Linux","password":true,"vac":true,"version":"7742253","steam_id":85568392924469994,"keywords":["cp","nocrits","nodmgspread","uncletopia"],"game_id":440,"stv_port":27026,"stv_name":"Uncletopia | New York City | 2 | All Maps | STV","players":null},{"server_id":15,"name":"Uncletopia | New York City | 3 | Stopwatch Beta","name_short":"nyc-3","host":"nyc-1.us.uncletopia.com","port":27035,"enabled":true,"region":"us-east","cc":"us","latitude":40.73061,"longitude":-73.93524,"reserved":0,"last_update":"0001-01-01T00:00:00Z","name_a2s":"Uncletopia | New York City | 3 | Stopwatch Beta","protocol":17,"map":"pl_pier","folder":"tf","game":"Team Fortress","app_id":440,"player_count":0,"max_players":24,"Bots":0,"server_type":"Dedicated","server_os":"Linux","password":true,"vac":true,"version":"7742253","steam_id":85568392924742820,"keywords":["nocrits","nodmgspread","payload","uncletopia"],"game_id":440,"stv_port":27036,"stv_name":"Uncletopia | New York City | 3 | Stopwatch Beta | STV","players":null},{"server_id":16,"name":"Uncletopia | New York City | 4 | Community","name_short":"nyc-4","host":"nyc-1.us.uncletopia.com","port":27045,"enabled":true,"region":"us-east","cc":"us","latitude":40.73061,"longitude":-73.93524,"reserved":0,"last_update":"0001-01-01T00:00:00Z","name_a2s":"Uncletopia | New York City | 4 | Community","protocol":17,"map":"koth_viaduct","folder":"tf","game":"Team Fortress","app_id":440,"player_count":0,"max_players":24,"Bots":0,"server_type":"Dedicated","server_os":"Linux","password":true,"vac":true,"version":"7742253","steam_id":85568392924742821,"keywords":["cp","nocrits","nodmgspread","uncletopia"],"game_id":440,"stv_port":27046,"stv_name":"Uncletopia | New York City | 4 | Community | STV","players":null},{"server_id":142,"name":"Uncletopia | S√£o Paulo | 1 | All Maps","name_short":"sao-1","host":"sao-1.br.uncletopia.com","port":27015,"enabled":true,"region":"sa","cc":"br","latitude":-23.533773,"longitude":-46.62529,"reserved":0,"last_update":"0001-01-01T00:00:00Z","name_a2s":"Uncletopia | S√£o Paulo | 1 | All Maps","protocol":17,"map":"koth_viaduct","folder":"tf","game":"Team Fortress","app_id":440,"player_count":0,"max_players":24,"Bots":0,"server_type":"Dedicated","server_os":"Linux","password":true,"vac":true,"version":"7742253","steam_id":85568392924469996,"keywords":["cp","nocrits","nodmgspread","uncletopia"],"game_id":440,"stv_port":27016,"stv_name":"Uncletopia | S√£o Paulo | 1 | All Maps | STV","players":null},{"server_id":143,"name":"Uncletopia | S√£o Paulo | 2 | All Maps","name_short":"sao-2","host":"sao-2.br.uncletopia.com","port":27015,"enabled":true,"region":"sa","cc":"br","latitude":-23.533773,"longitude":-46.62529,"reserved":0,"last_update":"0001-01-01T00:00:00Z","name_a2s":"Uncletopia | S√£o Paulo | 2 | All Maps","protocol":17,"map":"koth_viaduct","folder":"tf","game":"Team Fortress","app_id":440,"player_count":0,"max_players":24,"Bots":0,"server_type":"Dedicated","server_os":"Linux","password":true,"vac":true,"version":"7742253","steam_id":85568392924485349,"keywords":["cp","nocrits","nodmgspread","uncletopia"],"game_id":440,"stv_port":27016,"stv_name":"Uncletopia | S√£o Paulo | 2 | All Maps | STV","players":null},{"server_id":7,"name":"Uncletopia | Seattle | 1 | All Maps","name_short":"sea-1","host":"sea-1.us.uncletopia.com","port":27015,"enabled":true,"region":"us-west","cc":"us","latitude":47.608013,"longitude":-122.33517,"reserved":0,"last_update":"0001-01-01T00:00:00Z","name_a2s":"Uncletopia | Seattle | 1 | All Maps","protocol":17,"map":"pl_upward","folder":"tf","game":"Team Fortress","app_id":440,"player_count":0,"max_players":24,"Bots":0,"server_type":"Dedicated","server_os":"Linux","password":true,"vac":true,"version":"7742253","steam_id":85568392924469997,"keywords":["nocrits","nodmgspread","payload","uncletopia"],"game_id":440,"stv_port":27016,"stv_name":"Uncletopia | Seattle | 1 | All Maps | STV","players":null},{"server_id":119,"name":"Uncletopia | Seattle | 2 | All Maps","name_short":"sea-2","host":"sea-1.us.uncletopia.com","port":27025,"enabled":true,"region":"us-west","cc":"us","latitude":47.608013,"longitude":-122.33517,"reserved":0,"last_update":"0001-01-01T00:00:00Z","name_a2s":"Uncletopia | Seattle | 2 | All Maps","protocol":17,"map":"pl_pier","folder":"tf","game":"Team Fortress","app_id":440,"player_count":24,"max_players":24,"Bots":0,"server_type":"Dedicated","server_os":"Linux","password":true,"vac":true,"version":"7742253","steam_id":85568392924469998,"keywords":["nocrits","nodmgspread","payload","uncletopia"],"game_id":440,"stv_port":27026,"stv_name":"Uncletopia | Seattle | 2 | All Maps | STV","players":[{"user_id":251,"name":"Frongus","steam_id":76561197979056451,"connected_time":3368000000000,"state":"active","ping":45},{"user_id":248,"name":"Salty.Sam","steam_id":76561198030933901,"connected_time":4201000000000,"state":"active","ping":101},{"user_id":264,"name":"spaz_addict","steam_id":76561198084288186,"connected_time":2656000000000,"state":"active","ping":67},{"user_id":296,"name":"Raian","steam_id":76561199138048671,"connected_time":234000000000,"state":"active","ping":73},{"user_id":266,"name":"Jules the Demon","steam_id":76561198325850952,"connected_time":2302000000000,"state":"active","ping":120},{"user_id":253,"name":"self sufficient kitten","steam_id":76561197960592612,"connected_time":3266000000000,"state":"active","ping":45},{"user_id":276,"name":"Saiopun","steam_id":76561199011832069,"connected_time":1324000000000,"state":"active","ping":79},{"user_id":268,"name":"Pyrolimited","steam_id":76561198195455657,"connected_time":1649000000000,"state":"active","ping":50},{"user_id":269,"name":"Kleine","steam_id":76561198042556857,"connected_time":1639000000000,"state":"active","ping":105},{"user_id":257,"name":"loppy","steam_id":76561198081870327,"connected_time":2834000000000,"state":"active","ping":90},{"user_id":284,"name":"deez nuts more like this cokc","steam_id":76561198347225801,"connected_time":960000000000,"state":"active","ping":55},{"user_id":295,"name":"TheMagicMrWaffle","steam_id":76561198104357256,"connected_time":282000000000,"state":"active","ping":69},{"user_id":76,"name":"butt3r_","steam_id":76561198156374792,"connected_time":19122000000000,"state":"active","ping":49},{"user_id":272,"name":"A Gray Phantom","steam_id":76561197975567546,"connected_time":1459000000000,"state":"active","ping":62},{"user_id":214,"name":"‚ù§Dumpster Cat‚ù§","steam_id":76561199200969139,"connected_time":7021000000000,"state":"active","ping":149},{"user_id":297,"name":"John Calibur","steam_id":76561197999986606,"connected_time":142000000000,"state":"active","ping":74},{"user_id":286,"name":"Punished J‡∂ûff #NeverSimpAgain","steam_id":76561198304252584,"connected_time":841000000000,"state":"active","ping":72},{"user_id":289,"name":"33","steam_id":76561198894676484,"connected_time":518000000000,"state":"active","ping":75},{"user_id":237,"name":"THE NUT","steam_id":76561198067813626,"connected_time":5411000000000,"state":"active","ping":47},{"user_id":290,"name":"Sweets","steam_id":76561198998446307,"connected_time":486000000000,"state":"active","ping":69},{"user_id":291,"name":"SkyLark","steam_id":76561198303618132,"connected_time":466000000000,"state":"active","ping":44},{"user_id":240,"name":"Logan601 #savetf2","steam_id":76561198263116731,"connected_time":5315000000000,"state":"active","ping":82},{"user_id":292,"name":"Cake Noddle","steam_id":76561198070072005,"connected_time":440000000000,"state":"active","ping":133},{"user_id":293,"name":"Scut","steam_id":76561198973734291,"connected_time":398000000000,"state":"active","ping":64}]},{"server_id":406,"name":"Uncletopia | Seattle | 3 | Stopwatch Beta","name_short":"sea-3","host":"sea-1.us.uncletopia.com","port":27035,"enabled":true,"region":"us-west","cc":"us","latitude":47.608013,"longitude":-122.33517,"reserved":0,"last_update":"0001-01-01T00:00:00Z","name_a2s":"Uncletopia | Seattle | 3 | Stopwatch Beta","protocol":17,"map":"cp_sunshine","folder":"tf","game":"Team Fortress","app_id":440,"player_count":0,"max_players":24,"Bots":0,"server_type":"Dedicated","server_os":"Linux","password":true,"vac":true,"version":"7742253","steam_id":85568392924515217,"keywords":["cp","nocrits","nodmgspread","uncletopia"],"game_id":440,"stv_port":27036,"stv_name":"Uncletopia | Seattle | 3 | Stopwatch Beta | STV","players":null},{"server_id":17,"name":"Uncletopia | San Francisco | 1 | All Maps","name_short":"sfo-1","host":"sfo-1.us.uncletopia.com","port":27015,"enabled":true,"region":"us-west","cc":"us","latitude":37.77397,"longitude":-122.4313,"reserved":0,"last_update":"0001-01-01T00:00:00Z","name_a2s":"Uncletopia | San Francisco | 1 | All Maps","protocol":17,"map":"cp_altitude","folder":"tf","game":"Team Fortress","app_id":440,"player_count":0,"max_players":24,"Bots":0,"server_type":"Dedicated","server_os":"Linux","password":true,"vac":true,"version":"7742253","steam_id":85568392924469999,"keywords":["cp","nocrits","nodmgspread","uncletopia"],"game_id":440,"stv_port":27016,"stv_name":"Uncletopia | San Francisco | 1 | All Maps | STV","players":null},{"server_id":18,"name":"Uncletopia | San Francisco | 2 | All Maps","name_short":"sfo-2","host":"sfo-1.us.uncletopia.com","port":27025,"enabled":true,"region":"us-west","cc":"us","latitude":37.77397,"longitude":-122.4313,"reserved":0,"last_update":"0001-01-01T00:00:00Z","name_a2s":"Uncletopia | San Francisco | 2 | All Maps","protocol":17,"map":"cp_altitude","folder":"tf","game":"Team Fortress","app_id":440,"player_count":0,"max_players":24,"Bots":0,"server_type":"Dedicated","server_os":"Linux","password":true,"vac":true,"version":"7742253","steam_id":85568392924470000,"keywords":["cp","nocrits","nodmgspread","uncletopia"],"game_id":440,"stv_port":27026,"stv_name":"Uncletopia | San Francisco | 2 | All Maps | STV","players":null},{"server_id":19,"name":"Uncletopia | San Francisco | 3 | Stopwatch Beta","name_short":"sfo-3","host":"sfo-1.us.uncletopia.com","port":27035,"enabled":true,"region":"us-west","cc":"us","latitude":37.77397,"longitude":-122.4313,"reserved":0,"last_update":"0001-01-01T00:00:00Z","name_a2s":"Uncletopia | San Francisco | 3 | Stopwatch Beta","protocol":17,"map":"cp_snakewater_final1","folder":"tf","game":"Team Fortress","app_id":440,"player_count":0,"max_players":24,"Bots":0,"server_type":"Dedicated","server_os":"Linux","password":true,"vac":true,"version":"7742253","steam_id":85568392924742824,"keywords":["cp","nocrits","nodmgspread","uncletopia"],"game_id":440,"stv_port":27036,"stv_name":"Uncletopia | San Francisco | 3 | Stopwatch Beta | STV","players":null},{"server_id":20,"name":"Uncletopia | San Francisco | 4 | Community","name_short":"sfo-4","host":"sfo-1.us.uncletopia.com","port":27045,"enabled":true,"region":"us-west","cc":"us","latitude":37.77397,"longitude":-122.4313,"reserved":0,"last_update":"0001-01-01T00:00:00Z","name_a2s":"Uncletopia | San Francisco | 4 | Community","protocol":17,"map":"cp_dustbowl","folder":"tf","game":"Team Fortress","app_id":440,"player_count":0,"max_players":24,"Bots":0,"server_type":"Dedicated","server_os":"Linux","password":true,"vac":true,"version":"7742253","steam_id":85568392924742826,"keywords":["cp","nocrits","nodmgspread","uncletopia"],"game_id":440,"stv_port":27046,"stv_name":"Uncletopia | San Francisco | 4 | Community | STV","players":null},{"server_id":141,"name":"Uncletopia | Sydney | 1 | All Maps","name_short":"syd-1","host":"syd-1.au.uncletopia.com","port":27015,"enabled":true,"region":"au","cc":"au","latitude":-33.865143,"longitude":151.2099,"reserved":0,"last_update":"0001-01-01T00:00:00Z","name_a2s":"Uncletopia | Sydney | 1 | All Maps","protocol":17,"map":"koth_highpass","folder":"tf","game":"Team Fortress","app_id":440,"player_count":2,"max_players":24,"Bots":0,"server_type":"Dedicated","server_os":"Linux","password":true,"vac":true,"version":"7742253","steam_id":85568392924470001,"keywords":["cp","nocrits","nodmgspread","uncletopia"],"game_id":440,"stv_port":27016,"stv_name":"Uncletopia | Sydney | 1 | All Maps | STV","players":[{"user_id":215,"name":"70s demo","steam_id":76561198306660831,"connected_time":427000000000,"state":"active","ping":61},{"user_id":217,"name":"Drakeo","steam_id":76561198268859184,"connected_time":13000000000,"state":"spawning","ping":379}]},{"server_id":123,"name":"Uncletopia | Sydney | 2 | All Maps","name_short":"syd-2","host":"syd-1.au.uncletopia.com","port":27025,"enabled":true,"region":"au","cc":"au","latitude":-33.865143,"longitude":151.2099,"reserved":0,"last_update":"0001-01-01T00:00:00Z","name_a2s":"Uncletopia | Sydney | 2 | All Maps","protocol":17,"map":"pl_enclosure_final","folder":"tf","game":"Team Fortress","app_id":440,"player_count":24,"max_players":24,"Bots":0,"server_type":"Dedicated","server_os":"Linux","password":true,"vac":true,"version":"7742253","steam_id":85568392924470002,"keywords":["nocrits","nodmgspread","payload","uncletopia"],"game_id":440,"stv_port":27026,"stv_name":"Uncletopia | Sydney | 2 | All Maps | STV","players":[{"user_id":222,"name":"Bill Nye","steam_id":76561198312898168,"connected_time":560000000000,"state":"active","ping":68},{"user_id":210,"name":"krandlez` (Any/All)","steam_id":76561198044839726,"connected_time":1323000000000,"state":"active","ping":44},{"user_id":179,"name":"cullen","steam_id":76561198128695488,"connected_time":3423000000000,"state":"active","ping":59},{"user_id":192,"name":"Muffin‚Ñ¢","steam_id":76561198819353439,"connected_time":2324000000000,"state":"active","ping":48},{"user_id":226,"name":"OPENFIELD","steam_id":76561199254288337,"connected_time":273000000000,"state":"active","ping":169},{"user_id":204,"name":"Sun","steam_id":76561198044315520,"connected_time":1598000000000,"state":"active","ping":45},{"user_id":213,"name":"Nut Bucket","steam_id":76561198138193812,"connected_time":1152000000000,"state":"active","ping":78},{"user_id":197,"name":"Apteryx","steam_id":76561197976460834,"connected_time":1928000000000,"state":"active","ping":62},{"user_id":134,"name":"CuzzyCuz","steam_id":76561198069054697,"connected_time":6299000000000,"state":"active","ping":60},{"user_id":198,"name":"Corrupt","steam_id":76561198008567328,"connected_time":1874000000000,"state":"active","ping":106},{"user_id":199,"name":"doctor morbin' (real)","steam_id":76561199365241695,"connected_time":1865000000000,"state":"active","ping":120},{"user_id":224,"name":"NewChris","steam_id":76561198254754182,"connected_time":427000000000,"state":"active","ping":81},{"user_id":211,"name":"Ilabi","steam_id":76561198066351814,"connected_time":1239000000000,"state":"active","ping":54},{"user_id":180,"name":"pooparse","steam_id":76561198217959591,"connected_time":3418000000000,"state":"active","ping":69},{"user_id":212,"name":"Skeptikal01","steam_id":76561199064694137,"connected_time":1235000000000,"state":"active","ping":141},{"user_id":202,"name":"cibo","steam_id":76561198798929932,"connected_time":1701000000000,"state":"active","ping":62},{"user_id":207,"name":"chadward","steam_id":76561198149196341,"connected_time":1434000000000,"state":"active","ping":45},{"user_id":214,"name":"Borgooskulleater","steam_id":76561198347646513,"connected_time":1146000000000,"state":"active","ping":55},{"user_id":215,"name":"Don't Download Animal Jam","steam_id":76561199262196710,"connected_time":1074000000000,"state":"active","ping":40},{"user_id":216,"name":"pub spy","steam_id":76561198205033844,"connected_time":1067000000000,"state":"active","ping":58},{"user_id":217,"name":"Olsero","steam_id":76561198167850321,"connected_time":1038000000000,"state":"active","ping":103},{"user_id":218,"name":"Pug","steam_id":76561198136794372,"connected_time":871000000000,"state":"active","ping":55},{"user_id":223,"name":"East","steam_id":76561197998179587,"connected_time":436000000000,"state":"active","ping":97},{"user_id":220,"name":"wombraider","steam_id":76561199375834537,"connected_time":810000000000,"state":"active","ping":129}]},{"server_id":395,"name":"Uncletopia | Sydney | 3 | All Maps","name_short":"syd-3","host":"syd-1.au.uncletopia.com","port":27035,"enabled":true,"region":"au","cc":"au","latitude":-33.865143,"longitude":151.2099,"reserved":0,"last_update":"0001-01-01T00:00:00Z","name_a2s":"Uncletopia | Sydney | 3 | All Maps","protocol":17,"map":"cp_process_final","folder":"tf","game":"Team Fortress","app_id":440,"player_count":0,"max_players":24,"Bots":0,"server_type":"Dedicated","server_os":"Linux","password":true,"vac":true,"version":"7742253","steam_id":85568392925194467,"keywords":["cp","nocrits","nodmgspread","uncletopia"],"game_id":440,"stv_port":27036,"stv_name":"Uncletopia | Sydney | 3 | All Maps | STV","players":null},{"server_id":396,"name":"Uncletopia | Sydney | 4 | All Maps","name_short":"syd-4","host":"syd-1.au.uncletopia.com","port":27045,"enabled":true,"region":"au","cc":"au","latitude":-33.865143,"longitude":151.2099,"reserved":0,"last_update":"0001-01-01T00:00:00Z","name_a2s":"Uncletopia | Sydney | 4 | All Maps","protocol":17,"map":"ctf_2fort","folder":"tf","game":"Team Fortress","app_id":440,"player_count":0,"max_players":24,"Bots":0,"server_type":"Dedicated","server_os":"Linux","password":true,"vac":true,"version":"7742253","steam_id":85568392925397958,"keywords":["ctf","nocrits","nodmgspread","uncletopia"],"game_id":440,"stv_port":27046,"stv_name":"Uncletopia | Sydney | 4 | All Maps | STV","players":null},{"server_id":58,"name":"Uncletopia | Sydney | 5 | Stopwatch Beta","name_short":"syd-5","host":"syd-1.au.uncletopia.com","port":27055,"enabled":true,"region":"au","cc":"au","latitude":-33.865143,"longitude":151.2099,"reserved":0,"last_update":"0001-01-01T00:00:00Z","name_a2s":"Uncletopia | Sydney | 5 | Stopwatch Beta","protocol":17,"map":"workshop/koth_bagel_rc5.ugc2514036946","folder":"tf","game":"Team Fortress","app_id":440,"player_count":0,"max_players":24,"Bots":0,"server_type":"Dedicated","server_os":"Linux","password":true,"vac":true,"version":"7742253","steam_id":85568392925397959,"keywords":["cp","nocrits","nodmgspread","uncletopia"],"game_id":440,"stv_port":27056,"stv_name":"Uncletopia | Sydney | 5 | Stopwatch Beta | STV","players":null},{"server_id":59,"name":"Uncletopia | Sydney | 6 | Community","name_short":"syd-6","host":"syd-1.au.uncletopia.com","port":27065,"enabled":true,"region":"au","cc":"au","latitude":-33.865143,"longitude":151.2099,"reserved":0,"last_update":"0001-01-01T00:00:00Z","name_a2s":"Uncletopia | Sydney | 6 | Community","protocol":17,"map":"workshop/pl_cactuscanyon_redux_rc4b.ugc2579644293","folder":"tf","game":"Team Fortress","app_id":440,"player_count":0,"max_players":24,"Bots":0,"server_type":"Dedicated","server_os":"Linux","password":true,"vac":true,"version":"7742253","steam_id":85568392925397960,"keywords":["nocrits","nodmgspread","payload","uncletopia"],"game_id":440,"stv_port":27066,"stv_name":"Uncletopia | Sydney | 6 | Community | STV","players":null},{"server_id":49,"name":"Uncletopia | Warsaw | 1 | All Maps","name_short":"waw-1","host":"waw-1.pl.uncletopia.com","port":27015,"enabled":true,"region":"eu","cc":"pl","latitude":52.2297,"longitude":21.017532,"reserved":0,"last_update":"0001-01-01T00:00:00Z","name_a2s":"","protocol":0,"map":"","folder":"","game":"","app_id":0,"player_count":0,"max_players":0,"Bots":0,"server_type":"","server_os":"","password":false,"vac":false,"version":"","steam_id":0,"keywords":null,"game_id":0,"stv_port":0,"stv_name":"","players":null},{"server_id":50,"name":"Uncletopia | Warsaw | 2 | All Maps","name_short":"waw-2","host":"waw-1.pl.uncletopia.com","port":27025,"enabled":true,"region":"eu","cc":"pl","latitude":52.2297,"longitude":21.017532,"reserved":0,"last_update":"0001-01-01T00:00:00Z","name_a2s":"Uncletopia | Warsaw | 2 | All Maps","protocol":17,"map":"koth_lakeside_final","folder":"tf","game":"Team Fortress","app_id":440,"player_count":0,"max_players":24,"Bots":0,"server_type":"Dedicated","server_os":"Linux","password":true,"vac":true,"version":"7742253","steam_id":85568392925397851,"keywords":["cp","nocrits","nodmgspread","uncletopia"],"game_id":440,"stv_port":27026,"stv_name":"Uncletopia | Warsaw | 2 | All Maps | STV","players":null},{"server_id":51,"name":"Uncletopia | Warsaw | 3 | All Maps","name_short":"waw-3","host":"waw-1.pl.uncletopia.com","port":27035,"enabled":true,"region":"eu","cc":"pl","latitude":52.2297,"longitude":21.017532,"reserved":0,"last_update":"0001-01-01T00:00:00Z","name_a2s":"Uncletopia | Warsaw | 3 | All Maps","protocol":17,"map":"koth_lakeside_final","folder":"tf","game":"Team Fortress","app_id":440,"player_count":0,"max_players":24,"Bots":0,"server_type":"Dedicated","server_os":"Linux","password":true,"vac":true,"version":"7742253","steam_id":85568392925397852,"keywords":["cp","nocrits","nodmgspread","uncletopia"],"game_id":440,"stv_port":27036,"stv_name":"Uncletopia | Warsaw | 3 | All Maps | STV","players":null},{"server_id":52,"name":"Uncletopia | Warsaw | 4 | All Maps","name_short":"waw-4","host":"waw-1.pl.uncletopia.com","port":27045,"enabled":true,"region":"eu","cc":"pl","latitude":52.2297,"longitude":21.017532,"reserved":0,"last_update":"0001-01-01T00:00:00Z","name_a2s":"Uncletopia | Warsaw | 4 | All Maps","protocol":17,"map":"pl_upward","folder":"tf","game":"Team Fortress","app_id":440,"player_count":0,"max_players":24,"Bots":0,"server_type":"Dedicated","server_os":"Linux","password":true,"vac":true,"version":"7742253","steam_id":85568392925397853,"keywords":["nocrits","nodmgspread","payload","uncletopia"],"game_id":440,"stv_port":27046,"stv_name":"Uncletopia | Warsaw | 4 | All Maps | STV","players":null},{"server_id":53,"name":"Uncletopia | Warsaw | 5 | Stopwatch Beta","name_short":"waw-5","host":"waw-1.pl.uncletopia.com","port":27055,"enabled":true,"region":"eu","cc":"pl","latitude":52.2297,"longitude":21.017532,"reserved":0,"last_update":"0001-01-01T00:00:00Z","name_a2s":"Uncletopia | Warsaw | 5 | Stopwatch Beta","protocol":17,"map":"pl_swiftwater_final1","folder":"tf","game":"Team Fortress","app_id":440,"player_count":0,"max_players":24,"Bots":0,"server_type":"Dedicated","server_os":"Linux","password":true,"vac":true,"version":"7742253","steam_id":85568392925397854,"keywords":["nocrits","nodmgspread","payload","uncletopia"],"game_id":440,"stv_port":27056,"stv_name":"Uncletopia | Warsaw | 5 | Stopwatch Beta | STV","players":null},{"server_id":54,"name":"Uncletopia | Warsaw | 6 | Community","name_short":"waw-6","host":"waw-1.pl.uncletopia.com","port":27065,"enabled":true,"region":"eu","cc":"pl","latitude":52.2297,"longitude":21.017532,"reserved":0,"last_update":"0001-01-01T00:00:00Z","name_a2s":"Uncletopia | Warsaw | 6 | Community","protocol":17,"map":"koth_highpass","folder":"tf","game":"Team Fortress","app_id":440,"player_count":0,"max_players":24,"Bots":0,"server_type":"Dedicated","server_os":"Linux","password":true,"vac":true,"version":"7742253","steam_id":85568392925397856,"keywords":["cp","nocrits","nodmgspread","uncletopia"],"game_id":440,"stv_port":27066,"stv_name":"Uncletopia | Warsaw | 6 | Community | STV","players":null}]}