{"status":true,"message":"","result":[{"server_id":9,"name":"Uncletopia | Atlanta | 1 | All Maps","name_short":"atl-1","host":"atl-1.us.uncletopia.com","port":27015,"enabled":true,"region":"us-east","cc":"us","latitude":33.753746,"longitude":-84.38633,"reserved":0,"last_update":"0001-01-01T00:00:00Z","name_a2s":"Uncletopia | Atlanta | 1 | All Maps","protocol":17,"map":"koth_viaduct","folder":"tf","game":"Team Fortress","app_id":440,"player_count":16,"max_players":24,"Bots":0,"server_type":"Dedicated","server_os":"Linux","password":true,"vac":true,"version":"7932396","steam_id":85568392924469982,"keywords":["cp","nocrits","nodmgspread","uncletopia"],"game_id":440,"stv_port":27016,"stv_name":"Uncletopia | Atlanta | 1 | All Maps | STV","players":[{"user_id":197,"name":"The Chosen One","steam_id":76561199046984627,"connected_time":1769000000000,"state":"active","ping":78},{"user_id":247,"name":"el muchacho","steam_id":76561198282632562,"connected_time":184000000000,"state":"active","ping":90},{"user_id":187,"name":"Brooklyn","steam_id":76561199242737130,"connected_time":1980000000000,"state":"active","ping":63},{"user_id":244,"name":"Furry on main","steam_id":76561198371577822,"connected_time":229000000000,"state":"active","ping":77},{"user_id":248,"name":"BILL HOOK","steam_id":76561198300069031,"connected_time":173000000000,"state":"active","ping":67},{"user_id":245,"name":"(√î)√î)Wandering Singer(√î(√î)","steam_id":76561198126477141,"connected_time":225000000000,"state":"active","ping":94},{"user_id":200,"name":"PapaPatrick","steam_id":76561199017975241,"connected_time":1737000000000,"state":"active","ping":101},{"user_id":201,"name":"P I S S","steam_id":76561199197497757,"connected_time":1726000000000,"state":"active","ping":92},{"user_id":242,"name":"pangxiong147","steam_id":76561199333740508,"connected_time":305000000000,"state":"active","ping":102},{"user_id":79,"name":"Waddlehi","steam_id":76561198072553840,"connected_time":3944000000000,"state":"active","ping":92},{"user_id":236,"name":"CreeperCatBengal","steam_id":76561198213193221,"connected_time":501000000000,"state":"active","ping":87},{"user_id":246,"name":"Cormano","steam_id":76561198122474220,"connected_time":209000000000,"state":"active","ping":94},{"user_id":223,"name":"OrangeSodaMachine","steam_id":76561198079230156,"connected_time":1317000000000,"state":"active","ping":106},{"user_id":249,"name":"sorkaborg","steam_id":76561198038077062,"connected_time":170000000000,"state":"active","ping":95},{"user_id":224,"name":"toastloard","steam_id":76561198368386853,"connected_time":1316000000000,"state":"active","ping":142},{"user_id":241,"name":"Little Drunked Owl","steam_id":76561198336737684,"connected_time":454000000000,"state":"active","ping":121}]},{"server_id":104,"name":"Uncletopia | Atlanta | 2 | All Maps","name_short":"atl-2","host":"atl-1.us.uncletopia.com","port":27025,"enabled":true,"region":"us-east","cc":"us","latitude":33.753746,"longitude":-84.38633,"reserved":0,"last_update":"0001-01-01T00:00:00Z","name_a2s":"Uncletopia | Atlanta | 2 | All Maps","protocol":17,"map":"koth_lakeside_final","folder":"tf","game":"Team Fortress","app_id":440,"player_count":0,"max_players":24,"Bots":0,"server_type":"Dedicated","server_os":"Linux","password":true,"vac":true,"version":"7932396","steam_id":85568392924469983,"keywords":["cp","nocrits","nodmgspread","uncletopia"],"game_id":440,"stv_port":27026,"stv_name":"Uncletopia | Atlanta | 2 | All Maps | STV","players":null},{"server_id":400,"name":"Uncletopia | Atlanta | 3 | Community","name_short":"atl-3","host":"atl-1.us.uncletopia.com","port":27035,"enabled":true,"region":"us-east","cc":"us","latitude":33.753746,"longitude":-84.38633,"reserved":0,"last_update":"0001-01-01T00:00:00Z","name_a2s":"Uncletopia | Atlanta | 3 | Community","protocol":17,"map":"workshop/koth_trenchfoot_b1a.ugc731436616","folder":"tf","game":"Team Fortress","app_id":440,"player_count":1,"max_players":24,"Bots":0,"server_type":"Dedicated","server_os":"Linux","password":true,"vac":true,"version":"7932396","steam_id":85568392924515187,"keywords":["cp","nocrits","nodmgspread","uncletopia"],"game_id":440,"stv_port":27036,"stv_name":"Uncletopia | Atlanta | 3 | Community | STV","players":[{"user_id":237,"name":"mana_sourcer","steam_id":76561199231055566,"connected_time":2527000000000,"state":"active","ping":70}]},{"server_id":401,"name":"Uncletopia | Atlanta | 4 | No Payload","name_short":"atl-4","host":"atl-1.us.uncletopia.com","port":27045,"enabled":true,"region":"us-east","cc":"us","latitude":33.753746,"longitude":-84.38633,"reserved":0,"last_update":"0001-01-01T00:00:00Z","name_a2s":"","protocol":0,"map":"","folder":"","game":"","app_id":0,"player_count":0,"max_players":0,"Bots":0,"server_type":"","server_os":"","password":false,"vac":false,"version":"","steam_id":0,"keywords":null,"game_id":0,"stv_port":0,"stv_name":"","players":null},{"server_id":2,"name":"Uncletopia | Chicago | 1 | All Maps","name_short":"chi-1","host":"chi-1.us.uncletopia.com","port":27015,"enabled":true,"region":"us-central","cc":"us","latitude":41.881832,"longitude":-87.62318,"reserved":0,"last_update":"0001-01-01T00:00:00Z","name_a2s":"Uncletopia | Chicago | 1 | All Maps","protocol":17,"map":"pl_pier","folder":"tf","game":"Team Fortress","app_id":440,"player_count":24,"max_players":24,"Bots":0,"server_type":"Dedicated","server_os":"Linux","password":true,"vac":true,"version":"7932396","steam_id":85568392924469984,"keywords":["nocrits","nodmgspread","payload","uncletopia"],"game_id":440,"stv_port":27016,"stv_name":"Uncletopia | Chicago | 1 | All Maps | STV","players":[{"user_id":157,"name":"Aiden939","steam_id":76561198860530097,"connected_time":141000000000,"state":"active","ping":80},{"user_id":163,"name":"Torrensz64(But weezer)","steam_id":76561198239036482,"connected_time":76000000000,"state":"active","ping":74},{"user_id":67,"name":"Thundermonkey (SMOKE)","steam_id":76561198017631728,"connected_time":6206000000000,"state":"active","ping":65},{"user_id":154,"name":"brains","steam_id":76561198197388678,"connected_time":720000000000,"state":"active","ping":90},{"user_id":152,"name":"the silly","steam_id":76561198850632709,"connected_time":948000000000,"state":"active","ping":76},{"user_id":107,"name":"Tri-Dot","steam_id":76561199075186597,"connected_time":4040000000000,"state":"active","ping":70},{"user_id":140,"name":"ae","steam_id":76561198185490827,"connected_time":1829000000000,"state":"active","ping":89},{"user_id":111,"name":"Mastermind","steam_id":76561198127783432,"connected_time":3613000000000,"state":"active","ping":69},{"user_id":126,"name":"Flaming O'Gaming","steam_id":76561198044185725,"connected_time":3026000000000,"state":"active","ping":74},{"user_id":164,"name":"ComputerConnor","steam_id":76561198247307008,"connected_time":51000000000,"state":"active","ping":97},{"user_id":132,"name":"Skinny pete","steam_id":76561198801608576,"connected_time":2155000000000,"state":"active","ping":76},{"user_id":144,"name":"HUNGRY DOGS EAT FASTER","steam_id":76561198040440984,"connected_time":1473000000000,"state":"active","ping":71},{"user_id":159,"name":"üíõMercyüíõ","steam_id":76561198147095572,"connected_time":134000000000,"state":"active","ping":57},{"user_id":127,"name":"Your Local Queer Librarian","steam_id":76561198013077080,"connected_time":2809000000000,"state":"active","ping":62},{"user_id":149,"name":"ozbulu!|Troutsupply.net","steam_id":76561198067176829,"connected_time":1031000000000,"state":"active","ping":111},{"user_id":116,"name":"Mug Moment Gaming","steam_id":76561198233098136,"connected_time":3557000000000,"state":"active","ping":72},{"user_id":161,"name":"Obese Pete","steam_id":76561198203443358,"connected_time":112000000000,"state":"active","ping":87},{"user_id":160,"name":"Pango","steam_id":76561198069811545,"connected_time":130000000000,"state":"active","ping":61},{"user_id":165,"name":"ma0re","steam_id":76561199231971506,"connected_time":22000000000,"state":"active","ping":210},{"user_id":153,"name":"Drapph","steam_id":76561199384213314,"connected_time":881000000000,"state":"active","ping":67},{"user_id":138,"name":"goose","steam_id":76561198367551668,"connected_time":1911000000000,"state":"active","ping":48},{"user_id":147,"name":"reis","steam_id":76561199232952016,"connected_time":1072000000000,"state":"active","ping":182},{"user_id":137,"name":"DiGiorno's Pizza","steam_id":76561198142244035,"connected_time":1959000000000,"state":"active","ping":55},{"user_id":156,"name":"Westwood","steam_id":76561199387699252,"connected_time":174000000000,"state":"active","ping":87}]},{"server_id":106,"name":"Uncletopia | Chicago | 2 | All Maps","name_short":"chi-2","host":"chi-1.us.uncletopia.com","port":27025,"enabled":true,"region":"us-central","cc":"us","latitude":41.881832,"longitude":-87.62318,"reserved":0,"last_update":"0001-01-01T00:00:00Z","name_a2s":"Uncletopia | Chicago | 2 | All Maps","protocol":17,"map":"pl_swiftwater_final1","folder":"tf","game":"Team Fortress","app_id":440,"player_count":24,"max_players":24,"Bots":0,"server_type":"Dedicated","server_os":"Linux","password":true,"vac":true,"version":"7932396","steam_id":85568392924469985,"keywords":["nocrits","nodmgspread","payload","uncletopia"],"game_id":440,"stv_port":27026,"stv_name":"Uncletopia | Chicago | 2 | All Maps | STV","players":[{"user_id":111,"name":"Tomcouger","steam_id":76561198022866923,"connected_time":1523000000000,"state":"active","ping":124},{"user_id":104,"name":"pogo","steam_id":76561198148913461,"connected_time":2347000000000,"state":"active","ping":62},{"user_id":106,"name":"DeathLMAO","steam_id":76561198044542149,"connected_time":1837000000000,"state":"active","ping":90},{"user_id":121,"name":"hoboways","steam_id":76561198168035195,"connected_time":790000000000,"state":"active","ping":76},{"user_id":127,"name":"Skele","steam_id":76561198154574280,"connected_time":483000000000,"state":"active","ping":67},{"user_id":93,"name":"RapBap Bird in Lap","steam_id":76561198105613110,"connected_time":3001000000000,"state":"active","ping":45},{"user_id":112,"name":"BarrowBaron","steam_id":76561198013633236,"connected_time":1507000000000,"state":"active","ping":81},{"user_id":109,"name":"--_Cook_--","steam_id":76561198080855748,"connected_time":1528000000000,"state":"active","ping":47},{"user_id":123,"name":"Radish Master","steam_id":76561198072523811,"connected_time":583000000000,"state":"active","ping":62},{"user_id":132,"name":"Flubby","steam_id":76561198069171252,"connected_time":3000000000,"state":"spawning","ping":62},{"user_id":67,"name":"Mehman","steam_id":76561199020244051,"connected_time":4695000000000,"state":"active","ping":99},{"user_id":19,"name":"Unrefined Milk","steam_id":76561197986051713,"connected_time":7446000000000,"state":"active","ping":77},{"user_id":95,"name":"LiftN","steam_id":76561198167974713,"connected_time":2608000000000,"state":"active","ping":76},{"user_id":66,"name":"V!CT!M","steam_id":76561198962721502,"connected_time":4734000000000,"state":"active","ping":88},{"user_id":110,"name":"FOOLISH FOOL!","steam_id":76561198188722751,"connected_time":1527000000000,"state":"active","ping":90},{"user_id":130,"name":"rad killl raccoon","steam_id":76561198980975595,"connected_time":318000000000,"state":"active","ping":104},{"user_id":60,"name":"t.tv/ibbKitty‚àë:3","steam_id":76561198110858518,"connected_time":4822000000000,"state":"active","ping":57},{"user_id":119,"name":"alfredodan","steam_id":76561198025011044,"connected_time":839000000000,"state":"active","ping":80},{"user_id":100,"name":"Solstrom","steam_id":76561198313364985,"connected_time":2572000000000,"state":"active","ping":72},{"user_id":131,"name":"Alex YiiK","steam_id":76561199086339263,"connected_time":234000000000,"state":"active","ping":84},{"user_id":126,"name":"Crunchy","steam_id":76561199065412274,"connected_time":549000000000,"state":"active","ping":75},{"user_id":122,"name":"77Horse","steam_id":76561198799370764,"connected_time":687000000000,"state":"active","ping":71},{"user_id":129,"name":"Ikalpo","steam_id":76561198044686915,"connected_time":452000000000,"state":"active","ping":112},{"user_id":92,"name":"Vladikr1","steam_id":76561198401495362,"connected_time":3451000000000,"state":"active","ping":63}]},{"server_id":402,"name":"Uncletopia | Chicago | 3 | All Maps","name_short":"chi-3","host":"chi-1.us.uncletopia.com","port":27035,"enabled":true,"region":"us-central","cc":"us","latitude":41.881832,"longitude":-87.62318,"reserved":0,"last_update":"0001-01-01T00:00:00Z","name_a2s":"Uncletopia | Chicago | 3 | All Maps","protocol":17,"map":"cp_sunshine","folder":"tf","game":"Team Fortress","app_id":440,"player_count":22,"max_players":24,"Bots":0,"server_type":"Dedicated","server_os":"Linux","password":true,"vac":true,"version":"7932396","steam_id":85568392924515191,"keywords":["cp","nocrits","nodmgspread","uncletopia"],"game_id":440,"stv_port":27036,"stv_name":"Uncletopia | Chicago | 3 | All Maps | STV","players":[{"user_id":65,"name":"yoooooooooo chill","steam_id":76561199100342013,"connected_time":305000000000,"state":"active","ping":92},{"user_id":11,"name":"catboy battery eater","steam_id":76561198067881981,"connected_time":4197000000000,"state":"active","ping":60},{"user_id":49,"name":"smog","steam_id":76561198072179483,"connected_time":2071000000000,"state":"active","ping":89},{"user_id":15,"name":"Sup m8","steam_id":76561198081659121,"connected_time":3817000000000,"state":"active","ping":60},{"user_id":35,"name":"Dakota Sutcliffe","steam_id":76561198170660959,"connected_time":3119000000000,"state":"active","ping":69},{"user_id":54,"name":"provolonepal18","steam_id":76561198362153913,"connected_time":1367000000000,"state":"active","ping":93},{"user_id":19,"name":"Yuri Lowell Fan","steam_id":76561199182623744,"connected_time":3679000000000,"state":"active","ping":86},{"user_id":55,"name":"Model of a Modern Major General","steam_id":76561198237304364,"connected_time":1331000000000,"state":"active","ping":110},{"user_id":66,"name":"REAL (\u003c{[real]real}real\u003ereal)","steam_id":76561198057374871,"connected_time":261000000000,"state":"active","ping":60},{"user_id":52,"name":"NUt","steam_id":76561198031007966,"connected_time":1617000000000,"state":"active","ping":75},{"user_id":50,"name":"Timon's high on crack cocaine!","steam_id":76561198180396430,"connected_time":2025000000000,"state":"active","ping":70},{"user_id":57,"name":"1TheExterminator","steam_id":76561198972879727,"connected_time":1290000000000,"state":"active","ping":81},{"user_id":48,"name":"eepy ahh boo","steam_id":76561198072879485,"connected_time":2489000000000,"state":"active","ping":109},{"user_id":30,"name":"LordOfTheNoobs","steam_id":76561197962697523,"connected_time":3253000000000,"state":"active","ping":66},{"user_id":36,"name":"Rec","steam_id":76561198022813906,"connected_time":3113000000000,"state":"active","ping":50},{"user_id":37,"name":"Mindset","steam_id":76561198107074449,"connected_time":3104000000000,"state":"active","ping":55},{"user_id":60,"name":"Servaos","steam_id":76561198113244990,"connected_time":1205000000000,"state":"active","ping":75},{"user_id":61,"name":"AlbinoRhino","steam_id":76561199192140783,"connected_time":1204000000000,"state":"active","ping":81},{"user_id":40,"name":"Jak(i)","steam_id":76561198076823144,"connected_time":3048000000000,"state":"active","ping":65},{"user_id":62,"name":"Sysadmin Stress Release","steam_id":76561197997326384,"connected_time":1203000000000,"state":"active","ping":73},{"user_id":64,"name":"b√ºddeh","steam_id":76561198070735936,"connected_time":864000000000,"state":"active","ping":59},{"user_id":44,"name":"saaz?","steam_id":76561198298605136,"connected_time":3004000000000,"state":"active","ping":96}]},{"server_id":403,"name":"Uncletopia | Chicago | 4 | All Maps","name_short":"chi-4","host":"chi-1.us.uncletopia.com","port":27045,"enabled":true,"region":"us-central","cc":"us","latitude":41.881832,"longitude":-87.62318,"reserved":0,"last_update":"0001-01-01T00:00:00Z","name_a2s":"Uncletopia | Chicago | 4 | All Maps","protocol":17,"map":"cp_altitude","folder":"tf","game":"Team Fortress","app_id":440,"player_count":21,"max_players":24,"Bots":0,"server_type":"Dedicated","server_os":"Linux","password":true,"vac":true,"version":"7932396","steam_id":85568392924515193,"keywords":["cp","nocrits","nodmgspread","uncletopia"],"game_id":440,"stv_port":27046,"stv_name":"Uncletopia | Chicago | 4 | All Maps | STV","players":[{"user_id":11,"name":"Shaper Loks","steam_id":76561198207958144,"connected_time":2148000000000,"state":"active","ping":98},{"user_id":12,"name":"Barlon","steam_id":76561198023717515,"connected_time":2043000000000,"state":"active","ping":73},{"user_id":50,"name":"Ry58","steam_id":76561199083841480,"connected_time":231000000000,"state":"active","ping":87},{"user_id":16,"name":"Rickle Pick","steam_id":76561198055226070,"connected_time":1705000000000,"state":"active","ping":78},{"user_id":15,"name":"Chickenwing","steam_id":76561199347103141,"connected_time":1809000000000,"state":"active","ping":73},{"user_id":17,"name":"WalrusIncarnate","steam_id":76561198059867060,"connected_time":1681000000000,"state":"active","ping":110},{"user_id":18,"name":"Charlotte","steam_id":76561199084344266,"connected_time":1533000000000,"state":"active","ping":57},{"user_id":55,"name":"Astrocircuit","steam_id":76561198014437544,"connected_time":139000000000,"state":"active","ping":64},{"user_id":21,"name":"Necrohexen kitten69","steam_id":76561199152270059,"connected_time":1174000000000,"state":"active","ping":63},{"user_id":22,"name":"Benwyatt88","steam_id":76561198823755174,"connected_time":1166000000000,"state":"active","ping":93},{"user_id":43,"name":"escitanolol","steam_id":76561199228151954,"connected_time":411000000000,"state":"active","ping":73},{"user_id":59,"name":"TeriyakiDynamite","steam_id":76561198050049346,"connected_time":63000000000,"state":"active","ping":116},{"user_id":48,"name":"Grand Piano Tuna","steam_id":76561198135137213,"connected_time":340000000000,"state":"active","ping":52},{"user_id":47,"name":"catfish from toontown","steam_id":76561198060070002,"connected_time":374000000000,"state":"active","ping":77},{"user_id":51,"name":"PlatinumSGT","steam_id":76561198823524618,"connected_time":230000000000,"state":"active","ping":61},{"user_id":40,"name":"Rat","steam_id":76561198146558552,"connected_time":491000000000,"state":"active","ping":112},{"user_id":53,"name":"human jerky","steam_id":76561198091966276,"connected_time":164000000000,"state":"active","ping":98},{"user_id":57,"name":"LevelRaisin","steam_id":76561198082924440,"connected_time":131000000000,"state":"active","ping":50},{"user_id":33,"name":"crittr","steam_id":76561198014302068,"connected_time":761000000000,"state":"active","ping":63},{"user_id":58,"name":"Soupman_Official","steam_id":76561198314308732,"connected_time":111000000000,"state":"active","ping":45},{"user_id":37,"name":"Mikael_01","steam_id":76561199080253129,"connected_time":706000000000,"state":"active","ping":186}]},{"server_id":36,"name":"Uncletopia | Chicago | 5 | All Maps","name_short":"chi-5","host":"chi-2.us.uncletopia.com","port":27015,"enabled":true,"region":"us-central","cc":"us","latitude":41.881832,"longitude":-87.62318,"reserved":0,"last_update":"0001-01-01T00:00:00Z","name_a2s":"Uncletopia | Chicago | 5 | All Maps","protocol":17,"map":"pl_upward","folder":"tf","game":"Team Fortress","app_id":440,"player_count":24,"max_players":24,"Bots":0,"server_type":"Dedicated","server_os":"Linux","password":true,"vac":true,"version":"7932396","steam_id":85568392924866362,"keywords":["nocrits","nodmgspread","payload","uncletopia"],"game_id":440,"stv_port":27016,"stv_name":"Uncletopia | Chicago | 5 | All Maps | STV","players":[{"user_id":133,"name":"Fatpoob","steam_id":76561198056730096,"connected_time":3549000000000,"state":"active","ping":44},{"user_id":165,"name":"Cedric","steam_id":76561198072090580,"connected_time":478000000000,"state":"active","ping":98},{"user_id":144,"name":"turd ferguson","steam_id":76561198071620782,"connected_time":3215000000000,"state":"active","ping":82},{"user_id":153,"name":"Boysenberry Syrup","steam_id":76561198243582986,"connected_time":1064000000000,"state":"active","ping":55},{"user_id":173,"name":"LerN","steam_id":76561198083463877,"connected_time":83000000000,"state":"active","ping":46},{"user_id":163,"name":"weed","steam_id":76561199128192017,"connected_time":530000000000,"state":"active","ping":100},{"user_id":138,"name":"‚ô• kiss me! ‚ô•","steam_id":76561198014557455,"connected_time":3446000000000,"state":"active","ping":57},{"user_id":152,"name":"indi","steam_id":76561198045917538,"connected_time":1199000000000,"state":"active","ping":58},{"user_id":169,"name":"lexi","steam_id":76561198176299759,"connected_time":155000000000,"state":"active","ping":85},{"user_id":67,"name":"bagel cream cheese","steam_id":76561198017954785,"connected_time":6588000000000,"state":"active","ping":71},{"user_id":149,"name":"dude","steam_id":76561198323384949,"connected_time":1766000000000,"state":"active","ping":55},{"user_id":158,"name":"dec","steam_id":76561198149691967,"connected_time":881000000000,"state":"active","ping":148},{"user_id":160,"name":"Zeta","steam_id":76561198066702587,"connected_time":647000000000,"state":"active","ping":78},{"user_id":170,"name":"ImTallOk","steam_id":76561198405915670,"connected_time":154000000000,"state":"active","ping":99},{"user_id":171,"name":"Captain Demytri","steam_id":76561198097998607,"connected_time":152000000000,"state":"active","ping":52},{"user_id":164,"name":"Mani","steam_id":76561198139428711,"connected_time":500000000000,"state":"active","ping":61},{"user_id":92,"name":"CHILL WEED VIBEüòéüçÅ","steam_id":76561198150678492,"connected_time":5866000000000,"state":"active","ping":76},{"user_id":156,"name":"jlumsd","steam_id":76561198057493413,"connected_time":1020000000000,"state":"active","ping":73},{"user_id":159,"name":"powey","steam_id":76561199237740491,"connected_time":702000000000,"state":"active","ping":69},{"user_id":172,"name":"isaiah","steam_id":76561197962607364,"connected_time":147000000000,"state":"active","ping":74},{"user_id":120,"name":"fazaness","steam_id":76561198851525394,"connected_time":4690000000000,"state":"active","ping":86},{"user_id":167,"name":"OKlWONT","steam_id":76561198060328407,"connected_time":298000000000,"state":"active","ping":75},{"user_id":142,"name":"ccat","steam_id":76561198281773224,"connected_time":3316000000000,"state":"active","ping":97},{"user_id":174,"name":"Bad@Sniper","steam_id":76561199013705323,"connected_time":69000000000,"state":"active","ping":61}]},{"server_id":37,"name":"Uncletopia | Chicago | 6 | All Maps","name_short":"chi-6","host":"chi-2.us.uncletopia.com","port":27025,"enabled":true,"region":"us-central","cc":"us","latitude":41.881832,"longitude":-87.62318,"reserved":0,"last_update":"0001-01-01T00:00:00Z","name_a2s":"Uncletopia | Chicago | 6 | All Maps","protocol":17,"map":"pl_borneo","folder":"tf","game":"Team Fortress","app_id":440,"player_count":24,"max_players":24,"Bots":0,"server_type":"Dedicated","server_os":"Linux","password":true,"vac":true,"version":"7932396","steam_id":85568392924866363,"keywords":["nocrits","nodmgspread","payload","uncletopia"],"game_id":440,"stv_port":27026,"stv_name":"Uncletopia | Chicago | 6 | All Maps | STV","players":[{"user_id":107,"name":"businessman minly","steam_id":76561199078991134,"connected_time":718000000000,"state":"active","ping":74},{"user_id":105,"name":"Antonin Scalia","steam_id":76561198080687598,"connected_time":783000000000,"state":"active","ping":63},{"user_id":114,"name":"PinkLemonade","steam_id":76561198799286228,"connected_time":416000000000,"state":"active","ping":71},{"user_id":9,"name":"le batteur","steam_id":76561199078138661,"connected_time":6377000000000,"state":"active","ping":76},{"user_id":68,"name":"Idiot Princess","steam_id":76561198048205270,"connected_time":2794000000000,"state":"active","ping":89},{"user_id":97,"name":"Mario","steam_id":76561198321794277,"connected_time":1441000000000,"state":"active","ping":52},{"user_id":85,"name":"Ectomonkey","steam_id":76561198125417062,"connected_time":1775000000000,"state":"active","ping":100},{"user_id":96,"name":"Teleporter  (Entrance, Level 3)","steam_id":76561198316927664,"connected_time":1466000000000,"state":"active","ping":73},{"user_id":108,"name":"Blue-Lobster-Gaming","steam_id":76561199220578772,"connected_time":710000000000,"state":"active","ping":79},{"user_id":58,"name":"Gibby","steam_id":76561199336569123,"connected_time":3374000000000,"state":"active","ping":124},{"user_id":70,"name":"Winter the Witchie | B-DAY","steam_id":76561198151971178,"connected_time":2747000000000,"state":"active","ping":57},{"user_id":78,"name":"Portal2Player","steam_id":76561198062870114,"connected_time":2429000000000,"state":"active","ping":89},{"user_id":55,"name":"Famelegion","steam_id":76561198958341424,"connected_time":3426000000000,"state":"active","ping":99},{"user_id":83,"name":"Copter_Boy","steam_id":76561198322921312,"connected_time":1839000000000,"state":"active","ping":65},{"user_id":109,"name":"gravewater","steam_id":76561198043558709,"connected_time":629000000000,"state":"active","ping":97},{"user_id":110,"name":"Achtan","steam_id":76561198078189844,"connected_time":619000000000,"state":"active","ping":89},{"user_id":93,"name":"Xavibite","steam_id":76561198209380493,"connected_time":1660000000000,"state":"active","ping":62},{"user_id":89,"name":"killer_kruption","steam_id":76561199124625085,"connected_time":1721000000000,"state":"active","ping":93},{"user_id":74,"name":"Corbe","steam_id":76561198353893927,"connected_time":2570000000000,"state":"active","ping":39},{"user_id":81,"name":"MikeLovesRabbit","steam_id":76561197997742625,"connected_time":2187000000000,"state":"active","ping":68},{"user_id":94,"name":"ElChuchoXf","steam_id":76561199235124146,"connected_time":1596000000000,"state":"active","ping":148},{"user_id":95,"name":"duneblaster0","steam_id":76561198040364680,"connected_time":1557000000000,"state":"active","ping":45},{"user_id":113,"name":"jennifer.bunde","steam_id":76561198355533840,"connected_time":562000000000,"state":"active","ping":57},{"user_id":102,"name":"bomb","steam_id":76561198359135819,"connected_time":904000000000,"state":"active","ping":95}]},{"server_id":38,"name":"Uncletopia | Chicago | 7 | Stopwatch Beta","name_short":"chi-7","host":"chi-2.us.uncletopia.com","port":27035,"enabled":true,"region":"us-central","cc":"us","latitude":41.881832,"longitude":-87.62318,"reserved":0,"last_update":"0001-01-01T00:00:00Z","name_a2s":"Uncletopia | Chicago | 7 | Stopwatch Beta","protocol":17,"map":"koth_highpass","folder":"tf","game":"Team Fortress","app_id":440,"player_count":0,"max_players":24,"Bots":0,"server_type":"Dedicated","server_os":"Linux","password":true,"vac":true,"version":"7932396","steam_id":85568392924866364,"keywords":["cp","nocrits","nodmgspread","uncletopia"],"game_id":440,"stv_port":27036,"stv_name":"Uncletopia | Chicago | 7 | Stopwatch Beta | STV","players":null},{"server_id":39,"name":"Uncletopia | Chicago | 8 | Community","name_short":"chi-8","host":"chi-2.us.uncletopia.com","port":27045,"enabled":true,"region":"us-central","cc":"us","latitude":41.881832,"longitude":-87.62318,"reserved":0,"last_update":"0001-01-01T00:00:00Z","name_a2s":"Uncletopia | Chicago | 8 | Community","protocol":17,"map":"pl_pier","folder":"tf","game":"Team Fortress","app_id":440,"player_count":2,"max_players":24,"Bots":0,"server_type":"Dedicated","server_os":"Linux","password":true,"vac":true,"version":"7932396","steam_id":85568392924866365,"keywords":["nocrits","nodmgspread","payload","uncletopia"],"game_id":440,"stv_port":27046,"stv_name":"Uncletopia | Chicago | 8 | Community | STV","players":[{"user_id":6,"name":"The_Headcrab","steam_id":76561199187299142,"connected_time":1640000000000,"state":"active","ping":85},{"user_id":8,"name":"gia.nurtumova","steam_id":76561199439504104,"connected_time":1439000000000,"state":"active","ping":69}]},{"server_id":8,"name":"Uncletopia | Dallas | 1 | All Maps","name_short":"dal-1","host":"dal-1.us.uncletopia.com","port":27015,"enabled":true,"region":"us-central","cc":"us","latitude":32.779167,"longitude":-96.80889,"reserved":0,"last_update":"0001-01-01T00:00:00Z","name_a2s":"Uncletopia | Dallas | 1 | All Maps","protocol":17,"map":"pl_pier","folder":"tf","game":"Team Fortress","app_id":440,"player_count":25,"max_players":24,"Bots":0,"server_type":"Dedicated","server_os":"Linux","password":true,"vac":true,"version":"7932396","steam_id":85568392924469986,"keywords":["nocrits","nodmgspread","payload","uncletopia"],"game_id":440,"stv_port":27016,"stv_name":"Uncletopia | Dallas | 1 | All Maps | STV","players":[{"user_id":292,"name":"Wheaty","steam_id":76561198003553412,"connected_time":347000000000,"state":"active","ping":80},{"user_id":281,"name":"Goon Lord","steam_id":76561198059245735,"connected_time":1176000000000,"state":"active","ping":67},{"user_id":269,"name":"DragonHunter994","steam_id":76561199076203907,"connected_time":2209000000000,"state":"active","ping":58},{"user_id":289,"name":"roryd","steam_id":76561198871309236,"connected_time":513000000000,"state":"active","ping":77},{"user_id":297,"name":"Cj","steam_id":76561198412786186,"connected_time":55000000000,"state":"active","ping":100},{"user_id":262,"name":"Analogous","steam_id":76561198242842394,"connected_time":2934000000000,"state":"active","ping":52},{"user_id":271,"name":"paper","steam_id":76561199075241499,"connected_time":2161000000000,"state":"active","ping":64},{"user_id":288,"name":"NOT Susie Deltarune (not real)","steam_id":76561199007365488,"connected_time":633000000000,"state":"active","ping":66},{"user_id":296,"name":"Ferran, Loathsome Hogsqueezer","steam_id":76561198004480302,"connected_time":57000000000,"state":"connecting","ping":0},{"user_id":265,"name":"fish","steam_id":76561198194508197,"connected_time":2381000000000,"state":"active","ping":97},{"user_id":298,"name":"fishburger","steam_id":76561198142586591,"connected_time":48000000000,"state":"active","ping":63},{"user_id":157,"name":"Pheonix","steam_id":76561199470538309,"connected_time":6757000000000,"state":"active","ping":75},{"user_id":290,"name":"Bunni","steam_id":76561198065169997,"connected_time":480000000000,"state":"active","ping":107},{"user_id":284,"name":"Bakukirby","steam_id":76561198087773271,"connected_time":876000000000,"state":"active","ping":85},{"user_id":258,"name":"Necronoxide","steam_id":76561197997856321,"connected_time":3197000000000,"state":"active","ping":82},{"user_id":285,"name":"squish","steam_id":76561198186417941,"connected_time":825000000000,"state":"active","ping":62},{"user_id":299,"name":"stick","steam_id":76561198134334367,"connected_time":37000000000,"state":"spawning","ping":130},{"user_id":282,"name":"ATL1 | on my hunting trip","steam_id":76561198315341646,"connected_time":1161000000000,"state":"active","ping":90},{"user_id":283,"name":"Jester","steam_id":76561198153102922,"connected_time":1161000000000,"state":"active","ping":38},{"user_id":266,"name":"bred","steam_id":76561198408673781,"connected_time":2378000000000,"state":"active","ping":60},{"user_id":267,"name":"Fstev ‚úò","steam_id":76561198358766202,"connected_time":2284000000000,"state":"active","ping":152},{"user_id":294,"name":"so really cool","steam_id":76561198804598184,"connected_time":87000000000,"state":"active","ping":94},{"user_id":223,"name":"Zetta","steam_id":76561198045710113,"connected_time":5255000000000,"state":"active","ping":75},{"user_id":268,"name":"Ocvember","steam_id":76561198206308152,"connected_time":2283000000000,"state":"active","ping":121},{"user_id":300,"name":"Paxa","steam_id":76561198008953177,"connected_time":15000000000,"state":"active","ping":77}]},{"server_id":108,"name":"Uncletopia | Dallas | 2 | All Maps","name_short":"dal-2","host":"dal-1.us.uncletopia.com","port":27025,"enabled":true,"region":"us-central","cc":"us","latitude":32.779167,"longitude":-96.80889,"reserved":0,"last_update":"0001-01-01T00:00:00Z","name_a2s":"Uncletopia | Dallas | 2 | All Maps","protocol":17,"map":"cp_steel","folder":"tf","game":"Team Fortress","app_id":440,"player_count":24,"max_players":24,"Bots":0,"server_type":"Dedicated","server_os":"Linux","password":true,"vac":true,"version":"7932396","steam_id":85568392924469988,"keywords":["cp","nocrits","nodmgspread","uncletopia"],"game_id":440,"stv_port":27026,"stv_name":"Uncletopia | Dallas | 2 | All Maps | STV","players":[{"user_id":215,"name":"CFGU || RAWRWAFL","steam_id":76561198032118386,"connected_time":264000000000,"state":"active","ping":70},{"user_id":219,"name":"Vanillex","steam_id":76561199125632814,"connected_time":92000000000,"state":"active","ping":98},{"user_id":162,"name":"y e e t o  b u r r i t o","steam_id":76561198963628161,"connected_time":4937000000000,"state":"active","ping":58},{"user_id":213,"name":"B","steam_id":76561198042003086,"connected_time":352000000000,"state":"active","ping":77},{"user_id":185,"name":"Squiliam","steam_id":76561198025278006,"connected_time":2328000000000,"state":"active","ping":49},{"user_id":187,"name":"IlTrashPanda","steam_id":76561198447864095,"connected_time":2287000000000,"state":"active","ping":57},{"user_id":220,"name":"sebasnerd12","steam_id":76561199437010123,"connected_time":37000000000,"state":"spawning","ping":137},{"user_id":217,"name":"dna$ty","steam_id":76561199060575719,"connected_time":216000000000,"state":"active","ping":99},{"user_id":210,"name":"dweaver","steam_id":76561198119610135,"connected_time":583000000000,"state":"active","ping":63},{"user_id":214,"name":"floppy muppet","steam_id":76561198003076261,"connected_time":333000000000,"state":"active","ping":75},{"user_id":221,"name":"artichoke","steam_id":76561198980994364,"connected_time":3000000000,"state":"spawning","ping":91},{"user_id":205,"name":"Maranata","steam_id":76561198830158092,"connected_time":914000000000,"state":"active","ping":85},{"user_id":140,"name":"Sahbi","steam_id":76561199196292242,"connected_time":5867000000000,"state":"active","ping":57},{"user_id":216,"name":"Zomb3Red","steam_id":76561198075677894,"connected_time":232000000000,"state":"active","ping":69},{"user_id":222,"name":"Loashes","steam_id":76561198119608299,"connected_time":1000000000,"state":"spawning","ping":47},{"user_id":209,"name":"Arnelcardis","steam_id":76561198018063858,"connected_time":760000000000,"state":"active","ping":86},{"user_id":206,"name":"SadChicken Œª","steam_id":76561198082458968,"connected_time":904000000000,"state":"active","ping":81},{"user_id":203,"name":"mkl","steam_id":76561197986401685,"connected_time":998000000000,"state":"active","ping":48},{"user_id":158,"name":"austinsmith","steam_id":76561198167838540,"connected_time":5111000000000,"state":"active","ping":120},{"user_id":218,"name":"hamburger","steam_id":76561198820444541,"connected_time":201000000000,"state":"active","ping":99},{"user_id":212,"name":"MidSobbes08","steam_id":76561199013101925,"connected_time":410000000000,"state":"active","ping":102},{"user_id":32,"name":"ThatGamingKiwi","steam_id":76561199170522237,"connected_time":8242000000000,"state":"active","ping":104},{"user_id":193,"name":"poggerchamp","steam_id":76561199145124973,"connected_time":2233000000000,"state":"active","ping":58}]},{"server_id":5,"name":"Uncletopia | Frankfurt | 1 | All Maps","name_short":"frk-1","host":"frk-1.de.uncletopia.com","port":27015,"enabled":true,"region":"eu","cc":"de","latitude":50.110924,"longitude":8.682127,"reserved":0,"last_update":"0001-01-01T00:00:00Z","name_a2s":"Uncletopia | Frankfurt | 1 | All Maps","protocol":17,"map":"pl_frontier_final","folder":"tf","game":"Team Fortress","app_id":440,"player_count":24,"max_players":24,"Bots":0,"server_type":"Dedicated","server_os":"Linux","password":true,"vac":true,"version":"7932396","steam_id":85568392924469989,"keywords":["nocrits","nodmgspread","payload","uncletopia"],"game_id":440,"stv_port":27016,"stv_name":"Uncletopia | Frankfurt | 1 | All Maps | STV","players":[{"user_id":116,"name":"Lux","steam_id":76561198060417740,"connected_time":1043000000000,"state":"active","ping":52},{"user_id":65,"name":"Serton‚ôù","steam_id":76561198011061126,"connected_time":5907000000000,"state":"active","ping":87},{"user_id":106,"name":"install gentoo","steam_id":76561198185257982,"connected_time":1813000000000,"state":"active","ping":76},{"user_id":94,"name":"Pestdoktor","steam_id":76561198058159271,"connected_time":2793000000000,"state":"active","ping":80},{"user_id":79,"name":"LarsInABox","steam_id":76561198028329262,"connected_time":4658000000000,"state":"active","ping":69},{"user_id":117,"name":"GuSkand","steam_id":76561198043775605,"connected_time":1008000000000,"state":"active","ping":72},{"user_id":84,"name":"Elsuedi","steam_id":76561198074722832,"connected_time":3945000000000,"state":"active","ping":53},{"user_id":131,"name":"Juiceydough","steam_id":76561197997323419,"connected_time":70000000000,"state":"active","ping":86},{"user_id":81,"name":"MEGOS","steam_id":76561198172740637,"connected_time":4548000000000,"state":"active","ping":55},{"user_id":118,"name":"Flostro","steam_id":76561198259793697,"connected_time":980000000000,"state":"active","ping":59},{"user_id":97,"name":"üÉî Nugg1t(she/they)","steam_id":76561198065652251,"connected_time":2709000000000,"state":"active","ping":39},{"user_id":46,"name":"Aspartus","steam_id":76561198101385763,"connected_time":7611000000000,"state":"active","ping":46},{"user_id":105,"name":"Miss Bari","steam_id":76561198365286092,"connected_time":1831000000000,"state":"active","ping":51},{"user_id":119,"name":"PapaMaxy","steam_id":76561198256362726,"connected_time":920000000000,"state":"active","ping":75},{"user_id":129,"name":"Grease Huffer","steam_id":76561198982674420,"connected_time":351000000000,"state":"active","ping":46},{"user_id":130,"name":"Roland Deschain","steam_id":76561198023296355,"connected_time":337000000000,"state":"active","ping":101},{"user_id":112,"name":"foul beast","steam_id":76561198055389492,"connected_time":1677000000000,"state":"active","ping":56},{"user_id":122,"name":"true","steam_id":76561198031145243,"connected_time":582000000000,"state":"active","ping":83},{"user_id":132,"name":"its not good but it is fun","steam_id":76561198083615367,"connected_time":3000000000,"state":"spawning","ping":46},{"user_id":125,"name":"Caught Lackin'","steam_id":76561198122181176,"connected_time":520000000000,"state":"active","ping":48},{"user_id":100,"name":"PANK_Y","steam_id":76561198327715144,"connected_time":2592000000000,"state":"active","ping":84},{"user_id":115,"name":"zak","steam_id":76561197998895428,"connected_time":1195000000000,"state":"active","ping":74},{"user_id":80,"name":"r4s1","steam_id":76561198024034917,"connected_time":4642000000000,"state":"active","ping":59},{"user_id":128,"name":"The Final Terminus","steam_id":76561197964985183,"connected_time":417000000000,"state":"active","ping":69}]},{"server_id":110,"name":"Uncletopia | Frankfurt | 2 | All Maps","name_short":"frk-2","host":"frk-1.de.uncletopia.com","port":27025,"enabled":true,"region":"eu","cc":"de","latitude":50.110924,"longitude":8.682127,"reserved":0,"last_update":"0001-01-01T00:00:00Z","name_a2s":"Uncletopia | Frankfurt | 2 | All Maps","protocol":17,"map":"cp_process_final","folder":"tf","game":"Team Fortress","app_id":440,"player_count":21,"max_players":24,"Bots":0,"server_type":"Dedicated","server_os":"Linux","password":true,"vac":true,"version":"7932396","steam_id":85568392924469990,"keywords":["cp","nocrits","nodmgspread","uncletopia"],"game_id":440,"stv_port":27026,"stv_name":"Uncletopia | Frankfurt | 2 | All Maps | STV","players":[{"user_id":67,"name":"bossievossie","steam_id":76561198836337543,"connected_time":6962000000000,"state":"active","ping":74},{"user_id":122,"name":"flr","steam_id":76561198249327786,"connected_time":2342000000000,"state":"active","ping":60},{"user_id":114,"name":"Mr.O #deletesniper","steam_id":76561198039567498,"connected_time":2688000000000,"state":"active","ping":57},{"user_id":124,"name":"Just Navlis","steam_id":76561198090479609,"connected_time":1899000000000,"state":"active","ping":44},{"user_id":48,"name":"Esculd ‚éù('‚óÅ')‚é†","steam_id":76561198043948445,"connected_time":9788000000000,"state":"active","ping":78},{"user_id":129,"name":"sHIFTINGvORTEX","steam_id":76561198231648332,"connected_time":1151000000000,"state":"active","ping":79},{"user_id":83,"name":"Vershal Smershal","steam_id":76561198116223995,"connected_time":6340000000000,"state":"active","ping":59},{"user_id":134,"name":"Mong","steam_id":76561198254497427,"connected_time":730000000000,"state":"active","ping":58},{"user_id":95,"name":"Infineable","steam_id":76561198358100698,"connected_time":5341000000000,"state":"active","ping":173},{"user_id":131,"name":"AFerociousTeddyBearSlayer","steam_id":76561198247447256,"connected_time":1048000000000,"state":"active","ping":60},{"user_id":132,"name":"sachiko #","steam_id":76561198139615715,"connected_time":918000000000,"state":"active","ping":50},{"user_id":103,"name":"tiia","steam_id":76561198046196005,"connected_time":4137000000000,"state":"active","ping":40},{"user_id":107,"name":"SPONGE","steam_id":76561198040933472,"connected_time":3584000000000,"state":"active","ping":61},{"user_id":125,"name":"cult","steam_id":76561198188647690,"connected_time":1862000000000,"state":"active","ping":69},{"user_id":84,"name":"TazerMonkey55","steam_id":76561198151547551,"connected_time":5917000000000,"state":"active","ping":65},{"user_id":135,"name":"Kleiner Engel","steam_id":76561198009922500,"connected_time":729000000000,"state":"active","ping":53},{"user_id":126,"name":"molderfaker","steam_id":76561199347900130,"connected_time":1554000000000,"state":"active","ping":96},{"user_id":136,"name":"Outlaw","steam_id":76561198389862837,"connected_time":696000000000,"state":"active","ping":85},{"user_id":113,"name":"‚òÅ‚≠ç qBowN‚àº","steam_id":76561198000980532,"connected_time":2866000000000,"state":"active","ping":45},{"user_id":137,"name":"‚òûLaZe‚òú","steam_id":76561198202191400,"connected_time":521000000000,"state":"active","ping":61},{"user_id":127,"name":"FirePenguin","steam_id":76561198151468340,"connected_time":1444000000000,"state":"active","ping":47}]},{"server_id":308,"name":"Uncletopia | Frankfurt | 3 | All Maps","name_short":"frk-3","host":"frk-1.de.uncletopia.com","port":27035,"enabled":true,"region":"eu","cc":"de","latitude":50.110924,"longitude":8.682127,"reserved":0,"last_update":"0001-01-01T00:00:00Z","name_a2s":"Uncletopia | Frankfurt | 3 | All Maps","protocol":17,"map":"cp_process_final","folder":"tf","game":"Team Fortress","app_id":440,"player_count":2,"max_players":24,"Bots":0,"server_type":"Dedicated","server_os":"Linux","password":true,"vac":true,"version":"7932396","steam_id":85568392924504274,"keywords":["cp","nocrits","nodmgspread","uncletopia"],"game_id":440,"stv_port":27036,"stv_name":"Uncletopia | Frankfurt | 3 | All Maps | STV","players":[{"user_id":147,"name":"Xanshi","steam_id":76561198152392309,"connected_time":2117000000000,"state":"active","ping":47},{"user_id":120,"name":"Fat Pigeon","steam_id":76561198817940142,"connected_time":4259000000000,"state":"active","ping":45}]},{"server_id":309,"name":"Uncletopia | Frankfurt | 4 | All Maps","name_short":"frk-4","host":"frk-1.de.uncletopia.com","port":27045,"enabled":true,"region":"eu","cc":"de","latitude":50.110924,"longitude":8.682127,"reserved":0,"last_update":"0001-01-01T00:00:00Z","name_a2s":"Uncletopia | Frankfurt | 4 | All Maps","protocol":17,"map":"plr_bananabay","folder":"tf","game":"Team Fortress","app_id":440,"player_count":17,"max_players":24,"Bots":0,"server_type":"Dedicated","server_os":"Linux","password":true,"vac":true,"version":"7932396","steam_id":85568392924504275,"keywords":["nocrits","nodmgspread","payload","uncletopia"],"game_id":440,"stv_port":27046,"stv_name":"Uncletopia | Frankfurt | 4 | All Maps | STV","players":[{"user_id":111,"name":"MattJettskie","steam_id":76561199229493583,"connected_time":1088000000000,"state":"active","ping":173},{"user_id":99,"name":"Zeppelin","steam_id":76561198154867991,"connected_time":2305000000000,"state":"active","ping":49},{"user_id":124,"name":"hai","steam_id":76561198074743037,"connected_time":19000000000,"state":"active","ping":98},{"user_id":110,"name":"thicc boi","steam_id":76561198358870490,"connected_time":1158000000000,"state":"active","ping":76},{"user_id":107,"name":"R@DIO","steam_id":76561197995533046,"connected_time":1962000000000,"state":"active","ping":77},{"user_id":77,"name":"MagentaDystopia","steam_id":76561198330977433,"connected_time":3731000000000,"state":"active","ping":78},{"user_id":58,"name":"VolcanicArts","steam_id":76561198063453246,"connected_time":4867000000000,"state":"active","ping":68},{"user_id":85,"name":"Adib al-asfar","steam_id":76561198095691592,"connected_time":3250000000000,"state":"active","ping":58},{"user_id":79,"name":"–ö–æ–Ω–Ω–æ—Ä","steam_id":76561198020304242,"connected_time":3673000000000,"state":"active","ping":55},{"user_id":103,"name":"frank","steam_id":76561198137710815,"connected_time":2122000000000,"state":"active","ping":73},{"user_id":119,"name":"robbie","steam_id":76561198798195287,"connected_time":608000000000,"state":"active","ping":62},{"user_id":108,"name":"Vitamin Weee","steam_id":76561199183937747,"connected_time":1544000000000,"state":"active","ping":85},{"user_id":81,"name":"Dr. Jabbinton","steam_id":76561198180007387,"connected_time":3615000000000,"state":"active","ping":49},{"user_id":116,"name":"JeanCorben","steam_id":76561197965133561,"connected_time":874000000000,"state":"active","ping":45},{"user_id":92,"name":"wait, what!?","steam_id":76561198334042273,"connected_time":2825000000000,"state":"active","ping":72},{"user_id":117,"name":"Koodli","steam_id":76561198148739575,"connected_time":867000000000,"state":"active","ping":157},{"user_id":120,"name":"Gimmick","steam_id":76561197979603871,"connected_time":567000000000,"state":"active","ping":59}]},{"server_id":310,"name":"Uncletopia | Frankfurt | 5 | All Maps","name_short":"frk-5","host":"frk-1.de.uncletopia.com","port":27055,"enabled":true,"region":"eu","cc":"de","latitude":50.110924,"longitude":8.682127,"reserved":0,"last_update":"0001-01-01T00:00:00Z","name_a2s":"Uncletopia | Frankfurt | 5 | All Maps","protocol":17,"map":"pl_swiftwater_final1","folder":"tf","game":"Team Fortress","app_id":440,"player_count":0,"max_players":24,"Bots":0,"server_type":"Dedicated","server_os":"Linux","password":true,"vac":true,"version":"7932396","steam_id":85568392924504277,"keywords":["nocrits","nodmgspread","payload","uncletopia"],"game_id":440,"stv_port":27056,"stv_name":"Uncletopia | Frankfurt | 5 | All Maps | STV","players":null},{"server_id":311,"name":"Uncletopia | Frankfurt | 6 | All Maps","name_short":"frk-6","host":"frk-1.de.uncletopia.com","port":27065,"enabled":true,"region":"eu","cc":"de","latitude":50.110924,"longitude":8.682127,"reserved":0,"last_update":"0001-01-01T00:00:00Z","name_a2s":"Uncletopia | Frankfurt | 6 | All Maps","protocol":17,"map":"koth_highpass","folder":"tf","game":"Team Fortress","app_id":440,"player_count":0,"max_players":24,"Bots":0,"server_type":"Dedicated","server_os":"Linux","password":true,"vac":true,"version":"7932396","steam_id":85568392924504278,"keywords":["cp","nocrits","nodmgspread","uncletopia"],"game_id":440,"stv_port":27066,"stv_name":"Uncletopia | Frankfurt | 6 | All Maps | STV","players":null},{"server_id":23,"name":"Uncletopia | Frankfurt | 7 | Stopwatch Beta","name_short":"frk-7","host":"frk-1.de.uncletopia.com","port":27075,"enabled":true,"region":"eu","cc":"de","latitude":50.110924,"longitude":8.682127,"reserved":0,"last_update":"0001-01-01T00:00:00Z","name_a2s":"Uncletopia | Frankfurt | 7 | Stopwatch Beta","protocol":17,"map":"workshop/koth_bagel_rc6.ugc2514036946","folder":"tf","game":"Team Fortress","app_id":440,"player_count":0,"max_players":24,"Bots":0,"server_type":"Dedicated","server_os":"Linux","password":true,"vac":true,"version":"7932396","steam_id":85568392924742827,"keywords":["cp","nocrits","nodmgspread","uncletopia"],"game_id":440,"stv_port":27076,"stv_name":"Uncletopia | Frankfurt | 7 | Stopwatch Beta | STV","players":null},{"server_id":24,"name":"Uncletopia | Frankfurt | 8 | Community","name_short":"frk-8","host":"frk-1.de.uncletopia.com","port":27085,"enabled":true,"region":"eu","cc":"de","latitude":50.110924,"longitude":8.682127,"reserved":0,"last_update":"0001-01-01T00:00:00Z","name_a2s":"Uncletopia | Frankfurt | 8 | Community","protocol":17,"map":"workshop/rd_asteroid_redux_b1.ugc2154902912","folder":"tf","game":"Team Fortress","app_id":440,"player_count":0,"max_players":24,"Bots":0,"server_type":"Dedicated","server_os":"Linux","password":true,"vac":true,"version":"7932396","steam_id":85568392924742828,"keywords":["beta","nocrits","nodmgspread","rd","uncletopia"],"game_id":440,"stv_port":27086,"stv_name":"Uncletopia | Frankfurt | 8 | Community | STV","players":null},{"server_id":202,"name":"Uncletopia | Hong Kong | 1 | All Maps","name_short":"hgk-1","host":"hgk-1.hk.uncletopia.com","port":27015,"enabled":true,"region":"asia","cc":"hk","latitude":22.302711,"longitude":114.177216,"reserved":0,"last_update":"0001-01-01T00:00:00Z","name_a2s":"Uncletopia | Hong Kong | 1 | All Maps","protocol":17,"map":"pl_frontier_final","folder":"tf","game":"Team Fortress","app_id":440,"player_count":0,"max_players":24,"Bots":0,"server_type":"Dedicated","server_os":"Linux","password":true,"vac":true,"version":"7932396","steam_id":85568392924494504,"keywords":["nocrits","nodmgspread","payload","uncletopia"],"game_id":440,"stv_port":27016,"stv_name":"Uncletopia | Hong Kong | 1 | All Maps | STV","players":null},{"server_id":1,"name":"Uncletopia | Los Angeles | 1 | All Maps","name_short":"lax-1","host":"lax-1.us.uncletopia.com","port":27015,"enabled":true,"region":"us-west","cc":"us","latitude":33.94279,"longitude":-118.41004,"reserved":0,"last_update":"0001-01-01T00:00:00Z","name_a2s":"Uncletopia | Los Angeles | 1 | All Maps","protocol":17,"map":"plr_bananabay","folder":"tf","game":"Team Fortress","app_id":440,"player_count":22,"max_players":24,"Bots":0,"server_type":"Dedicated","server_os":"Linux","password":true,"vac":true,"version":"7932396","steam_id":85568392924469991,"keywords":["nocrits","nodmgspread","payload","uncletopia"],"game_id":440,"stv_port":27016,"stv_name":"Uncletopia | Los Angeles | 1 | All Maps | STV","players":[{"user_id":54,"name":"Penne","steam_id":76561198982393756,"connected_time":4498000000000,"state":"active","ping":60},{"user_id":110,"name":"mann of sex","steam_id":76561199466298683,"connected_time":476000000000,"state":"active","ping":40},{"user_id":105,"name":"Person Man","steam_id":76561198293857963,"connected_time":1130000000000,"state":"active","ping":60},{"user_id":111,"name":"John","steam_id":76561199121303887,"connected_time":419000000000,"state":"active","ping":95},{"user_id":101,"name":"Cup O' Tea","steam_id":76561199181963791,"connected_time":1320000000000,"state":"active","ping":66},{"user_id":62,"name":"CrazyKermitRubes","steam_id":76561198009065204,"connected_time":4292000000000,"state":"active","ping":118},{"user_id":56,"name":"DarkMewMew","steam_id":76561199471715552,"connected_time":4493000000000,"state":"active","ping":61},{"user_id":103,"name":"sleck","steam_id":76561197993068585,"connected_time":1162000000000,"state":"active","ping":45},{"user_id":108,"name":"puffer","steam_id":76561199049164456,"connected_time":698000000000,"state":"active","ping":66},{"user_id":104,"name":"Moomin","steam_id":76561198072726213,"connected_time":1160000000000,"state":"active","ping":45},{"user_id":119,"name":"Mackerel2341","steam_id":76561198079974909,"connected_time":200000000000,"state":"active","ping":60},{"user_id":109,"name":"G‡∂ûMER","steam_id":76561198340389876,"connected_time":521000000000,"state":"active","ping":57},{"user_id":115,"name":"d4ngerd4n","steam_id":76561198043758735,"connected_time":260000000000,"state":"active","ping":84},{"user_id":120,"name":"Ariscorech","steam_id":76561198117206414,"connected_time":156000000000,"state":"active","ping":85},{"user_id":106,"name":"ShadowDragon0125","steam_id":76561198343849022,"connected_time":1087000000000,"state":"active","ping":88},{"user_id":114,"name":"DonoC","steam_id":76561198274473338,"connected_time":369000000000,"state":"active","ping":89},{"user_id":117,"name":"Xylaite ÓÄî","steam_id":76561198210402325,"connected_time":241000000000,"state":"active","ping":75},{"user_id":107,"name":"obese farts","steam_id":76561198206922028,"connected_time":970000000000,"state":"active","ping":55},{"user_id":87,"name":"Troyer","steam_id":76561198038005881,"connected_time":2496000000000,"state":"active","ping":101},{"user_id":118,"name":"Red Orbama","steam_id":76561198047002366,"connected_time":233000000000,"state":"active","ping":68},{"user_id":41,"name":"spherewithahat","steam_id":76561199122192660,"connected_time":5483000000000,"state":"active","ping":119},{"user_id":94,"name":"Heinz-Harald Frentzen","steam_id":76561199002203593,"connected_time":1987000000000,"state":"active","ping":116}]},{"server_id":112,"name":"Uncletopia | Los Angeles | 2 | All Maps","name_short":"lax-2","host":"lax-1.us.uncletopia.com","port":27025,"enabled":true,"region":"us-west","cc":"us","latitude":33.94279,"longitude":-118.41004,"reserved":0,"last_update":"0001-01-01T00:00:00Z","name_a2s":"Uncletopia | Los Angeles | 2 | All Maps","protocol":17,"map":"pl_badwater","folder":"tf","game":"Team Fortress","app_id":440,"player_count":24,"max_players":24,"Bots":0,"server_type":"Dedicated","server_os":"Linux","password":true,"vac":true,"version":"7932396","steam_id":85568392924469992,"keywords":["nocrits","nodmgspread","payload","uncletopia"],"game_id":440,"stv_port":27026,"stv_name":"Uncletopia | Los Angeles | 2 | All Maps | STV","players":[{"user_id":24,"name":"stboncho","steam_id":76561198172275301,"connected_time":1641000000000,"state":"active","ping":59},{"user_id":33,"name":"Cooki","steam_id":76561198051705314,"connected_time":1455000000000,"state":"active","ping":125},{"user_id":26,"name":"poot theory","steam_id":76561198170381402,"connected_time":1624000000000,"state":"active","ping":93},{"user_id":47,"name":"Cosmic Torgue","steam_id":76561198828724945,"connected_time":239000000000,"state":"active","ping":131},{"user_id":48,"name":"The Benefactor","steam_id":76561198307247913,"connected_time":41000000000,"state":"spawning","ping":44},{"user_id":27,"name":"vŒªughn","steam_id":76561198144165856,"connected_time":1616000000000,"state":"active","ping":94},{"user_id":11,"name":"cute strafer","steam_id":76561198043727436,"connected_time":2236000000000,"state":"active","ping":99},{"user_id":12,"name":"red","steam_id":76561198067289381,"connected_time":2232000000000,"state":"active","ping":86},{"user_id":13,"name":"California Jew","steam_id":76561198914032112,"connected_time":2091000000000,"state":"active","ping":46},{"user_id":14,"name":"Power Jake","steam_id":76561198051510260,"connected_time":2082000000000,"state":"active","ping":60},{"user_id":28,"name":"moe","steam_id":76561198929586245,"connected_time":1609000000000,"state":"active","ping":40},{"user_id":46,"name":"Orion","steam_id":76561198000418837,"connected_time":494000000000,"state":"active","ping":86},{"user_id":21,"name":"North","steam_id":76561198009525270,"connected_time":1813000000000,"state":"active","ping":54},{"user_id":34,"name":"David","steam_id":76561198869535018,"connected_time":1453000000000,"state":"active","ping":158},{"user_id":19,"name":"Not Giga Chad","steam_id":76561198059785363,"connected_time":1908000000000,"state":"active","ping":86},{"user_id":20,"name":"Indigolake","steam_id":76561198202215807,"connected_time":1895000000000,"state":"active","ping":129},{"user_id":22,"name":"Quon Grene for Vice Prez","steam_id":76561198127545817,"connected_time":1803000000000,"state":"active","ping":75},{"user_id":30,"name":"crumbles","steam_id":76561198168707036,"connected_time":1588000000000,"state":"active","ping":60},{"user_id":35,"name":"big fish","steam_id":76561198186479818,"connected_time":1422000000000,"state":"active","ping":57},{"user_id":36,"name":"Doc Bird","steam_id":76561198194818415,"connected_time":1396000000000,"state":"active","ping":83},{"user_id":45,"name":"Whyamidoingthisaaaa","steam_id":76561199168837342,"connected_time":591000000000,"state":"active","ping":106},{"user_id":41,"name":"Coolbreadguy","steam_id":76561198139544202,"connected_time":1097000000000,"state":"active","ping":46},{"user_id":42,"name":"jc71777","steam_id":76561199124210364,"connected_time":830000000000,"state":"active","ping":54},{"user_id":40,"name":"FaceLaces","steam_id":76561198194417725,"connected_time":1140000000000,"state":"active","ping":53}]},{"server_id":324,"name":"Uncletopia | Los Angeles | 3 | All Maps","name_short":"lax-3","host":"lax-1.us.uncletopia.com","port":27035,"enabled":true,"region":"us-west","cc":"us","latitude":33.94279,"longitude":-118.41004,"reserved":0,"last_update":"0001-01-01T00:00:00Z","name_a2s":"Uncletopia | Los Angeles | 3 | All Maps","protocol":17,"map":"pl_barnblitz","folder":"tf","game":"Team Fortress","app_id":440,"player_count":0,"max_players":24,"Bots":0,"server_type":"Dedicated","server_os":"Linux","password":true,"vac":true,"version":"7932396","steam_id":85568392924510198,"keywords":["nocrits","nodmgspread","payload","uncletopia"],"game_id":440,"stv_port":27036,"stv_name":"Uncletopia | Los Angeles | 3 | All Maps | STV","players":null},{"server_id":25,"name":"Uncletopia | Los Angeles | 4 | Stopwatch Beta","name_short":"lax-4","host":"lax-1.us.uncletopia.com","port":27045,"enabled":true,"region":"us-west","cc":"us","latitude":33.94279,"longitude":-118.41004,"reserved":0,"last_update":"0001-01-01T00:00:00Z","name_a2s":"Uncletopia | Los Angeles | 4 | Stopwatch Beta","protocol":17,"map":"pl_swiftwater_final1","folder":"tf","game":"Team Fortress","app_id":440,"player_count":0,"max_players":24,"Bots":0,"server_type":"Dedicated","server_os":"Linux","password":true,"vac":true,"version":"7932396","steam_id":85568392924510199,"keywords":["nocrits","nodmgspread","payload","uncletopia"],"game_id":440,"stv_port":27046,"stv_name":"Uncletopia | Los Angeles | 4 | Stopwatch Beta | STV","players":null},{"server_id":11,"name":"Uncletopia | London | 1 | All Maps","name_short":"lon-1","host":"lon-1.uk.uncletopia.com","port":27015,"enabled":true,"region":"eu","cc":"gb","latitude":51.509865,"longitude":-0.118092,"reserved":0,"last_update":"0001-01-01T00:00:00Z","name_a2s":"Uncletopia | London | 1 | All Maps","protocol":17,"map":"pl_frontier_final","folder":"tf","game":"Team Fortress","app_id":440,"player_count":24,"max_players":24,"Bots":0,"server_type":"Dedicated","server_os":"Linux","password":true,"vac":true,"version":"7932396","steam_id":85568392924367362,"keywords":["nocrits","nodmgspread","payload","uncletopia"],"game_id":440,"stv_port":27016,"stv_name":"Uncletopia | London | 1 | All Maps | STV","players":[{"user_id":159,"name":"Bob","steam_id":76561197993252315,"connected_time":1514000000000,"state":"active","ping":64},{"user_id":175,"name":"Caerot","steam_id":76561198839000676,"connected_time":315000000000,"state":"active","ping":72},{"user_id":166,"name":"140ms","steam_id":76561198096654820,"connected_time":1467000000000,"state":"active","ping":66},{"user_id":135,"name":"Deacon Dracul","steam_id":76561198046880663,"connected_time":4607000000000,"state":"active","ping":81},{"user_id":167,"name":"He orchestrated it!","steam_id":76561198089003514,"connected_time":1464000000000,"state":"active","ping":59},{"user_id":165,"name":"teddy","steam_id":76561198007436837,"connected_time":1486000000000,"state":"active","ping":30},{"user_id":153,"name":"Sandshee","steam_id":76561198088574666,"connected_time":3056000000000,"state":"active","ping":42},{"user_id":168,"name":"Haha?","steam_id":76561198056882245,"connected_time":1375000000000,"state":"active","ping":44},{"user_id":147,"name":"Lubrsi","steam_id":76561198040208195,"connected_time":3707000000000,"state":"active","ping":47},{"user_id":152,"name":"nyanezt","steam_id":76561198253734265,"connected_time":3110000000000,"state":"active","ping":122},{"user_id":162,"name":"sora :3","steam_id":76561198096547662,"connected_time":1498000000000,"state":"active","ping":57},{"user_id":172,"name":"Bogart Toploader","steam_id":76561198014832104,"connected_time":675000000000,"state":"active","ping":49},{"user_id":160,"name":"‚ô•aura‚ô•","steam_id":76561198066258544,"connected_time":1512000000000,"state":"active","ping":66},{"user_id":174,"name":"Dim","steam_id":76561198141549249,"connected_time":612000000000,"state":"active","ping":146},{"user_id":177,"name":"Wally","steam_id":76561199383437138,"connected_time":202000000000,"state":"active","ping":127},{"user_id":158,"name":"Eidolon","steam_id":76561198043919565,"connected_time":1515000000000,"state":"active","ping":70},{"user_id":124,"name":"epic gamer moment","steam_id":76561198299515070,"connected_time":5384000000000,"state":"active","ping":95},{"user_id":156,"name":"Evix","steam_id":76561198418450671,"connected_time":2556000000000,"state":"active","ping":66},{"user_id":169,"name":"XFACTOR | {Moshik Roth}","steam_id":76561198352842114,"connected_time":1019000000000,"state":"active","ping":109},{"user_id":171,"name":"blade","steam_id":76561199308850812,"connected_time":825000000000,"state":"active","ping":42},{"user_id":29,"name":"DJPNK","steam_id":76561197989948420,"connected_time":10337000000000,"state":"active","ping":49},{"user_id":91,"name":"i put rocks in your mattress","steam_id":76561198072892783,"connected_time":7566000000000,"state":"active","ping":63},{"user_id":155,"name":"BreadBubbles","steam_id":76561198174332826,"connected_time":2569000000000,"state":"active","ping":61},{"user_id":163,"name":"Aaron","steam_id":76561197990046953,"connected_time":1497000000000,"state":"active","ping":60}]},{"server_id":114,"name":"Uncletopia | London | 2 | All Maps","name_short":"lon-2","host":"lon-1.uk.uncletopia.com","port":27025,"enabled":true,"region":"eu","cc":"gb","latitude":51.509865,"longitude":-0.118092,"reserved":0,"last_update":"0001-01-01T00:00:00Z","name_a2s":"Uncletopia | London | 2 | All Maps","protocol":17,"map":"koth_highpass","folder":"tf","game":"Team Fortress","app_id":440,"player_count":0,"max_players":24,"Bots":0,"server_type":"Dedicated","server_os":"Linux","password":true,"vac":true,"version":"7932396","steam_id":85568392924470941,"keywords":["cp","nocrits","nodmgspread","uncletopia"],"game_id":440,"stv_port":27026,"stv_name":"Uncletopia | London | 2 | All Maps | STV","players":null},{"server_id":320,"name":"Uncletopia | London | 3 | All Maps","name_short":"lon-3","host":"lon-1.uk.uncletopia.com","port":27035,"enabled":true,"region":"eu","cc":"gb","latitude":51.509865,"longitude":-0.118092,"reserved":0,"last_update":"0001-01-01T00:00:00Z","name_a2s":"Uncletopia | London | 3 | All Maps","protocol":17,"map":"cp_mountainlab","folder":"tf","game":"Team Fortress","app_id":440,"player_count":0,"max_players":24,"Bots":0,"server_type":"Dedicated","server_os":"Linux","password":true,"vac":true,"version":"7932396","steam_id":85568392924510192,"keywords":["cp","nocrits","nodmgspread","uncletopia"],"game_id":440,"stv_port":27036,"stv_name":"Uncletopia | London | 3 | All Maps | STV","players":null},{"server_id":321,"name":"Uncletopia | London | 4 | All Maps","name_short":"lon-4","host":"lon-1.uk.uncletopia.com","port":27045,"enabled":true,"region":"eu","cc":"gb","latitude":51.509865,"longitude":-0.118092,"reserved":0,"last_update":"0001-01-01T00:00:00Z","name_a2s":"Uncletopia | London | 4 | All Maps","protocol":17,"map":"pl_frontier_final","folder":"tf","game":"Team Fortress","app_id":440,"player_count":0,"max_players":24,"Bots":0,"server_type":"Dedicated","server_os":"Linux","password":true,"vac":true,"version":"7932396","steam_id":85568392924510193,"keywords":["nocrits","nodmgspread","payload","uncletopia"],"game_id":440,"stv_port":27046,"stv_name":"Uncletopia | London | 4 | All Maps | STV","players":null},{"server_id":21,"name":"Uncletopia | London | 5 | All Maps","name_short":"lon-5","host":"lon-1.uk.uncletopia.com","port":27055,"enabled":true,"region":"eu","cc":"gb","latitude":51.509865,"longitude":-0.118092,"reserved":0,"last_update":"0001-01-01T00:00:00Z","name_a2s":"Uncletopia | London | 5 | All Maps","protocol":17,"map":"pl_snowycoast","folder":"tf","game":"Team Fortress","app_id":440,"player_count":24,"max_players":24,"Bots":0,"server_type":"Dedicated","server_os":"Linux","password":true,"vac":true,"version":"7932396","steam_id":85568392924742829,"keywords":["nocrits","nodmgspread","payload","uncletopia"],"game_id":440,"stv_port":27056,"stv_name":"Uncletopia | London | 5 | All Maps | STV","players":[{"user_id":111,"name":"Black Sheep","steam_id":76561198042244701,"connected_time":4224000000000,"state":"active","ping":60},{"user_id":131,"name":"Xiqui","steam_id":76561198818386611,"connected_time":2031000000000,"state":"active","ping":66},{"user_id":147,"name":"DarthPaul8181","steam_id":76561198373050455,"connected_time":884000000000,"state":"active","ping":49},{"user_id":126,"name":"liu","steam_id":76561198269154534,"connected_time":2895000000000,"state":"active","ping":47},{"user_id":81,"name":"Fish","steam_id":76561198152128484,"connected_time":5733000000000,"state":"active","ping":48},{"user_id":119,"name":"Omyskull","steam_id":76561198131711758,"connected_time":3002000000000,"state":"active","ping":66},{"user_id":124,"name":"„Éó„É≠„Éë„Éë„É≥„ÉÄ","steam_id":76561199196528528,"connected_time":2918000000000,"state":"active","ping":57},{"user_id":150,"name":"pan gaming","steam_id":76561198065846882,"connected_time":423000000000,"state":"active","ping":85},{"user_id":142,"name":"ùì§ùìµùìæùìµùì§","steam_id":76561198396007276,"connected_time":1200000000000,"state":"active","ping":82},{"user_id":104,"name":"teodor the magic dragon","steam_id":76561198136362697,"connected_time":4375000000000,"state":"active","ping":73},{"user_id":146,"name":"(no monitor) ayylien","steam_id":76561198042127970,"connected_time":1090000000000,"state":"active","ping":132},{"user_id":139,"name":"CAWER","steam_id":76561198277265652,"connected_time":1314000000000,"state":"active","ping":55},{"user_id":128,"name":"Tink","steam_id":76561198118235443,"connected_time":2777000000000,"state":"active","ping":55},{"user_id":133,"name":"Dr Sex","steam_id":76561198029044617,"connected_time":1872000000000,"state":"active","ping":50},{"user_id":148,"name":"antivirus.exe","steam_id":76561198152067633,"connected_time":834000000000,"state":"active","ping":159},{"user_id":90,"name":"Ankle Dane","steam_id":76561198134378108,"connected_time":5318000000000,"state":"active","ping":82},{"user_id":107,"name":"Oak","steam_id":76561198067315672,"connected_time":4310000000000,"state":"active","ping":49},{"user_id":113,"name":"Well, off to hang myself","steam_id":76561198053374944,"connected_time":3975000000000,"state":"active","ping":68},{"user_id":140,"name":"P√¶b√¶s","steam_id":76561198088369219,"connected_time":1313000000000,"state":"active","ping":86},{"user_id":149,"name":"Dag!","steam_id":76561198030147941,"connected_time":567000000000,"state":"active","ping":75},{"user_id":144,"name":"waddles","steam_id":76561198205194909,"connected_time":1185000000000,"state":"active","ping":104},{"user_id":48,"name":"Carrotcracker","steam_id":76561198034862396,"connected_time":8612000000000,"state":"active","ping":82},{"user_id":145,"name":"Voks_","steam_id":76561198159687785,"connected_time":1167000000000,"state":"active","ping":70},{"user_id":112,"name":"Mega Saturn","steam_id":76561198024750500,"connected_time":4210000000000,"state":"active","ping":81}]},{"server_id":22,"name":"Uncletopia | London | 6 | All Maps","name_short":"lon-6","host":"lon-1.uk.uncletopia.com","port":27065,"enabled":true,"region":"eu","cc":"gb","latitude":51.509865,"longitude":-0.118092,"reserved":0,"last_update":"0001-01-01T00:00:00Z","name_a2s":"Uncletopia | London | 6 | All Maps","protocol":17,"map":"pl_snowycoast","folder":"tf","game":"Team Fortress","app_id":440,"player_count":14,"max_players":24,"Bots":0,"server_type":"Dedicated","server_os":"Linux","password":true,"vac":true,"version":"7932396","steam_id":85568392924742830,"keywords":["nocrits","nodmgspread","payload","uncletopia"],"game_id":440,"stv_port":27066,"stv_name":"Uncletopia | London | 6 | All Maps | STV","players":[{"user_id":149,"name":"clinical glue albums","steam_id":76561198013502376,"connected_time":131000000000,"state":"active","ping":46},{"user_id":136,"name":"Pruff","steam_id":76561198377084417,"connected_time":1068000000000,"state":"active","ping":65},{"user_id":138,"name":"Xeno Soldier","steam_id":76561198042163847,"connected_time":971000000000,"state":"active","ping":55},{"user_id":150,"name":"mud","steam_id":76561198141497461,"connected_time":116000000000,"state":"active","ping":71},{"user_id":151,"name":"dum","steam_id":76561198053386482,"connected_time":106000000000,"state":"active","ping":130},{"user_id":146,"name":"LVL100_PSYDUCK","steam_id":76561198081392950,"connected_time":487000000000,"state":"active","ping":59},{"user_id":134,"name":"Jonno","steam_id":76561198023443744,"connected_time":1148000000000,"state":"active","ping":49},{"user_id":105,"name":"Kenny Savage","steam_id":76561199049383900,"connected_time":3412000000000,"state":"active","ping":73},{"user_id":140,"name":"Eggie","steam_id":76561199018655610,"connected_time":830000000000,"state":"active","ping":116},{"user_id":144,"name":"Murdoc","steam_id":76561198054293906,"connected_time":658000000000,"state":"active","ping":76},{"user_id":132,"name":"Rolloden","steam_id":76561198069414404,"connected_time":1483000000000,"state":"active","ping":67},{"user_id":113,"name":"James","steam_id":76561198168882012,"connected_time":3161000000000,"state":"active","ping":43},{"user_id":148,"name":"Fluffy Tuffy","steam_id":76561198106495563,"connected_time":183000000000,"state":"active","ping":120},{"user_id":133,"name":"fshfkr","steam_id":76561198095979282,"connected_time":1430000000000,"state":"active","ping":44}]},{"server_id":40,"name":"Uncletopia | London | 7 | No Payload","name_short":"lon-7","host":"lon-1.uk.uncletopia.com","port":27075,"enabled":true,"region":"eu","cc":"gb","latitude":51.509865,"longitude":-0.118092,"reserved":0,"last_update":"0001-01-01T00:00:00Z","name_a2s":"Uncletopia | London | 7 | No Payload","protocol":17,"map":"ctf_well","folder":"tf","game":"Team Fortress","app_id":440,"player_count":20,"max_players":24,"Bots":0,"server_type":"Dedicated","server_os":"Linux","password":true,"vac":true,"version":"7932396","steam_id":85568392924964314,"keywords":["ctf","nocrits","nodmgspread","uncletopia"],"game_id":440,"stv_port":27076,"stv_name":"Uncletopia | London | 7 | No Payload | STV","players":[{"user_id":131,"name":"cat","steam_id":76561198832231975,"connected_time":249000000000,"state":"active","ping":90},{"user_id":132,"name":"Genesis","steam_id":76561198999652040,"connected_time":215000000000,"state":"active","ping":57},{"user_id":135,"name":"Spectre","steam_id":76561198163819482,"connected_time":65000000000,"state":"active","ping":62},{"user_id":86,"name":"Vibing Wave","steam_id":76561198866358613,"connected_time":3282000000000,"state":"active","ping":159},{"user_id":129,"name":"IndigoJones","steam_id":76561198050284262,"connected_time":407000000000,"state":"active","ping":48},{"user_id":122,"name":"_hoschi","steam_id":76561197960386570,"connected_time":688000000000,"state":"active","ping":56},{"user_id":119,"name":"‚ô•ImWithMilk","steam_id":76561198269577569,"connected_time":1040000000000,"state":"active","ping":50},{"user_id":120,"name":"papi im hungary(((","steam_id":76561198183949987,"connected_time":752000000000,"state":"active","ping":53},{"user_id":136,"name":"sushii","steam_id":76561198297987372,"connected_time":49000000000,"state":"active","ping":57},{"user_id":118,"name":"David Random","steam_id":76561198144497918,"connected_time":1286000000000,"state":"active","ping":70},{"user_id":123,"name":"Remembrance","steam_id":76561199229247163,"connected_time":686000000000,"state":"active","ping":43},{"user_id":127,"name":"Nyrgon","steam_id":76561198269206916,"connected_time":499000000000,"state":"active","ping":73},{"user_id":124,"name":"Teacup","steam_id":76561198190654091,"connected_time":655000000000,"state":"active","ping":56},{"user_id":133,"name":"tl.rybar","steam_id":76561197960377282,"connected_time":155000000000,"state":"active","ping":75},{"user_id":113,"name":"Orbit","steam_id":76561198242999878,"connected_time":1750000000000,"state":"active","ping":53},{"user_id":114,"name":"Soloman","steam_id":76561199212054667,"connected_time":1745000000000,"state":"active","ping":44},{"user_id":128,"name":"Aubribac","steam_id":76561198057689763,"connected_time":474000000000,"state":"active","ping":50},{"user_id":134,"name":"Skoualala","steam_id":76561198121754445,"connected_time":154000000000,"state":"active","ping":57},{"user_id":67,"name":"KnugenIV","steam_id":76561198127091993,"connected_time":5084000000000,"state":"active","ping":58},{"user_id":125,"name":"Urfangonultasadana","steam_id":76561199389286151,"connected_time":575000000000,"state":"active","ping":101}]},{"server_id":41,"name":"Uncletopia | London | 8 | Community","name_short":"lon-8","host":"lon-1.uk.uncletopia.com","port":27085,"enabled":true,"region":"eu","cc":"gb","latitude":51.509865,"longitude":-0.118092,"reserved":0,"last_update":"0001-01-01T00:00:00Z","name_a2s":"Uncletopia | London | 8 | Community","protocol":17,"map":"workshop/cp_propaganda_b18.ugc1603743849","folder":"tf","game":"Team Fortress","app_id":440,"player_count":0,"max_players":24,"Bots":0,"server_type":"Dedicated","server_os":"Linux","password":true,"vac":true,"version":"7932396","steam_id":85568392924964315,"keywords":["cp","nocrits","nodmgspread","uncletopia"],"game_id":440,"stv_port":27086,"stv_name":"Uncletopia | London | 8 | Community | STV","players":null},{"server_id":300,"name":"Uncletopia | Montr√©al | 1 | All Maps","name_short":"mtl-1","host":"mtl-1.ca.uncletopia.com","port":27015,"enabled":true,"region":"us-east","cc":"ca","latitude":45.50889,"longitude":-73.56167,"reserved":0,"last_update":"0001-01-01T00:00:00Z","name_a2s":"Uncletopia | Montr√©al | 1 | All Maps","protocol":17,"map":"pl_borneo","folder":"tf","game":"Team Fortress","app_id":440,"player_count":0,"max_players":24,"Bots":0,"server_type":"Dedicated","server_os":"Linux","password":true,"vac":true,"version":"7932396","steam_id":85568392924500087,"keywords":["nocrits","nodmgspread","payload","uncletopia"],"game_id":440,"stv_port":27016,"stv_name":"Uncletopia | Montr√©al | 1 | All Maps | STV","players":null},{"server_id":301,"name":"Uncletopia | Montr√©al | 2 | All Maps","name_short":"mtl-2","host":"mtl-1.ca.uncletopia.com","port":27025,"enabled":true,"region":"us-east","cc":"ca","latitude":45.50889,"longitude":-73.56167,"reserved":0,"last_update":"0001-01-01T00:00:00Z","name_a2s":"Uncletopia | Montr√©al | 2 | All Maps","protocol":17,"map":"pl_pier","folder":"tf","game":"Team Fortress","app_id":440,"player_count":0,"max_players":24,"Bots":0,"server_type":"Dedicated","server_os":"Linux","password":true,"vac":true,"version":"7932396","steam_id":85568392924500088,"keywords":["nocrits","nodmgspread","payload","uncletopia"],"game_id":440,"stv_port":27026,"stv_name":"Uncletopia | Montr√©al | 2 | All Maps | STV","players":null},{"server_id":302,"name":"Uncletopia | Montr√©al | 3 | All Maps","name_short":"mtl-3","host":"mtl-1.ca.uncletopia.com","port":27035,"enabled":true,"region":"us-east","cc":"ca","latitude":45.50889,"longitude":-73.56167,"reserved":0,"last_update":"0001-01-01T00:00:00Z","name_a2s":"Uncletopia | Montr√©al | 3 | All Maps","protocol":17,"map":"cp_snakewater_final1","folder":"tf","game":"Team Fortress","app_id":440,"player_count":0,"max_players":24,"Bots":0,"server_type":"Dedicated","server_os":"Linux","password":true,"vac":true,"version":"7932396","steam_id":85568392924500089,"keywords":["cp","nocrits","nodmgspread","uncletopia"],"game_id":440,"stv_port":27036,"stv_name":"Uncletopia | Montr√©al | 3 | All Maps | STV","players":null},{"server_id":303,"name":"Uncletopia | Montr√©al | 4 | No Payload","name_short":"mtl-4","host":"mtl-1.ca.uncletopia.com","port":27045,"enabled":true,"region":"us-east","cc":"ca","latitude":45.50889,"longitude":-73.56167,"reserved":0,"last_update":"0001-01-01T00:00:00Z","name_a2s":"Uncletopia | Montr√©al | 4 | No Payload","protocol":17,"map":"cp_mountainlab","folder":"tf","game":"Team Fortress","app_id":440,"player_count":0,"max_players":24,"Bots":0,"server_type":"Dedicated","server_os":"Linux","password":true,"vac":true,"version":"7932396","steam_id":85568392924500090,"keywords":["cp","nocrits","nodmgspread","uncletopia"],"game_id":440,"stv_port":27046,"stv_name":"Uncletopia | Montr√©al | 4 | No Payload | STV","players":null},{"server_id":13,"name":"Uncletopia | New York City | 1 | All Maps","name_short":"nyc-1","host":"nyc-1.us.uncletopia.com","port":27015,"enabled":true,"region":"us-east","cc":"us","latitude":40.73061,"longitude":-73.93524,"reserved":0,"last_update":"0001-01-01T00:00:00Z","name_a2s":"Uncletopia | New York City | 1 | All Maps","protocol":17,"map":"cp_dustbowl","folder":"tf","game":"Team Fortress","app_id":440,"player_count":22,"max_players":24,"Bots":0,"server_type":"Dedicated","server_os":"Linux","password":true,"vac":true,"version":"7932396","steam_id":85568392924469993,"keywords":["cp","nocrits","nodmgspread","uncletopia"],"game_id":440,"stv_port":27016,"stv_name":"Uncletopia | New York City | 1 | All Maps | STV","players":[{"user_id":12,"name":"IronPotato","steam_id":76561198871330025,"connected_time":2061000000000,"state":"active","ping":84},{"user_id":13,"name":"thepokebe","steam_id":76561199370272407,"connected_time":2058000000000,"state":"active","ping":80},{"user_id":14,"name":"Parting ways","steam_id":76561197995620232,"connected_time":1930000000000,"state":"active","ping":42},{"user_id":23,"name":"JoCaleb02","steam_id":76561198272389829,"connected_time":1041000000000,"state":"active","ping":57},{"user_id":44,"name":"waylen","steam_id":76561198945724920,"connected_time":167000000000,"state":"active","ping":69},{"user_id":18,"name":"the pest","steam_id":76561198826298849,"connected_time":1585000000000,"state":"active","ping":91},{"user_id":38,"name":"ObsessedNerd505","steam_id":76561199045531456,"connected_time":261000000000,"state":"active","ping":94},{"user_id":41,"name":"Primal","steam_id":76561197983118203,"connected_time":216000000000,"state":"active","ping":85},{"user_id":21,"name":"erf","steam_id":76561198078203677,"connected_time":1403000000000,"state":"active","ping":50},{"user_id":22,"name":"a literal slave","steam_id":76561199389283507,"connected_time":1390000000000,"state":"active","ping":64},{"user_id":26,"name":"gonad epic","steam_id":76561198217435839,"connected_time":794000000000,"state":"active","ping":87},{"user_id":27,"name":"Diji Dux","steam_id":76561199064647694,"connected_time":626000000000,"state":"active","ping":89},{"user_id":28,"name":"Xolvox","steam_id":76561198055374144,"connected_time":580000000000,"state":"active","ping":81},{"user_id":29,"name":"Bymo","steam_id":76561199037626505,"connected_time":578000000000,"state":"active","ping":51},{"user_id":31,"name":"pinch of potassium chlorate","steam_id":76561199278373059,"connected_time":493000000000,"state":"active","ping":69},{"user_id":32,"name":"alex","steam_id":76561198095203229,"connected_time":466000000000,"state":"active","ping":69},{"user_id":33,"name":"Frajer","steam_id":76561198059129680,"connected_time":423000000000,"state":"active","ping":68},{"user_id":47,"name":"Breezy","steam_id":76561198080637507,"connected_time":41000000000,"state":"spawning","ping":118},{"user_id":40,"name":"Joe Biden","steam_id":76561198238699798,"connected_time":226000000000,"state":"active","ping":101},{"user_id":43,"name":"A generic tf2 player","steam_id":76561199429552397,"connected_time":186000000000,"state":"active","ping":71},{"user_id":45,"name":"nilftb","steam_id":76561198161952186,"connected_time":159000000000,"state":"active","ping":57},{"user_id":46,"name":"Fallen_Scholar","steam_id":76561198055468709,"connected_time":153000000000,"state":"active","ping":145}]},{"server_id":14,"name":"Uncletopia | New York City | 2 | All Maps","name_short":"nyc-2","host":"nyc-1.us.uncletopia.com","port":27025,"enabled":true,"region":"us-east","cc":"us","latitude":40.73061,"longitude":-73.93524,"reserved":0,"last_update":"0001-01-01T00:00:00Z","name_a2s":"Uncletopia | New York City | 2 | All Maps","protocol":17,"map":"pl_badwater","folder":"tf","game":"Team Fortress","app_id":440,"player_count":9,"max_players":24,"Bots":0,"server_type":"Dedicated","server_os":"Linux","password":true,"vac":true,"version":"7932396","steam_id":85568392924469994,"keywords":["nocrits","nodmgspread","payload","uncletopia"],"game_id":440,"stv_port":27026,"stv_name":"Uncletopia | New York City | 2 | All Maps | STV","players":[{"user_id":5,"name":"A_Malebolgia","steam_id":76561198097722818,"connected_time":1821000000000,"state":"active","ping":81},{"user_id":19,"name":"Kaits","steam_id":76561199021082993,"connected_time":223000000000,"state":"active","ping":45},{"user_id":20,"name":"M Knighton","steam_id":76561199187764012,"connected_time":174000000000,"state":"active","ping":45},{"user_id":13,"name":"Yoshimelon","steam_id":76561198253054325,"connected_time":626000000000,"state":"active","ping":78},{"user_id":21,"name":"SpaceCokeCan","steam_id":76561199117730730,"connected_time":52000000000,"state":"active","ping":77},{"user_id":15,"name":"BigBattleToaster","steam_id":76561199087551431,"connected_time":399000000000,"state":"active","ping":102},{"user_id":16,"name":"pinkissocool {f2p}","steam_id":76561198989599828,"connected_time":369000000000,"state":"active","ping":37},{"user_id":17,"name":"Mr. Sauce","steam_id":76561198055512324,"connected_time":365000000000,"state":"active","ping":60},{"user_id":22,"name":"sad boi","steam_id":76561198395577807,"connected_time":45000000000,"state":"active","ping":45}]},{"server_id":15,"name":"Uncletopia | New York City | 3 | Stopwatch Beta","name_short":"nyc-3","host":"nyc-1.us.uncletopia.com","port":27035,"enabled":true,"region":"us-east","cc":"us","latitude":40.73061,"longitude":-73.93524,"reserved":0,"last_update":"0001-01-01T00:00:00Z","name_a2s":"Uncletopia | New York City | 3 | Stopwatch Beta","protocol":17,"map":"cp_snakewater_final1","folder":"tf","game":"Team Fortress","app_id":440,"player_count":0,"max_players":24,"Bots":0,"server_type":"Dedicated","server_os":"Linux","password":true,"vac":true,"version":"7932396","steam_id":85568392924742820,"keywords":["cp","nocrits","nodmgspread","uncletopia"],"game_id":440,"stv_port":27036,"stv_name":"Uncletopia | New York City | 3 | Stopwatch Beta | STV","players":null},{"server_id":16,"name":"Uncletopia | New York City | 4 | Community","name_short":"nyc-4","host":"nyc-1.us.uncletopia.com","port":27045,"enabled":true,"region":"us-east","cc":"us","latitude":40.73061,"longitude":-73.93524,"reserved":0,"last_update":"0001-01-01T00:00:00Z","name_a2s":"Uncletopia | New York City | 4 | Community","protocol":17,"map":"workshop/pl_cactuscanyon_redux_final2.ugc2579644293","folder":"tf","game":"Team Fortress","app_id":440,"player_count":0,"max_players":24,"Bots":0,"server_type":"Dedicated","server_os":"Linux","password":true,"vac":true,"version":"7932396","steam_id":85568392924742821,"keywords":["nocrits","nodmgspread","payload","uncletopia"],"game_id":440,"stv_port":27046,"stv_name":"Uncletopia | New York City | 4 | Community | STV","players":null},{"server_id":142,"name":"Uncletopia | S√£o Paulo | 1 | All Maps","name_short":"sao-1","host":"sao-1.br.uncletopia.com","port":27015,"enabled":true,"region":"sa","cc":"br","latitude":-23.533773,"longitude":-46.62529,"reserved":0,"last_update":"0001-01-01T00:00:00Z","name_a2s":"Uncletopia | S√£o Paulo | 1 | All Maps","protocol":17,"map":"pl_barnblitz","folder":"tf","game":"Team Fortress","app_id":440,"player_count":0,"max_players":24,"Bots":0,"server_type":"Dedicated","server_os":"Linux","password":true,"vac":true,"version":"7932396","steam_id":85568392924469996,"keywords":["nocrits","nodmgspread","payload","uncletopia"],"game_id":440,"stv_port":27016,"stv_name":"Uncletopia | S√£o Paulo | 1 | All Maps | STV","players":null},{"server_id":143,"name":"Uncletopia | S√£o Paulo | 2 | All Maps","name_short":"sao-2","host":"sao-2.br.uncletopia.com","port":27015,"enabled":true,"region":"sa","cc":"br","latitude":-23.533773,"longitude":-46.62529,"reserved":0,"last_update":"0001-01-01T00:00:00Z","name_a2s":"Uncletopia | S√£o Paulo | 2 | All Maps","protocol":17,"map":"cp_altitude","folder":"tf","game":"Team Fortress","app_id":440,"player_count":9,"max_players":24,"Bots":0,"server_type":"Dedicated","server_os":"Linux","password":true,"vac":true,"version":"7932396","steam_id":85568392924485349,"keywords":["cp","nocrits","nodmgspread","uncletopia"],"game_id":440,"stv_port":27016,"stv_name":"Uncletopia | S√£o Paulo | 2 | All Maps | STV","players":[{"user_id":35,"name":"talpaciz","steam_id":76561198205401553,"connected_time":477000000000,"state":"active","ping":40},{"user_id":36,"name":"jr_","steam_id":76561198313937899,"connected_time":433000000000,"state":"active","ping":48},{"user_id":37,"name":"Fatass engie","steam_id":76561199233572024,"connected_time":95000000000,"state":"active","ping":186},{"user_id":20,"name":"starm0nster","steam_id":76561199016975635,"connected_time":2793000000000,"state":"active","ping":39},{"user_id":21,"name":"xd","steam_id":76561198317090330,"connected_time":2752000000000,"state":"active","ping":60},{"user_id":29,"name":"Goose Pyro","steam_id":76561198994984332,"connected_time":1946000000000,"state":"active","ping":76},{"user_id":18,"name":"guarda-chuva","steam_id":76561198078694330,"connected_time":2946000000000,"state":"active","ping":57},{"user_id":38,"name":"Wife","steam_id":76561199015982068,"connected_time":89000000000,"state":"active","ping":93},{"user_id":39,"name":"Zaparol","steam_id":76561198971733797,"connected_time":50000000000,"state":"active","ping":57}]},{"server_id":7,"name":"Uncletopia | Seattle | 1 | All Maps","name_short":"sea-1","host":"sea-1.us.uncletopia.com","port":27015,"enabled":true,"region":"us-west","cc":"us","latitude":47.608013,"longitude":-122.33517,"reserved":0,"last_update":"0001-01-01T00:00:00Z","name_a2s":"Uncletopia | Seattle | 1 | All Maps","protocol":17,"map":"cp_powerhouse","folder":"tf","game":"Team Fortress","app_id":440,"player_count":24,"max_players":24,"Bots":0,"server_type":"Dedicated","server_os":"Linux","password":true,"vac":true,"version":"7932396","steam_id":85568392924469997,"keywords":["cp","nocrits","nodmgspread","uncletopia"],"game_id":440,"stv_port":27016,"stv_name":"Uncletopia | Seattle | 1 | All Maps | STV","players":[{"user_id":141,"name":"Dr4con1um","steam_id":76561199068503729,"connected_time":1907000000000,"state":"active","ping":60},{"user_id":150,"name":"‚ô°ComiCherro‚ô°","steam_id":76561199097342864,"connected_time":1496000000000,"state":"active","ping":42},{"user_id":148,"name":"BurdBrain","steam_id":76561197962097737,"connected_time":1574000000000,"state":"active","ping":83},{"user_id":146,"name":"XngelproFMJ","steam_id":76561199002273585,"connected_time":1710000000000,"state":"active","ping":86},{"user_id":7,"name":"forest (italian)","steam_id":76561198157960257,"connected_time":9960000000000,"state":"active","ping":41},{"user_id":151,"name":"Byte The Protogen","steam_id":76561199229871383,"connected_time":1452000000000,"state":"active","ping":87},{"user_id":155,"name":"colespudzo","steam_id":76561198051127147,"connected_time":1121000000000,"state":"active","ping":45},{"user_id":156,"name":"SCUD missile up your ass","steam_id":76561198066452726,"connected_time":1087000000000,"state":"active","ping":74},{"user_id":161,"name":"BolognaWithOlives","steam_id":76561198101262668,"connected_time":709000000000,"state":"active","ping":89},{"user_id":73,"name":"dust | she/it","steam_id":76561198045218909,"connected_time":7097000000000,"state":"active","ping":38},{"user_id":164,"name":"shiadyne","steam_id":76561198271939793,"connected_time":168000000000,"state":"active","ping":45},{"user_id":68,"name":"jacix3 [gay wolfgirl]{she/it}","steam_id":76561198205004165,"connected_time":7831000000000,"state":"active","ping":67},{"user_id":113,"name":"Quarter Cheese","steam_id":76561198115814588,"connected_time":5212000000000,"state":"active","ping":44},{"user_id":139,"name":"evilOlive","steam_id":76561198106222025,"connected_time":1931000000000,"state":"active","ping":77},{"user_id":124,"name":"Hindmost","steam_id":76561199081837220,"connected_time":4119000000000,"state":"active","ping":109},{"user_id":103,"name":"Bishuhp","steam_id":76561198015062850,"connected_time":5604000000000,"state":"active","ping":55},{"user_id":129,"name":"Peppy","steam_id":76561198866629645,"connected_time":3269000000000,"state":"active","ping":59},{"user_id":140,"name":"lili","steam_id":76561199391478575,"connected_time":1918000000000,"state":"active","ping":64},{"user_id":137,"name":"TwelvePackofSaltyBones","steam_id":76561198224764664,"connected_time":2477000000000,"state":"active","ping":102},{"user_id":158,"name":"jayeskae","steam_id":76561198144220801,"connected_time":900000000000,"state":"active","ping":48},{"user_id":157,"name":"The Super Mario Bros. Movie","steam_id":76561198871692156,"connected_time":1058000000000,"state":"active","ping":46},{"user_id":160,"name":"Meso","steam_id":76561199088153190,"connected_time":718000000000,"state":"active","ping":56},{"user_id":110,"name":"BlancaLamb","steam_id":76561198025646073,"connected_time":5376000000000,"state":"active","ping":90},{"user_id":83,"name":"SibilantSerpent","steam_id":76561198154488754,"connected_time":7043000000000,"state":"active","ping":58}]},{"server_id":119,"name":"Uncletopia | Seattle | 2 | All Maps","name_short":"sea-2","host":"sea-1.us.uncletopia.com","port":27025,"enabled":true,"region":"us-west","cc":"us","latitude":47.608013,"longitude":-122.33517,"reserved":0,"last_update":"0001-01-01T00:00:00Z","name_a2s":"Uncletopia | Seattle | 2 | All Maps","protocol":17,"map":"cp_altitude","folder":"tf","game":"Team Fortress","app_id":440,"player_count":24,"max_players":24,"Bots":0,"server_type":"Dedicated","server_os":"Linux","password":true,"vac":true,"version":"7932396","steam_id":85568392924469998,"keywords":["cp","nocrits","nodmgspread","uncletopia"],"game_id":440,"stv_port":27026,"stv_name":"Uncletopia | Seattle | 2 | All Maps | STV","players":[{"user_id":127,"name":"Miro","steam_id":76561198936412406,"connected_time":1847000000000,"state":"active","ping":136},{"user_id":137,"name":"MyHeadHz","steam_id":76561198090654531,"connected_time":1105000000000,"state":"active","ping":61},{"user_id":115,"name":"River Rat","steam_id":76561198116383976,"connected_time":2776000000000,"state":"active","ping":71},{"user_id":138,"name":"Screamin' Eagle","steam_id":76561198090475891,"connected_time":1092000000000,"state":"active","ping":60},{"user_id":120,"name":"Mengle","steam_id":76561198001953684,"connected_time":2650000000000,"state":"active","ping":119},{"user_id":130,"name":"Banzai","steam_id":76561198196503877,"connected_time":1510000000000,"state":"active","ping":47},{"user_id":139,"name":"Kzjytsugn","steam_id":76561198130241974,"connected_time":1050000000000,"state":"active","ping":39},{"user_id":140,"name":"Jerry Bondle","steam_id":76561198337512213,"connected_time":991000000000,"state":"active","ping":124},{"user_id":103,"name":"JoJoJo","steam_id":76561198067153390,"connected_time":4250000000000,"state":"active","ping":95},{"user_id":129,"name":"seats","steam_id":76561197998756039,"connected_time":1631000000000,"state":"active","ping":71},{"user_id":146,"name":"lil boogie","steam_id":76561198064059721,"connected_time":371000000000,"state":"active","ping":45},{"user_id":128,"name":"K2f","steam_id":76561198049600563,"connected_time":1666000000000,"state":"active","ping":81},{"user_id":126,"name":"Bagoool","steam_id":76561198065368286,"connected_time":2093000000000,"state":"active","ping":77},{"user_id":84,"name":"-=Bits=-Dinkleberg","steam_id":76561198080367616,"connected_time":5338000000000,"state":"active","ping":98},{"user_id":141,"name":"Uncle Hemsworth","steam_id":76561199019387240,"connected_time":948000000000,"state":"active","ping":110},{"user_id":26,"name":"kbsfnk","steam_id":76561198036884600,"connected_time":9252000000000,"state":"active","ping":125},{"user_id":145,"name":"MCman","steam_id":76561198412110305,"connected_time":798000000000,"state":"active","ping":77},{"user_id":135,"name":"TGD","steam_id":76561198197582594,"connected_time":1304000000000,"state":"active","ping":85},{"user_id":143,"name":"jeff_fan","steam_id":76561198086420687,"connected_time":892000000000,"state":"active","ping":98},{"user_id":144,"name":"HomerSims","steam_id":76561198329238301,"connected_time":871000000000,"state":"active","ping":129},{"user_id":134,"name":"Diplodocus","steam_id":76561198023323121,"connected_time":1385000000000,"state":"active","ping":133},{"user_id":148,"name":"souuuljah","steam_id":76561198427653112,"connected_time":137000000000,"state":"active","ping":85},{"user_id":124,"name":"Green_GarBear","steam_id":76561199468912415,"connected_time":2556000000000,"state":"active","ping":77},{"user_id":131,"name":"Alan","steam_id":76561198977083959,"connected_time":1498000000000,"state":"active","ping":65}]},{"server_id":406,"name":"Uncletopia | Seattle | 3 | Stopwatch Beta","name_short":"sea-3","host":"sea-1.us.uncletopia.com","port":27035,"enabled":true,"region":"us-west","cc":"us","latitude":47.608013,"longitude":-122.33517,"reserved":0,"last_update":"0001-01-01T00:00:00Z","name_a2s":"Uncletopia | Seattle | 3 | Stopwatch Beta","protocol":17,"map":"pl_frontier_final","folder":"tf","game":"Team Fortress","app_id":440,"player_count":0,"max_players":24,"Bots":0,"server_type":"Dedicated","server_os":"Linux","password":true,"vac":true,"version":"7932396","steam_id":85568392924515217,"keywords":["nocrits","nodmgspread","payload","uncletopia"],"game_id":440,"stv_port":27036,"stv_name":"Uncletopia | Seattle | 3 | Stopwatch Beta | STV","players":null},{"server_id":17,"name":"Uncletopia | San Francisco | 1 | All Maps","name_short":"sfo-1","host":"sfo-1.us.uncletopia.com","port":27015,"enabled":true,"region":"us-west","cc":"us","latitude":37.77397,"longitude":-122.4313,"reserved":0,"last_update":"0001-01-01T00:00:00Z","name_a2s":"Uncletopia | San Francisco | 1 | All Maps","protocol":17,"map":"pl_pier","folder":"tf","game":"Team Fortress","app_id":440,"player_count":0,"max_players":24,"Bots":0,"server_type":"Dedicated","server_os":"Linux","password":true,"vac":true,"version":"7882260","steam_id":85568392924469999,"keywords":["nocrits","nodmgspread","payload","uncletopia"],"game_id":440,"stv_port":27016,"stv_name":"Uncletopia | San Francisco | 1 | All Maps | STV","players":null},{"server_id":18,"name":"Uncletopia | San Francisco | 2 | All Maps","name_short":"sfo-2","host":"sfo-1.us.uncletopia.com","port":27025,"enabled":true,"region":"us-west","cc":"us","latitude":37.77397,"longitude":-122.4313,"reserved":0,"last_update":"0001-01-01T00:00:00Z","name_a2s":"Uncletopia | San Francisco | 2 | All Maps","protocol":17,"map":"pl_frontier_final","folder":"tf","game":"Team Fortress","app_id":440,"player_count":0,"max_players":24,"Bots":0,"server_type":"Dedicated","server_os":"Linux","password":true,"vac":true,"version":"7882260","steam_id":85568392924470000,"keywords":["nocrits","nodmgspread","payload","uncletopia"],"game_id":440,"stv_port":27026,"stv_name":"Uncletopia | San Francisco | 2 | All Maps | STV","players":null},{"server_id":19,"name":"Uncletopia | San Francisco | 3 | Stopwatch Beta","name_short":"sfo-3","host":"sfo-1.us.uncletopia.com","port":27035,"enabled":true,"region":"us-west","cc":"us","latitude":37.77397,"longitude":-122.4313,"reserved":0,"last_update":"0001-01-01T00:00:00Z","name_a2s":"Uncletopia | San Francisco | 3 | Stopwatch Beta","protocol":17,"map":"pl_snowycoast","folder":"tf","game":"Team Fortress","app_id":440,"player_count":0,"max_players":24,"Bots":0,"server_type":"Dedicated","server_os":"Linux","password":true,"vac":true,"version":"7882260","steam_id":85568392924742824,"keywords":["nocrits","nodmgspread","payload","uncletopia"],"game_id":440,"stv_port":27036,"stv_name":"Uncletopia | San Francisco | 3 | Stopwatch Beta | STV","players":null},{"server_id":20,"name":"Uncletopia | San Francisco | 4 | Community","name_short":"sfo-4","host":"sfo-1.us.uncletopia.com","port":27045,"enabled":true,"region":"us-west","cc":"us","latitude":37.77397,"longitude":-122.4313,"reserved":0,"last_update":"0001-01-01T00:00:00Z","name_a2s":"Uncletopia | San Francisco | 4 | Community","protocol":17,"map":"pl_swiftwater_final1","folder":"tf","game":"Team Fortress","app_id":440,"player_count":0,"max_players":24,"Bots":0,"server_type":"Dedicated","server_os":"Linux","password":true,"vac":true,"version":"7882260","steam_id":85568392924742826,"keywords":["nocrits","nodmgspread","payload","uncletopia"],"game_id":440,"stv_port":27046,"stv_name":"Uncletopia | San Francisco | 4 | Community | STV","players":null},{"server_id":141,"name":"Uncletopia | Sydney | 1 | All Maps","name_short":"syd-1","host":"syd-1.au.uncletopia.com","port":27015,"enabled":true,"region":"au","cc":"au","latitude":-33.865143,"longitude":151.2099,"reserved":0,"last_update":"0001-01-01T00:00:00Z","name_a2s":"Uncletopia | Sydney | 1 | All Maps","protocol":17,"map":"pl_frontier_final","folder":"tf","game":"Team Fortress","app_id":440,"player_count":0,"max_players":24,"Bots":0,"server_type":"Dedicated","server_os":"Linux","password":true,"vac":true,"version":"7932396","steam_id":85568392924470001,"keywords":["nocrits","nodmgspread","payload","uncletopia"],"game_id":440,"stv_port":27016,"stv_name":"Uncletopia | Sydney | 1 | All Maps | STV","players":null},{"server_id":123,"name":"Uncletopia | Sydney | 2 | All Maps","name_short":"syd-2","host":"syd-1.au.uncletopia.com","port":27025,"enabled":true,"region":"au","cc":"au","latitude":-33.865143,"longitude":151.2099,"reserved":0,"last_update":"0001-01-01T00:00:00Z","name_a2s":"Uncletopia | Sydney | 2 | All Maps","protocol":17,"map":"pl_borneo","folder":"tf","game":"Team Fortress","app_id":440,"player_count":0,"max_players":24,"Bots":0,"server_type":"Dedicated","server_os":"Linux","password":true,"vac":true,"version":"7932396","steam_id":85568392924470002,"keywords":["nocrits","nodmgspread","payload","uncletopia"],"game_id":440,"stv_port":27026,"stv_name":"Uncletopia | Sydney | 2 | All Maps | STV","players":null},{"server_id":395,"name":"Uncletopia | Sydney | 3 | All Maps","name_short":"syd-3","host":"syd-1.au.uncletopia.com","port":27035,"enabled":true,"region":"au","cc":"au","latitude":-33.865143,"longitude":151.2099,"reserved":0,"last_update":"0001-01-01T00:00:00Z","name_a2s":"Uncletopia | Sydney | 3 | All Maps","protocol":17,"map":"pl_frontier_final","folder":"tf","game":"Team Fortress","app_id":440,"player_count":0,"max_players":24,"Bots":0,"server_type":"Dedicated","server_os":"Linux","password":true,"vac":true,"version":"7932396","steam_id":85568392925194467,"keywords":["nocrits","nodmgspread","payload","uncletopia"],"game_id":440,"stv_port":27036,"stv_name":"Uncletopia | Sydney | 3 | All Maps | STV","players":null},{"server_id":396,"name":"Uncletopia | Sydney | 4 | All Maps","name_short":"syd-4","host":"syd-1.au.uncletopia.com","port":27045,"enabled":true,"region":"au","cc":"au","latitude":-33.865143,"longitude":151.2099,"reserved":0,"last_update":"0001-01-01T00:00:00Z","name_a2s":"Uncletopia | Sydney | 4 | All Maps","protocol":17,"map":"pl_badwater","folder":"tf","game":"Team Fortress","app_id":440,"player_count":0,"max_players":24,"Bots":0,"server_type":"Dedicated","server_os":"Linux","password":true,"vac":true,"version":"7932396","steam_id":85568392925397958,"keywords":["nocrits","nodmgspread","payload","uncletopia"],"game_id":440,"stv_port":27046,"stv_name":"Uncletopia | Sydney | 4 | All Maps | STV","players":null},{"server_id":58,"name":"Uncletopia | Sydney | 5 | Stopwatch Beta","name_short":"syd-5","host":"syd-1.au.uncletopia.com","port":27055,"enabled":true,"region":"au","cc":"au","latitude":-33.865143,"longitude":151.2099,"reserved":0,"last_update":"0001-01-01T00:00:00Z","name_a2s":"Uncletopia | Sydney | 5 | Stopwatch Beta","protocol":17,"map":"pl_pier","folder":"tf","game":"Team Fortress","app_id":440,"player_count":0,"max_players":24,"Bots":0,"server_type":"Dedicated","server_os":"Linux","password":true,"vac":true,"version":"7932396","steam_id":85568392925397959,"keywords":["nocrits","nodmgspread","payload","uncletopia"],"game_id":440,"stv_port":27056,"stv_name":"Uncletopia | Sydney | 5 | Stopwatch Beta | STV","players":null},{"server_id":59,"name":"Uncletopia | Sydney | 6 | Community","name_short":"syd-6","host":"syd-1.au.uncletopia.com","port":27065,"enabled":true,"region":"au","cc":"au","latitude":-33.865143,"longitude":151.2099,"reserved":0,"last_update":"0001-01-01T00:00:00Z","name_a2s":"Uncletopia | Sydney | 6 | Community","protocol":17,"map":"pl_frontier_final","folder":"tf","game":"Team Fortress","app_id":440,"player_count":0,"max_players":24,"Bots":0,"server_type":"Dedicated","server_os":"Linux","password":true,"vac":true,"version":"7932396","steam_id":85568392925397960,"keywords":["nocrits","nodmgspread","payload","uncletopia"],"game_id":440,"stv_port":27066,"stv_name":"Uncletopia | Sydney | 6 | Community | STV","players":null},{"server_id":49,"name":"Uncletopia | Warsaw | 1 | All Maps","name_short":"waw-1","host":"waw-1.pl.uncletopia.com","port":27015,"enabled":true,"region":"eu","cc":"pl","latitude":52.2297,"longitude":21.017532,"reserved":0,"last_update":"0001-01-01T00:00:00Z","name_a2s":"","protocol":0,"map":"","folder":"","game":"","app_id":0,"player_count":0,"max_players":0,"Bots":0,"server_type":"","server_os":"","password":false,"vac":false,"version":"","steam_id":0,"keywords":null,"game_id":0,"stv_port":0,"stv_name":"","players":null},{"server_id":50,"name":"Uncletopia | Warsaw | 2 | All Maps","name_short":"waw-2","host":"waw-1.pl.uncletopia.com","port":27025,"enabled":true,"region":"eu","cc":"pl","latitude":52.2297,"longitude":21.017532,"reserved":0,"last_update":"0001-01-01T00:00:00Z","name_a2s":"Uncletopia | Warsaw | 2 | All Maps","protocol":17,"map":"koth_highpass","folder":"tf","game":"Team Fortress","app_id":440,"player_count":0,"max_players":24,"Bots":0,"server_type":"Dedicated","server_os":"Linux","password":true,"vac":true,"version":"7932396","steam_id":85568392925397851,"keywords":["cp","nocrits","nodmgspread","uncletopia"],"game_id":440,"stv_port":27026,"stv_name":"Uncletopia | Warsaw | 2 | All Maps | STV","players":null},{"server_id":51,"name":"Uncletopia | Warsaw | 3 | All Maps","name_short":"waw-3","host":"waw-1.pl.uncletopia.com","port":27035,"enabled":true,"region":"eu","cc":"pl","latitude":52.2297,"longitude":21.017532,"reserved":0,"last_update":"0001-01-01T00:00:00Z","name_a2s":"Uncletopia | Warsaw | 3 | All Maps","protocol":17,"map":"pl_badwater","folder":"tf","game":"Team Fortress","app_id":440,"player_count":0,"max_players":24,"Bots":0,"server_type":"Dedicated","server_os":"Linux","password":true,"vac":true,"version":"7932396","steam_id":85568392925397852,"keywords":["nocrits","nodmgspread","payload","uncletopia"],"game_id":440,"stv_port":27036,"stv_name":"Uncletopia | Warsaw | 3 | All Maps | STV","players":null},{"server_id":52,"name":"Uncletopia | Warsaw | 4 | All Maps","name_short":"waw-4","host":"waw-1.pl.uncletopia.com","port":27045,"enabled":true,"region":"eu","cc":"pl","latitude":52.2297,"longitude":21.017532,"reserved":0,"last_update":"0001-01-01T00:00:00Z","name_a2s":"Uncletopia | Warsaw | 4 | All Maps","protocol":17,"map":"cp_mountainlab","folder":"tf","game":"Team Fortress","app_id":440,"player_count":0,"max_players":24,"Bots":0,"server_type":"Dedicated","server_os":"Linux","password":true,"vac":true,"version":"7932396","steam_id":85568392925397853,"keywords":["cp","nocrits","nodmgspread","uncletopia"],"game_id":440,"stv_port":27046,"stv_name":"Uncletopia | Warsaw | 4 | All Maps | STV","players":null},{"server_id":53,"name":"Uncletopia | Warsaw | 5 | Stopwatch Beta","name_short":"waw-5","host":"waw-1.pl.uncletopia.com","port":27055,"enabled":true,"region":"eu","cc":"pl","latitude":52.2297,"longitude":21.017532,"reserved":0,"last_update":"0001-01-01T00:00:00Z","name_a2s":"Uncletopia | Warsaw | 5 | Stopwatch Beta","protocol":17,"map":"cp_process_final","folder":"tf","game":"Team Fortress","app_id":440,"player_count":0,"max_players":24,"Bots":0,"server_type":"Dedicated","server_os":"Linux","password":true,"vac":true,"version":"7932396","steam_id":85568392925397854,"keywords":["cp","nocrits","nodmgspread","uncletopia"],"game_id":440,"stv_port":27056,"stv_name":"Uncletopia | Warsaw | 5 | Stopwatch Beta | STV","players":null},{"server_id":54,"name":"Uncletopia | Warsaw | 6 | Community","name_short":"waw-6","host":"waw-1.pl.uncletopia.com","port":27065,"enabled":true,"region":"eu","cc":"pl","latitude":52.2297,"longitude":21.017532,"reserved":0,"last_update":"0001-01-01T00:00:00Z","name_a2s":"Uncletopia | Warsaw | 6 | Community","protocol":17,"map":"pl_upward","folder":"tf","game":"Team Fortress","app_id":440,"player_count":0,"max_players":24,"Bots":0,"server_type":"Dedicated","server_os":"Linux","password":true,"vac":true,"version":"7932396","steam_id":85568392925397856,"keywords":["nocrits","nodmgspread","payload","uncletopia"],"game_id":440,"stv_port":27066,"stv_name":"Uncletopia | Warsaw | 6 | Community | STV","players":null}]}