{"status":true,"message":"","result":[{"server_id":9,"name":"Uncletopia | Atlanta | 1 | All Maps","name_short":"atl-1","host":"atl-1.us.uncletopia.com","port":27015,"enabled":true,"region":"us-east","cc":"us","latitude":33.753746,"longitude":-84.38633,"reserved":0,"last_update":"0001-01-01T00:00:00Z","name_a2s":"Uncletopia | Atlanta | 1 | All Maps","protocol":17,"map":"pl_snowycoast","folder":"tf","game":"Team Fortress","app_id":440,"player_count":24,"max_players":24,"Bots":0,"server_type":"Dedicated","server_os":"Linux","password":true,"vac":true,"version":"7757534","steam_id":85568392924469982,"keywords":["nocrits","nodmgspread","payload","uncletopia"],"game_id":440,"stv_port":27016,"stv_name":"Uncletopia | Atlanta | 1 | All Maps | STV","players":[{"user_id":454,"name":"melancholy","steam_id":76561198024301465,"connected_time":19260000000000,"state":"active","ping":44},{"user_id":640,"name":"✿","steam_id":76561198138444785,"connected_time":476000000000,"state":"active","ping":69},{"user_id":606,"name":"Monster","steam_id":76561198189429665,"connected_time":4474000000000,"state":"active","ping":58},{"user_id":625,"name":"ATL1 | on my hunting trip","steam_id":76561198315341646,"connected_time":2226000000000,"state":"active","ping":73},{"user_id":615,"name":"moe5x","steam_id":76561198316877833,"connected_time":3768000000000,"state":"active","ping":117},{"user_id":634,"name":"mrcatman","steam_id":76561198358434883,"connected_time":981000000000,"state":"active","ping":139},{"user_id":636,"name":"Quiver Cakes ._.","steam_id":76561198243155576,"connected_time":806000000000,"state":"active","ping":74},{"user_id":613,"name":"Lazulf","steam_id":76561198041410859,"connected_time":3963000000000,"state":"active","ping":94},{"user_id":629,"name":"Gary","steam_id":76561198133309753,"connected_time":2002000000000,"state":"active","ping":63},{"user_id":631,"name":"Broken Cereal√","steam_id":76561198087489795,"connected_time":1407000000000,"state":"active","ping":65},{"user_id":610,"name":"lil hog","steam_id":76561199230929836,"connected_time":4075000000000,"state":"active","ping":77},{"user_id":641,"name":"celery","steam_id":76561199004451589,"connected_time":470000000000,"state":"active","ping":71},{"user_id":627,"name":"cheeks","steam_id":76561197993371179,"connected_time":2211000000000,"state":"active","ping":46},{"user_id":642,"name":"jmp","steam_id":76561198168283286,"connected_time":420000000000,"state":"active","ping":166},{"user_id":585,"name":"Lost (15)","steam_id":76561198093713427,"connected_time":7069000000000,"state":"active","ping":75},{"user_id":644,"name":"Potassium!","steam_id":76561199082921723,"connected_time":263000000000,"state":"active","ping":115},{"user_id":618,"name":"TheTruthOfTheCessationOfDukkha","steam_id":76561198214370515,"connected_time":3751000000000,"state":"active","ping":74},{"user_id":623,"name":"xZackAttack27x","steam_id":76561198035446639,"connected_time":2324000000000,"state":"active","ping":60},{"user_id":637,"name":"ChocoCrispChunks","steam_id":76561198881926539,"connected_time":799000000000,"state":"active","ping":118},{"user_id":645,"name":"\u003e:3","steam_id":76561198126358045,"connected_time":258000000000,"state":"active","ping":68},{"user_id":638,"name":"Ceol","steam_id":76561198003955789,"connected_time":735000000000,"state":"active","ping":87},{"user_id":608,"name":"SMHTMFTTF","steam_id":76561199079614516,"connected_time":4269000000000,"state":"active","ping":90},{"user_id":626,"name":"Tay1Qr","steam_id":76561198082809935,"connected_time":2222000000000,"state":"active","ping":65},{"user_id":646,"name":"alan","steam_id":76561198281442409,"connected_time":256000000000,"state":"active","ping":70}]},{"server_id":400,"name":"Uncletopia | Atlanta | 3 | Community","name_short":"atl-3","host":"atl-1.us.uncletopia.com","port":27035,"enabled":true,"region":"us-east","cc":"us","latitude":33.753746,"longitude":-84.38633,"reserved":0,"last_update":"0001-01-01T00:00:00Z","name_a2s":"Uncletopia | Atlanta | 3 | Community","protocol":17,"map":"workshop/koth_ashville_final.ugc2130459942","folder":"tf","game":"Team Fortress","app_id":440,"player_count":0,"max_players":24,"Bots":0,"server_type":"Dedicated","server_os":"Linux","password":true,"vac":true,"version":"7757534","steam_id":85568392924515187,"keywords":["cp","nocrits","nodmgspread","uncletopia"],"game_id":440,"stv_port":27036,"stv_name":"Uncletopia | Atlanta | 3 | Community | STV","players":null},{"server_id":401,"name":"Uncletopia | Atlanta | 4 | No Payload","name_short":"atl-4","host":"atl-1.us.uncletopia.com","port":27045,"enabled":true,"region":"us-east","cc":"us","latitude":33.753746,"longitude":-84.38633,"reserved":0,"last_update":"0001-01-01T00:00:00Z","name_a2s":"","protocol":0,"map":"","folder":"","game":"","app_id":0,"player_count":0,"max_players":0,"Bots":0,"server_type":"","server_os":"","password":false,"vac":false,"version":"","steam_id":0,"keywords":null,"game_id":0,"stv_port":0,"stv_name":"","players":null},{"server_id":2,"name":"Uncletopia | Chicago | 1 | All Maps","name_short":"chi-1","host":"chi-1.us.uncletopia.com","port":27015,"enabled":true,"region":"us-central","cc":"us","latitude":41.881832,"longitude":-87.62318,"reserved":0,"last_update":"0001-01-01T00:00:00Z","name_a2s":"Uncletopia | Chicago | 1 | All Maps","protocol":17,"map":"pl_frontier_final","folder":"tf","game":"Team Fortress","app_id":440,"player_count":24,"max_players":24,"Bots":0,"server_type":"Dedicated","server_os":"Linux","password":true,"vac":true,"version":"7757534","steam_id":85568392924469984,"keywords":["nocrits","nodmgspread","payload","uncletopia"],"game_id":440,"stv_port":27016,"stv_name":"Uncletopia | Chicago | 1 | All Maps | STV","players":[{"user_id":888,"name":"Old St. Scat","steam_id":76561198322096569,"connected_time":1078000000000,"state":"active","ping":116},{"user_id":681,"name":"Ademar","steam_id":76561199391802581,"connected_time":17561000000000,"state":"active","ping":48},{"user_id":857,"name":"AnonymousCritter","steam_id":76561198864475187,"connected_time":3046000000000,"state":"active","ping":50},{"user_id":887,"name":"Stapler","steam_id":76561198099295077,"connected_time":1100000000000,"state":"active","ping":90},{"user_id":842,"name":"God's Cutest Twink","steam_id":76561198053164901,"connected_time":4756000000000,"state":"active","ping":58},{"user_id":883,"name":"p i n e ↟ ↟","steam_id":76561198058199952,"connected_time":2020000000000,"state":"active","ping":84},{"user_id":816,"name":"ShitsandGiggles™","steam_id":76561198058708019,"connected_time":6299000000000,"state":"active","ping":55},{"user_id":876,"name":"Nolan","steam_id":76561198169648081,"connected_time":2188000000000,"state":"active","ping":84},{"user_id":865,"name":"Lore","steam_id":76561198098407538,"connected_time":2899000000000,"state":"active","ping":54},{"user_id":855,"name":"bee","steam_id":76561198025553902,"connected_time":3562000000000,"state":"active","ping":45},{"user_id":867,"name":"Notation","steam_id":76561198119509319,"connected_time":2737000000000,"state":"active","ping":60},{"user_id":861,"name":"rE_d0","steam_id":76561198975450630,"connected_time":2967000000000,"state":"active","ping":91},{"user_id":862,"name":"hermit wizard","steam_id":76561198015156743,"connected_time":2966000000000,"state":"active","ping":82},{"user_id":864,"name":"Punished Shitster","steam_id":76561198150452857,"connected_time":2907000000000,"state":"active","ping":73},{"user_id":890,"name":"Quietsharp","steam_id":76561198277968438,"connected_time":966000000000,"state":"active","ping":105},{"user_id":878,"name":"Thot Police","steam_id":76561198084299100,"connected_time":2163000000000,"state":"active","ping":59},{"user_id":881,"name":"Walter White","steam_id":76561198875469297,"connected_time":2078000000000,"state":"active","ping":68},{"user_id":872,"name":"EliminateSingleFamilyZoning","steam_id":76561198276653985,"connected_time":2249000000000,"state":"active","ping":60},{"user_id":873,"name":"thanks pfizer","steam_id":76561198881665250,"connected_time":2215000000000,"state":"active","ping":99},{"user_id":877,"name":"TheSnipersHat","steam_id":76561198057684066,"connected_time":2185000000000,"state":"active","ping":57},{"user_id":891,"name":"dudeyougotadell24","steam_id":76561198881039861,"connected_time":793000000000,"state":"active","ping":48},{"user_id":852,"name":"resplendent miniscule","steam_id":76561198091862137,"connected_time":3983000000000,"state":"active","ping":63},{"user_id":875,"name":"The Drunk Clown","steam_id":76561197986850426,"connected_time":2202000000000,"state":"active","ping":76},{"user_id":886,"name":"1 Bladee Fan","steam_id":76561199135213338,"connected_time":1637000000000,"state":"active","ping":104}]},{"server_id":106,"name":"Uncletopia | Chicago | 2 | All Maps","name_short":"chi-2","host":"chi-1.us.uncletopia.com","port":27025,"enabled":true,"region":"us-central","cc":"us","latitude":41.881832,"longitude":-87.62318,"reserved":0,"last_update":"0001-01-01T00:00:00Z","name_a2s":"Uncletopia | Chicago | 2 | All Maps","protocol":17,"map":"cp_snakewater_final1","folder":"tf","game":"Team Fortress","app_id":440,"player_count":23,"max_players":24,"Bots":0,"server_type":"Dedicated","server_os":"Linux","password":true,"vac":true,"version":"7757534","steam_id":85568392924469985,"keywords":["cp","nocrits","nodmgspread","uncletopia"],"game_id":440,"stv_port":27026,"stv_name":"Uncletopia | Chicago | 2 | All Maps | STV","players":[{"user_id":951,"name":"Yuhh","steam_id":76561199112894955,"connected_time":618000000000,"state":"active","ping":72},{"user_id":952,"name":"Willie FisterBottom","steam_id":76561197979239042,"connected_time":464000000000,"state":"active","ping":73},{"user_id":921,"name":"Woozy","steam_id":76561198008220735,"connected_time":1481000000000,"state":"active","ping":75},{"user_id":933,"name":"Stargriefer190","steam_id":76561198996425356,"connected_time":1198000000000,"state":"active","ping":87},{"user_id":902,"name":"MatchMatch","steam_id":76561198048925904,"connected_time":2369000000000,"state":"active","ping":109},{"user_id":918,"name":"Satori Komeiji","steam_id":76561198158211423,"connected_time":1534000000000,"state":"active","ping":100},{"user_id":948,"name":"i see you","steam_id":76561199024880478,"connected_time":832000000000,"state":"active","ping":44},{"user_id":924,"name":"weedbaby4D","steam_id":76561199080209996,"connected_time":1398000000000,"state":"active","ping":73},{"user_id":872,"name":"Harrison","steam_id":76561198931423191,"connected_time":3661000000000,"state":"active","ping":69},{"user_id":953,"name":"https://en.wikipedia.org/","steam_id":76561198261326806,"connected_time":444000000000,"state":"active","ping":94},{"user_id":817,"name":"John Highlander","steam_id":76561198277163301,"connected_time":6498000000000,"state":"active","ping":65},{"user_id":940,"name":"joe","steam_id":76561198332876604,"connected_time":957000000000,"state":"active","ping":65},{"user_id":941,"name":"quacked!","steam_id":76561198970819395,"connected_time":935000000000,"state":"active","ping":81},{"user_id":930,"name":"Outlander","steam_id":76561197998995746,"connected_time":1231000000000,"state":"active","ping":118},{"user_id":935,"name":"funnyduck1","steam_id":76561198072146886,"connected_time":1140000000000,"state":"active","ping":70},{"user_id":954,"name":"Sir Just a Sandwich","steam_id":76561198091105717,"connected_time":327000000000,"state":"active","ping":51},{"user_id":955,"name":"im so fucking cool","steam_id":76561198130478487,"connected_time":311000000000,"state":"active","ping":85},{"user_id":937,"name":"StatesideSnake","steam_id":76561198272957048,"connected_time":1129000000000,"state":"active","ping":90},{"user_id":938,"name":"chrischrischris3018@yahoo.com","steam_id":76561198137316053,"connected_time":1106000000000,"state":"active","ping":62},{"user_id":939,"name":"honked off the bobo","steam_id":76561198123287268,"connected_time":1015000000000,"state":"active","ping":45},{"user_id":947,"name":"kurai","steam_id":76561198077902438,"connected_time":870000000000,"state":"active","ping":74},{"user_id":956,"name":"The Janitor","steam_id":76561198370152780,"connected_time":307000000000,"state":"active","ping":68},{"user_id":957,"name":"The Walnut","steam_id":76561198080583044,"connected_time":24000000000,"state":"spawning","ping":86}]},{"server_id":402,"name":"Uncletopia | Chicago | 3 | All Maps","name_short":"chi-3","host":"chi-1.us.uncletopia.com","port":27035,"enabled":true,"region":"us-central","cc":"us","latitude":41.881832,"longitude":-87.62318,"reserved":0,"last_update":"0001-01-01T00:00:00Z","name_a2s":"Uncletopia | Chicago | 3 | All Maps","protocol":17,"map":"pl_barnblitz","folder":"tf","game":"Team Fortress","app_id":440,"player_count":23,"max_players":24,"Bots":0,"server_type":"Dedicated","server_os":"Linux","password":true,"vac":true,"version":"7757534","steam_id":85568392924515191,"keywords":["nocrits","nodmgspread","payload","uncletopia"],"game_id":440,"stv_port":27036,"stv_name":"Uncletopia | Chicago | 3 | All Maps | STV","players":[{"user_id":858,"name":"Fiendish Frog","steam_id":76561198029478821,"connected_time":753000000000,"state":"active","ping":65},{"user_id":807,"name":"*SHIKI 志貴","steam_id":76561198009208968,"connected_time":4085000000000,"state":"active","ping":49},{"user_id":871,"name":"BrokenDoop","steam_id":76561198072954386,"connected_time":123000000000,"state":"active","ping":81},{"user_id":792,"name":"Cheeeeeeeen","steam_id":76561198986388085,"connected_time":4480000000000,"state":"active","ping":118},{"user_id":859,"name":"3-13","steam_id":76561198063929021,"connected_time":742000000000,"state":"active","ping":75},{"user_id":860,"name":"Kohbold","steam_id":76561198996480140,"connected_time":645000000000,"state":"active","ping":77},{"user_id":848,"name":"The Great Gonz","steam_id":76561198065831257,"connected_time":2244000000000,"state":"active","ping":97},{"user_id":861,"name":"Team Fartpiss Poo","steam_id":76561199163591880,"connected_time":598000000000,"state":"active","ping":94},{"user_id":839,"name":"TheHarmacist","steam_id":76561198068249096,"connected_time":2904000000000,"state":"active","ping":96},{"user_id":851,"name":"Gopofas","steam_id":76561199227999157,"connected_time":1661000000000,"state":"active","ping":165},{"user_id":832,"name":"Father Jon","steam_id":76561198324730919,"connected_time":3432000000000,"state":"active","ping":86},{"user_id":862,"name":"the meat man","steam_id":76561198037921140,"connected_time":578000000000,"state":"active","ping":95},{"user_id":863,"name":"Ice","steam_id":76561198045076794,"connected_time":559000000000,"state":"active","ping":45},{"user_id":864,"name":"Hifumi Togo","steam_id":76561198074930636,"connected_time":509000000000,"state":"active","ping":40},{"user_id":865,"name":"jalapeno handjob","steam_id":76561198123298824,"connected_time":487000000000,"state":"active","ping":87},{"user_id":872,"name":"old slimey ichabod","steam_id":76561198043900518,"connected_time":121000000000,"state":"active","ping":51},{"user_id":874,"name":"[ 7 ]","steam_id":76561199229668733,"connected_time":64000000000,"state":"active","ping":56},{"user_id":866,"name":"Kurg","steam_id":76561198143381218,"connected_time":336000000000,"state":"active","ping":48},{"user_id":873,"name":"Bing Soy","steam_id":76561199091381775,"connected_time":101000000000,"state":"active","ping":103},{"user_id":855,"name":"FoodzAreGoodz","steam_id":76561198309262052,"connected_time":1166000000000,"state":"active","ping":109},{"user_id":867,"name":"Enderman_of_D00M","steam_id":76561198170195285,"connected_time":326000000000,"state":"active","ping":76},{"user_id":869,"name":"Panify【FIH】","steam_id":76561198952988819,"connected_time":222000000000,"state":"active","ping":91},{"user_id":870,"name":"One Shot and A Miss","steam_id":76561198124269698,"connected_time":213000000000,"state":"active","ping":67}]},{"server_id":403,"name":"Uncletopia | Chicago | 4 | All Maps","name_short":"chi-4","host":"chi-1.us.uncletopia.com","port":27045,"enabled":true,"region":"us-central","cc":"us","latitude":41.881832,"longitude":-87.62318,"reserved":0,"last_update":"0001-01-01T00:00:00Z","name_a2s":"Uncletopia | Chicago | 4 | All Maps","protocol":17,"map":"koth_lakeside_final","folder":"tf","game":"Team Fortress","app_id":440,"player_count":0,"max_players":24,"Bots":0,"server_type":"Dedicated","server_os":"Linux","password":true,"vac":true,"version":"7757534","steam_id":85568392924515193,"keywords":["cp","nocrits","nodmgspread","uncletopia"],"game_id":440,"stv_port":27046,"stv_name":"Uncletopia | Chicago | 4 | All Maps | STV","players":null},{"server_id":36,"name":"Uncletopia | Chicago | 5 | All Maps","name_short":"chi-5","host":"chi-2.us.uncletopia.com","port":27015,"enabled":true,"region":"us-central","cc":"us","latitude":41.881832,"longitude":-87.62318,"reserved":0,"last_update":"0001-01-01T00:00:00Z","name_a2s":"Uncletopia | Chicago | 5 | All Maps","protocol":17,"map":"pl_upward","folder":"tf","game":"Team Fortress","app_id":440,"player_count":0,"max_players":24,"Bots":0,"server_type":"Dedicated","server_os":"Linux","password":true,"vac":true,"version":"7757534","steam_id":85568392924866362,"keywords":["nocrits","nodmgspread","payload","uncletopia"],"game_id":440,"stv_port":27016,"stv_name":"Uncletopia | Chicago | 5 | All Maps | STV","players":null},{"server_id":37,"name":"Uncletopia | Chicago | 6 | All Maps","name_short":"chi-6","host":"chi-2.us.uncletopia.com","port":27025,"enabled":true,"region":"us-central","cc":"us","latitude":41.881832,"longitude":-87.62318,"reserved":0,"last_update":"0001-01-01T00:00:00Z","name_a2s":"Uncletopia | Chicago | 6 | All Maps","protocol":17,"map":"cp_dustbowl","folder":"tf","game":"Team Fortress","app_id":440,"player_count":24,"max_players":24,"Bots":0,"server_type":"Dedicated","server_os":"Linux","password":true,"vac":true,"version":"7757534","steam_id":85568392924866363,"keywords":["cp","nocrits","nodmgspread","uncletopia"],"game_id":440,"stv_port":27026,"stv_name":"Uncletopia | Chicago | 6 | All Maps | STV","players":[{"user_id":729,"name":"HumFreY","steam_id":76561198076639682,"connected_time":8243000000000,"state":"active","ping":67},{"user_id":855,"name":"Skrunkly","steam_id":76561198241629912,"connected_time":862000000000,"state":"active","ping":60},{"user_id":780,"name":"Vetrio","steam_id":76561198074561178,"connected_time":4937000000000,"state":"active","ping":50},{"user_id":828,"name":"Chuck Finley","steam_id":76561198027411284,"connected_time":1932000000000,"state":"active","ping":81},{"user_id":861,"name":"Madrox Who?","steam_id":76561197988859134,"connected_time":280000000000,"state":"active","ping":74},{"user_id":776,"name":"Catzs","steam_id":76561197996013572,"connected_time":5009000000000,"state":"active","ping":100},{"user_id":850,"name":"Iawen","steam_id":76561197984522405,"connected_time":1078000000000,"state":"active","ping":68},{"user_id":815,"name":"CrystalClear","steam_id":76561198344276579,"connected_time":3297000000000,"state":"active","ping":103},{"user_id":829,"name":"Dirty Kaktus Supreme w/egg","steam_id":76561198132808244,"connected_time":1928000000000,"state":"active","ping":71},{"user_id":807,"name":"Carbonated Knightquill","steam_id":76561198044362988,"connected_time":4294000000000,"state":"active","ping":60},{"user_id":846,"name":"e_the_cat","steam_id":76561198214264483,"connected_time":1521000000000,"state":"active","ping":78},{"user_id":844,"name":"rudy","steam_id":76561198088712799,"connected_time":1610000000000,"state":"active","ping":81},{"user_id":755,"name":"wiwi","steam_id":76561198046650995,"connected_time":6191000000000,"state":"active","ping":85},{"user_id":858,"name":"OpenDown","steam_id":76561198064132688,"connected_time":702000000000,"state":"active","ping":65},{"user_id":836,"name":"pathways","steam_id":76561198054832333,"connected_time":1753000000000,"state":"active","ping":57},{"user_id":862,"name":"Inkspoot","steam_id":76561199047361730,"connected_time":161000000000,"state":"active","ping":55},{"user_id":854,"name":"heimdall","steam_id":76561198069380992,"connected_time":952000000000,"state":"active","ping":92},{"user_id":838,"name":"Si1entSn1pa","steam_id":76561198170095479,"connected_time":1723000000000,"state":"active","ping":88},{"user_id":722,"name":"Cyclaw","steam_id":76561198076045689,"connected_time":8603000000000,"state":"active","ping":49},{"user_id":840,"name":"Orca?","steam_id":76561198164341099,"connected_time":1689000000000,"state":"active","ping":80},{"user_id":856,"name":"TGPupps","steam_id":76561198281201914,"connected_time":816000000000,"state":"active","ping":149},{"user_id":730,"name":"jubattz","steam_id":76561198044874072,"connected_time":8233000000000,"state":"active","ping":53},{"user_id":860,"name":"dash23™","steam_id":76561198314951185,"connected_time":661000000000,"state":"active","ping":102},{"user_id":848,"name":"Dr.KombatPhD.ttv","steam_id":76561198263847667,"connected_time":1497000000000,"state":"active","ping":58}]},{"server_id":38,"name":"Uncletopia | Chicago | 7 | Stopwatch Beta","name_short":"chi-7","host":"chi-2.us.uncletopia.com","port":27035,"enabled":true,"region":"us-central","cc":"us","latitude":41.881832,"longitude":-87.62318,"reserved":0,"last_update":"0001-01-01T00:00:00Z","name_a2s":"Uncletopia | Chicago | 7 | Stopwatch Beta","protocol":17,"map":"pl_swiftwater_final1","folder":"tf","game":"Team Fortress","app_id":440,"player_count":0,"max_players":24,"Bots":0,"server_type":"Dedicated","server_os":"Linux","password":true,"vac":true,"version":"7757534","steam_id":85568392924866364,"keywords":["nocrits","nodmgspread","payload","uncletopia"],"game_id":440,"stv_port":27036,"stv_name":"Uncletopia | Chicago | 7 | Stopwatch Beta | STV","players":null},{"server_id":39,"name":"Uncletopia | Chicago | 8 | Community","name_short":"chi-8","host":"chi-2.us.uncletopia.com","port":27045,"enabled":true,"region":"us-central","cc":"us","latitude":41.881832,"longitude":-87.62318,"reserved":0,"last_update":"0001-01-01T00:00:00Z","name_a2s":"Uncletopia | Chicago | 8 | Community","protocol":17,"map":"workshop/cp_kalinka_rc6a.ugc1272700588","folder":"tf","game":"Team Fortress","app_id":440,"player_count":0,"max_players":24,"Bots":0,"server_type":"Dedicated","server_os":"Linux","password":true,"vac":true,"version":"7757534","steam_id":85568392924866365,"keywords":["cp","nocrits","nodmgspread","uncletopia"],"game_id":440,"stv_port":27046,"stv_name":"Uncletopia | Chicago | 8 | Community | STV","players":null},{"server_id":8,"name":"Uncletopia | Dallas | 1 | All Maps","name_short":"dal-1","host":"dal-1.us.uncletopia.com","port":27015,"enabled":true,"region":"us-central","cc":"us","latitude":32.779167,"longitude":-96.80889,"reserved":0,"last_update":"0001-01-01T00:00:00Z","name_a2s":"Uncletopia | Dallas | 1 | All Maps","protocol":17,"map":"pl_pier","folder":"tf","game":"Team Fortress","app_id":440,"player_count":0,"max_players":24,"Bots":0,"server_type":"Dedicated","server_os":"Linux","password":true,"vac":true,"version":"7757534","steam_id":85568392924469986,"keywords":["nocrits","nodmgspread","payload","uncletopia"],"game_id":440,"stv_port":27016,"stv_name":"Uncletopia | Dallas | 1 | All Maps | STV","players":null},{"server_id":108,"name":"Uncletopia | Dallas | 2 | All Maps","name_short":"dal-2","host":"dal-1.us.uncletopia.com","port":27025,"enabled":true,"region":"us-central","cc":"us","latitude":32.779167,"longitude":-96.80889,"reserved":0,"last_update":"0001-01-01T00:00:00Z","name_a2s":"Uncletopia | Dallas | 2 | All Maps","protocol":17,"map":"pl_upward","folder":"tf","game":"Team Fortress","app_id":440,"player_count":0,"max_players":24,"Bots":0,"server_type":"Dedicated","server_os":"Linux","password":true,"vac":true,"version":"7757534","steam_id":85568392924469988,"keywords":["nocrits","nodmgspread","payload","uncletopia"],"game_id":440,"stv_port":27026,"stv_name":"Uncletopia | Dallas | 2 | All Maps | STV","players":null},{"server_id":5,"name":"Uncletopia | Frankfurt | 1 | All Maps","name_short":"frk-1","host":"frk-1.de.uncletopia.com","port":27015,"enabled":true,"region":"eu","cc":"de","latitude":50.110924,"longitude":8.682127,"reserved":0,"last_update":"0001-01-01T00:00:00Z","name_a2s":"Uncletopia | Frankfurt | 1 | All Maps","protocol":17,"map":"cp_snakewater_final1","folder":"tf","game":"Team Fortress","app_id":440,"player_count":0,"max_players":24,"Bots":0,"server_type":"Dedicated","server_os":"Linux","password":true,"vac":true,"version":"7757534","steam_id":85568392924469989,"keywords":["cp","nocrits","nodmgspread","uncletopia"],"game_id":440,"stv_port":27016,"stv_name":"Uncletopia | Frankfurt | 1 | All Maps | STV","players":null},{"server_id":110,"name":"Uncletopia | Frankfurt | 2 | All Maps","name_short":"frk-2","host":"frk-1.de.uncletopia.com","port":27025,"enabled":true,"region":"eu","cc":"de","latitude":50.110924,"longitude":8.682127,"reserved":0,"last_update":"0001-01-01T00:00:00Z","name_a2s":"Uncletopia | Frankfurt | 2 | All Maps","protocol":17,"map":"cp_altitude","folder":"tf","game":"Team Fortress","app_id":440,"player_count":0,"max_players":24,"Bots":0,"server_type":"Dedicated","server_os":"Linux","password":true,"vac":true,"version":"7757534","steam_id":85568392924469990,"keywords":["cp","nocrits","nodmgspread","uncletopia"],"game_id":440,"stv_port":27026,"stv_name":"Uncletopia | Frankfurt | 2 | All Maps | STV","players":null},{"server_id":308,"name":"Uncletopia | Frankfurt | 3 | All Maps","name_short":"frk-3","host":"frk-1.de.uncletopia.com","port":27035,"enabled":true,"region":"eu","cc":"de","latitude":50.110924,"longitude":8.682127,"reserved":0,"last_update":"0001-01-01T00:00:00Z","name_a2s":"Uncletopia | Frankfurt | 3 | All Maps","protocol":17,"map":"pl_badwater","folder":"tf","game":"Team Fortress","app_id":440,"player_count":0,"max_players":24,"Bots":0,"server_type":"Dedicated","server_os":"Linux","password":true,"vac":true,"version":"7757534","steam_id":85568392924504274,"keywords":["nocrits","nodmgspread","payload","uncletopia"],"game_id":440,"stv_port":27036,"stv_name":"Uncletopia | Frankfurt | 3 | All Maps | STV","players":null},{"server_id":309,"name":"Uncletopia | Frankfurt | 4 | All Maps","name_short":"frk-4","host":"frk-1.de.uncletopia.com","port":27045,"enabled":true,"region":"eu","cc":"de","latitude":50.110924,"longitude":8.682127,"reserved":0,"last_update":"0001-01-01T00:00:00Z","name_a2s":"Uncletopia | Frankfurt | 4 | All Maps","protocol":17,"map":"pl_pier","folder":"tf","game":"Team Fortress","app_id":440,"player_count":0,"max_players":24,"Bots":0,"server_type":"Dedicated","server_os":"Linux","password":true,"vac":true,"version":"7757534","steam_id":85568392924504275,"keywords":["nocrits","nodmgspread","payload","uncletopia"],"game_id":440,"stv_port":27046,"stv_name":"Uncletopia | Frankfurt | 4 | All Maps | STV","players":null},{"server_id":310,"name":"Uncletopia | Frankfurt | 5 | All Maps","name_short":"frk-5","host":"frk-1.de.uncletopia.com","port":27055,"enabled":true,"region":"eu","cc":"de","latitude":50.110924,"longitude":8.682127,"reserved":0,"last_update":"0001-01-01T00:00:00Z","name_a2s":"Uncletopia | Frankfurt | 5 | All Maps","protocol":17,"map":"cp_altitude","folder":"tf","game":"Team Fortress","app_id":440,"player_count":0,"max_players":24,"Bots":0,"server_type":"Dedicated","server_os":"Linux","password":true,"vac":true,"version":"7757534","steam_id":85568392924504277,"keywords":["cp","nocrits","nodmgspread","uncletopia"],"game_id":440,"stv_port":27056,"stv_name":"Uncletopia | Frankfurt | 5 | All Maps | STV","players":null},{"server_id":311,"name":"Uncletopia | Frankfurt | 6 | All Maps","name_short":"frk-6","host":"frk-1.de.uncletopia.com","port":27065,"enabled":true,"region":"eu","cc":"de","latitude":50.110924,"longitude":8.682127,"reserved":0,"last_update":"0001-01-01T00:00:00Z","name_a2s":"Uncletopia | Frankfurt | 6 | All Maps","protocol":17,"map":"pl_barnblitz","folder":"tf","game":"Team Fortress","app_id":440,"player_count":0,"max_players":24,"Bots":0,"server_type":"Dedicated","server_os":"Linux","password":true,"vac":true,"version":"7757534","steam_id":85568392924504278,"keywords":["nocrits","nodmgspread","payload","uncletopia"],"game_id":440,"stv_port":27066,"stv_name":"Uncletopia | Frankfurt | 6 | All Maps | STV","players":null},{"server_id":23,"name":"Uncletopia | Frankfurt | 7 | Stopwatch Beta","name_short":"frk-7","host":"frk-1.de.uncletopia.com","port":27075,"enabled":true,"region":"eu","cc":"de","latitude":50.110924,"longitude":8.682127,"reserved":0,"last_update":"0001-01-01T00:00:00Z","name_a2s":"Uncletopia | Frankfurt | 7 | Stopwatch Beta","protocol":17,"map":"pl_borneo","folder":"tf","game":"Team Fortress","app_id":440,"player_count":0,"max_players":24,"Bots":0,"server_type":"Dedicated","server_os":"Linux","password":true,"vac":true,"version":"7757534","steam_id":85568392924742827,"keywords":["nocrits","nodmgspread","payload","uncletopia"],"game_id":440,"stv_port":27076,"stv_name":"Uncletopia | Frankfurt | 7 | Stopwatch Beta | STV","players":null},{"server_id":24,"name":"Uncletopia | Frankfurt | 8 | Community","name_short":"frk-8","host":"frk-1.de.uncletopia.com","port":27085,"enabled":true,"region":"eu","cc":"de","latitude":50.110924,"longitude":8.682127,"reserved":0,"last_update":"0001-01-01T00:00:00Z","name_a2s":"Uncletopia | Frankfurt | 8 | Community","protocol":17,"map":"koth_viaduct","folder":"tf","game":"Team Fortress","app_id":440,"player_count":0,"max_players":24,"Bots":0,"server_type":"Dedicated","server_os":"Linux","password":true,"vac":true,"version":"7757534","steam_id":85568392924742828,"keywords":["cp","nocrits","nodmgspread","uncletopia"],"game_id":440,"stv_port":27086,"stv_name":"Uncletopia | Frankfurt | 8 | Community | STV","players":null},{"server_id":202,"name":"Uncletopia | Hong Kong | 1 | All Maps","name_short":"hgk-1","host":"hgk-1.hk.uncletopia.com","port":27015,"enabled":true,"region":"asia","cc":"hk","latitude":22.302711,"longitude":114.177216,"reserved":0,"last_update":"0001-01-01T00:00:00Z","name_a2s":"Uncletopia | Hong Kong | 1 | All Maps","protocol":17,"map":"pl_upward","folder":"tf","game":"Team Fortress","app_id":440,"player_count":24,"max_players":24,"Bots":0,"server_type":"Dedicated","server_os":"Linux","password":true,"vac":true,"version":"7757534","steam_id":85568392924494504,"keywords":["nocrits","nodmgspread","payload","uncletopia"],"game_id":440,"stv_port":27016,"stv_name":"Uncletopia | Hong Kong | 1 | All Maps | STV","players":[{"user_id":246,"name":"ase","steam_id":76561198152588681,"connected_time":1276000000000,"state":"active","ping":77},{"user_id":221,"name":"vintage","steam_id":76561198230213828,"connected_time":4375000000000,"state":"active","ping":61},{"user_id":212,"name":"buiminhquang1401","steam_id":76561199475974790,"connected_time":4589000000000,"state":"active","ping":78},{"user_id":115,"name":"ghuzik ate a femboy last night","steam_id":76561199107596818,"connected_time":12692000000000,"state":"active","ping":104},{"user_id":250,"name":"im_0ff","steam_id":76561198339346695,"connected_time":352000000000,"state":"active","ping":122},{"user_id":176,"name":"Nonexistent","steam_id":76561198980563251,"connected_time":7543000000000,"state":"active","ping":81},{"user_id":189,"name":"Stupid B","steam_id":76561198131423270,"connected_time":5920000000000,"state":"active","ping":89},{"user_id":242,"name":"帕","steam_id":76561198439343999,"connected_time":1948000000000,"state":"active","ping":76},{"user_id":241,"name":"Bepo","steam_id":76561198136685157,"connected_time":2124000000000,"state":"active","ping":60},{"user_id":231,"name":"AmaiToxic","steam_id":76561199122491157,"connected_time":2987000000000,"state":"active","ping":124},{"user_id":229,"name":"Dropoutクマ","steam_id":76561199092455646,"connected_time":3060000000000,"state":"active","ping":77},{"user_id":213,"name":"+","steam_id":76561198121311286,"connected_time":4492000000000,"state":"active","ping":125},{"user_id":196,"name":"tiden2000","steam_id":76561198092969425,"connected_time":5869000000000,"state":"active","ping":136},{"user_id":158,"name":"bmbmbm","steam_id":76561198413116920,"connected_time":8676000000000,"state":"active","ping":104},{"user_id":244,"name":"pablo","steam_id":76561198798775391,"connected_time":1760000000000,"state":"active","ping":358},{"user_id":190,"name":"screaming sniper","steam_id":76561199085568674,"connected_time":5904000000000,"state":"active","ping":69},{"user_id":219,"name":"P","steam_id":76561198304514505,"connected_time":4452000000000,"state":"active","ping":75},{"user_id":197,"name":"Light Rainbow","steam_id":76561198118966673,"connected_time":5769000000000,"state":"active","ping":40},{"user_id":100,"name":"anemoia","steam_id":76561198074339034,"connected_time":13607000000000,"state":"active","ping":75},{"user_id":207,"name":"Cheesey","steam_id":76561198975684137,"connected_time":5127000000000,"state":"active","ping":104},{"user_id":247,"name":"yw","steam_id":76561199382726488,"connected_time":1255000000000,"state":"active","ping":48},{"user_id":214,"name":"silverhouse7","steam_id":76561198349634906,"connected_time":4487000000000,"state":"active","ping":97},{"user_id":226,"name":"Gehello","steam_id":76561199394603089,"connected_time":3744000000000,"state":"active","ping":75},{"user_id":245,"name":"\u003c\u003cDunce](:-p)-|---\u003c","steam_id":76561199190321580,"connected_time":1365000000000,"state":"active","ping":62}]},{"server_id":1,"name":"Uncletopia | Los Angeles | 1 | All Maps","name_short":"lax-1","host":"lax-1.us.uncletopia.com","port":27015,"enabled":true,"region":"us-west","cc":"us","latitude":33.94279,"longitude":-118.41004,"reserved":0,"last_update":"0001-01-01T00:00:00Z","name_a2s":"Uncletopia | Los Angeles | 1 | All Maps","protocol":17,"map":"pl_snowycoast","folder":"tf","game":"Team Fortress","app_id":440,"player_count":21,"max_players":24,"Bots":0,"server_type":"Dedicated","server_os":"Linux","password":true,"vac":true,"version":"7757534","steam_id":85568392924469991,"keywords":["nocrits","nodmgspread","payload","uncletopia"],"game_id":440,"stv_port":27016,"stv_name":"Uncletopia | Los Angeles | 1 | All Maps | STV","players":[{"user_id":537,"name":"j","steam_id":76561198162075431,"connected_time":1065000000000,"state":"active","ping":45},{"user_id":533,"name":"Spooby","steam_id":76561198168114366,"connected_time":1094000000000,"state":"active","ping":119},{"user_id":551,"name":"Planetmeep","steam_id":76561198306518603,"connected_time":88000000000,"state":"active","ping":111},{"user_id":418,"name":"ice cream (冰淇淋)","steam_id":76561198976530881,"connected_time":8827000000000,"state":"active","ping":42},{"user_id":546,"name":"cream team","steam_id":76561198139043953,"connected_time":515000000000,"state":"active","ping":73},{"user_id":538,"name":"A Shiny Meat Bicycle","steam_id":76561198358757709,"connected_time":1045000000000,"state":"active","ping":116},{"user_id":464,"name":"Aloa","steam_id":76561198850176807,"connected_time":5915000000000,"state":"active","ping":65},{"user_id":502,"name":"Joewari Da","steam_id":76561198418288939,"connected_time":3727000000000,"state":"active","ping":65},{"user_id":553,"name":"yabomo","steam_id":76561198287942889,"connected_time":83000000000,"state":"active","ping":40},{"user_id":541,"name":"ttv_shingo_is_live","steam_id":76561198998571073,"connected_time":1032000000000,"state":"active","ping":64},{"user_id":492,"name":"RipHunter77","steam_id":76561198272973014,"connected_time":4223000000000,"state":"active","ping":89},{"user_id":539,"name":"cheesynipples","steam_id":76561198169768539,"connected_time":1041000000000,"state":"active","ping":59},{"user_id":547,"name":"Tanya Forger","steam_id":76561198889997809,"connected_time":296000000000,"state":"active","ping":46},{"user_id":543,"name":"HAT-WEARING™ Maggot Gamer Cat","steam_id":76561197973992705,"connected_time":779000000000,"state":"active","ping":64},{"user_id":534,"name":"a chicken","steam_id":76561198313121580,"connected_time":1092000000000,"state":"active","ping":48},{"user_id":550,"name":"its joever","steam_id":76561199027530775,"connected_time":167000000000,"state":"active","ping":51},{"user_id":540,"name":"Crustacean Daddy","steam_id":76561198993807061,"connected_time":1036000000000,"state":"active","ping":40},{"user_id":536,"name":"Artic_Ryuu","steam_id":76561198182194918,"connected_time":1087000000000,"state":"active","ping":39},{"user_id":512,"name":"SanitysEdge","steam_id":76561198130732813,"connected_time":2778000000000,"state":"active","ping":49},{"user_id":477,"name":"Altruisticailuridae","steam_id":76561198335295596,"connected_time":5420000000000,"state":"active","ping":56},{"user_id":532,"name":"MusicalSpoon","steam_id":76561198358238521,"connected_time":1106000000000,"state":"active","ping":47}]},{"server_id":112,"name":"Uncletopia | Los Angeles | 2 | All Maps","name_short":"lax-2","host":"lax-1.us.uncletopia.com","port":27025,"enabled":true,"region":"us-west","cc":"us","latitude":33.94279,"longitude":-118.41004,"reserved":0,"last_update":"0001-01-01T00:00:00Z","name_a2s":"Uncletopia | Los Angeles | 2 | All Maps","protocol":17,"map":"cp_mercenarypark","folder":"tf","game":"Team Fortress","app_id":440,"player_count":24,"max_players":24,"Bots":0,"server_type":"Dedicated","server_os":"Linux","password":true,"vac":true,"version":"7757534","steam_id":85568392924469992,"keywords":["cp","nocrits","nodmgspread","uncletopia"],"game_id":440,"stv_port":27026,"stv_name":"Uncletopia | Los Angeles | 2 | All Maps | STV","players":[{"user_id":530,"name":"dodecadron","steam_id":76561198027397222,"connected_time":1878000000000,"state":"active","ping":132},{"user_id":540,"name":"zzZZzz","steam_id":76561198346823843,"connected_time":860000000000,"state":"active","ping":76},{"user_id":511,"name":"The Foolish Samurai","steam_id":76561198094494945,"connected_time":3742000000000,"state":"active","ping":71},{"user_id":536,"name":"bean drinker","steam_id":76561198044004639,"connected_time":1532000000000,"state":"active","ping":86},{"user_id":498,"name":"bad spy player","steam_id":76561198873699671,"connected_time":4836000000000,"state":"active","ping":84},{"user_id":525,"name":"LazyZealot","steam_id":76561198241505038,"connected_time":2081000000000,"state":"active","ping":44},{"user_id":515,"name":"Pinder","steam_id":76561198176708643,"connected_time":3583000000000,"state":"active","ping":81},{"user_id":487,"name":"Gundam Guy","steam_id":76561198178453993,"connected_time":6598000000000,"state":"active","ping":61},{"user_id":541,"name":"M4_Patriot","steam_id":76561198380134648,"connected_time":809000000000,"state":"active","ping":65},{"user_id":545,"name":"God Monke","steam_id":76561198070201790,"connected_time":356000000000,"state":"active","ping":61},{"user_id":542,"name":"pravus367","steam_id":76561198130024571,"connected_time":794000000000,"state":"active","ping":58},{"user_id":533,"name":"werolat","steam_id":76561197960544784,"connected_time":1703000000000,"state":"active","ping":53},{"user_id":550,"name":"Rich Homie Rob","steam_id":76561198046570914,"connected_time":18000000000,"state":"active","ping":210},{"user_id":521,"name":"T.T","steam_id":76561198041907345,"connected_time":2705000000000,"state":"active","ping":58},{"user_id":467,"name":"Boing Boom Tschak","steam_id":76561198256553006,"connected_time":8188000000000,"state":"active","ping":65},{"user_id":547,"name":"fonz!E","steam_id":76561197987165510,"connected_time":183000000000,"state":"active","ping":51},{"user_id":548,"name":"Jammer","steam_id":76561198435691014,"connected_time":182000000000,"state":"active","ping":119},{"user_id":539,"name":"Yappi","steam_id":76561198113473034,"connected_time":901000000000,"state":"active","ping":64},{"user_id":518,"name":"BBL Sponsor","steam_id":76561199093733603,"connected_time":3430000000000,"state":"active","ping":62},{"user_id":538,"name":"fortzei","steam_id":76561198210920541,"connected_time":945000000000,"state":"active","ping":64},{"user_id":512,"name":"Leidon","steam_id":76561198078386945,"connected_time":3737000000000,"state":"active","ping":83},{"user_id":507,"name":"big car","steam_id":76561198067082350,"connected_time":4466000000000,"state":"active","ping":56},{"user_id":549,"name":"Susiety","steam_id":76561198182294378,"connected_time":145000000000,"state":"active","ping":54},{"user_id":523,"name":"Dekdek","steam_id":76561198311968999,"connected_time":2630000000000,"state":"active","ping":55}]},{"server_id":324,"name":"Uncletopia | Los Angeles | 3 | All Maps","name_short":"lax-3","host":"lax-1.us.uncletopia.com","port":27035,"enabled":true,"region":"us-west","cc":"us","latitude":33.94279,"longitude":-118.41004,"reserved":0,"last_update":"0001-01-01T00:00:00Z","name_a2s":"Uncletopia | Los Angeles | 3 | All Maps","protocol":17,"map":"koth_nucleus","folder":"tf","game":"Team Fortress","app_id":440,"player_count":1,"max_players":24,"Bots":0,"server_type":"Dedicated","server_os":"Linux","password":true,"vac":true,"version":"7757534","steam_id":85568392924510198,"keywords":["cp","nocrits","nodmgspread","uncletopia"],"game_id":440,"stv_port":27036,"stv_name":"Uncletopia | Los Angeles | 3 | All Maps | STV","players":[{"user_id":172,"name":"koth_nuclesus","steam_id":76561198861711988,"connected_time":428000000000,"state":"active","ping":76}]},{"server_id":25,"name":"Uncletopia | Los Angeles | 4 | Stopwatch Beta","name_short":"lax-4","host":"lax-1.us.uncletopia.com","port":27045,"enabled":true,"region":"us-west","cc":"us","latitude":33.94279,"longitude":-118.41004,"reserved":0,"last_update":"0001-01-01T00:00:00Z","name_a2s":"Uncletopia | Los Angeles | 4 | Stopwatch Beta","protocol":17,"map":"pl_swiftwater_final1","folder":"tf","game":"Team Fortress","app_id":440,"player_count":0,"max_players":24,"Bots":0,"server_type":"Dedicated","server_os":"Linux","password":true,"vac":true,"version":"7757534","steam_id":85568392924510199,"keywords":["nocrits","nodmgspread","payload","uncletopia"],"game_id":440,"stv_port":27046,"stv_name":"Uncletopia | Los Angeles | 4 | Stopwatch Beta | STV","players":null},{"server_id":11,"name":"Uncletopia | London | 1 | All Maps","name_short":"lon-1","host":"lon-1.uk.uncletopia.com","port":27015,"enabled":true,"region":"eu","cc":"gb","latitude":51.509865,"longitude":-0.118092,"reserved":0,"last_update":"0001-01-01T00:00:00Z","name_a2s":"Uncletopia | London | 1 | All Maps","protocol":17,"map":"cp_altitude","folder":"tf","game":"Team Fortress","app_id":440,"player_count":0,"max_players":24,"Bots":0,"server_type":"Dedicated","server_os":"Linux","password":true,"vac":true,"version":"7757534","steam_id":85568392924367362,"keywords":["cp","nocrits","nodmgspread","uncletopia"],"game_id":440,"stv_port":27016,"stv_name":"Uncletopia | London | 1 | All Maps | STV","players":null},{"server_id":114,"name":"Uncletopia | London | 2 | All Maps","name_short":"lon-2","host":"lon-1.uk.uncletopia.com","port":27025,"enabled":true,"region":"eu","cc":"gb","latitude":51.509865,"longitude":-0.118092,"reserved":0,"last_update":"0001-01-01T00:00:00Z","name_a2s":"Uncletopia | London | 2 | All Maps","protocol":17,"map":"pl_snowycoast","folder":"tf","game":"Team Fortress","app_id":440,"player_count":24,"max_players":24,"Bots":0,"server_type":"Dedicated","server_os":"Linux","password":true,"vac":true,"version":"7757534","steam_id":85568392924470941,"keywords":["nocrits","nodmgspread","payload","uncletopia"],"game_id":440,"stv_port":27026,"stv_name":"Uncletopia | London | 2 | All Maps | STV","players":[{"user_id":64,"name":"BONK-TEC!","steam_id":76561198272667029,"connected_time":1909000000000,"state":"active","ping":53},{"user_id":68,"name":"femboy gaming :3","steam_id":76561199044267454,"connected_time":1509000000000,"state":"active","ping":69},{"user_id":54,"name":"Ich stinke","steam_id":76561198065076046,"connected_time":2483000000000,"state":"active","ping":57},{"user_id":55,"name":"Arti","steam_id":76561197983352845,"connected_time":2468000000000,"state":"active","ping":57},{"user_id":39,"name":"Violett'Blossom","steam_id":76561198075582287,"connected_time":3758000000000,"state":"active","ping":60},{"user_id":16,"name":"wide appreciator","steam_id":76561198083286511,"connected_time":6022000000000,"state":"active","ping":52},{"user_id":9,"name":"Pineapple Okan","steam_id":76561198069199449,"connected_time":6035000000000,"state":"active","ping":103},{"user_id":47,"name":"nemelex","steam_id":76561198958005865,"connected_time":3178000000000,"state":"active","ping":51},{"user_id":50,"name":"masatin","steam_id":76561198044967818,"connected_time":2614000000000,"state":"active","ping":74},{"user_id":63,"name":"Mustard Jar","steam_id":76561198287325285,"connected_time":1911000000000,"state":"active","ping":91},{"user_id":69,"name":"Dov","steam_id":76561198856685379,"connected_time":1402000000000,"state":"active","ping":58},{"user_id":77,"name":"Rin-Nakaret","steam_id":76561197971051188,"connected_time":598000000000,"state":"active","ping":60},{"user_id":71,"name":"Egor Pomidor","steam_id":76561199175688390,"connected_time":1321000000000,"state":"active","ping":84},{"user_id":56,"name":"Gwishin","steam_id":76561198257158275,"connected_time":2323000000000,"state":"active","ping":149},{"user_id":79,"name":"raime","steam_id":76561198024903775,"connected_time":239000000000,"state":"active","ping":95},{"user_id":70,"name":"John Coomer","steam_id":76561198321709435,"connected_time":1398000000000,"state":"active","ping":156},{"user_id":78,"name":"the scringly dingly","steam_id":76561198192179174,"connected_time":597000000000,"state":"active","ping":125},{"user_id":22,"name":"Tails8521","steam_id":76561198051747164,"connected_time":6001000000000,"state":"active","ping":51},{"user_id":74,"name":"Rex","steam_id":76561199474556920,"connected_time":1236000000000,"state":"active","ping":123},{"user_id":24,"name":"HurrpNana","steam_id":76561199102156562,"connected_time":5997000000000,"state":"active","ping":99},{"user_id":25,"name":"lowdash","steam_id":76561198327827635,"connected_time":5991000000000,"state":"active","ping":61},{"user_id":67,"name":"meow","steam_id":76561199216923710,"connected_time":1731000000000,"state":"active","ping":146},{"user_id":73,"name":"murderwow","steam_id":76561198024566944,"connected_time":1265000000000,"state":"active","ping":105},{"user_id":75,"name":"HimpoX","steam_id":76561198043946778,"connected_time":1017000000000,"state":"active","ping":100}]},{"server_id":320,"name":"Uncletopia | London | 3 | All Maps","name_short":"lon-3","host":"lon-1.uk.uncletopia.com","port":27035,"enabled":true,"region":"eu","cc":"gb","latitude":51.509865,"longitude":-0.118092,"reserved":0,"last_update":"0001-01-01T00:00:00Z","name_a2s":"Uncletopia | London | 3 | All Maps","protocol":17,"map":"pl_swiftwater_final1","folder":"tf","game":"Team Fortress","app_id":440,"player_count":0,"max_players":24,"Bots":0,"server_type":"Dedicated","server_os":"Linux","password":true,"vac":true,"version":"7757534","steam_id":85568392924510192,"keywords":["nocrits","nodmgspread","payload","uncletopia"],"game_id":440,"stv_port":27036,"stv_name":"Uncletopia | London | 3 | All Maps | STV","players":null},{"server_id":321,"name":"Uncletopia | London | 4 | All Maps","name_short":"lon-4","host":"lon-1.uk.uncletopia.com","port":27045,"enabled":true,"region":"eu","cc":"gb","latitude":51.509865,"longitude":-0.118092,"reserved":0,"last_update":"0001-01-01T00:00:00Z","name_a2s":"Uncletopia | London | 4 | All Maps","protocol":17,"map":"pl_barnblitz","folder":"tf","game":"Team Fortress","app_id":440,"player_count":0,"max_players":24,"Bots":0,"server_type":"Dedicated","server_os":"Linux","password":true,"vac":true,"version":"7757534","steam_id":85568392924510193,"keywords":["nocrits","nodmgspread","payload","uncletopia"],"game_id":440,"stv_port":27046,"stv_name":"Uncletopia | London | 4 | All Maps | STV","players":null},{"server_id":21,"name":"Uncletopia | London | 5 | All Maps","name_short":"lon-5","host":"lon-1.uk.uncletopia.com","port":27055,"enabled":true,"region":"eu","cc":"gb","latitude":51.509865,"longitude":-0.118092,"reserved":0,"last_update":"0001-01-01T00:00:00Z","name_a2s":"Uncletopia | London | 5 | All Maps","protocol":17,"map":"pl_pier","folder":"tf","game":"Team Fortress","app_id":440,"player_count":0,"max_players":24,"Bots":0,"server_type":"Dedicated","server_os":"Linux","password":true,"vac":true,"version":"7757534","steam_id":85568392924742829,"keywords":["nocrits","nodmgspread","payload","uncletopia"],"game_id":440,"stv_port":27056,"stv_name":"Uncletopia | London | 5 | All Maps | STV","players":null},{"server_id":22,"name":"Uncletopia | London | 6 | All Maps","name_short":"lon-6","host":"lon-1.uk.uncletopia.com","port":27065,"enabled":true,"region":"eu","cc":"gb","latitude":51.509865,"longitude":-0.118092,"reserved":0,"last_update":"0001-01-01T00:00:00Z","name_a2s":"Uncletopia | London | 6 | All Maps","protocol":17,"map":"koth_highpass","folder":"tf","game":"Team Fortress","app_id":440,"player_count":0,"max_players":24,"Bots":0,"server_type":"Dedicated","server_os":"Linux","password":true,"vac":true,"version":"7757534","steam_id":85568392924742830,"keywords":["cp","nocrits","nodmgspread","uncletopia"],"game_id":440,"stv_port":27066,"stv_name":"Uncletopia | London | 6 | All Maps | STV","players":null},{"server_id":40,"name":"Uncletopia | London | 7 | No Payload","name_short":"lon-7","host":"lon-1.uk.uncletopia.com","port":27075,"enabled":true,"region":"eu","cc":"gb","latitude":51.509865,"longitude":-0.118092,"reserved":0,"last_update":"0001-01-01T00:00:00Z","name_a2s":"Uncletopia | London | 7 | No Payload","protocol":17,"map":"koth_highpass","folder":"tf","game":"Team Fortress","app_id":440,"player_count":0,"max_players":24,"Bots":0,"server_type":"Dedicated","server_os":"Linux","password":true,"vac":true,"version":"7757534","steam_id":85568392924964314,"keywords":["cp","nocrits","nodmgspread","uncletopia"],"game_id":440,"stv_port":27076,"stv_name":"Uncletopia | London | 7 | No Payload | STV","players":null},{"server_id":41,"name":"Uncletopia | London | 8 | Community","name_short":"lon-8","host":"lon-1.uk.uncletopia.com","port":27085,"enabled":true,"region":"eu","cc":"gb","latitude":51.509865,"longitude":-0.118092,"reserved":0,"last_update":"0001-01-01T00:00:00Z","name_a2s":"Uncletopia | London | 8 | Community","protocol":17,"map":"cp_altitude","folder":"tf","game":"Team Fortress","app_id":440,"player_count":0,"max_players":24,"Bots":0,"server_type":"Dedicated","server_os":"Linux","password":true,"vac":true,"version":"7757534","steam_id":85568392924964315,"keywords":["cp","nocrits","nodmgspread","uncletopia"],"game_id":440,"stv_port":27086,"stv_name":"Uncletopia | London | 8 | Community | STV","players":null},{"server_id":300,"name":"Uncletopia | Montréal | 1 | All Maps","name_short":"mtl-1","host":"mtl-1.ca.uncletopia.com","port":27015,"enabled":true,"region":"us-east","cc":"ca","latitude":45.50889,"longitude":-73.56167,"reserved":0,"last_update":"0001-01-01T00:00:00Z","name_a2s":"Uncletopia | Montréal | 1 | All Maps","protocol":17,"map":"pl_pier","folder":"tf","game":"Team Fortress","app_id":440,"player_count":0,"max_players":24,"Bots":0,"server_type":"Dedicated","server_os":"Linux","password":true,"vac":true,"version":"7757534","steam_id":85568392924500087,"keywords":["nocrits","nodmgspread","payload","uncletopia"],"game_id":440,"stv_port":27016,"stv_name":"Uncletopia | Montréal | 1 | All Maps | STV","players":null},{"server_id":301,"name":"Uncletopia | Montréal | 2 | All Maps","name_short":"mtl-2","host":"mtl-1.ca.uncletopia.com","port":27025,"enabled":true,"region":"us-east","cc":"ca","latitude":45.50889,"longitude":-73.56167,"reserved":0,"last_update":"0001-01-01T00:00:00Z","name_a2s":"Uncletopia | Montréal | 2 | All Maps","protocol":17,"map":"koth_cascade","folder":"tf","game":"Team Fortress","app_id":440,"player_count":0,"max_players":24,"Bots":0,"server_type":"Dedicated","server_os":"Linux","password":true,"vac":true,"version":"7757534","steam_id":85568392924500088,"keywords":["cp","nocrits","nodmgspread","uncletopia"],"game_id":440,"stv_port":27026,"stv_name":"Uncletopia | Montréal | 2 | All Maps | STV","players":null},{"server_id":302,"name":"Uncletopia | Montréal | 3 | All Maps","name_short":"mtl-3","host":"mtl-1.ca.uncletopia.com","port":27035,"enabled":true,"region":"us-east","cc":"ca","latitude":45.50889,"longitude":-73.56167,"reserved":0,"last_update":"0001-01-01T00:00:00Z","name_a2s":"Uncletopia | Montréal | 3 | All Maps","protocol":17,"map":"pl_badwater","folder":"tf","game":"Team Fortress","app_id":440,"player_count":0,"max_players":24,"Bots":0,"server_type":"Dedicated","server_os":"Linux","password":true,"vac":true,"version":"7757534","steam_id":85568392924500089,"keywords":["nocrits","nodmgspread","payload","uncletopia"],"game_id":440,"stv_port":27036,"stv_name":"Uncletopia | Montréal | 3 | All Maps | STV","players":null},{"server_id":303,"name":"Uncletopia | Montréal | 4 | No Payload","name_short":"mtl-4","host":"mtl-1.ca.uncletopia.com","port":27045,"enabled":true,"region":"us-east","cc":"ca","latitude":45.50889,"longitude":-73.56167,"reserved":0,"last_update":"0001-01-01T00:00:00Z","name_a2s":"Uncletopia | Montréal | 4 | No Payload","protocol":17,"map":"koth_sawmill","folder":"tf","game":"Team Fortress","app_id":440,"player_count":0,"max_players":24,"Bots":0,"server_type":"Dedicated","server_os":"Linux","password":true,"vac":true,"version":"7757534","steam_id":85568392924500090,"keywords":["cp","nocrits","nodmgspread","uncletopia"],"game_id":440,"stv_port":27046,"stv_name":"Uncletopia | Montréal | 4 | No Payload | STV","players":null},{"server_id":13,"name":"Uncletopia | New York City | 1 | All Maps","name_short":"nyc-1","host":"nyc-1.us.uncletopia.com","port":27015,"enabled":true,"region":"us-east","cc":"us","latitude":40.73061,"longitude":-73.93524,"reserved":0,"last_update":"0001-01-01T00:00:00Z","name_a2s":"Uncletopia | New York City | 1 | All Maps","protocol":17,"map":"pl_barnblitz","folder":"tf","game":"Team Fortress","app_id":440,"player_count":24,"max_players":24,"Bots":0,"server_type":"Dedicated","server_os":"Linux","password":true,"vac":true,"version":"7757534","steam_id":85568392924469993,"keywords":["nocrits","nodmgspread","payload","uncletopia"],"game_id":440,"stv_port":27016,"stv_name":"Uncletopia | New York City | 1 | All Maps | STV","players":[{"user_id":1047,"name":"Krellah","steam_id":76561198287045069,"connected_time":5598000000000,"state":"active","ping":61},{"user_id":1115,"name":"AyEasyEngie","steam_id":76561198856769712,"connected_time":2017000000000,"state":"active","ping":79},{"user_id":1116,"name":"†_Nobody_†","steam_id":76561198051576046,"connected_time":1840000000000,"state":"active","ping":66},{"user_id":1045,"name":"AISKA","steam_id":76561198287049660,"connected_time":5632000000000,"state":"active","ping":76},{"user_id":904,"name":"CRAZY engineer","steam_id":76561198887937902,"connected_time":12035000000000,"state":"active","ping":41},{"user_id":1113,"name":"Spoods","steam_id":76561198245568710,"connected_time":2140000000000,"state":"active","ping":60},{"user_id":1160,"name":"toho","steam_id":76561198117747254,"connected_time":439000000000,"state":"active","ping":70},{"user_id":1048,"name":"sonic1394","steam_id":76561198054636788,"connected_time":5594000000000,"state":"active","ping":84},{"user_id":1150,"name":"The Horselords and Animal Gods","steam_id":76561197975094050,"connected_time":1088000000000,"state":"active","ping":119},{"user_id":1117,"name":"thebonkchoyboy","steam_id":76561199002660656,"connected_time":1700000000000,"state":"active","ping":113},{"user_id":1152,"name":"NewerCoke","steam_id":76561198042911847,"connected_time":1006000000000,"state":"active","ping":61},{"user_id":1162,"name":"bob gaming","steam_id":76561198163993775,"connected_time":242000000000,"state":"active","ping":73},{"user_id":1121,"name":"Axel Beoulve","steam_id":76561198126511231,"connected_time":1600000000000,"state":"active","ping":151},{"user_id":1153,"name":"Pipirohnni pitzza","steam_id":76561198414300607,"connected_time":981000000000,"state":"active","ping":121},{"user_id":1122,"name":"GhostCoffee","steam_id":76561198105228900,"connected_time":1599000000000,"state":"active","ping":44},{"user_id":1123,"name":"the penis act of 1996","steam_id":76561198073269122,"connected_time":1593000000000,"state":"active","ping":45},{"user_id":1124,"name":"kametro4","steam_id":76561198835430429,"connected_time":1579000000000,"state":"active","ping":76},{"user_id":1159,"name":"Ganja Bandit","steam_id":76561198875131601,"connected_time":502000000000,"state":"active","ping":103},{"user_id":1154,"name":"VX_","steam_id":76561198211529143,"connected_time":980000000000,"state":"active","ping":64},{"user_id":1158,"name":"rice white","steam_id":76561198320732910,"connected_time":593000000000,"state":"active","ping":66},{"user_id":1127,"name":"earthbound393","steam_id":76561199444276547,"connected_time":1460000000000,"state":"active","ping":128},{"user_id":1128,"name":"Weary","steam_id":76561198145767546,"connected_time":1450000000000,"state":"active","ping":78},{"user_id":1129,"name":"gettysburg","steam_id":76561198016157051,"connected_time":1444000000000,"state":"active","ping":76},{"user_id":1130,"name":"tanner","steam_id":76561198137381904,"connected_time":1428000000000,"state":"active","ping":130}]},{"server_id":14,"name":"Uncletopia | New York City | 2 | All Maps","name_short":"nyc-2","host":"nyc-1.us.uncletopia.com","port":27025,"enabled":true,"region":"us-east","cc":"us","latitude":40.73061,"longitude":-73.93524,"reserved":0,"last_update":"0001-01-01T00:00:00Z","name_a2s":"Uncletopia | New York City | 2 | All Maps","protocol":17,"map":"pl_swiftwater_final1","folder":"tf","game":"Team Fortress","app_id":440,"player_count":0,"max_players":24,"Bots":0,"server_type":"Dedicated","server_os":"Linux","password":true,"vac":true,"version":"7757534","steam_id":85568392924469994,"keywords":["nocrits","nodmgspread","payload","uncletopia"],"game_id":440,"stv_port":27026,"stv_name":"Uncletopia | New York City | 2 | All Maps | STV","players":null},{"server_id":15,"name":"Uncletopia | New York City | 3 | Stopwatch Beta","name_short":"nyc-3","host":"nyc-1.us.uncletopia.com","port":27035,"enabled":true,"region":"us-east","cc":"us","latitude":40.73061,"longitude":-73.93524,"reserved":0,"last_update":"0001-01-01T00:00:00Z","name_a2s":"Uncletopia | New York City | 3 | Stopwatch Beta","protocol":17,"map":"pl_upward","folder":"tf","game":"Team Fortress","app_id":440,"player_count":0,"max_players":24,"Bots":0,"server_type":"Dedicated","server_os":"Linux","password":true,"vac":true,"version":"7757534","steam_id":85568392924742820,"keywords":["nocrits","nodmgspread","payload","uncletopia"],"game_id":440,"stv_port":27036,"stv_name":"Uncletopia | New York City | 3 | Stopwatch Beta | STV","players":null},{"server_id":16,"name":"Uncletopia | New York City | 4 | Community","name_short":"nyc-4","host":"nyc-1.us.uncletopia.com","port":27045,"enabled":true,"region":"us-east","cc":"us","latitude":40.73061,"longitude":-73.93524,"reserved":0,"last_update":"0001-01-01T00:00:00Z","name_a2s":"Uncletopia | New York City | 4 | Community","protocol":17,"map":"workshop/pl_boundary_final1.ugc456799153","folder":"tf","game":"Team Fortress","app_id":440,"player_count":0,"max_players":24,"Bots":0,"server_type":"Dedicated","server_os":"Linux","password":true,"vac":true,"version":"7757534","steam_id":85568392924742821,"keywords":["nocrits","nodmgspread","payload","uncletopia"],"game_id":440,"stv_port":27046,"stv_name":"Uncletopia | New York City | 4 | Community | STV","players":null},{"server_id":142,"name":"Uncletopia | São Paulo | 1 | All Maps","name_short":"sao-1","host":"sao-1.br.uncletopia.com","port":27015,"enabled":true,"region":"sa","cc":"br","latitude":-23.533773,"longitude":-46.62529,"reserved":0,"last_update":"0001-01-01T00:00:00Z","name_a2s":"Uncletopia | São Paulo | 1 | All Maps","protocol":17,"map":"koth_highpass","folder":"tf","game":"Team Fortress","app_id":440,"player_count":0,"max_players":24,"Bots":0,"server_type":"Dedicated","server_os":"Linux","password":true,"vac":true,"version":"7757534","steam_id":85568392924469996,"keywords":["cp","nocrits","nodmgspread","uncletopia"],"game_id":440,"stv_port":27016,"stv_name":"Uncletopia | São Paulo | 1 | All Maps | STV","players":null},{"server_id":143,"name":"Uncletopia | São Paulo | 2 | All Maps","name_short":"sao-2","host":"sao-2.br.uncletopia.com","port":27015,"enabled":true,"region":"sa","cc":"br","latitude":-23.533773,"longitude":-46.62529,"reserved":0,"last_update":"0001-01-01T00:00:00Z","name_a2s":"Uncletopia | São Paulo | 2 | All Maps","protocol":17,"map":"cp_altitude","folder":"tf","game":"Team Fortress","app_id":440,"player_count":0,"max_players":24,"Bots":0,"server_type":"Dedicated","server_os":"Linux","password":true,"vac":true,"version":"7757534","steam_id":85568392924485349,"keywords":["cp","nocrits","nodmgspread","uncletopia"],"game_id":440,"stv_port":27016,"stv_name":"Uncletopia | São Paulo | 2 | All Maps | STV","players":null},{"server_id":7,"name":"Uncletopia | Seattle | 1 | All Maps","name_short":"sea-1","host":"sea-1.us.uncletopia.com","port":27015,"enabled":true,"region":"us-west","cc":"us","latitude":47.608013,"longitude":-122.33517,"reserved":0,"last_update":"0001-01-01T00:00:00Z","name_a2s":"Uncletopia | Seattle | 1 | All Maps","protocol":17,"map":"pl_badwater","folder":"tf","game":"Team Fortress","app_id":440,"player_count":24,"max_players":24,"Bots":0,"server_type":"Dedicated","server_os":"Linux","password":true,"vac":true,"version":"7757534","steam_id":85568392924469997,"keywords":["nocrits","nodmgspread","payload","uncletopia"],"game_id":440,"stv_port":27016,"stv_name":"Uncletopia | Seattle | 1 | All Maps | STV","players":[{"user_id":771,"name":"NEBULA","steam_id":76561198086878595,"connected_time":2668000000000,"state":"active","ping":72},{"user_id":791,"name":"munch","steam_id":76561198314221897,"connected_time":301000000000,"state":"active","ping":56},{"user_id":774,"name":"Hassium","steam_id":76561198162541373,"connected_time":2366000000000,"state":"active","ping":59},{"user_id":728,"name":"soup","steam_id":76561198043209046,"connected_time":7189000000000,"state":"active","ping":83},{"user_id":775,"name":"Puskinti","steam_id":76561198032120688,"connected_time":2346000000000,"state":"active","ping":64},{"user_id":739,"name":"rat gets the cheese","steam_id":76561198031234032,"connected_time":5698000000000,"state":"active","ping":97},{"user_id":776,"name":"p9 delight","steam_id":76561197980280272,"connected_time":2341000000000,"state":"active","ping":46},{"user_id":777,"name":"Tungsten","steam_id":76561198312854342,"connected_time":2334000000000,"state":"active","ping":67},{"user_id":726,"name":"Arsonist Goose","steam_id":76561198147441830,"connected_time":7347000000000,"state":"active","ping":79},{"user_id":790,"name":"blinkerton city","steam_id":76561198054270410,"connected_time":420000000000,"state":"active","ping":55},{"user_id":789,"name":"StrangeMachine","steam_id":76561198046628064,"connected_time":1012000000000,"state":"active","ping":47},{"user_id":769,"name":"fwoov","steam_id":76561198129166260,"connected_time":2860000000000,"state":"active","ping":75},{"user_id":762,"name":"Thanks Ants","steam_id":76561197966221018,"connected_time":2919000000000,"state":"active","ping":55},{"user_id":725,"name":"Gary, 40, soul sucking 9-5","steam_id":76561198073812888,"connected_time":7888000000000,"state":"active","ping":39},{"user_id":772,"name":"SvicidalBug","steam_id":76561198221390504,"connected_time":2665000000000,"state":"active","ping":60},{"user_id":783,"name":"Stozi","steam_id":76561197992237054,"connected_time":1420000000000,"state":"active","ping":50},{"user_id":731,"name":"John Calibur","steam_id":76561197999986606,"connected_time":6325000000000,"state":"active","ping":79},{"user_id":773,"name":"Google","steam_id":76561198857237473,"connected_time":2432000000000,"state":"active","ping":50},{"user_id":788,"name":"Florist","steam_id":76561198009121060,"connected_time":1151000000000,"state":"active","ping":47},{"user_id":792,"name":"Smile","steam_id":76561198110008786,"connected_time":174000000000,"state":"active","ping":56},{"user_id":740,"name":"rorywashere /ᐠ - ˕ -マ Ⳋ","steam_id":76561198065825165,"connected_time":5632000000000,"state":"active","ping":114},{"user_id":737,"name":"p9 jorts FULL of tea","steam_id":76561199041179985,"connected_time":5838000000000,"state":"active","ping":66},{"user_id":748,"name":"ice spice","steam_id":76561198169755734,"connected_time":4798000000000,"state":"active","ping":62},{"user_id":787,"name":"[TrC] Nosy","steam_id":76561197978859310,"connected_time":1183000000000,"state":"active","ping":60}]},{"server_id":119,"name":"Uncletopia | Seattle | 2 | All Maps","name_short":"sea-2","host":"sea-1.us.uncletopia.com","port":27025,"enabled":true,"region":"us-west","cc":"us","latitude":47.608013,"longitude":-122.33517,"reserved":0,"last_update":"0001-01-01T00:00:00Z","name_a2s":"Uncletopia | Seattle | 2 | All Maps","protocol":17,"map":"pl_badwater","folder":"tf","game":"Team Fortress","app_id":440,"player_count":24,"max_players":24,"Bots":0,"server_type":"Dedicated","server_os":"Linux","password":true,"vac":true,"version":"7757534","steam_id":85568392924469998,"keywords":["nocrits","nodmgspread","payload","uncletopia"],"game_id":440,"stv_port":27026,"stv_name":"Uncletopia | Seattle | 2 | All Maps | STV","players":[{"user_id":678,"name":"Lambchop","steam_id":76561198043900363,"connected_time":5628000000000,"state":"active","ping":75},{"user_id":739,"name":"Gustavo Fring","steam_id":76561198132807405,"connected_time":1139000000000,"state":"active","ping":138},{"user_id":719,"name":"sora","steam_id":76561198094256973,"connected_time":1696000000000,"state":"active","ping":68},{"user_id":731,"name":"Whapper","steam_id":76561198044029606,"connected_time":1284000000000,"state":"active","ping":69},{"user_id":740,"name":"Lilmaggedon","steam_id":76561198072393166,"connected_time":1000000000000,"state":"active","ping":79},{"user_id":722,"name":"Uncle Feathers McGraw","steam_id":76561198046442707,"connected_time":1587000000000,"state":"active","ping":45},{"user_id":726,"name":"CheeseyJoe","steam_id":76561198062182044,"connected_time":1512000000000,"state":"active","ping":61},{"user_id":733,"name":"Sidekick1004","steam_id":76561198071611669,"connected_time":1252000000000,"state":"active","ping":85},{"user_id":732,"name":"Batso","steam_id":76561198106589452,"connected_time":1283000000000,"state":"active","ping":84},{"user_id":716,"name":"ℳ☯◉₭₤Yℳ☮☼","steam_id":76561198077870114,"connected_time":1944000000000,"state":"active","ping":57},{"user_id":699,"name":"2 Point Tom","steam_id":76561198087617008,"connected_time":3377000000000,"state":"active","ping":52},{"user_id":707,"name":"Scout","steam_id":76561198149172070,"connected_time":2798000000000,"state":"active","ping":91},{"user_id":694,"name":"JTuu","steam_id":76561198030606396,"connected_time":3849000000000,"state":"active","ping":41},{"user_id":743,"name":"Laggy Payday 2 player","steam_id":76561199082906857,"connected_time":345000000000,"state":"active","ping":76},{"user_id":727,"name":"SolarusD","steam_id":76561198029279861,"connected_time":1509000000000,"state":"active","ping":60},{"user_id":729,"name":"yellow knife","steam_id":76561199466449959,"connected_time":1444000000000,"state":"active","ping":67},{"user_id":741,"name":"shy guy","steam_id":76561198151246059,"connected_time":970000000000,"state":"active","ping":61},{"user_id":639,"name":"chaos","steam_id":76561198055462404,"connected_time":7269000000000,"state":"active","ping":74},{"user_id":728,"name":"Lmao Zedong","steam_id":76561198043765829,"connected_time":1491000000000,"state":"active","ping":53},{"user_id":742,"name":"Dat Engineer","steam_id":76561198275805954,"connected_time":550000000000,"state":"active","ping":54},{"user_id":744,"name":"town.midi","steam_id":76561198059041027,"connected_time":149000000000,"state":"active","ping":56},{"user_id":735,"name":"Ohana4","steam_id":76561199142959128,"connected_time":1241000000000,"state":"active","ping":57},{"user_id":736,"name":"PinguEnjoyer6","steam_id":76561199186723516,"connected_time":1233000000000,"state":"active","ping":73},{"user_id":687,"name":"Tetra","steam_id":76561198145257468,"connected_time":4228000000000,"state":"active","ping":97}]},{"server_id":406,"name":"Uncletopia | Seattle | 3 | Stopwatch Beta","name_short":"sea-3","host":"sea-1.us.uncletopia.com","port":27035,"enabled":true,"region":"us-west","cc":"us","latitude":47.608013,"longitude":-122.33517,"reserved":0,"last_update":"0001-01-01T00:00:00Z","name_a2s":"Uncletopia | Seattle | 3 | Stopwatch Beta","protocol":17,"map":"workshop/koth_ashville_final.ugc2130459942","folder":"tf","game":"Team Fortress","app_id":440,"player_count":0,"max_players":24,"Bots":0,"server_type":"Dedicated","server_os":"Linux","password":true,"vac":true,"version":"7757534","steam_id":85568392924515217,"keywords":["cp","nocrits","nodmgspread","uncletopia"],"game_id":440,"stv_port":27036,"stv_name":"Uncletopia | Seattle | 3 | Stopwatch Beta | STV","players":null},{"server_id":17,"name":"Uncletopia | San Francisco | 1 | All Maps","name_short":"sfo-1","host":"sfo-1.us.uncletopia.com","port":27015,"enabled":true,"region":"us-west","cc":"us","latitude":37.77397,"longitude":-122.4313,"reserved":0,"last_update":"0001-01-01T00:00:00Z","name_a2s":"Uncletopia | San Francisco | 1 | All Maps","protocol":17,"map":"cp_process_final","folder":"tf","game":"Team Fortress","app_id":440,"player_count":24,"max_players":24,"Bots":0,"server_type":"Dedicated","server_os":"Linux","password":true,"vac":true,"version":"7757534","steam_id":85568392924469999,"keywords":["cp","nocrits","nodmgspread","uncletopia"],"game_id":440,"stv_port":27016,"stv_name":"Uncletopia | San Francisco | 1 | All Maps | STV","players":[{"user_id":335,"name":"Mud","steam_id":76561198865866637,"connected_time":660000000000,"state":"active","ping":71},{"user_id":275,"name":"Cinna Mon","steam_id":76561198005840633,"connected_time":6638000000000,"state":"active","ping":74},{"user_id":309,"name":"the great hatsune miku","steam_id":76561198228125224,"connected_time":3888000000000,"state":"active","ping":60},{"user_id":315,"name":"onisock","steam_id":76561198166589402,"connected_time":3085000000000,"state":"active","ping":45},{"user_id":319,"name":"fidelity","steam_id":76561198110713618,"connected_time":2123000000000,"state":"active","ping":61},{"user_id":317,"name":"DaToasterKing","steam_id":76561199074553021,"connected_time":2670000000000,"state":"active","ping":68},{"user_id":327,"name":"Salty Ketchup","steam_id":76561198133905845,"connected_time":1153000000000,"state":"active","ping":106},{"user_id":329,"name":"The Assistant Regional Manager","steam_id":76561199221484936,"connected_time":889000000000,"state":"active","ping":71},{"user_id":341,"name":"Pah-Wraith Gul Dukat","steam_id":76561198033918106,"connected_time":584000000000,"state":"active","ping":49},{"user_id":313,"name":"Anna's slut","steam_id":76561199029201184,"connected_time":3694000000000,"state":"active","ping":73},{"user_id":342,"name":"Mr. Random","steam_id":76561199155782016,"connected_time":563000000000,"state":"active","ping":78},{"user_id":325,"name":"zaza2k","steam_id":76561198393760567,"connected_time":1597000000000,"state":"active","ping":64},{"user_id":340,"name":"illuminatedtortise","steam_id":76561199178186580,"connected_time":610000000000,"state":"active","ping":77},{"user_id":343,"name":"selling rice","steam_id":76561198063357023,"connected_time":556000000000,"state":"active","ping":45},{"user_id":344,"name":"Deacon","steam_id":76561197998532724,"connected_time":544000000000,"state":"active","ping":77},{"user_id":345,"name":"Five","steam_id":76561198026640473,"connected_time":515000000000,"state":"active","ping":69},{"user_id":331,"name":"raya","steam_id":76561198051504581,"connected_time":882000000000,"state":"active","ping":87},{"user_id":302,"name":"2j \u003c3","steam_id":76561198206752128,"connected_time":4432000000000,"state":"active","ping":175},{"user_id":332,"name":"ChipE","steam_id":76561198137146627,"connected_time":860000000000,"state":"active","ping":60},{"user_id":326,"name":"F3RRAL","steam_id":76561198172279275,"connected_time":1245000000000,"state":"active","ping":61},{"user_id":282,"name":"A UsedNom","steam_id":76561198402832756,"connected_time":6501000000000,"state":"active","ping":35},{"user_id":339,"name":"Anthoneeee","steam_id":76561199209220671,"connected_time":645000000000,"state":"active","ping":85},{"user_id":346,"name":"TrashMan","steam_id":76561198064860110,"connected_time":486000000000,"state":"active","ping":116},{"user_id":347,"name":"Livin' Like Larry","steam_id":76561198313360974,"connected_time":407000000000,"state":"active","ping":42}]},{"server_id":18,"name":"Uncletopia | San Francisco | 2 | All Maps","name_short":"sfo-2","host":"sfo-1.us.uncletopia.com","port":27025,"enabled":true,"region":"us-west","cc":"us","latitude":37.77397,"longitude":-122.4313,"reserved":0,"last_update":"0001-01-01T00:00:00Z","name_a2s":"Uncletopia | San Francisco | 2 | All Maps","protocol":17,"map":"pl_snowycoast","folder":"tf","game":"Team Fortress","app_id":440,"player_count":0,"max_players":24,"Bots":0,"server_type":"Dedicated","server_os":"Linux","password":true,"vac":true,"version":"7757534","steam_id":85568392924470000,"keywords":["nocrits","nodmgspread","payload","uncletopia"],"game_id":440,"stv_port":27026,"stv_name":"Uncletopia | San Francisco | 2 | All Maps | STV","players":null},{"server_id":19,"name":"Uncletopia | San Francisco | 3 | Stopwatch Beta","name_short":"sfo-3","host":"sfo-1.us.uncletopia.com","port":27035,"enabled":true,"region":"us-west","cc":"us","latitude":37.77397,"longitude":-122.4313,"reserved":0,"last_update":"0001-01-01T00:00:00Z","name_a2s":"Uncletopia | San Francisco | 3 | Stopwatch Beta","protocol":17,"map":"pl_borneo","folder":"tf","game":"Team Fortress","app_id":440,"player_count":0,"max_players":24,"Bots":0,"server_type":"Dedicated","server_os":"Linux","password":true,"vac":true,"version":"7757534","steam_id":85568392924742824,"keywords":["nocrits","nodmgspread","payload","uncletopia"],"game_id":440,"stv_port":27036,"stv_name":"Uncletopia | San Francisco | 3 | Stopwatch Beta | STV","players":null},{"server_id":20,"name":"Uncletopia | San Francisco | 4 | Community","name_short":"sfo-4","host":"sfo-1.us.uncletopia.com","port":27045,"enabled":true,"region":"us-west","cc":"us","latitude":37.77397,"longitude":-122.4313,"reserved":0,"last_update":"0001-01-01T00:00:00Z","name_a2s":"Uncletopia | San Francisco | 4 | Community","protocol":17,"map":"workshop/pl_cashworks_final1.ugc2904065412","folder":"tf","game":"Team Fortress","app_id":440,"player_count":24,"max_players":24,"Bots":0,"server_type":"Dedicated","server_os":"Linux","password":true,"vac":true,"version":"7757534","steam_id":85568392924742826,"keywords":["nocrits","nodmgspread","payload","uncletopia"],"game_id":440,"stv_port":27046,"stv_name":"Uncletopia | San Francisco | 4 | Community | STV","players":[{"user_id":708,"name":"Villchip","steam_id":76561198198599982,"connected_time":780000000000,"state":"active","ping":67},{"user_id":713,"name":"dlatgirp","steam_id":76561198417137724,"connected_time":499000000000,"state":"active","ping":45},{"user_id":686,"name":"Marcus Annius Verus","steam_id":76561198036850392,"connected_time":2347000000000,"state":"active","ping":115},{"user_id":699,"name":"Caker1234","steam_id":76561198871989710,"connected_time":1645000000000,"state":"active","ping":102},{"user_id":642,"name":"MarcusDragon11","steam_id":76561198071836719,"connected_time":5149000000000,"state":"active","ping":104},{"user_id":676,"name":"Antzen","steam_id":76561198041343470,"connected_time":2703000000000,"state":"active","ping":50},{"user_id":643,"name":"chanoc","steam_id":76561198026734746,"connected_time":5104000000000,"state":"active","ping":50},{"user_id":710,"name":"old birb man","steam_id":76561199410269097,"connected_time":558000000000,"state":"active","ping":96},{"user_id":711,"name":"seats","steam_id":76561197998756039,"connected_time":522000000000,"state":"active","ping":59},{"user_id":705,"name":"American freedom bird","steam_id":76561198366142388,"connected_time":830000000000,"state":"active","ping":72},{"user_id":712,"name":"Spare(8)Ball","steam_id":76561197982432995,"connected_time":516000000000,"state":"active","ping":50},{"user_id":706,"name":"A232","steam_id":76561199332982776,"connected_time":824000000000,"state":"active","ping":139},{"user_id":703,"name":"solitaire","steam_id":76561198964025682,"connected_time":883000000000,"state":"active","ping":45},{"user_id":716,"name":"Mr. Pockets","steam_id":76561198053657771,"connected_time":261000000000,"state":"active","ping":68},{"user_id":687,"name":"Timmy Thick","steam_id":76561198031018737,"connected_time":2344000000000,"state":"active","ping":58},{"user_id":715,"name":"Junior_198X","steam_id":76561198158596794,"connected_time":362000000000,"state":"active","ping":86},{"user_id":717,"name":"Demopirate Virus","steam_id":76561198050159379,"connected_time":250000000000,"state":"active","ping":104},{"user_id":718,"name":"Mahiru Koizumi","steam_id":76561198164782653,"connected_time":244000000000,"state":"active","ping":120},{"user_id":719,"name":"social distance warrior","steam_id":76561198128992994,"connected_time":240000000000,"state":"active","ping":74},{"user_id":696,"name":"Maniacal Rage","steam_id":76561197970758925,"connected_time":1911000000000,"state":"active","ping":70},{"user_id":693,"name":"GaMeRbOi","steam_id":76561199094353617,"connected_time":2105000000000,"state":"active","ping":74},{"user_id":694,"name":"N64Kanroji","steam_id":76561198045209288,"connected_time":2099000000000,"state":"active","ping":46},{"user_id":720,"name":"gerg","steam_id":76561197997127387,"connected_time":238000000000,"state":"active","ping":52},{"user_id":721,"name":"Mr. DemoBone Virus","steam_id":76561198044127250,"connected_time":224000000000,"state":"active","ping":113}]},{"server_id":141,"name":"Uncletopia | Sydney | 1 | All Maps","name_short":"syd-1","host":"syd-1.au.uncletopia.com","port":27015,"enabled":true,"region":"au","cc":"au","latitude":-33.865143,"longitude":151.2099,"reserved":0,"last_update":"0001-01-01T00:00:00Z","name_a2s":"Uncletopia | Sydney | 1 | All Maps","protocol":17,"map":"pl_swiftwater_final1","folder":"tf","game":"Team Fortress","app_id":440,"player_count":23,"max_players":24,"Bots":0,"server_type":"Dedicated","server_os":"Linux","password":true,"vac":true,"version":"7757534","steam_id":85568392924470001,"keywords":["nocrits","nodmgspread","payload","uncletopia"],"game_id":440,"stv_port":27016,"stv_name":"Uncletopia | Sydney | 1 | All Maps | STV","players":[{"user_id":427,"name":"Robert Feigen","steam_id":76561198038261903,"connected_time":1069000000000,"state":"active","ping":43},{"user_id":380,"name":"Cheeseluvr","steam_id":76561198095940638,"connected_time":3663000000000,"state":"active","ping":61},{"user_id":428,"name":"Bilbo Swaggins","steam_id":76561198984446872,"connected_time":913000000000,"state":"active","ping":57},{"user_id":344,"name":"Fixer","steam_id":76561199349854515,"connected_time":5860000000000,"state":"active","ping":57},{"user_id":420,"name":"spy exterminator","steam_id":76561199262584655,"connected_time":1524000000000,"state":"active","ping":54},{"user_id":429,"name":"Consolidated Fart","steam_id":76561198924101909,"connected_time":889000000000,"state":"active","ping":61},{"user_id":439,"name":"TuaMater","steam_id":76561198021019008,"connected_time":526000000000,"state":"active","ping":64},{"user_id":397,"name":"Cyrome","steam_id":76561198049602369,"connected_time":2984000000000,"state":"active","ping":63},{"user_id":423,"name":"Yandle","steam_id":76561198012396067,"connected_time":1277000000000,"state":"active","ping":61},{"user_id":433,"name":"Flat White","steam_id":76561198410190974,"connected_time":811000000000,"state":"active","ping":78},{"user_id":432,"name":"Jah","steam_id":76561198145620087,"connected_time":856000000000,"state":"active","ping":69},{"user_id":437,"name":"table","steam_id":76561199218095319,"connected_time":703000000000,"state":"active","ping":47},{"user_id":362,"name":"Captain Canadia","steam_id":76561198167967735,"connected_time":4347000000000,"state":"active","ping":49},{"user_id":438,"name":"¯\\_(ツ)_/¯","steam_id":76561199206182584,"connected_time":665000000000,"state":"active","ping":56},{"user_id":446,"name":"Toody","steam_id":76561198212656752,"connected_time":332000000000,"state":"active","ping":58},{"user_id":449,"name":"Nugget","steam_id":76561197961747465,"connected_time":172000000000,"state":"active","ping":83},{"user_id":450,"name":"Jy","steam_id":76561198104427524,"connected_time":139000000000,"state":"active","ping":51},{"user_id":426,"name":"Sy 4","steam_id":76561198879862702,"connected_time":1131000000000,"state":"active","ping":67},{"user_id":419,"name":"movablellama","steam_id":76561199466321887,"connected_time":1567000000000,"state":"active","ping":88},{"user_id":445,"name":"*ironic and funny name*","steam_id":76561199082481089,"connected_time":344000000000,"state":"active","ping":174},{"user_id":442,"name":"ゴ Pans'r'usゴ","steam_id":76561199457046392,"connected_time":485000000000,"state":"active","ping":75},{"user_id":352,"name":"Genuline","steam_id":76561198126426787,"connected_time":5638000000000,"state":"active","ping":43},{"user_id":443,"name":"Humboldt","steam_id":76561198064930358,"connected_time":472000000000,"state":"active","ping":70}]},{"server_id":123,"name":"Uncletopia | Sydney | 2 | All Maps","name_short":"syd-2","host":"syd-1.au.uncletopia.com","port":27025,"enabled":true,"region":"au","cc":"au","latitude":-33.865143,"longitude":151.2099,"reserved":0,"last_update":"0001-01-01T00:00:00Z","name_a2s":"Uncletopia | Sydney | 2 | All Maps","protocol":17,"map":"koth_viaduct","folder":"tf","game":"Team Fortress","app_id":440,"player_count":0,"max_players":24,"Bots":0,"server_type":"Dedicated","server_os":"Linux","password":true,"vac":true,"version":"7757534","steam_id":85568392924470002,"keywords":["cp","nocrits","nodmgspread","uncletopia"],"game_id":440,"stv_port":27026,"stv_name":"Uncletopia | Sydney | 2 | All Maps | STV","players":null},{"server_id":395,"name":"Uncletopia | Sydney | 3 | All Maps","name_short":"syd-3","host":"syd-1.au.uncletopia.com","port":27035,"enabled":true,"region":"au","cc":"au","latitude":-33.865143,"longitude":151.2099,"reserved":0,"last_update":"0001-01-01T00:00:00Z","name_a2s":"Uncletopia | Sydney | 3 | All Maps","protocol":17,"map":"cp_fastlane","folder":"tf","game":"Team Fortress","app_id":440,"player_count":24,"max_players":24,"Bots":0,"server_type":"Dedicated","server_os":"Linux","password":true,"vac":true,"version":"7757534","steam_id":85568392925194467,"keywords":["cp","nocrits","nodmgspread","uncletopia"],"game_id":440,"stv_port":27036,"stv_name":"Uncletopia | Sydney | 3 | All Maps | STV","players":[{"user_id":149,"name":"Bob Ross","steam_id":76561198081686896,"connected_time":7630000000000,"state":"active","ping":56},{"user_id":274,"name":"freaky","steam_id":76561198061174192,"connected_time":308000000000,"state":"active","ping":60},{"user_id":263,"name":"Le Chud","steam_id":76561197992677104,"connected_time":1266000000000,"state":"active","ping":101},{"user_id":277,"name":"Cup","steam_id":76561198038485845,"connected_time":190000000000,"state":"active","ping":30},{"user_id":219,"name":"Madg00ber","steam_id":76561198045267358,"connected_time":3157000000000,"state":"active","ping":63},{"user_id":197,"name":"Nenguu","steam_id":76561198243952386,"connected_time":3607000000000,"state":"active","ping":63},{"user_id":243,"name":"calculusfish","steam_id":76561198067205959,"connected_time":2094000000000,"state":"active","ping":66},{"user_id":245,"name":"SchlaytoN","steam_id":76561198206793747,"connected_time":1865000000000,"state":"active","ping":63},{"user_id":176,"name":"beans","steam_id":76561198202908888,"connected_time":5467000000000,"state":"active","ping":63},{"user_id":237,"name":"₮Ɇ₴₮ł₵ɄⱠØⱤɄ₥","steam_id":76561199349964541,"connected_time":2662000000000,"state":"active","ping":60},{"user_id":223,"name":"Canyon","steam_id":76561198233329500,"connected_time":3077000000000,"state":"active","ping":73},{"user_id":264,"name":"tommck","steam_id":76561198376969861,"connected_time":1233000000000,"state":"active","ping":89},{"user_id":242,"name":"pants money","steam_id":76561198066256359,"connected_time":2237000000000,"state":"active","ping":56},{"user_id":271,"name":"Snake101","steam_id":76561198418910767,"connected_time":755000000000,"state":"active","ping":60},{"user_id":250,"name":"MR Martian","steam_id":76561198157854561,"connected_time":1752000000000,"state":"active","ping":90},{"user_id":265,"name":"BurntSandwitch74","steam_id":76561199465539156,"connected_time":1188000000000,"state":"active","ping":56},{"user_id":233,"name":"AmethystDragon10","steam_id":76561198412979983,"connected_time":2780000000000,"state":"active","ping":83},{"user_id":270,"name":"Sinister80s","steam_id":76561198343540472,"connected_time":955000000000,"state":"active","ping":60},{"user_id":214,"name":"beth.cubitt","steam_id":76561198454733447,"connected_time":3297000000000,"state":"active","ping":98},{"user_id":275,"name":"Rumoshiji","steam_id":76561199174449723,"connected_time":243000000000,"state":"active","ping":149},{"user_id":276,"name":"Lord Oink","steam_id":76561198125237921,"connected_time":217000000000,"state":"active","ping":32},{"user_id":272,"name":"badmn","steam_id":76561198056462343,"connected_time":716000000000,"state":"active","ping":59},{"user_id":253,"name":"Legend27","steam_id":76561199475312777,"connected_time":1712000000000,"state":"active","ping":52},{"user_id":269,"name":"soupy","steam_id":76561198073734936,"connected_time":1064000000000,"state":"active","ping":88}]},{"server_id":396,"name":"Uncletopia | Sydney | 4 | All Maps","name_short":"syd-4","host":"syd-1.au.uncletopia.com","port":27045,"enabled":true,"region":"au","cc":"au","latitude":-33.865143,"longitude":151.2099,"reserved":0,"last_update":"0001-01-01T00:00:00Z","name_a2s":"Uncletopia | Sydney | 4 | All Maps","protocol":17,"map":"pl_frontier_final","folder":"tf","game":"Team Fortress","app_id":440,"player_count":0,"max_players":24,"Bots":0,"server_type":"Dedicated","server_os":"Linux","password":true,"vac":true,"version":"7757534","steam_id":85568392925397958,"keywords":["nocrits","nodmgspread","payload","uncletopia"],"game_id":440,"stv_port":27046,"stv_name":"Uncletopia | Sydney | 4 | All Maps | STV","players":null},{"server_id":58,"name":"Uncletopia | Sydney | 5 | Stopwatch Beta","name_short":"syd-5","host":"syd-1.au.uncletopia.com","port":27055,"enabled":true,"region":"au","cc":"au","latitude":-33.865143,"longitude":151.2099,"reserved":0,"last_update":"0001-01-01T00:00:00Z","name_a2s":"Uncletopia | Sydney | 5 | Stopwatch Beta","protocol":17,"map":"cp_metalworks","folder":"tf","game":"Team Fortress","app_id":440,"player_count":0,"max_players":24,"Bots":0,"server_type":"Dedicated","server_os":"Linux","password":true,"vac":true,"version":"7757534","steam_id":85568392925397959,"keywords":["cp","nocrits","nodmgspread","uncletopia"],"game_id":440,"stv_port":27056,"stv_name":"Uncletopia | Sydney | 5 | Stopwatch Beta | STV","players":null},{"server_id":59,"name":"Uncletopia | Sydney | 6 | Community","name_short":"syd-6","host":"syd-1.au.uncletopia.com","port":27065,"enabled":true,"region":"au","cc":"au","latitude":-33.865143,"longitude":151.2099,"reserved":0,"last_update":"0001-01-01T00:00:00Z","name_a2s":"Uncletopia | Sydney | 6 | Community","protocol":17,"map":"workshop/pl_divulgence_b4b.ugc2884808746","folder":"tf","game":"Team Fortress","app_id":440,"player_count":0,"max_players":24,"Bots":0,"server_type":"Dedicated","server_os":"Linux","password":true,"vac":true,"version":"7757534","steam_id":85568392925397960,"keywords":["nocrits","nodmgspread","payload","uncletopia"],"game_id":440,"stv_port":27066,"stv_name":"Uncletopia | Sydney | 6 | Community | STV","players":null},{"server_id":49,"name":"Uncletopia | Warsaw | 1 | All Maps","name_short":"waw-1","host":"waw-1.pl.uncletopia.com","port":27015,"enabled":true,"region":"eu","cc":"pl","latitude":52.2297,"longitude":21.017532,"reserved":0,"last_update":"0001-01-01T00:00:00Z","name_a2s":"","protocol":0,"map":"","folder":"","game":"","app_id":0,"player_count":0,"max_players":0,"Bots":0,"server_type":"","server_os":"","password":false,"vac":false,"version":"","steam_id":0,"keywords":null,"game_id":0,"stv_port":0,"stv_name":"","players":null},{"server_id":50,"name":"Uncletopia | Warsaw | 2 | All Maps","name_short":"waw-2","host":"waw-1.pl.uncletopia.com","port":27025,"enabled":true,"region":"eu","cc":"pl","latitude":52.2297,"longitude":21.017532,"reserved":0,"last_update":"0001-01-01T00:00:00Z","name_a2s":"Uncletopia | Warsaw | 2 | All Maps","protocol":17,"map":"pl_upward","folder":"tf","game":"Team Fortress","app_id":440,"player_count":0,"max_players":24,"Bots":0,"server_type":"Dedicated","server_os":"Linux","password":true,"vac":true,"version":"7757534","steam_id":85568392925397851,"keywords":["nocrits","nodmgspread","payload","uncletopia"],"game_id":440,"stv_port":27026,"stv_name":"Uncletopia | Warsaw | 2 | All Maps | STV","players":null},{"server_id":51,"name":"Uncletopia | Warsaw | 3 | All Maps","name_short":"waw-3","host":"waw-1.pl.uncletopia.com","port":27035,"enabled":true,"region":"eu","cc":"pl","latitude":52.2297,"longitude":21.017532,"reserved":0,"last_update":"0001-01-01T00:00:00Z","name_a2s":"Uncletopia | Warsaw | 3 | All Maps","protocol":17,"map":"cp_mountainlab","folder":"tf","game":"Team Fortress","app_id":440,"player_count":0,"max_players":24,"Bots":0,"server_type":"Dedicated","server_os":"Linux","password":true,"vac":true,"version":"7757534","steam_id":85568392925397852,"keywords":["cp","nocrits","nodmgspread","uncletopia"],"game_id":440,"stv_port":27036,"stv_name":"Uncletopia | Warsaw | 3 | All Maps | STV","players":null},{"server_id":52,"name":"Uncletopia | Warsaw | 4 | All Maps","name_short":"waw-4","host":"waw-1.pl.uncletopia.com","port":27045,"enabled":true,"region":"eu","cc":"pl","latitude":52.2297,"longitude":21.017532,"reserved":0,"last_update":"0001-01-01T00:00:00Z","name_a2s":"Uncletopia | Warsaw | 4 | All Maps","protocol":17,"map":"koth_viaduct","folder":"tf","game":"Team Fortress","app_id":440,"player_count":0,"max_players":24,"Bots":0,"server_type":"Dedicated","server_os":"Linux","password":true,"vac":true,"version":"7757534","steam_id":85568392925397853,"keywords":["cp","nocrits","nodmgspread","uncletopia"],"game_id":440,"stv_port":27046,"stv_name":"Uncletopia | Warsaw | 4 | All Maps | STV","players":null},{"server_id":53,"name":"Uncletopia | Warsaw | 5 | Stopwatch Beta","name_short":"waw-5","host":"waw-1.pl.uncletopia.com","port":27055,"enabled":true,"region":"eu","cc":"pl","latitude":52.2297,"longitude":21.017532,"reserved":0,"last_update":"0001-01-01T00:00:00Z","name_a2s":"Uncletopia | Warsaw | 5 | Stopwatch Beta","protocol":17,"map":"pl_pier","folder":"tf","game":"Team Fortress","app_id":440,"player_count":0,"max_players":24,"Bots":0,"server_type":"Dedicated","server_os":"Linux","password":true,"vac":true,"version":"7757534","steam_id":85568392925397854,"keywords":["nocrits","nodmgspread","payload","uncletopia"],"game_id":440,"stv_port":27056,"stv_name":"Uncletopia | Warsaw | 5 | Stopwatch Beta | STV","players":null},{"server_id":54,"name":"Uncletopia | Warsaw | 6 | Community","name_short":"waw-6","host":"waw-1.pl.uncletopia.com","port":27065,"enabled":true,"region":"eu","cc":"pl","latitude":52.2297,"longitude":21.017532,"reserved":0,"last_update":"0001-01-01T00:00:00Z","name_a2s":"Uncletopia | Warsaw | 6 | Community","protocol":17,"map":"koth_highpass","folder":"tf","game":"Team Fortress","app_id":440,"player_count":0,"max_players":24,"Bots":0,"server_type":"Dedicated","server_os":"Linux","password":true,"vac":true,"version":"7757534","steam_id":85568392925397856,"keywords":["cp","nocrits","nodmgspread","uncletopia"],"game_id":440,"stv_port":27066,"stv_name":"Uncletopia | Warsaw | 6 | Community | STV","players":null}]}