{"status":true,"message":"","result":[{"server_id":9,"name":"Uncletopia | Atlanta | 1 | All Maps","name_short":"atl-1","host":"atl-1.us.uncletopia.com","port":27015,"enabled":true,"region":"us-east","cc":"us","latitude":33.753746,"longitude":-84.38633,"reserved":0,"last_update":"0001-01-01T00:00:00Z","name_a2s":"Uncletopia | Atlanta | 1 | All Maps","protocol":17,"map":"pl_borneo","folder":"tf","game":"Team Fortress","app_id":440,"player_count":2,"max_players":24,"Bots":0,"server_type":"Dedicated","server_os":"Linux","password":true,"vac":true,"version":"7961495","steam_id":85568392924469982,"keywords":["nocrits","nodmgspread","payload","uncletopia"],"game_id":440,"stv_port":27016,"stv_name":"Uncletopia | Atlanta | 1 | All Maps | STV","players":[{"user_id":766,"name":"Derpydude2002","steam_id":76561198811719519,"connected_time":700000000000,"state":"active","ping":69},{"user_id":753,"name":"Temina","steam_id":76561198978778718,"connected_time":2256000000000,"state":"active","ping":110}]},{"server_id":104,"name":"Uncletopia | Atlanta | 2 | All Maps","name_short":"atl-2","host":"atl-1.us.uncletopia.com","port":27025,"enabled":true,"region":"us-east","cc":"us","latitude":33.753746,"longitude":-84.38633,"reserved":0,"last_update":"0001-01-01T00:00:00Z","name_a2s":"Uncletopia | Atlanta | 2 | All Maps","protocol":17,"map":"koth_viaduct","folder":"tf","game":"Team Fortress","app_id":440,"player_count":0,"max_players":24,"Bots":0,"server_type":"Dedicated","server_os":"Linux","password":true,"vac":true,"version":"7961495","steam_id":85568392924469983,"keywords":["cp","nocrits","nodmgspread","uncletopia"],"game_id":440,"stv_port":27026,"stv_name":"Uncletopia | Atlanta | 2 | All Maps | STV","players":null},{"server_id":400,"name":"Uncletopia | Atlanta | 3 | Stopwatch","name_short":"atl-3","host":"atl-1.us.uncletopia.com","port":27035,"enabled":true,"region":"us-east","cc":"us","latitude":33.753746,"longitude":-84.38633,"reserved":0,"last_update":"0001-01-01T00:00:00Z","name_a2s":"Uncletopia | Atlanta | 3 | Stopwatch","protocol":17,"map":"workshop/koth_jamram_rc1a.ugc2964065613","folder":"tf","game":"Team Fortress","app_id":440,"player_count":2,"max_players":24,"Bots":0,"server_type":"Dedicated","server_os":"Linux","password":true,"vac":true,"version":"7961495","steam_id":85568392924515187,"keywords":["cp","nocrits","nodmgspread","uncletopia"],"game_id":440,"stv_port":27036,"stv_name":"Uncletopia | Atlanta | 3 | Stopwatch | STV","players":[{"user_id":310,"name":"Cannon Fodder 668","steam_id":76561199242093570,"connected_time":4835000000000,"state":"active","ping":72},{"user_id":311,"name":"the milk man","steam_id":76561199247476314,"connected_time":4830000000000,"state":"active","ping":69}]},{"server_id":401,"name":"Uncletopia | Atlanta | 4 | Community","name_short":"atl-4","host":"atl-1.us.uncletopia.com","port":27045,"enabled":true,"region":"us-east","cc":"us","latitude":33.753746,"longitude":-84.38633,"reserved":0,"last_update":"0001-01-01T00:00:00Z","name_a2s":"Uncletopia | Atlanta | 4 | Community","protocol":17,"map":"workshop/koth_product_final.ugc454272353","folder":"tf","game":"Team Fortress","app_id":440,"player_count":0,"max_players":24,"Bots":0,"server_type":"Dedicated","server_os":"Linux","password":true,"vac":true,"version":"7961495","steam_id":85568392924515188,"keywords":["cp","nocrits","nodmgspread","uncletopia"],"game_id":440,"stv_port":27046,"stv_name":"Uncletopia | Atlanta | 4 | Community | STV","players":null},{"server_id":2,"name":"Uncletopia | Chicago | 1 | All Maps","name_short":"chi-1","host":"chi-1.us.uncletopia.com","port":27015,"enabled":true,"region":"us-central","cc":"us","latitude":41.881832,"longitude":-87.62318,"reserved":0,"last_update":"0001-01-01T00:00:00Z","name_a2s":"Uncletopia | Chicago | 1 | All Maps","protocol":17,"map":"cp_gorge","folder":"tf","game":"Team Fortress","app_id":440,"player_count":6,"max_players":24,"Bots":0,"server_type":"Dedicated","server_os":"Linux","password":true,"vac":true,"version":"7961495","steam_id":85568392924469984,"keywords":["cp","nocrits","nodmgspread","uncletopia"],"game_id":440,"stv_port":27016,"stv_name":"Uncletopia | Chicago | 1 | All Maps | STV","players":[{"user_id":1008,"name":"ChocolateThinMints","steam_id":76561198068009426,"connected_time":94000000000,"state":"active","ping":42},{"user_id":896,"name":"just call me joe","steam_id":76561198043911582,"connected_time":6079000000000,"state":"active","ping":54},{"user_id":1005,"name":"Nice Shot","steam_id":76561198267313008,"connected_time":224000000000,"state":"active","ping":186},{"user_id":890,"name":"Omle","steam_id":76561198873603097,"connected_time":6556000000000,"state":"active","ping":75},{"user_id":949,"name":"Fridgidaere @bowie.gg","steam_id":76561198131467867,"connected_time":4250000000000,"state":"active","ping":89},{"user_id":953,"name":"Noobert McGlitchington the 3st","steam_id":76561198073176682,"connected_time":4178000000000,"state":"active","ping":56}]},{"server_id":106,"name":"Uncletopia | Chicago | 2 | All Maps","name_short":"chi-2","host":"chi-1.us.uncletopia.com","port":27025,"enabled":true,"region":"us-central","cc":"us","latitude":41.881832,"longitude":-87.62318,"reserved":0,"last_update":"0001-01-01T00:00:00Z","name_a2s":"Uncletopia | Chicago | 2 | All Maps","protocol":17,"map":"pl_frontier_final","folder":"tf","game":"Team Fortress","app_id":440,"player_count":24,"max_players":24,"Bots":0,"server_type":"Dedicated","server_os":"Linux","password":true,"vac":true,"version":"7961495","steam_id":85568392924469985,"keywords":["nocrits","nodmgspread","payload","uncletopia"],"game_id":440,"stv_port":27026,"stv_name":"Uncletopia | Chicago | 2 | All Maps | STV","players":[{"user_id":740,"name":"Sprinx","steam_id":76561198112614381,"connected_time":14750000000000,"state":"active","ping":62},{"user_id":918,"name":"wizard cate","steam_id":76561198083907105,"connected_time":2640000000000,"state":"active","ping":86},{"user_id":887,"name":"engineer engineering","steam_id":76561198110198881,"connected_time":4778000000000,"state":"active","ping":153},{"user_id":950,"name":"ThePalmTopSushi","steam_id":76561198847076153,"connected_time":26000000000,"state":"active","ping":98},{"user_id":874,"name":"Goober","steam_id":76561198988863807,"connected_time":6317000000000,"state":"active","ping":69},{"user_id":936,"name":"The Ferg","steam_id":76561197984579630,"connected_time":1438000000000,"state":"active","ping":105},{"user_id":923,"name":"None of that $9.99 bullshit","steam_id":76561198116169903,"connected_time":2114000000000,"state":"active","ping":45},{"user_id":932,"name":"my letter","steam_id":76561198277979851,"connected_time":1615000000000,"state":"active","ping":81},{"user_id":890,"name":"Outlander","steam_id":76561199032887232,"connected_time":4627000000000,"state":"active","ping":60},{"user_id":933,"name":"Jade","steam_id":76561198092408457,"connected_time":1594000000000,"state":"active","ping":90},{"user_id":901,"name":"zpalmtree","steam_id":76561198134307620,"connected_time":4061000000000,"state":"active","ping":60},{"user_id":419,"name":"runescape legend","steam_id":76561198077791373,"connected_time":30701000000000,"state":"active","ping":46},{"user_id":940,"name":"StudMuffin","steam_id":76561198049223250,"connected_time":829000000000,"state":"active","ping":105},{"user_id":926,"name":"Gordon R. laz","steam_id":76561198133102865,"connected_time":1837000000000,"state":"active","ping":75},{"user_id":946,"name":"Obi-wan Jabroni","steam_id":76561198107558323,"connected_time":288000000000,"state":"active","ping":76},{"user_id":945,"name":"Digresser","steam_id":76561198016426367,"connected_time":342000000000,"state":"active","ping":60},{"user_id":947,"name":"Goredude","steam_id":76561198041048764,"connected_time":266000000000,"state":"active","ping":60},{"user_id":948,"name":"C∅RVUS","steam_id":76561198100640019,"connected_time":250000000000,"state":"active","ping":109},{"user_id":943,"name":"Sweater-Fan","steam_id":76561199389567214,"connected_time":513000000000,"state":"active","ping":70},{"user_id":879,"name":"Wang of Wall St","steam_id":76561198047460598,"connected_time":6211000000000,"state":"active","ping":68},{"user_id":941,"name":"Zoramine Fae","steam_id":76561198346753422,"connected_time":561000000000,"state":"active","ping":36},{"user_id":949,"name":"Tax Evader","steam_id":76561198101144414,"connected_time":248000000000,"state":"active","ping":88},{"user_id":898,"name":"Ashton","steam_id":76561198300590302,"connected_time":4468000000000,"state":"active","ping":53},{"user_id":939,"name":"¡cálmate!","steam_id":76561198071421094,"connected_time":1129000000000,"state":"active","ping":104}]},{"server_id":402,"name":"Uncletopia | Chicago | 3 | All Maps","name_short":"chi-3","host":"chi-1.us.uncletopia.com","port":27035,"enabled":true,"region":"us-central","cc":"us","latitude":41.881832,"longitude":-87.62318,"reserved":0,"last_update":"0001-01-01T00:00:00Z","name_a2s":"Uncletopia | Chicago | 3 | All Maps","protocol":17,"map":"koth_viaduct","folder":"tf","game":"Team Fortress","app_id":440,"player_count":24,"max_players":24,"Bots":0,"server_type":"Dedicated","server_os":"Linux","password":true,"vac":true,"version":"7961495","steam_id":85568392924515191,"keywords":["cp","nocrits","nodmgspread","uncletopia"],"game_id":440,"stv_port":27036,"stv_name":"Uncletopia | Chicago | 3 | All Maps | STV","players":[{"user_id":519,"name":"Trundlini","steam_id":76561198810160534,"connected_time":3930000000000,"state":"active","ping":98},{"user_id":520,"name":"Kepa","steam_id":76561198091975728,"connected_time":3929000000000,"state":"active","ping":66},{"user_id":521,"name":"ZemkJval","steam_id":76561198154464008,"connected_time":3914000000000,"state":"active","ping":65},{"user_id":570,"name":"Rebird","steam_id":76561198226329116,"connected_time":774000000000,"state":"active","ping":80},{"user_id":524,"name":"TheGerg","steam_id":76561198257099217,"connected_time":3818000000000,"state":"active","ping":68},{"user_id":559,"name":"Stev","steam_id":76561198061516631,"connected_time":1514000000000,"state":"active","ping":60},{"user_id":560,"name":"The Khronicles of Keith","steam_id":76561198056622157,"connected_time":1508000000000,"state":"active","ping":61},{"user_id":544,"name":"Blobbyfish","steam_id":76561198822962650,"connected_time":2658000000000,"state":"active","ping":57},{"user_id":561,"name":"carnage519","steam_id":76561199231295945,"connected_time":1507000000000,"state":"active","ping":60},{"user_id":568,"name":"night.s","steam_id":76561198326287823,"connected_time":1023000000000,"state":"active","ping":165},{"user_id":573,"name":"Schizoid","steam_id":76561198088687988,"connected_time":457000000000,"state":"active","ping":56},{"user_id":495,"name":"ifuruna","steam_id":76561199506882366,"connected_time":6760000000000,"state":"active","ping":125},{"user_id":562,"name":"the cranston dart huffer","steam_id":76561198041938330,"connected_time":1486000000000,"state":"active","ping":82},{"user_id":571,"name":"mayor of cool person city","steam_id":76561198048882285,"connected_time":716000000000,"state":"active","ping":67},{"user_id":574,"name":"aero","steam_id":76561198297202459,"connected_time":315000000000,"state":"active","ping":69},{"user_id":576,"name":"inshallah","steam_id":76561198165212575,"connected_time":99000000000,"state":"active","ping":69},{"user_id":537,"name":"marlow","steam_id":76561198094408360,"connected_time":2929000000000,"state":"active","ping":78},{"user_id":538,"name":"take a shot every time i die","steam_id":76561198041348890,"connected_time":2882000000000,"state":"active","ping":84},{"user_id":572,"name":"frog from pond","steam_id":76561198184900753,"connected_time":624000000000,"state":"active","ping":47},{"user_id":566,"name":"for the king","steam_id":76561197973488858,"connected_time":1307000000000,"state":"active","ping":61},{"user_id":575,"name":"Meat Sweats","steam_id":76561198049086812,"connected_time":131000000000,"state":"active","ping":60},{"user_id":552,"name":"him/her","steam_id":76561198122238340,"connected_time":2282000000000,"state":"active","ping":82},{"user_id":567,"name":"Primelotus","steam_id":76561198086618284,"connected_time":1301000000000,"state":"active","ping":98},{"user_id":549,"name":"cy","steam_id":76561198885893295,"connected_time":2523000000000,"state":"active","ping":59}]},{"server_id":403,"name":"Uncletopia | Chicago | 4 | All Maps","name_short":"chi-4","host":"chi-1.us.uncletopia.com","port":27045,"enabled":true,"region":"us-central","cc":"us","latitude":41.881832,"longitude":-87.62318,"reserved":0,"last_update":"0001-01-01T00:00:00Z","name_a2s":"Uncletopia | Chicago | 4 | All Maps","protocol":17,"map":"cp_sunshine","folder":"tf","game":"Team Fortress","app_id":440,"player_count":0,"max_players":24,"Bots":0,"server_type":"Dedicated","server_os":"Linux","password":true,"vac":true,"version":"7961495","steam_id":85568392924515193,"keywords":["cp","nocrits","nodmgspread","uncletopia"],"game_id":440,"stv_port":27046,"stv_name":"Uncletopia | Chicago | 4 | All Maps | STV","players":null},{"server_id":36,"name":"Uncletopia | Chicago | 5 | All Maps","name_short":"chi-5","host":"chi-2.us.uncletopia.com","port":27015,"enabled":true,"region":"us-central","cc":"us","latitude":41.881832,"longitude":-87.62318,"reserved":0,"last_update":"0001-01-01T00:00:00Z","name_a2s":"Uncletopia | Chicago | 5 | All Maps","protocol":17,"map":"pl_badwater","folder":"tf","game":"Team Fortress","app_id":440,"player_count":24,"max_players":24,"Bots":0,"server_type":"Dedicated","server_os":"Linux","password":true,"vac":true,"version":"7961495","steam_id":85568392924866362,"keywords":["nocrits","nodmgspread","payload","uncletopia"],"game_id":440,"stv_port":27016,"stv_name":"Uncletopia | Chicago | 5 | All Maps | STV","players":[{"user_id":696,"name":"9gon Danmar33","steam_id":76561198056453091,"connected_time":2302000000000,"state":"active","ping":48},{"user_id":652,"name":"BonBonBon","steam_id":76561198016307916,"connected_time":5426000000000,"state":"active","ping":101},{"user_id":689,"name":"TyranoFlamesaurus-Rex","steam_id":76561198187188506,"connected_time":2727000000000,"state":"active","ping":68},{"user_id":731,"name":"the.land.of.avalon","steam_id":76561198245431668,"connected_time":304000000000,"state":"active","ping":56},{"user_id":715,"name":"CatLionCake","steam_id":76561199287448032,"connected_time":1240000000000,"state":"active","ping":73},{"user_id":732,"name":"LikeASir","steam_id":76561198042209721,"connected_time":111000000000,"state":"active","ping":45},{"user_id":716,"name":"Philo","steam_id":76561198061873341,"connected_time":1239000000000,"state":"active","ping":76},{"user_id":690,"name":"Blue Zuben","steam_id":76561198106447025,"connected_time":2709000000000,"state":"active","ping":93},{"user_id":717,"name":"StiaanSauce","steam_id":76561198091940547,"connected_time":1222000000000,"state":"active","ping":49},{"user_id":719,"name":"Daddy-O Dizzy","steam_id":76561198292349348,"connected_time":898000000000,"state":"active","ping":76},{"user_id":733,"name":"hapa demon punk","steam_id":76561198308883028,"connected_time":100000000000,"state":"active","ping":102},{"user_id":697,"name":"Rez LeRoux","steam_id":76561198451503538,"connected_time":2296000000000,"state":"active","ping":75},{"user_id":709,"name":"frank","steam_id":76561198137777483,"connected_time":1514000000000,"state":"active","ping":66},{"user_id":713,"name":"IBA Chandler","steam_id":76561198403649648,"connected_time":1441000000000,"state":"active","ping":56},{"user_id":722,"name":"mechiimi ★","steam_id":76561198321627268,"connected_time":767000000000,"state":"active","ping":122},{"user_id":723,"name":"BilboShepard","steam_id":76561198400412548,"connected_time":634000000000,"state":"active","ping":92},{"user_id":724,"name":"Axel Beoulve","steam_id":76561198126511231,"connected_time":632000000000,"state":"active","ping":143},{"user_id":725,"name":"AzuriousAlex","steam_id":76561198158026405,"connected_time":498000000000,"state":"active","ping":70},{"user_id":734,"name":"Jazz2T","steam_id":76561198154418867,"connected_time":64000000000,"state":"active","ping":103},{"user_id":735,"name":"DarkLink909","steam_id":76561198084139172,"connected_time":34000000000,"state":"active","ping":102},{"user_id":730,"name":"KATSURB","steam_id":76561199172118456,"connected_time":355000000000,"state":"active","ping":61},{"user_id":729,"name":"SunPraisin","steam_id":76561198182761491,"connected_time":418000000000,"state":"active","ping":60},{"user_id":706,"name":"GuyGoom","steam_id":76561198254522178,"connected_time":1663000000000,"state":"active","ping":59},{"user_id":714,"name":"TheHumanTaco119","steam_id":76561198996107520,"connected_time":1353000000000,"state":"active","ping":104}]},{"server_id":37,"name":"Uncletopia | Chicago | 6 | All Maps","name_short":"chi-6","host":"chi-2.us.uncletopia.com","port":27025,"enabled":true,"region":"us-central","cc":"us","latitude":41.881832,"longitude":-87.62318,"reserved":0,"last_update":"0001-01-01T00:00:00Z","name_a2s":"Uncletopia | Chicago | 6 | All Maps","protocol":17,"map":"pl_barnblitz","folder":"tf","game":"Team Fortress","app_id":440,"player_count":24,"max_players":24,"Bots":0,"server_type":"Dedicated","server_os":"Linux","password":true,"vac":true,"version":"7961495","steam_id":85568392924866363,"keywords":["nocrits","nodmgspread","payload","uncletopia"],"game_id":440,"stv_port":27026,"stv_name":"Uncletopia | Chicago | 6 | All Maps | STV","players":[{"user_id":534,"name":"JesusDicks","steam_id":76561198066393631,"connected_time":4205000000000,"state":"active","ping":60},{"user_id":555,"name":"ᵐᵉᵒʷ","steam_id":76561199200969139,"connected_time":1321000000000,"state":"active","ping":105},{"user_id":528,"name":"Private Sloppy","steam_id":76561198019861196,"connected_time":4909000000000,"state":"active","ping":56},{"user_id":500,"name":"ุ","steam_id":76561198170624701,"connected_time":6857000000000,"state":"active","ping":81},{"user_id":496,"name":"baunter","steam_id":76561198024311871,"connected_time":7869000000000,"state":"active","ping":94},{"user_id":542,"name":"Hamster","steam_id":76561198079599992,"connected_time":2571000000000,"state":"active","ping":44},{"user_id":547,"name":"Cookie_Crab","steam_id":76561198088116479,"connected_time":2314000000000,"state":"active","ping":70},{"user_id":548,"name":"Nilantive","steam_id":76561198177565082,"connected_time":2073000000000,"state":"active","ping":74},{"user_id":558,"name":"paetho YT","steam_id":76561198152690003,"connected_time":1206000000000,"state":"active","ping":60},{"user_id":518,"name":"Retro","steam_id":76561198445362325,"connected_time":6018000000000,"state":"active","ping":80},{"user_id":531,"name":"Nestor","steam_id":76561198070782619,"connected_time":4778000000000,"state":"active","ping":52},{"user_id":497,"name":"lobster","steam_id":76561198147417707,"connected_time":7857000000000,"state":"active","ping":89},{"user_id":541,"name":"phantom","steam_id":76561197963860777,"connected_time":3201000000000,"state":"active","ping":42},{"user_id":560,"name":"TheArachnidGamer","steam_id":76561198304986752,"connected_time":1083000000000,"state":"active","ping":75},{"user_id":468,"name":"D(b) Hell","steam_id":76561198067869016,"connected_time":10134000000000,"state":"active","ping":46},{"user_id":561,"name":"✧.*Remzy✧.*","steam_id":76561199239412094,"connected_time":626000000000,"state":"active","ping":139},{"user_id":520,"name":"ClownTown","steam_id":76561199350870177,"connected_time":5971000000000,"state":"active","ping":66},{"user_id":521,"name":"DarthVader","steam_id":76561199061259359,"connected_time":5905000000000,"state":"active","ping":90},{"user_id":522,"name":"FacelessJoker","steam_id":76561198835832351,"connected_time":5879000000000,"state":"active","ping":79},{"user_id":538,"name":"Spy_Gaming_66","steam_id":76561198307532189,"connected_time":4106000000000,"state":"active","ping":94},{"user_id":550,"name":"ninja_dray","steam_id":76561199235773615,"connected_time":2050000000000,"state":"active","ping":118},{"user_id":533,"name":"U ω U","steam_id":76561198118802562,"connected_time":4697000000000,"state":"active","ping":110},{"user_id":552,"name":"DreamKiller","steam_id":76561198028580715,"connected_time":1750000000000,"state":"active","ping":126},{"user_id":524,"name":"Dark Knight","steam_id":76561199167544782,"connected_time":5816000000000,"state":"active","ping":55}]},{"server_id":38,"name":"Uncletopia | Chicago | 7 | Stopwatch","name_short":"chi-7","host":"chi-2.us.uncletopia.com","port":27035,"enabled":true,"region":"us-central","cc":"us","latitude":41.881832,"longitude":-87.62318,"reserved":0,"last_update":"0001-01-01T00:00:00Z","name_a2s":"Uncletopia | Chicago | 7 | Stopwatch","protocol":17,"map":"cp_process_final","folder":"tf","game":"Team Fortress","app_id":440,"player_count":0,"max_players":24,"Bots":0,"server_type":"Dedicated","server_os":"Linux","password":true,"vac":true,"version":"7961495","steam_id":85568392924866364,"keywords":["cp","nocrits","nodmgspread","uncletopia"],"game_id":440,"stv_port":27036,"stv_name":"Uncletopia | Chicago | 7 | Stopwatch | STV","players":null},{"server_id":39,"name":"Uncletopia | Chicago | 8 | Community","name_short":"chi-8","host":"chi-2.us.uncletopia.com","port":27045,"enabled":true,"region":"us-central","cc":"us","latitude":41.881832,"longitude":-87.62318,"reserved":0,"last_update":"0001-01-01T00:00:00Z","name_a2s":"Uncletopia | Chicago | 8 | Community","protocol":17,"map":"workshop/cp_glassworks_rc7a.ugc454118349","folder":"tf","game":"Team Fortress","app_id":440,"player_count":0,"max_players":24,"Bots":0,"server_type":"Dedicated","server_os":"Linux","password":true,"vac":true,"version":"7961495","steam_id":85568392924866365,"keywords":["cp","nocrits","nodmgspread","uncletopia"],"game_id":440,"stv_port":27046,"stv_name":"Uncletopia | Chicago | 8 | Community | STV","players":null},{"server_id":8,"name":"Uncletopia | Dallas | 1 | All Maps","name_short":"dal-1","host":"dal-1.us.uncletopia.com","port":27015,"enabled":true,"region":"us-central","cc":"us","latitude":32.779167,"longitude":-96.80889,"reserved":0,"last_update":"0001-01-01T00:00:00Z","name_a2s":"Uncletopia | Dallas | 1 | All Maps","protocol":17,"map":"cp_sunshine","folder":"tf","game":"Team Fortress","app_id":440,"player_count":0,"max_players":24,"Bots":0,"server_type":"Dedicated","server_os":"Linux","password":true,"vac":true,"version":"7961495","steam_id":85568392924469986,"keywords":["cp","nocrits","nodmgspread","uncletopia"],"game_id":440,"stv_port":27016,"stv_name":"Uncletopia | Dallas | 1 | All Maps | STV","players":null},{"server_id":108,"name":"Uncletopia | Dallas | 2 | All Maps","name_short":"dal-2","host":"dal-1.us.uncletopia.com","port":27025,"enabled":true,"region":"us-central","cc":"us","latitude":32.779167,"longitude":-96.80889,"reserved":0,"last_update":"0001-01-01T00:00:00Z","name_a2s":"Uncletopia | Dallas | 2 | All Maps","protocol":17,"map":"pl_borneo","folder":"tf","game":"Team Fortress","app_id":440,"player_count":5,"max_players":24,"Bots":0,"server_type":"Dedicated","server_os":"Linux","password":true,"vac":true,"version":"7961495","steam_id":85568392924469988,"keywords":["nocrits","nodmgspread","payload","uncletopia"],"game_id":440,"stv_port":27026,"stv_name":"Uncletopia | Dallas | 2 | All Maps | STV","players":[{"user_id":660,"name":"Pidgenn","steam_id":76561198367926202,"connected_time":1013000000000,"state":"active","ping":32},{"user_id":667,"name":"Gul'dan","steam_id":76561198240466940,"connected_time":252000000000,"state":"active","ping":161},{"user_id":649,"name":"JuanMC45","steam_id":76561198106690944,"connected_time":1925000000000,"state":"active","ping":119},{"user_id":653,"name":"ErikG65USA","steam_id":76561199381735619,"connected_time":1386000000000,"state":"active","ping":61},{"user_id":654,"name":"GatorAIDS","steam_id":76561198043220092,"connected_time":1363000000000,"state":"active","ping":58}]},{"server_id":404,"name":"Uncletopia | Dallas | 3 | All Maps","name_short":"dal-3","host":"dal-1.us.uncletopia.com","port":27035,"enabled":true,"region":"us-central","cc":"us","latitude":32.779167,"longitude":-96.80889,"reserved":0,"last_update":"0001-01-01T00:00:00Z","name_a2s":"Uncletopia | Dallas | 3 | All Maps","protocol":17,"map":"pl_upward","folder":"tf","game":"Team Fortress","app_id":440,"player_count":22,"max_players":24,"Bots":0,"server_type":"Dedicated","server_os":"Linux","password":true,"vac":true,"version":"7961495","steam_id":85568392924515219,"keywords":["nocrits","nodmgspread","payload","uncletopia"],"game_id":440,"stv_port":27036,"stv_name":"Uncletopia | Dallas | 3 | All Maps | STV","players":[{"user_id":371,"name":"Not Muscle Man","steam_id":76561198010460535,"connected_time":4612000000000,"state":"active","ping":65},{"user_id":331,"name":"riSygneD","steam_id":76561198331618687,"connected_time":9452000000000,"state":"active","ping":69},{"user_id":378,"name":"poggerchamp","steam_id":76561199145124973,"connected_time":3585000000000,"state":"active","ping":51},{"user_id":407,"name":"SleepyTrout (Charging My PsP)","steam_id":76561198118082897,"connected_time":111000000000,"state":"active","ping":90},{"user_id":341,"name":"Aeon","steam_id":76561198079117315,"connected_time":8046000000000,"state":"active","ping":78},{"user_id":406,"name":"Andrew's Taint","steam_id":76561198131400543,"connected_time":144000000000,"state":"active","ping":73},{"user_id":388,"name":"Bucky Garage","steam_id":76561197995185343,"connected_time":2425000000000,"state":"active","ping":74},{"user_id":403,"name":"Slowdive w/ EATEOF","steam_id":76561198047856328,"connected_time":880000000000,"state":"active","ping":165},{"user_id":353,"name":"guts' theme (Cut \u0026 Looped)","steam_id":76561198012829728,"connected_time":7229000000000,"state":"active","ping":59},{"user_id":390,"name":"jade","steam_id":76561198055611029,"connected_time":2363000000000,"state":"active","ping":62},{"user_id":344,"name":"Erin","steam_id":76561198040333168,"connected_time":7899000000000,"state":"active","ping":98},{"user_id":385,"name":"Criptonic","steam_id":76561198840841130,"connected_time":2656000000000,"state":"active","ping":80},{"user_id":408,"name":"AstralLucario","steam_id":76561198075427665,"connected_time":106000000000,"state":"active","ping":56},{"user_id":404,"name":"Bankito","steam_id":76561198972260865,"connected_time":604000000000,"state":"active","ping":86},{"user_id":393,"name":"Code","steam_id":76561198084509974,"connected_time":2242000000000,"state":"active","ping":80},{"user_id":356,"name":"CeLeb144","steam_id":76561199089907740,"connected_time":7176000000000,"state":"active","ping":61},{"user_id":382,"name":"TheDragoniar","steam_id":76561198347102664,"connected_time":3069000000000,"state":"active","ping":177},{"user_id":398,"name":"Can You Feel It Mr.Krabs","steam_id":76561198128302414,"connected_time":1779000000000,"state":"active","ping":127},{"user_id":410,"name":"The Horselords and Animal Gods","steam_id":76561197975094050,"connected_time":59000000000,"state":"active","ping":76},{"user_id":293,"name":"Marzbee115","steam_id":76561198095821025,"connected_time":12210000000000,"state":"active","ping":59},{"user_id":402,"name":"Galactamarx","steam_id":76561198028065755,"connected_time":1307000000000,"state":"active","ping":75},{"user_id":411,"name":"Muselk, but mexican","steam_id":76561199289676387,"connected_time":32000000000,"state":"active","ping":62}]},{"server_id":405,"name":"Uncletopia | Dallas | 4 | Community","name_short":"dal-4","host":"dal-1.us.uncletopia.com","port":27045,"enabled":true,"region":"us-central","cc":"us","latitude":32.779167,"longitude":-96.80889,"reserved":0,"last_update":"0001-01-01T00:00:00Z","name_a2s":"Uncletopia | Dallas | 4 | Community","protocol":17,"map":"workshop/koth_product_final.ugc454272353","folder":"tf","game":"Team Fortress","app_id":440,"player_count":0,"max_players":24,"Bots":0,"server_type":"Dedicated","server_os":"Linux","password":true,"vac":true,"version":"7961495","steam_id":85568392924515220,"keywords":["cp","nocrits","nodmgspread","uncletopia"],"game_id":440,"stv_port":27046,"stv_name":"Uncletopia | Dallas | 4 | Community | STV","players":null},{"server_id":5,"name":"Uncletopia | Frankfurt | 1 | All Maps","name_short":"frk-1","host":"frk-1.de.uncletopia.com","port":27015,"enabled":true,"region":"eu","cc":"de","latitude":50.110924,"longitude":8.682127,"reserved":0,"last_update":"0001-01-01T00:00:00Z","name_a2s":"Uncletopia | Frankfurt | 1 | All Maps","protocol":17,"map":"cp_badlands","folder":"tf","game":"Team Fortress","app_id":440,"player_count":0,"max_players":24,"Bots":0,"server_type":"Dedicated","server_os":"Linux","password":true,"vac":true,"version":"7961495","steam_id":85568392924469989,"keywords":["cp","nocrits","nodmgspread","uncletopia"],"game_id":440,"stv_port":27016,"stv_name":"Uncletopia | Frankfurt | 1 | All Maps | STV","players":null},{"server_id":110,"name":"Uncletopia | Frankfurt | 2 | All Maps","name_short":"frk-2","host":"frk-1.de.uncletopia.com","port":27025,"enabled":true,"region":"eu","cc":"de","latitude":50.110924,"longitude":8.682127,"reserved":0,"last_update":"0001-01-01T00:00:00Z","name_a2s":"Uncletopia | Frankfurt | 2 | All Maps","protocol":17,"map":"plr_hightower","folder":"tf","game":"Team Fortress","app_id":440,"player_count":0,"max_players":24,"Bots":0,"server_type":"Dedicated","server_os":"Linux","password":true,"vac":true,"version":"7961495","steam_id":85568392924469990,"keywords":["nocrits","nodmgspread","payload","uncletopia"],"game_id":440,"stv_port":27026,"stv_name":"Uncletopia | Frankfurt | 2 | All Maps | STV","players":null},{"server_id":308,"name":"Uncletopia | Frankfurt | 3 | All Maps","name_short":"frk-3","host":"frk-1.de.uncletopia.com","port":27035,"enabled":true,"region":"eu","cc":"de","latitude":50.110924,"longitude":8.682127,"reserved":0,"last_update":"0001-01-01T00:00:00Z","name_a2s":"Uncletopia | Frankfurt | 3 | All Maps","protocol":17,"map":"cp_metalworks","folder":"tf","game":"Team Fortress","app_id":440,"player_count":0,"max_players":24,"Bots":0,"server_type":"Dedicated","server_os":"Linux","password":true,"vac":true,"version":"7961495","steam_id":85568392924504274,"keywords":["cp","nocrits","nodmgspread","uncletopia"],"game_id":440,"stv_port":27036,"stv_name":"Uncletopia | Frankfurt | 3 | All Maps | STV","players":null},{"server_id":309,"name":"Uncletopia | Frankfurt | 4 | All Maps","name_short":"frk-4","host":"frk-1.de.uncletopia.com","port":27045,"enabled":true,"region":"eu","cc":"de","latitude":50.110924,"longitude":8.682127,"reserved":0,"last_update":"0001-01-01T00:00:00Z","name_a2s":"Uncletopia | Frankfurt | 4 | All Maps","protocol":17,"map":"cp_gorge","folder":"tf","game":"Team Fortress","app_id":440,"player_count":0,"max_players":24,"Bots":0,"server_type":"Dedicated","server_os":"Linux","password":true,"vac":true,"version":"7961495","steam_id":85568392924504275,"keywords":["cp","nocrits","nodmgspread","uncletopia"],"game_id":440,"stv_port":27046,"stv_name":"Uncletopia | Frankfurt | 4 | All Maps | STV","players":null},{"server_id":310,"name":"Uncletopia | Frankfurt | 5 | All Maps","name_short":"frk-5","host":"frk-1.de.uncletopia.com","port":27055,"enabled":true,"region":"eu","cc":"de","latitude":50.110924,"longitude":8.682127,"reserved":0,"last_update":"0001-01-01T00:00:00Z","name_a2s":"Uncletopia | Frankfurt | 5 | All Maps","protocol":17,"map":"cp_mountainlab","folder":"tf","game":"Team Fortress","app_id":440,"player_count":0,"max_players":24,"Bots":0,"server_type":"Dedicated","server_os":"Linux","password":true,"vac":true,"version":"7961495","steam_id":85568392924504277,"keywords":["cp","nocrits","nodmgspread","uncletopia"],"game_id":440,"stv_port":27056,"stv_name":"Uncletopia | Frankfurt | 5 | All Maps | STV","players":null},{"server_id":311,"name":"Uncletopia | Frankfurt | 6 | All Maps","name_short":"frk-6","host":"frk-1.de.uncletopia.com","port":27065,"enabled":true,"region":"eu","cc":"de","latitude":50.110924,"longitude":8.682127,"reserved":0,"last_update":"0001-01-01T00:00:00Z","name_a2s":"Uncletopia | Frankfurt | 6 | All Maps","protocol":17,"map":"cp_coldfront","folder":"tf","game":"Team Fortress","app_id":440,"player_count":0,"max_players":24,"Bots":0,"server_type":"Dedicated","server_os":"Linux","password":true,"vac":true,"version":"7961495","steam_id":85568392924504278,"keywords":["cp","nocrits","nodmgspread","uncletopia"],"game_id":440,"stv_port":27066,"stv_name":"Uncletopia | Frankfurt | 6 | All Maps | STV","players":null},{"server_id":23,"name":"Uncletopia | Frankfurt | 7 | Stopwatch","name_short":"frk-7","host":"frk-1.de.uncletopia.com","port":27075,"enabled":true,"region":"eu","cc":"de","latitude":50.110924,"longitude":8.682127,"reserved":0,"last_update":"0001-01-01T00:00:00Z","name_a2s":"Uncletopia | Frankfurt | 7 | Stopwatch","protocol":17,"map":"koth_lakeside_final","folder":"tf","game":"Team Fortress","app_id":440,"player_count":1,"max_players":24,"Bots":0,"server_type":"Dedicated","server_os":"Linux","password":true,"vac":true,"version":"7961495","steam_id":85568392924742827,"keywords":["cp","nocrits","nodmgspread","uncletopia"],"game_id":440,"stv_port":27076,"stv_name":"Uncletopia | Frankfurt | 7 | Stopwatch | STV","players":[{"user_id":3,"name":"BRAZİL NÜMERUS UNO11","steam_id":76561199214163032,"connected_time":526000000000,"state":"active","ping":75}]},{"server_id":24,"name":"Uncletopia | Frankfurt | 8 | Community","name_short":"frk-8","host":"frk-1.de.uncletopia.com","port":27085,"enabled":true,"region":"eu","cc":"de","latitude":50.110924,"longitude":8.682127,"reserved":0,"last_update":"0001-01-01T00:00:00Z","name_a2s":"Uncletopia | Frankfurt | 8 | Community","protocol":17,"map":"workshop/pl_boundary_final1.ugc456799153","folder":"tf","game":"Team Fortress","app_id":440,"player_count":0,"max_players":24,"Bots":0,"server_type":"Dedicated","server_os":"Linux","password":true,"vac":true,"version":"7961495","steam_id":85568392924742828,"keywords":["nocrits","nodmgspread","payload","uncletopia"],"game_id":440,"stv_port":27086,"stv_name":"Uncletopia | Frankfurt | 8 | Community | STV","players":null},{"server_id":202,"name":"Uncletopia | Hong Kong | 1 | All Maps","name_short":"hgk-1","host":"hgk-1.hk.uncletopia.com","port":27015,"enabled":true,"region":"asia","cc":"hk","latitude":22.302711,"longitude":114.177216,"reserved":0,"last_update":"0001-01-01T00:00:00Z","name_a2s":"Uncletopia | Hong Kong | 1 | All Maps","protocol":17,"map":"pl_pier","folder":"tf","game":"Team Fortress","app_id":440,"player_count":15,"max_players":24,"Bots":0,"server_type":"Dedicated","server_os":"Linux","password":true,"vac":true,"version":"7961495","steam_id":85568392924494504,"keywords":["nocrits","nodmgspread","payload","uncletopia"],"game_id":440,"stv_port":27016,"stv_name":"Uncletopia | Hong Kong | 1 | All Maps | STV","players":[{"user_id":54,"name":"AIvy","steam_id":76561198144336956,"connected_time":1622000000000,"state":"active","ping":119},{"user_id":23,"name":"i am a F2P and my aim is shit","steam_id":76561199475974790,"connected_time":3977000000000,"state":"active","ping":72},{"user_id":49,"name":"Kernel","steam_id":76561198402985446,"connected_time":1883000000000,"state":"active","ping":61},{"user_id":69,"name":"doze","steam_id":76561198318292720,"connected_time":49000000000,"state":"active","ping":89},{"user_id":44,"name":"Goro Onjima","steam_id":76561198449452640,"connected_time":2183000000000,"state":"active","ping":99},{"user_id":45,"name":"Teddie","steam_id":76561198150433935,"connected_time":2139000000000,"state":"active","ping":99},{"user_id":58,"name":"ɔuᗡA ɟƨuᒐ","steam_id":76561199031283970,"connected_time":890000000000,"state":"active","ping":78},{"user_id":56,"name":"CaptainBozo","steam_id":76561199151959977,"connected_time":1165000000000,"state":"active","ping":60},{"user_id":62,"name":"the vc responder.","steam_id":76561199485772460,"connected_time":580000000000,"state":"active","ping":94},{"user_id":60,"name":"2746","steam_id":76561199390507975,"connected_time":645000000000,"state":"active","ping":38},{"user_id":66,"name":"Proof","steam_id":76561199093125129,"connected_time":380000000000,"state":"active","ping":313},{"user_id":67,"name":"PABLO.GONZALEZ.2004","steam_id":76561199088651298,"connected_time":337000000000,"state":"active","ping":98},{"user_id":68,"name":"Erishiyaaa","steam_id":76561198323259830,"connected_time":229000000000,"state":"active","ping":105},{"user_id":70,"name":"Blloopy","steam_id":76561198183770511,"connected_time":21000000000,"state":"active","ping":69}]},{"server_id":1,"name":"Uncletopia | Los Angeles | 1 | All Maps","name_short":"lax-1","host":"lax-1.us.uncletopia.com","port":27015,"enabled":true,"region":"us-west","cc":"us","latitude":33.94279,"longitude":-118.41004,"reserved":0,"last_update":"0001-01-01T00:00:00Z","name_a2s":"Uncletopia | Los Angeles | 1 | All Maps","protocol":17,"map":"pl_swiftwater_final1","folder":"tf","game":"Team Fortress","app_id":440,"player_count":0,"max_players":24,"Bots":0,"server_type":"Dedicated","server_os":"Linux","password":true,"vac":true,"version":"7961495","steam_id":85568392924469991,"keywords":["nocrits","nodmgspread","payload","uncletopia"],"game_id":440,"stv_port":27016,"stv_name":"Uncletopia | Los Angeles | 1 | All Maps | STV","players":null},{"server_id":112,"name":"Uncletopia | Los Angeles | 2 | All Maps","name_short":"lax-2","host":"lax-1.us.uncletopia.com","port":27025,"enabled":true,"region":"us-west","cc":"us","latitude":33.94279,"longitude":-118.41004,"reserved":0,"last_update":"0001-01-01T00:00:00Z","name_a2s":"Uncletopia | Los Angeles | 2 | All Maps","protocol":17,"map":"cp_sunshine","folder":"tf","game":"Team Fortress","app_id":440,"player_count":22,"max_players":24,"Bots":0,"server_type":"Dedicated","server_os":"Linux","password":true,"vac":true,"version":"7961495","steam_id":85568392924469992,"keywords":["cp","nocrits","nodmgspread","uncletopia"],"game_id":440,"stv_port":27026,"stv_name":"Uncletopia | Los Angeles | 2 | All Maps | STV","players":[{"user_id":97,"name":"BB0P","steam_id":76561198048165348,"connected_time":210000000000,"state":"active","ping":39},{"user_id":99,"name":"Brigadier Brownie","steam_id":76561198040852898,"connected_time":111000000000,"state":"active","ping":42},{"user_id":98,"name":"type \"bad med\" to kick","steam_id":76561198076402476,"connected_time":203000000000,"state":"active","ping":50},{"user_id":65,"name":"Lord Pretty Flocko Jordye","steam_id":76561198962880749,"connected_time":1586000000000,"state":"active","ping":73},{"user_id":88,"name":"wugmup","steam_id":76561199096287734,"connected_time":606000000000,"state":"active","ping":51},{"user_id":68,"name":"lemono","steam_id":76561198806651001,"connected_time":1274000000000,"state":"active","ping":35},{"user_id":66,"name":"Petrivus","steam_id":76561198202152453,"connected_time":1392000000000,"state":"active","ping":60},{"user_id":100,"name":"trackball triops","steam_id":76561198059041027,"connected_time":96000000000,"state":"active","ping":75},{"user_id":78,"name":"Pudsla","steam_id":76561198258974036,"connected_time":890000000000,"state":"active","ping":58},{"user_id":96,"name":"ForshMulen","steam_id":76561198109897335,"connected_time":237000000000,"state":"active","ping":45},{"user_id":80,"name":"dodecadron","steam_id":76561198027397222,"connected_time":841000000000,"state":"active","ping":94},{"user_id":81,"name":"Antzen","steam_id":76561198041343470,"connected_time":832000000000,"state":"active","ping":64},{"user_id":70,"name":"Ragnalon","steam_id":76561198807377526,"connected_time":1185000000000,"state":"active","ping":48},{"user_id":82,"name":"meow","steam_id":76561198104537058,"connected_time":815000000000,"state":"active","ping":94},{"user_id":62,"name":"Stroop","steam_id":76561198138687730,"connected_time":2603000000000,"state":"active","ping":74},{"user_id":59,"name":"dude","steam_id":76561198042851124,"connected_time":2781000000000,"state":"active","ping":52},{"user_id":72,"name":"ThecoolestEmmy","steam_id":76561198999423393,"connected_time":1068000000000,"state":"active","ping":54},{"user_id":56,"name":"Cobalt","steam_id":76561198063223347,"connected_time":3214000000000,"state":"active","ping":58},{"user_id":86,"name":"moopmop","steam_id":76561198065224965,"connected_time":669000000000,"state":"active","ping":56},{"user_id":95,"name":"rat","steam_id":76561198130412963,"connected_time":268000000000,"state":"active","ping":84},{"user_id":87,"name":"Migixkem Jord","steam_id":76561199480098777,"connected_time":621000000000,"state":"active","ping":189},{"user_id":58,"name":"grickslayer","steam_id":76561198835774649,"connected_time":2805000000000,"state":"active","ping":63}]},{"server_id":324,"name":"Uncletopia | Los Angeles | 3 | All Maps","name_short":"lax-3","host":"lax-1.us.uncletopia.com","port":27035,"enabled":true,"region":"us-west","cc":"us","latitude":33.94279,"longitude":-118.41004,"reserved":0,"last_update":"0001-01-01T00:00:00Z","name_a2s":"Uncletopia | Los Angeles | 3 | All Maps","protocol":17,"map":"cp_dustbowl","folder":"tf","game":"Team Fortress","app_id":440,"player_count":23,"max_players":24,"Bots":0,"server_type":"Dedicated","server_os":"Linux","password":true,"vac":true,"version":"7961495","steam_id":85568392924510198,"keywords":["cp","nocrits","nodmgspread","uncletopia"],"game_id":440,"stv_port":27036,"stv_name":"Uncletopia | Los Angeles | 3 | All Maps | STV","players":[{"user_id":387,"name":"lol","steam_id":76561198026491738,"connected_time":2948000000000,"state":"active","ping":70},{"user_id":409,"name":"spider","steam_id":76561199476364315,"connected_time":1953000000000,"state":"active","ping":46},{"user_id":399,"name":"john.","steam_id":76561198982939658,"connected_time":2739000000000,"state":"active","ping":47},{"user_id":436,"name":"Scoops M'Gooch","steam_id":76561198048423812,"connected_time":441000000000,"state":"active","ping":49},{"user_id":405,"name":"Big Boy Beni","steam_id":76561197995469460,"connected_time":2175000000000,"state":"active","ping":42},{"user_id":411,"name":"Irony is pretty cringy","steam_id":76561198120391460,"connected_time":1807000000000,"state":"active","ping":47},{"user_id":413,"name":"Fat Cat","steam_id":76561197995995344,"connected_time":1763000000000,"state":"active","ping":88},{"user_id":390,"name":"Antking14","steam_id":76561198188971771,"connected_time":2874000000000,"state":"active","ping":60},{"user_id":396,"name":"Amazing476","steam_id":76561198103937489,"connected_time":2793000000000,"state":"active","ping":136},{"user_id":422,"name":"El Gato Paranoico","steam_id":76561198116567116,"connected_time":1468000000000,"state":"active","ping":96},{"user_id":433,"name":"lil hog","steam_id":76561199230929836,"connected_time":646000000000,"state":"active","ping":110},{"user_id":430,"name":"TüCold","steam_id":76561198111278197,"connected_time":808000000000,"state":"active","ping":62},{"user_id":428,"name":"LIMBS","steam_id":76561198101220604,"connected_time":809000000000,"state":"active","ping":55},{"user_id":416,"name":"Wendall555","steam_id":76561198985637603,"connected_time":1684000000000,"state":"active","ping":50},{"user_id":417,"name":"chesterwnimitz","steam_id":76561198062664377,"connected_time":1662000000000,"state":"active","ping":84},{"user_id":425,"name":"Brando","steam_id":76561198078306678,"connected_time":1084000000000,"state":"active","ping":57},{"user_id":419,"name":"Whisper!","steam_id":76561198119609795,"connected_time":1616000000000,"state":"active","ping":53},{"user_id":420,"name":"SneekiCheekiQbone","steam_id":76561198045077980,"connected_time":1615000000000,"state":"active","ping":44},{"user_id":434,"name":"BIG HOG","steam_id":76561198079923652,"connected_time":638000000000,"state":"active","ping":80},{"user_id":431,"name":"bansheerubber","steam_id":76561198042009362,"connected_time":770000000000,"state":"active","ping":56},{"user_id":395,"name":"Humble Learner","steam_id":76561198066091050,"connected_time":2813000000000,"state":"active","ping":90},{"user_id":398,"name":"Dogg wader","steam_id":76561199090314340,"connected_time":2770000000000,"state":"active","ping":86},{"user_id":435,"name":"Mom","steam_id":76561198207936000,"connected_time":614000000000,"state":"active","ping":45}]},{"server_id":25,"name":"Uncletopia | Los Angeles | 4 | Stopwatch","name_short":"lax-4","host":"lax-1.us.uncletopia.com","port":27045,"enabled":true,"region":"us-west","cc":"us","latitude":33.94279,"longitude":-118.41004,"reserved":0,"last_update":"0001-01-01T00:00:00Z","name_a2s":"Uncletopia | Los Angeles | 4 | Stopwatch","protocol":17,"map":"koth_highpass","folder":"tf","game":"Team Fortress","app_id":440,"player_count":0,"max_players":24,"Bots":0,"server_type":"Dedicated","server_os":"Linux","password":true,"vac":true,"version":"7961495","steam_id":85568392924510199,"keywords":["cp","nocrits","nodmgspread","uncletopia"],"game_id":440,"stv_port":27046,"stv_name":"Uncletopia | Los Angeles | 4 | Stopwatch | STV","players":null},{"server_id":11,"name":"Uncletopia | London | 1 | All Maps","name_short":"lon-1","host":"lon-1.uk.uncletopia.com","port":27015,"enabled":true,"region":"eu","cc":"gb","latitude":51.509865,"longitude":-0.118092,"reserved":0,"last_update":"0001-01-01T00:00:00Z","name_a2s":"Uncletopia | London | 1 | All Maps","protocol":17,"map":"pl_frontier_final","folder":"tf","game":"Team Fortress","app_id":440,"player_count":2,"max_players":24,"Bots":0,"server_type":"Dedicated","server_os":"Linux","password":true,"vac":true,"version":"7961495","steam_id":85568392924367362,"keywords":["nocrits","nodmgspread","payload","uncletopia"],"game_id":440,"stv_port":27016,"stv_name":"Uncletopia | London | 1 | All Maps | STV","players":[{"user_id":3,"name":"dumo dumo","steam_id":76561198346638308,"connected_time":393000000000,"state":"active","ping":59},{"user_id":4,"name":"Weg","steam_id":76561198325033121,"connected_time":165000000000,"state":"active","ping":224}]},{"server_id":114,"name":"Uncletopia | London | 2 | All Maps","name_short":"lon-2","host":"lon-1.uk.uncletopia.com","port":27025,"enabled":true,"region":"eu","cc":"gb","latitude":51.509865,"longitude":-0.118092,"reserved":0,"last_update":"0001-01-01T00:00:00Z","name_a2s":"Uncletopia | London | 2 | All Maps","protocol":17,"map":"pl_snowycoast","folder":"tf","game":"Team Fortress","app_id":440,"player_count":0,"max_players":24,"Bots":0,"server_type":"Dedicated","server_os":"Linux","password":true,"vac":true,"version":"7961495","steam_id":85568392924470941,"keywords":["nocrits","nodmgspread","payload","uncletopia"],"game_id":440,"stv_port":27026,"stv_name":"Uncletopia | London | 2 | All Maps | STV","players":null},{"server_id":320,"name":"Uncletopia | London | 3 | All Maps","name_short":"lon-3","host":"lon-1.uk.uncletopia.com","port":27035,"enabled":true,"region":"eu","cc":"gb","latitude":51.509865,"longitude":-0.118092,"reserved":0,"last_update":"0001-01-01T00:00:00Z","name_a2s":"Uncletopia | London | 3 | All Maps","protocol":17,"map":"koth_lakeside_final","folder":"tf","game":"Team Fortress","app_id":440,"player_count":0,"max_players":24,"Bots":0,"server_type":"Dedicated","server_os":"Linux","password":true,"vac":true,"version":"7961495","steam_id":85568392924510192,"keywords":["cp","nocrits","nodmgspread","uncletopia"],"game_id":440,"stv_port":27036,"stv_name":"Uncletopia | London | 3 | All Maps | STV","players":null},{"server_id":321,"name":"Uncletopia | London | 4 | All Maps","name_short":"lon-4","host":"lon-1.uk.uncletopia.com","port":27045,"enabled":true,"region":"eu","cc":"gb","latitude":51.509865,"longitude":-0.118092,"reserved":0,"last_update":"0001-01-01T00:00:00Z","name_a2s":"Uncletopia | London | 4 | All Maps","protocol":17,"map":"pl_badwater","folder":"tf","game":"Team Fortress","app_id":440,"player_count":0,"max_players":24,"Bots":0,"server_type":"Dedicated","server_os":"Linux","password":true,"vac":true,"version":"7961495","steam_id":85568392924510193,"keywords":["nocrits","nodmgspread","payload","uncletopia"],"game_id":440,"stv_port":27046,"stv_name":"Uncletopia | London | 4 | All Maps | STV","players":null},{"server_id":21,"name":"Uncletopia | London | 5 | All Maps","name_short":"lon-5","host":"lon-1.uk.uncletopia.com","port":27055,"enabled":true,"region":"eu","cc":"gb","latitude":51.509865,"longitude":-0.118092,"reserved":0,"last_update":"0001-01-01T00:00:00Z","name_a2s":"Uncletopia | London | 5 | All Maps","protocol":17,"map":"koth_lazarus","folder":"tf","game":"Team Fortress","app_id":440,"player_count":0,"max_players":24,"Bots":0,"server_type":"Dedicated","server_os":"Linux","password":true,"vac":true,"version":"7961495","steam_id":85568392924742829,"keywords":["cp","nocrits","nodmgspread","uncletopia"],"game_id":440,"stv_port":27056,"stv_name":"Uncletopia | London | 5 | All Maps | STV","players":null},{"server_id":22,"name":"Uncletopia | London | 6 | All Maps","name_short":"lon-6","host":"lon-1.uk.uncletopia.com","port":27065,"enabled":true,"region":"eu","cc":"gb","latitude":51.509865,"longitude":-0.118092,"reserved":0,"last_update":"0001-01-01T00:00:00Z","name_a2s":"Uncletopia | London | 6 | All Maps","protocol":17,"map":"cp_snakewater_final1","folder":"tf","game":"Team Fortress","app_id":440,"player_count":0,"max_players":24,"Bots":0,"server_type":"Dedicated","server_os":"Linux","password":true,"vac":true,"version":"7961495","steam_id":85568392924742830,"keywords":["cp","nocrits","nodmgspread","uncletopia"],"game_id":440,"stv_port":27066,"stv_name":"Uncletopia | London | 6 | All Maps | STV","players":null},{"server_id":40,"name":"Uncletopia | London | 7 | Stopwatch","name_short":"lon-7","host":"lon-1.uk.uncletopia.com","port":27075,"enabled":true,"region":"eu","cc":"gb","latitude":51.509865,"longitude":-0.118092,"reserved":0,"last_update":"0001-01-01T00:00:00Z","name_a2s":"Uncletopia | London | 7 | Stopwatch","protocol":17,"map":"workshop/pl_badwater_pro_v12.ugc2142942074","folder":"tf","game":"Team Fortress","app_id":440,"player_count":0,"max_players":24,"Bots":0,"server_type":"Dedicated","server_os":"Linux","password":true,"vac":true,"version":"7961495","steam_id":85568392924964314,"keywords":["nocrits","nodmgspread","payload","uncletopia"],"game_id":440,"stv_port":27076,"stv_name":"Uncletopia | London | 7 | Stopwatch | STV","players":null},{"server_id":41,"name":"Uncletopia | London | 8 | Community","name_short":"lon-8","host":"lon-1.uk.uncletopia.com","port":27085,"enabled":true,"region":"eu","cc":"gb","latitude":51.509865,"longitude":-0.118092,"reserved":0,"last_update":"0001-01-01T00:00:00Z","name_a2s":"Uncletopia | London | 8 | Community","protocol":17,"map":"workshop/cp_villa_b19.ugc2113052569","folder":"tf","game":"Team Fortress","app_id":440,"player_count":0,"max_players":24,"Bots":0,"server_type":"Dedicated","server_os":"Linux","password":true,"vac":true,"version":"7961495","steam_id":85568392924964315,"keywords":["cp","nocrits","nodmgspread","uncletopia"],"game_id":440,"stv_port":27086,"stv_name":"Uncletopia | London | 8 | Community | STV","players":null},{"server_id":300,"name":"Uncletopia | Montréal | 1 | One Thousand Uncles","name_short":"mtl-1","host":"mtl-1.ca.uncletopia.com","port":27015,"enabled":true,"region":"us-east","cc":"ca","latitude":45.50889,"longitude":-73.56167,"reserved":0,"last_update":"0001-01-01T00:00:00Z","name_a2s":"Uncletopia | Montréal | 1 | One Thousand Uncles","protocol":17,"map":"pl_badwater","folder":"tf","game":"Team Fortress","app_id":440,"player_count":0,"max_players":32,"Bots":0,"server_type":"Dedicated","server_os":"Linux","password":true,"vac":true,"version":"7961495","steam_id":85568392924500087,"keywords":["alltalk","danepve","increased_maxplayers","norespawntime","payload","uncletopia"],"game_id":440,"stv_port":0,"stv_name":"","players":null},{"server_id":301,"name":"Uncletopia | Montréal | 2 | One Thousand Uncles","name_short":"mtl-2","host":"mtl-1.ca.uncletopia.com","port":27025,"enabled":true,"region":"us-east","cc":"ca","latitude":45.50889,"longitude":-73.56167,"reserved":0,"last_update":"0001-01-01T00:00:00Z","name_a2s":"Uncletopia | Montréal | 2 | One Thousand Uncles","protocol":17,"map":"pl_chilly","folder":"tf","game":"Team Fortress","app_id":440,"player_count":0,"max_players":32,"Bots":0,"server_type":"Dedicated","server_os":"Linux","password":true,"vac":true,"version":"7961495","steam_id":85568392924500088,"keywords":["alltalk","danepve","increased_maxplayers","norespawntime","payload","uncletopia"],"game_id":440,"stv_port":0,"stv_name":"","players":null},{"server_id":302,"name":"Uncletopia | Montréal | 3 | One Thousand Uncles","name_short":"mtl-3","host":"mtl-1.ca.uncletopia.com","port":27035,"enabled":true,"region":"us-east","cc":"ca","latitude":45.50889,"longitude":-73.56167,"reserved":0,"last_update":"0001-01-01T00:00:00Z","name_a2s":"Uncletopia | Montréal | 3 | One Thousand Uncles","protocol":17,"map":"cp_mossrock","folder":"tf","game":"Team Fortress","app_id":440,"player_count":0,"max_players":32,"Bots":0,"server_type":"Dedicated","server_os":"Linux","password":true,"vac":true,"version":"7961495","steam_id":85568392924500089,"keywords":["alltalk","cp","danepve","increased_maxplayers","norespawntime","uncletopia"],"game_id":440,"stv_port":0,"stv_name":"","players":null},{"server_id":13,"name":"Uncletopia | New York City | 1 | All Maps","name_short":"nyc-1","host":"nyc-1.us.uncletopia.com","port":27015,"enabled":true,"region":"us-east","cc":"us","latitude":40.73061,"longitude":-73.93524,"reserved":0,"last_update":"0001-01-01T00:00:00Z","name_a2s":"Uncletopia | New York City | 1 | All Maps","protocol":17,"map":"koth_lakeside_final","folder":"tf","game":"Team Fortress","app_id":440,"player_count":0,"max_players":24,"Bots":0,"server_type":"Dedicated","server_os":"Linux","password":true,"vac":true,"version":"7961495","steam_id":85568392924469993,"keywords":["cp","nocrits","nodmgspread","uncletopia"],"game_id":440,"stv_port":27016,"stv_name":"Uncletopia | New York City | 1 | All Maps | STV","players":null},{"server_id":14,"name":"Uncletopia | New York City | 2 | All Maps","name_short":"nyc-2","host":"nyc-1.us.uncletopia.com","port":27025,"enabled":true,"region":"us-east","cc":"us","latitude":40.73061,"longitude":-73.93524,"reserved":0,"last_update":"0001-01-01T00:00:00Z","name_a2s":"Uncletopia | New York City | 2 | All Maps","protocol":17,"map":"pl_snowycoast","folder":"tf","game":"Team Fortress","app_id":440,"player_count":23,"max_players":24,"Bots":0,"server_type":"Dedicated","server_os":"Linux","password":true,"vac":true,"version":"7961495","steam_id":85568392924469994,"keywords":["nocrits","nodmgspread","payload","uncletopia"],"game_id":440,"stv_port":27026,"stv_name":"Uncletopia | New York City | 2 | All Maps | STV","players":[{"user_id":478,"name":"cream of the crop","steam_id":76561198268581959,"connected_time":300000000000,"state":"spawning","ping":206},{"user_id":482,"name":"Ignalis","steam_id":76561198025662927,"connected_time":9000000000,"state":"spawning","ping":92},{"user_id":441,"name":"sagejay","steam_id":76561198118149530,"connected_time":3183000000000,"state":"spawning","ping":96},{"user_id":457,"name":"-natalexei","steam_id":76561198100477765,"connected_time":1754000000000,"state":"spawning","ping":122},{"user_id":448,"name":"natalielover52","steam_id":76561198248461754,"connected_time":2767000000000,"state":"spawning","ping":191},{"user_id":476,"name":"Bewtee","steam_id":76561198146745998,"connected_time":328000000000,"state":"spawning","ping":113},{"user_id":479,"name":"Bubby Koromon the 4rd","steam_id":76561198398729993,"connected_time":287000000000,"state":"spawning","ping":132},{"user_id":461,"name":"Alex Vladier","steam_id":76561198066166120,"connected_time":1238000000000,"state":"spawning","ping":153},{"user_id":462,"name":"raewfbebf","steam_id":76561198379676198,"connected_time":1131000000000,"state":"spawning","ping":173},{"user_id":483,"name":"shaderoses","steam_id":76561198070800500,"connected_time":6000000000,"state":"connecting","ping":48},{"user_id":423,"name":"Bunni","steam_id":76561198065169997,"connected_time":5159000000000,"state":"spawning","ping":93},{"user_id":442,"name":"cc.ktaeoh","steam_id":76561198300888156,"connected_time":3077000000000,"state":"spawning","ping":195},{"user_id":480,"name":"NoobyAim","steam_id":76561198057486676,"connected_time":277000000000,"state":"spawning","ping":173},{"user_id":466,"name":"0","steam_id":76561198046065237,"connected_time":691000000000,"state":"spawning","ping":103},{"user_id":481,"name":"my leg","steam_id":76561198061839075,"connected_time":276000000000,"state":"spawning","ping":101},{"user_id":467,"name":"VietnameseJesus32_","steam_id":76561198946440761,"connected_time":629000000000,"state":"spawning","ping":191},{"user_id":433,"name":"King Kalo","steam_id":76561198387671992,"connected_time":3843000000000,"state":"spawning","ping":127},{"user_id":468,"name":"chris","steam_id":76561198209248312,"connected_time":627000000000,"state":"spawning","ping":138},{"user_id":469,"name":"Cabbage","steam_id":76561198405573530,"connected_time":594000000000,"state":"spawning","ping":74},{"user_id":474,"name":"zzzz","steam_id":76561198310495200,"connected_time":484000000000,"state":"spawning","ping":113},{"user_id":451,"name":"el Sombrero Mexicano","steam_id":76561198114094157,"connected_time":2711000000000,"state":"spawning","ping":173},{"user_id":472,"name":"bath","steam_id":76561197969993352,"connected_time":515000000000,"state":"spawning","ping":141},{"user_id":452,"name":"GoodleShoes/ttv","steam_id":76561198030993521,"connected_time":2685000000000,"state":"spawning","ping":116}]},{"server_id":15,"name":"Uncletopia | New York City | 3 | Stopwatch","name_short":"nyc-3","host":"nyc-1.us.uncletopia.com","port":27035,"enabled":true,"region":"us-east","cc":"us","latitude":40.73061,"longitude":-73.93524,"reserved":0,"last_update":"0001-01-01T00:00:00Z","name_a2s":"Uncletopia | New York City | 3 | Stopwatch","protocol":17,"map":"cp_sunshine","folder":"tf","game":"Team Fortress","app_id":440,"player_count":0,"max_players":24,"Bots":0,"server_type":"Dedicated","server_os":"Linux","password":true,"vac":true,"version":"7961495","steam_id":85568392924742820,"keywords":["cp","nocrits","nodmgspread","uncletopia"],"game_id":440,"stv_port":27036,"stv_name":"Uncletopia | New York City | 3 | Stopwatch | STV","players":null},{"server_id":16,"name":"Uncletopia | New York City | 4 | Community","name_short":"nyc-4","host":"nyc-1.us.uncletopia.com","port":27045,"enabled":true,"region":"us-east","cc":"us","latitude":40.73061,"longitude":-73.93524,"reserved":0,"last_update":"0001-01-01T00:00:00Z","name_a2s":"Uncletopia | New York City | 4 | Community","protocol":17,"map":"workshop/cp_propaganda_b18.ugc1603743849","folder":"tf","game":"Team Fortress","app_id":440,"player_count":0,"max_players":24,"Bots":0,"server_type":"Dedicated","server_os":"Linux","password":true,"vac":true,"version":"7961495","steam_id":85568392924742821,"keywords":["cp","nocrits","nodmgspread","uncletopia"],"game_id":440,"stv_port":27046,"stv_name":"Uncletopia | New York City | 4 | Community | STV","players":null},{"server_id":142,"name":"Uncletopia | São Paulo | 1 | All Maps","name_short":"sao-1","host":"sao-1.br.uncletopia.com","port":27015,"enabled":true,"region":"sa","cc":"br","latitude":-23.533773,"longitude":-46.62529,"reserved":0,"last_update":"0001-01-01T00:00:00Z","name_a2s":"Uncletopia | São Paulo | 1 | All Maps","protocol":17,"map":"koth_cascade","folder":"tf","game":"Team Fortress","app_id":440,"player_count":0,"max_players":24,"Bots":0,"server_type":"Dedicated","server_os":"Linux","password":true,"vac":true,"version":"7961495","steam_id":85568392924469996,"keywords":["cp","nocrits","nodmgspread","uncletopia"],"game_id":440,"stv_port":27016,"stv_name":"Uncletopia | São Paulo | 1 | All Maps | STV","players":null},{"server_id":143,"name":"Uncletopia | São Paulo | 2 | Community","name_short":"sao-2","host":"sao-2.br.uncletopia.com","port":27015,"enabled":true,"region":"sa","cc":"br","latitude":-23.533773,"longitude":-46.62529,"reserved":0,"last_update":"0001-01-01T00:00:00Z","name_a2s":"Uncletopia | São Paulo | 2 | Community","protocol":17,"map":"workshop/koth_product_final.ugc454272353","folder":"tf","game":"Team Fortress","app_id":440,"player_count":0,"max_players":24,"Bots":0,"server_type":"Dedicated","server_os":"Linux","password":true,"vac":true,"version":"7961495","steam_id":85568392924485349,"keywords":["cp","nocrits","nodmgspread","uncletopia"],"game_id":440,"stv_port":27016,"stv_name":"Uncletopia | São Paulo | 2 | Community | STV","players":null},{"server_id":7,"name":"Uncletopia | Seattle | 1 | All Maps","name_short":"sea-1","host":"sea-1.us.uncletopia.com","port":27015,"enabled":true,"region":"us-west","cc":"us","latitude":47.608013,"longitude":-122.33517,"reserved":0,"last_update":"0001-01-01T00:00:00Z","name_a2s":"Uncletopia | Seattle | 1 | All Maps","protocol":17,"map":"pl_frontier_final","folder":"tf","game":"Team Fortress","app_id":440,"player_count":25,"max_players":24,"Bots":0,"server_type":"Dedicated","server_os":"Linux","password":true,"vac":true,"version":"7961495","steam_id":85568392924469997,"keywords":["nocrits","nodmgspread","payload","uncletopia"],"game_id":440,"stv_port":27016,"stv_name":"Uncletopia | Seattle | 1 | All Maps | STV","players":[{"user_id":773,"name":"mega","steam_id":76561198089520959,"connected_time":5360000000000,"state":"active","ping":164},{"user_id":817,"name":"Mocha Josie","steam_id":76561198066452726,"connected_time":397000000000,"state":"active","ping":70},{"user_id":806,"name":"I_Want_A_Soft_Taco","steam_id":76561198225561352,"connected_time":2189000000000,"state":"active","ping":91},{"user_id":756,"name":"Grassman (Cc)","steam_id":76561198026488532,"connected_time":7251000000000,"state":"active","ping":60},{"user_id":735,"name":"Luca","steam_id":76561198125087140,"connected_time":8812000000000,"state":"active","ping":46},{"user_id":768,"name":"fungi@bowie.gg","steam_id":76561198169755734,"connected_time":5746000000000,"state":"active","ping":66},{"user_id":813,"name":"Arsonist Goose","steam_id":76561198147441830,"connected_time":1081000000000,"state":"active","ping":77},{"user_id":810,"name":"jorts","steam_id":76561199041179985,"connected_time":2128000000000,"state":"active","ping":59},{"user_id":809,"name":"pyrotechnic","steam_id":76561198043558709,"connected_time":2174000000000,"state":"active","ping":51},{"user_id":781,"name":"Muscle Man","steam_id":76561198248325252,"connected_time":4136000000000,"state":"active","ping":77},{"user_id":791,"name":"a","steam_id":76561198074209737,"connected_time":3045000000000,"state":"active","ping":93},{"user_id":801,"name":"smeasly","steam_id":76561198028718812,"connected_time":2207000000000,"state":"active","ping":44},{"user_id":795,"name":"Bcuz","steam_id":76561197981318027,"connected_time":2741000000000,"state":"active","ping":87},{"user_id":719,"name":"rat gets the cheese","steam_id":76561198031234032,"connected_time":9836000000000,"state":"active","ping":100},{"user_id":771,"name":"Sniff","steam_id":76561198010270922,"connected_time":5592000000000,"state":"active","ping":50},{"user_id":792,"name":"delight","steam_id":76561197980280272,"connected_time":2792000000000,"state":"active","ping":46},{"user_id":815,"name":"Daz","steam_id":76561198041431938,"connected_time":1016000000000,"state":"active","ping":55},{"user_id":818,"name":"rorywashere /ᐠ - ˕ -マ Ⳋ","steam_id":76561198065825165,"connected_time":335000000000,"state":"active","ping":117},{"user_id":761,"name":"hatred","steam_id":76561198904209270,"connected_time":6459000000000,"state":"active","ping":56},{"user_id":755,"name":"allahsdroptop (Bag/Chaser)","steam_id":76561198133195238,"connected_time":7307000000000,"state":"active","ping":67},{"user_id":816,"name":"Dog","steam_id":76561198041841128,"connected_time":1002000000000,"state":"active","ping":83},{"user_id":804,"name":"gorlab","steam_id":76561198025089694,"connected_time":2191000000000,"state":"active","ping":74},{"user_id":798,"name":"NEBULA","steam_id":76561198086878595,"connected_time":2239000000000,"state":"active","ping":75},{"user_id":802,"name":"resh","steam_id":76561198239598834,"connected_time":2207000000000,"state":"active","ping":143},{"user_id":799,"name":"severe fjord withdrawals","steam_id":76561198131166135,"connected_time":2238000000000,"state":"active","ping":45}]},{"server_id":119,"name":"Uncletopia | Seattle | 2 | All Maps","name_short":"sea-2","host":"sea-1.us.uncletopia.com","port":27025,"enabled":true,"region":"us-west","cc":"us","latitude":47.608013,"longitude":-122.33517,"reserved":0,"last_update":"0001-01-01T00:00:00Z","name_a2s":"Uncletopia | Seattle | 2 | All Maps","protocol":17,"map":"ctf_well","folder":"tf","game":"Team Fortress","app_id":440,"player_count":24,"max_players":24,"Bots":0,"server_type":"Dedicated","server_os":"Linux","password":true,"vac":true,"version":"7961495","steam_id":85568392924469998,"keywords":["ctf","nocrits","nodmgspread","uncletopia"],"game_id":440,"stv_port":27026,"stv_name":"Uncletopia | Seattle | 2 | All Maps | STV","players":[{"user_id":240,"name":"UltimaA","steam_id":76561198083618022,"connected_time":1734000000000,"state":"active","ping":72},{"user_id":235,"name":"Maid 'n' China","steam_id":76561198423392976,"connected_time":1827000000000,"state":"active","ping":56},{"user_id":243,"name":"BigCoolTony1991","steam_id":76561198135271741,"connected_time":1127000000000,"state":"active","ping":59},{"user_id":202,"name":"evil jesus 05","steam_id":76561198419315893,"connected_time":3456000000000,"state":"active","ping":91},{"user_id":244,"name":"Windows Vista Home Premium","steam_id":76561198043764863,"connected_time":181000000000,"state":"active","ping":74},{"user_id":228,"name":"Maximum","steam_id":76561198868983813,"connected_time":2221000000000,"state":"active","ping":56},{"user_id":205,"name":"chocolatkey","steam_id":76561198092466325,"connected_time":3199000000000,"state":"active","ping":35},{"user_id":245,"name":"bocchi the fool","steam_id":76561198259650356,"connected_time":76000000000,"state":"active","ping":201},{"user_id":246,"name":"has not touched grass in 6 year","steam_id":76561198007867721,"connected_time":32000000000,"state":"active","ping":74},{"user_id":209,"name":"Drink My Viscera","steam_id":76561198164782653,"connected_time":2957000000000,"state":"active","ping":121},{"user_id":66,"name":"Katie XXII","steam_id":76561198135534297,"connected_time":13953000000000,"state":"active","ping":46},{"user_id":176,"name":"Warhawk","steam_id":76561198008892743,"connected_time":5328000000000,"state":"active","ping":38},{"user_id":154,"name":"Obersteuermann","steam_id":76561198044468707,"connected_time":6644000000000,"state":"active","ping":49},{"user_id":178,"name":"the pizza","steam_id":76561198221331476,"connected_time":5141000000000,"state":"active","ping":54},{"user_id":207,"name":"miguelrodriguez2013","steam_id":76561198269253587,"connected_time":3155000000000,"state":"active","ping":60},{"user_id":210,"name":"gerg","steam_id":76561197997127387,"connected_time":2955000000000,"state":"active","ping":66},{"user_id":237,"name":"weed lesbian","steam_id":76561198042263805,"connected_time":1791000000000,"state":"active","ping":52},{"user_id":231,"name":"bug","steam_id":76561198381048942,"connected_time":2076000000000,"state":"active","ping":53},{"user_id":211,"name":"social distance warrior","steam_id":76561198128992994,"connected_time":2949000000000,"state":"active","ping":50},{"user_id":139,"name":"squart guy","steam_id":76561199411560141,"connected_time":7582000000000,"state":"active","ping":77},{"user_id":212,"name":"sadlaxx","steam_id":76561198061354919,"connected_time":2944000000000,"state":"active","ping":75},{"user_id":242,"name":"Batso","steam_id":76561198106589452,"connected_time":1295000000000,"state":"active","ping":83},{"user_id":218,"name":"Rusty","steam_id":76561198055585129,"connected_time":2735000000000,"state":"active","ping":45},{"user_id":233,"name":"Houdini Cache","steam_id":76561198045506970,"connected_time":2006000000000,"state":"active","ping":39}]},{"server_id":406,"name":"Uncletopia | Seattle | 3 | Stopwatch","name_short":"sea-3","host":"sea-1.us.uncletopia.com","port":27035,"enabled":true,"region":"us-west","cc":"us","latitude":47.608013,"longitude":-122.33517,"reserved":0,"last_update":"0001-01-01T00:00:00Z","name_a2s":"Uncletopia | Seattle | 3 | Stopwatch","protocol":17,"map":"workshop/koth_product_final.ugc454272353","folder":"tf","game":"Team Fortress","app_id":440,"player_count":0,"max_players":24,"Bots":0,"server_type":"Dedicated","server_os":"Linux","password":true,"vac":true,"version":"7961495","steam_id":85568392924515217,"keywords":["cp","nocrits","nodmgspread","uncletopia"],"game_id":440,"stv_port":27036,"stv_name":"Uncletopia | Seattle | 3 | Stopwatch | STV","players":null},{"server_id":17,"name":"Uncletopia | San Francisco | 1 | All Maps","name_short":"sfo-1","host":"sfo-1.us.uncletopia.com","port":27015,"enabled":true,"region":"us-west","cc":"us","latitude":37.77397,"longitude":-122.4313,"reserved":0,"last_update":"0001-01-01T00:00:00Z","name_a2s":"Uncletopia | San Francisco | 1 | All Maps","protocol":17,"map":"koth_highpass","folder":"tf","game":"Team Fortress","app_id":440,"player_count":20,"max_players":24,"Bots":0,"server_type":"Dedicated","server_os":"Linux","password":true,"vac":true,"version":"7961495","steam_id":85568392924469999,"keywords":["cp","nocrits","nodmgspread","uncletopia"],"game_id":440,"stv_port":27016,"stv_name":"Uncletopia | San Francisco | 1 | All Maps | STV","players":[{"user_id":238,"name":"[ØWQJØ]chubacaalatake","steam_id":76561198136201697,"connected_time":10249000000000,"state":"active","ping":124},{"user_id":344,"name":"Puskinti","steam_id":76561198032120688,"connected_time":1465000000000,"state":"active","ping":69},{"user_id":358,"name":"eatmysteel","steam_id":76561198976437527,"connected_time":46000000000,"state":"active","ping":107},{"user_id":334,"name":"dunkeroni","steam_id":76561198066114874,"connected_time":2280000000000,"state":"active","ping":69},{"user_id":335,"name":"I'm gay","steam_id":76561198076645019,"connected_time":2274000000000,"state":"active","ping":75},{"user_id":353,"name":"a_10warthog5_56","steam_id":76561199388748730,"connected_time":260000000000,"state":"active","ping":54},{"user_id":308,"name":"sobaka","steam_id":76561198116008934,"connected_time":4976000000000,"state":"active","ping":41},{"user_id":318,"name":"One Frame","steam_id":76561198143287731,"connected_time":3641000000000,"state":"active","ping":47},{"user_id":300,"name":"Nüþ","steam_id":76561198043956703,"connected_time":6078000000000,"state":"active","ping":59},{"user_id":345,"name":"tramcar","steam_id":76561198131833567,"connected_time":1335000000000,"state":"active","ping":50},{"user_id":351,"name":"felicities","steam_id":76561199446921772,"connected_time":333000000000,"state":"active","ping":53},{"user_id":348,"name":"Veluxcion","steam_id":76561198080527107,"connected_time":494000000000,"state":"active","ping":88},{"user_id":336,"name":"The_Pacific_gamer","steam_id":76561198089491446,"connected_time":2174000000000,"state":"active","ping":53},{"user_id":352,"name":"Eaglee","steam_id":76561198007525591,"connected_time":273000000000,"state":"active","ping":68},{"user_id":354,"name":"NEЯO","steam_id":76561197965450216,"connected_time":228000000000,"state":"active","ping":60},{"user_id":331,"name":"vanillain","steam_id":76561198058617608,"connected_time":2873000000000,"state":"active","ping":69},{"user_id":341,"name":"kitty","steam_id":76561199001918194,"connected_time":1893000000000,"state":"active","ping":60},{"user_id":330,"name":"mango sorbet","steam_id":76561198143371128,"connected_time":3029000000000,"state":"active","ping":50},{"user_id":327,"name":"𝒯𝒽𝒾𝓇𝓉𝓎 𝒩\ufffd\ufffd","steam_id":76561198111878431,"connected_time":3384000000000,"state":"active","ping":84},{"user_id":329,"name":"mk ultra sissy ray victim","steam_id":76561198013215955,"connected_time":3335000000000,"state":"active","ping":45}]},{"server_id":18,"name":"Uncletopia | San Francisco | 2 | All Maps","name_short":"sfo-2","host":"sfo-1.us.uncletopia.com","port":27025,"enabled":true,"region":"us-west","cc":"us","latitude":37.77397,"longitude":-122.4313,"reserved":0,"last_update":"0001-01-01T00:00:00Z","name_a2s":"Uncletopia | San Francisco | 2 | All Maps","protocol":17,"map":"koth_viaduct","folder":"tf","game":"Team Fortress","app_id":440,"player_count":0,"max_players":24,"Bots":0,"server_type":"Dedicated","server_os":"Linux","password":true,"vac":true,"version":"7961495","steam_id":85568392924470000,"keywords":["cp","nocrits","nodmgspread","uncletopia"],"game_id":440,"stv_port":27026,"stv_name":"Uncletopia | San Francisco | 2 | All Maps | STV","players":null},{"server_id":19,"name":"Uncletopia | San Francisco | 3 | Stopwatch","name_short":"sfo-3","host":"sfo-1.us.uncletopia.com","port":27035,"enabled":true,"region":"us-west","cc":"us","latitude":37.77397,"longitude":-122.4313,"reserved":0,"last_update":"0001-01-01T00:00:00Z","name_a2s":"Uncletopia | San Francisco | 3 | Stopwatch","protocol":17,"map":"pl_swiftwater_final1","folder":"tf","game":"Team Fortress","app_id":440,"player_count":0,"max_players":24,"Bots":0,"server_type":"Dedicated","server_os":"Linux","password":true,"vac":true,"version":"7961495","steam_id":85568392924742824,"keywords":["nocrits","nodmgspread","payload","uncletopia"],"game_id":440,"stv_port":27036,"stv_name":"Uncletopia | San Francisco | 3 | Stopwatch | STV","players":null},{"server_id":20,"name":"Uncletopia | San Francisco | 4 | Community","name_short":"sfo-4","host":"sfo-1.us.uncletopia.com","port":27045,"enabled":true,"region":"us-west","cc":"us","latitude":37.77397,"longitude":-122.4313,"reserved":0,"last_update":"0001-01-01T00:00:00Z","name_a2s":"Uncletopia | San Francisco | 4 | Community","protocol":17,"map":"workshop/pl_shoreleave_rc2.ugc1238849347","folder":"tf","game":"Team Fortress","app_id":440,"player_count":0,"max_players":24,"Bots":0,"server_type":"Dedicated","server_os":"Linux","password":true,"vac":true,"version":"7961495","steam_id":85568392924742826,"keywords":["nocrits","nodmgspread","payload","uncletopia"],"game_id":440,"stv_port":27046,"stv_name":"Uncletopia | San Francisco | 4 | Community | STV","players":null},{"server_id":141,"name":"Uncletopia | Sydney | 1 | All Maps","name_short":"syd-1","host":"syd-1.au.uncletopia.com","port":27015,"enabled":true,"region":"au","cc":"au","latitude":-33.865143,"longitude":151.2099,"reserved":0,"last_update":"0001-01-01T00:00:00Z","name_a2s":"Uncletopia | Sydney | 1 | All Maps","protocol":17,"map":"pl_barnblitz","folder":"tf","game":"Team Fortress","app_id":440,"player_count":18,"max_players":24,"Bots":0,"server_type":"Dedicated","server_os":"Linux","password":true,"vac":true,"version":"7961495","steam_id":85568392924470001,"keywords":["nocrits","nodmgspread","payload","uncletopia"],"game_id":440,"stv_port":27016,"stv_name":"Uncletopia | Sydney | 1 | All Maps | STV","players":[{"user_id":6,"name":"Entralink","steam_id":76561198137562689,"connected_time":3505000000000,"state":"active","ping":57},{"user_id":36,"name":"akmon753","steam_id":76561199507989067,"connected_time":941000000000,"state":"active","ping":62},{"user_id":37,"name":"Aqila","steam_id":76561199466509765,"connected_time":886000000000,"state":"active","ping":78},{"user_id":24,"name":"Dot","steam_id":76561198064534661,"connected_time":1620000000000,"state":"active","ping":56},{"user_id":27,"name":"{Azura Sarah}","steam_id":76561197989210208,"connected_time":1466000000000,"state":"active","ping":45},{"user_id":18,"name":"Snuky","steam_id":76561198117902338,"connected_time":2056000000000,"state":"active","ping":42},{"user_id":38,"name":"Ultimate Spaghet","steam_id":76561198880336399,"connected_time":859000000000,"state":"active","ping":44},{"user_id":21,"name":"...","steam_id":76561198309750355,"connected_time":1850000000000,"state":"active","ping":59},{"user_id":45,"name":"flueww","steam_id":76561198113244106,"connected_time":312000000000,"state":"active","ping":44},{"user_id":28,"name":"Spellstutter","steam_id":76561198046620609,"connected_time":1454000000000,"state":"active","ping":33},{"user_id":29,"name":"osborn","steam_id":76561198033663866,"connected_time":1322000000000,"state":"active","ping":39},{"user_id":30,"name":"zozl","steam_id":76561198031800830,"connected_time":1148000000000,"state":"active","ping":59},{"user_id":31,"name":"Bluetoshii","steam_id":76561199097050225,"connected_time":1138000000000,"state":"active","ping":88},{"user_id":44,"name":"can of potato","steam_id":76561198181170282,"connected_time":436000000000,"state":"active","ping":59},{"user_id":33,"name":"Seŋ","steam_id":76561198304406071,"connected_time":1130000000000,"state":"active","ping":60},{"user_id":43,"name":"Crucial","steam_id":76561198992582454,"connected_time":478000000000,"state":"active","ping":34},{"user_id":40,"name":"[TÐK] KeRpaL","steam_id":76561197974427061,"connected_time":769000000000,"state":"active","ping":48},{"user_id":41,"name":"Burillion","steam_id":76561197975918525,"connected_time":729000000000,"state":"active","ping":36}]},{"server_id":123,"name":"Uncletopia | Sydney | 2 | All Maps","name_short":"syd-2","host":"syd-1.au.uncletopia.com","port":27025,"enabled":true,"region":"au","cc":"au","latitude":-33.865143,"longitude":151.2099,"reserved":0,"last_update":"0001-01-01T00:00:00Z","name_a2s":"Uncletopia | Sydney | 2 | All Maps","protocol":17,"map":"cp_fastlane","folder":"tf","game":"Team Fortress","app_id":440,"player_count":0,"max_players":24,"Bots":0,"server_type":"Dedicated","server_os":"Linux","password":true,"vac":true,"version":"7961495","steam_id":85568392924470002,"keywords":["cp","nocrits","nodmgspread","uncletopia"],"game_id":440,"stv_port":27026,"stv_name":"Uncletopia | Sydney | 2 | All Maps | STV","players":null},{"server_id":395,"name":"Uncletopia | Sydney | 3 | All Maps","name_short":"syd-3","host":"syd-1.au.uncletopia.com","port":27035,"enabled":true,"region":"au","cc":"au","latitude":-33.865143,"longitude":151.2099,"reserved":0,"last_update":"0001-01-01T00:00:00Z","name_a2s":"Uncletopia | Sydney | 3 | All Maps","protocol":17,"map":"cp_metalworks","folder":"tf","game":"Team Fortress","app_id":440,"player_count":0,"max_players":24,"Bots":0,"server_type":"Dedicated","server_os":"Linux","password":true,"vac":true,"version":"7961495","steam_id":85568392925194467,"keywords":["cp","nocrits","nodmgspread","uncletopia"],"game_id":440,"stv_port":27036,"stv_name":"Uncletopia | Sydney | 3 | All Maps | STV","players":null},{"server_id":396,"name":"Uncletopia | Sydney | 4 | All Maps","name_short":"syd-4","host":"syd-1.au.uncletopia.com","port":27045,"enabled":true,"region":"au","cc":"au","latitude":-33.865143,"longitude":151.2099,"reserved":0,"last_update":"0001-01-01T00:00:00Z","name_a2s":"Uncletopia | Sydney | 4 | All Maps","protocol":17,"map":"koth_cascade","folder":"tf","game":"Team Fortress","app_id":440,"player_count":0,"max_players":24,"Bots":0,"server_type":"Dedicated","server_os":"Linux","password":true,"vac":true,"version":"7961495","steam_id":85568392925397958,"keywords":["cp","nocrits","nodmgspread","uncletopia"],"game_id":440,"stv_port":27046,"stv_name":"Uncletopia | Sydney | 4 | All Maps | STV","players":null},{"server_id":58,"name":"Uncletopia | Sydney | 5 | Stopwatch","name_short":"syd-5","host":"syd-1.au.uncletopia.com","port":27055,"enabled":true,"region":"au","cc":"au","latitude":-33.865143,"longitude":151.2099,"reserved":0,"last_update":"0001-01-01T00:00:00Z","name_a2s":"Uncletopia | Sydney | 5 | Stopwatch","protocol":17,"map":"workshop/koth_product_final.ugc454272353","folder":"tf","game":"Team Fortress","app_id":440,"player_count":0,"max_players":24,"Bots":0,"server_type":"Dedicated","server_os":"Linux","password":true,"vac":true,"version":"7961495","steam_id":85568392925397959,"keywords":["cp","nocrits","nodmgspread","uncletopia"],"game_id":440,"stv_port":27056,"stv_name":"Uncletopia | Sydney | 5 | Stopwatch | STV","players":null},{"server_id":59,"name":"Uncletopia | Sydney | 6 | Community","name_short":"syd-6","host":"syd-1.au.uncletopia.com","port":27065,"enabled":true,"region":"au","cc":"au","latitude":-33.865143,"longitude":151.2099,"reserved":0,"last_update":"0001-01-01T00:00:00Z","name_a2s":"Uncletopia | Sydney | 6 | Community","protocol":17,"map":"workshop/koth_trenchfoot_ab1.ugc731436616","folder":"tf","game":"Team Fortress","app_id":440,"player_count":0,"max_players":24,"Bots":0,"server_type":"Dedicated","server_os":"Linux","password":true,"vac":true,"version":"7961495","steam_id":85568392925397960,"keywords":["cp","nocrits","nodmgspread","uncletopia"],"game_id":440,"stv_port":27066,"stv_name":"Uncletopia | Sydney | 6 | Community | STV","players":null},{"server_id":49,"name":"Uncletopia | Warsaw | 1 | One Thousand Uncles","name_short":"waw-1","host":"waw-1.pl.uncletopia.com","port":27015,"enabled":true,"region":"eu","cc":"pl","latitude":52.2297,"longitude":21.017532,"reserved":0,"last_update":"0001-01-01T00:00:00Z","name_a2s":"Uncletopia | Warsaw | 1 | One Thousand Uncles","protocol":17,"map":"cp_mercenarypark","folder":"tf","game":"Team Fortress","app_id":440,"player_count":0,"max_players":32,"Bots":0,"server_type":"Dedicated","server_os":"Linux","password":true,"vac":true,"version":"7961495","steam_id":85568392925397850,"keywords":["alltalk","cp","danepve","increased_maxplayers","norespawntime","uncletopia"],"game_id":440,"stv_port":0,"stv_name":"","players":null},{"server_id":50,"name":"Uncletopia | Warsaw | 2 | One Thousand Uncles","name_short":"waw-2","host":"waw-1.pl.uncletopia.com","port":27025,"enabled":true,"region":"eu","cc":"pl","latitude":52.2297,"longitude":21.017532,"reserved":0,"last_update":"0001-01-01T00:00:00Z","name_a2s":"Uncletopia | Warsaw | 2 | One Thousand Uncles","protocol":17,"map":"cp_egypt_final","folder":"tf","game":"Team Fortress","app_id":440,"player_count":0,"max_players":32,"Bots":0,"server_type":"Dedicated","server_os":"Linux","password":true,"vac":true,"version":"7961495","steam_id":85568392925397851,"keywords":["alltalk","cp","danepve","increased_maxplayers","norespawntime","uncletopia"],"game_id":440,"stv_port":0,"stv_name":"","players":null},{"server_id":51,"name":"Uncletopia | Warsaw | 3 | All Maps","name_short":"waw-3","host":"waw-1.pl.uncletopia.com","port":27035,"enabled":true,"region":"eu","cc":"pl","latitude":52.2297,"longitude":21.017532,"reserved":0,"last_update":"0001-01-01T00:00:00Z","name_a2s":"Uncletopia | Warsaw | 3 | All Maps","protocol":17,"map":"pl_snowycoast","folder":"tf","game":"Team Fortress","app_id":440,"player_count":0,"max_players":24,"Bots":0,"server_type":"Dedicated","server_os":"Linux","password":true,"vac":true,"version":"7961495","steam_id":85568392925397852,"keywords":["nocrits","nodmgspread","payload","uncletopia"],"game_id":440,"stv_port":27036,"stv_name":"Uncletopia | Warsaw | 3 | All Maps | STV","players":null},{"server_id":52,"name":"Uncletopia | Warsaw | 4 | All Maps","name_short":"waw-4","host":"waw-1.pl.uncletopia.com","port":27045,"enabled":true,"region":"eu","cc":"pl","latitude":52.2297,"longitude":21.017532,"reserved":0,"last_update":"0001-01-01T00:00:00Z","name_a2s":"Uncletopia | Warsaw | 4 | All Maps","protocol":17,"map":"cp_fastlane","folder":"tf","game":"Team Fortress","app_id":440,"player_count":0,"max_players":24,"Bots":0,"server_type":"Dedicated","server_os":"Linux","password":true,"vac":true,"version":"7961495","steam_id":85568392925397853,"keywords":["cp","nocrits","nodmgspread","uncletopia"],"game_id":440,"stv_port":27046,"stv_name":"Uncletopia | Warsaw | 4 | All Maps | STV","players":null},{"server_id":53,"name":"Uncletopia | Warsaw | 5 | Stopwatch","name_short":"waw-5","host":"waw-1.pl.uncletopia.com","port":27055,"enabled":true,"region":"eu","cc":"pl","latitude":52.2297,"longitude":21.017532,"reserved":0,"last_update":"0001-01-01T00:00:00Z","name_a2s":"Uncletopia | Warsaw | 5 | Stopwatch","protocol":17,"map":"cp_gullywash_final1","folder":"tf","game":"Team Fortress","app_id":440,"player_count":0,"max_players":24,"Bots":0,"server_type":"Dedicated","server_os":"Linux","password":true,"vac":true,"version":"7961495","steam_id":85568392925397854,"keywords":["cp","nocrits","nodmgspread","uncletopia"],"game_id":440,"stv_port":27056,"stv_name":"Uncletopia | Warsaw | 5 | Stopwatch | STV","players":null},{"server_id":54,"name":"Uncletopia | Warsaw | 6 | Community","name_short":"waw-6","host":"waw-1.pl.uncletopia.com","port":27065,"enabled":true,"region":"eu","cc":"pl","latitude":52.2297,"longitude":21.017532,"reserved":0,"last_update":"0001-01-01T00:00:00Z","name_a2s":"Uncletopia | Warsaw | 6 | Community","protocol":17,"map":"workshop/cp_fulgur_rc2a.ugc2068252300","folder":"tf","game":"Team Fortress","app_id":440,"player_count":0,"max_players":24,"Bots":0,"server_type":"Dedicated","server_os":"Linux","password":true,"vac":true,"version":"7961495","steam_id":85568392925397856,"keywords":["cp","nocrits","nodmgspread","uncletopia"],"game_id":440,"stv_port":27066,"stv_name":"Uncletopia | Warsaw | 6 | Community | STV","players":null}]}