{"status":true,"message":"","result":[{"server_id":9,"name":"Uncletopia | Atlanta | 1 | All Maps","name_short":"atl-1","host":"atl-1.us.uncletopia.com","port":27015,"enabled":true,"region":"us-east","cc":"us","latitude":33.753746,"longitude":-84.38633,"reserved":0,"last_update":"0001-01-01T00:00:00Z","name_a2s":"Uncletopia | Atlanta | 1 | All Maps","protocol":17,"map":"cp_snakewater_final1","folder":"tf","game":"Team Fortress","app_id":440,"player_count":16,"max_players":24,"Bots":0,"server_type":"Dedicated","server_os":"Linux","password":true,"vac":true,"version":"7757534","steam_id":85568392924469982,"keywords":["cp","nocrits","nodmgspread","uncletopia"],"game_id":440,"stv_port":27016,"stv_name":"Uncletopia | Atlanta | 1 | All Maps | STV","players":[{"user_id":615,"name":"2 silly 2 care","steam_id":76561198112457732,"connected_time":124000000000,"state":"active","ping":61},{"user_id":604,"name":"number 1 kevin durant hater","steam_id":76561198143132686,"connected_time":1020000000000,"state":"active","ping":90},{"user_id":564,"name":"Benji","steam_id":76561198239015880,"connected_time":3697000000000,"state":"active","ping":98},{"user_id":607,"name":"MakCuMka_AneJlcuHka","steam_id":76561198892412012,"connected_time":634000000000,"state":"active","ping":184},{"user_id":617,"name":"Griffin","steam_id":76561198159339442,"connected_time":76000000000,"state":"active","ping":89},{"user_id":606,"name":"Vynthex","steam_id":76561198990762666,"connected_time":676000000000,"state":"active","ping":84},{"user_id":569,"name":"that one guy","steam_id":76561198081689582,"connected_time":3325000000000,"state":"active","ping":101},{"user_id":609,"name":"Pipirohnni pitzza","steam_id":76561198414300607,"connected_time":578000000000,"state":"active","ping":113},{"user_id":436,"name":"eish","steam_id":76561198089463603,"connected_time":14059000000000,"state":"active","ping":115},{"user_id":610,"name":"spoon","steam_id":76561198927517471,"connected_time":503000000000,"state":"active","ping":48},{"user_id":583,"name":"PsyLucky","steam_id":76561198170458501,"connected_time":2333000000000,"state":"active","ping":66},{"user_id":613,"name":"Remember Buscemi","steam_id":76561198141832292,"connected_time":171000000000,"state":"active","ping":116},{"user_id":614,"name":"truundrscr","steam_id":76561198213525809,"connected_time":141000000000,"state":"active","ping":104},{"user_id":616,"name":"thundah!","steam_id":76561199159928133,"connected_time":106000000000,"state":"active","ping":74},{"user_id":618,"name":"RocketManFran","steam_id":76561198231341852,"connected_time":66000000000,"state":"active","ping":75},{"user_id":619,"name":"marijuanero","steam_id":76561199061380038,"connected_time":43000000000,"state":"active","ping":45}]},{"server_id":104,"name":"Uncletopia | Atlanta | 2 | All Maps","name_short":"atl-2","host":"atl-1.us.uncletopia.com","port":27025,"enabled":true,"region":"us-east","cc":"us","latitude":33.753746,"longitude":-84.38633,"reserved":0,"last_update":"0001-01-01T00:00:00Z","name_a2s":"Uncletopia | Atlanta | 2 | All Maps","protocol":17,"map":"pl_snowycoast","folder":"tf","game":"Team Fortress","app_id":440,"player_count":9,"max_players":24,"Bots":0,"server_type":"Dedicated","server_os":"Linux","password":true,"vac":true,"version":"7757534","steam_id":85568392924469983,"keywords":["nocrits","nodmgspread","payload","uncletopia"],"game_id":440,"stv_port":27026,"stv_name":"Uncletopia | Atlanta | 2 | All Maps | STV","players":[{"user_id":804,"name":"gromit","steam_id":76561198037746805,"connected_time":473000000000,"state":"active","ping":62},{"user_id":796,"name":"orangk","steam_id":76561198026604607,"connected_time":910000000000,"state":"active","ping":39},{"user_id":710,"name":"cheapdisplay","steam_id":76561199206448493,"connected_time":7430000000000,"state":"active","ping":69},{"user_id":807,"name":"Spritiy(GER)","steam_id":76561198187178819,"connected_time":160000000000,"state":"active","ping":158},{"user_id":806,"name":"DRLdestroyer","steam_id":76561198085803893,"connected_time":427000000000,"state":"active","ping":62},{"user_id":782,"name":"TaeTaeNuna","steam_id":76561199177395010,"connected_time":1766000000000,"state":"active","ping":136},{"user_id":798,"name":"Bree","steam_id":76561198060193542,"connected_time":730000000000,"state":"active","ping":77},{"user_id":799,"name":"H.","steam_id":76561198074951179,"connected_time":692000000000,"state":"active","ping":75},{"user_id":745,"name":"Pongorma","steam_id":76561198309013410,"connected_time":4434000000000,"state":"active","ping":75}]},{"server_id":400,"name":"Uncletopia | Atlanta | 3 | Community","name_short":"atl-3","host":"atl-1.us.uncletopia.com","port":27035,"enabled":true,"region":"us-east","cc":"us","latitude":33.753746,"longitude":-84.38633,"reserved":0,"last_update":"0001-01-01T00:00:00Z","name_a2s":"Uncletopia | Atlanta | 3 | Community","protocol":17,"map":"workshop/cp_reckoner_rc6.ugc674719999","folder":"tf","game":"Team Fortress","app_id":440,"player_count":0,"max_players":24,"Bots":0,"server_type":"Dedicated","server_os":"Linux","password":true,"vac":true,"version":"7757534","steam_id":85568392924515187,"keywords":["cp","nocrits","nodmgspread","uncletopia"],"game_id":440,"stv_port":27036,"stv_name":"Uncletopia | Atlanta | 3 | Community | STV","players":null},{"server_id":401,"name":"Uncletopia | Atlanta | 4 | No Payload","name_short":"atl-4","host":"atl-1.us.uncletopia.com","port":27045,"enabled":true,"region":"us-east","cc":"us","latitude":33.753746,"longitude":-84.38633,"reserved":0,"last_update":"0001-01-01T00:00:00Z","name_a2s":"","protocol":0,"map":"","folder":"","game":"","app_id":0,"player_count":0,"max_players":0,"Bots":0,"server_type":"","server_os":"","password":false,"vac":false,"version":"","steam_id":0,"keywords":null,"game_id":0,"stv_port":0,"stv_name":"","players":null},{"server_id":2,"name":"Uncletopia | Chicago | 1 | All Maps","name_short":"chi-1","host":"chi-1.us.uncletopia.com","port":27015,"enabled":true,"region":"us-central","cc":"us","latitude":41.881832,"longitude":-87.62318,"reserved":0,"last_update":"0001-01-01T00:00:00Z","name_a2s":"Uncletopia | Chicago | 1 | All Maps","protocol":17,"map":"pl_barnblitz","folder":"tf","game":"Team Fortress","app_id":440,"player_count":23,"max_players":24,"Bots":0,"server_type":"Dedicated","server_os":"Linux","password":true,"vac":true,"version":"7757534","steam_id":85568392924469984,"keywords":["nocrits","nodmgspread","payload","uncletopia"],"game_id":440,"stv_port":27016,"stv_name":"Uncletopia | Chicago | 1 | All Maps | STV","players":[{"user_id":909,"name":"ZofoJackson","steam_id":76561197998366861,"connected_time":5528000000000,"state":"active","ping":50},{"user_id":942,"name":"Golden","steam_id":76561199128320581,"connected_time":3315000000000,"state":"active","ping":113},{"user_id":984,"name":"SIGMA [BS]","steam_id":76561197962604879,"connected_time":76000000000,"state":"active","ping":76},{"user_id":980,"name":"sexy old man fucks you (ASMR)","steam_id":76561198081220016,"connected_time":426000000000,"state":"active","ping":48},{"user_id":970,"name":"I'll be okay","steam_id":76561198258126130,"connected_time":835000000000,"state":"active","ping":71},{"user_id":973,"name":"Kritzburgh","steam_id":76561198149466938,"connected_time":696000000000,"state":"active","ping":61},{"user_id":910,"name":"Krellah","steam_id":76561198287045069,"connected_time":5520000000000,"state":"active","ping":57},{"user_id":974,"name":"Monster","steam_id":76561198189429665,"connected_time":664000000000,"state":"active","ping":68},{"user_id":911,"name":"sonic1394","steam_id":76561198054636788,"connected_time":5520000000000,"state":"active","ping":70},{"user_id":957,"name":"scarecrow (evil)","steam_id":76561198082979347,"connected_time":1489000000000,"state":"active","ping":57},{"user_id":983,"name":"Ruben","steam_id":76561198048508642,"connected_time":202000000000,"state":"active","ping":104},{"user_id":951,"name":"Mads Mikkelsen","steam_id":76561198083482001,"connected_time":2020000000000,"state":"active","ping":135},{"user_id":965,"name":"supersonic201","steam_id":76561198273753716,"connected_time":1043000000000,"state":"active","ping":57},{"user_id":944,"name":"Brokayo","steam_id":76561198053802723,"connected_time":3297000000000,"state":"active","ping":93},{"user_id":968,"name":"Gabinator32","steam_id":76561198872467183,"connected_time":891000000000,"state":"active","ping":37},{"user_id":975,"name":"superplasticguy","steam_id":76561198800358844,"connected_time":648000000000,"state":"active","ping":80},{"user_id":981,"name":"Crown Colony Cha-Cha Champion","steam_id":76561198010708247,"connected_time":382000000000,"state":"active","ping":84},{"user_id":939,"name":"alexfuzzy","steam_id":76561199291945851,"connected_time":3730000000000,"state":"active","ping":96},{"user_id":935,"name":"Hunter64","steam_id":76561199121947938,"connected_time":4247000000000,"state":"active","ping":143},{"user_id":976,"name":"rlty","steam_id":76561198009395055,"connected_time":558000000000,"state":"active","ping":72},{"user_id":977,"name":"B)","steam_id":76561198093921290,"connected_time":533000000000,"state":"active","ping":45},{"user_id":978,"name":"daithy","steam_id":76561198168295777,"connected_time":532000000000,"state":"active","ping":112},{"user_id":979,"name":"Poppet","steam_id":76561198012301951,"connected_time":515000000000,"state":"active","ping":55}]},{"server_id":106,"name":"Uncletopia | Chicago | 2 | All Maps","name_short":"chi-2","host":"chi-1.us.uncletopia.com","port":27025,"enabled":true,"region":"us-central","cc":"us","latitude":41.881832,"longitude":-87.62318,"reserved":0,"last_update":"0001-01-01T00:00:00Z","name_a2s":"Uncletopia | Chicago | 2 | All Maps","protocol":17,"map":"koth_highpass","folder":"tf","game":"Team Fortress","app_id":440,"player_count":24,"max_players":24,"Bots":0,"server_type":"Dedicated","server_os":"Linux","password":true,"vac":true,"version":"7757534","steam_id":85568392924469985,"keywords":["cp","nocrits","nodmgspread","uncletopia"],"game_id":440,"stv_port":27026,"stv_name":"Uncletopia | Chicago | 2 | All Maps | STV","players":[{"user_id":426,"name":"Titan Tezwa","steam_id":76561198030320618,"connected_time":1916000000000,"state":"active","ping":61},{"user_id":416,"name":"MarcusDragon11","steam_id":76561198071836719,"connected_time":2305000000000,"state":"active","ping":74},{"user_id":437,"name":"Flembrane","steam_id":76561197995328898,"connected_time":642000000000,"state":"active","ping":90},{"user_id":379,"name":"aaron","steam_id":76561198308883028,"connected_time":4716000000000,"state":"active","ping":103},{"user_id":415,"name":"LIDL","steam_id":76561198278417239,"connected_time":2431000000000,"state":"active","ping":132},{"user_id":444,"name":"ContrarY","steam_id":76561198146132163,"connected_time":397000000000,"state":"active","ping":55},{"user_id":358,"name":"Arcadletus","steam_id":76561198976009938,"connected_time":6063000000000,"state":"active","ping":80},{"user_id":446,"name":"Morakyt","steam_id":76561198075632402,"connected_time":22000000000,"state":"active","ping":76},{"user_id":400,"name":"Katy | Synr.gg","steam_id":76561198079395814,"connected_time":3180000000000,"state":"active","ping":68},{"user_id":438,"name":"Chrommatic","steam_id":76561199162134979,"connected_time":638000000000,"state":"active","ping":45},{"user_id":405,"name":"typical_human","steam_id":76561198060914982,"connected_time":2807000000000,"state":"active","ping":112},{"user_id":439,"name":"crumbles","steam_id":76561198168707036,"connected_time":632000000000,"state":"active","ping":88},{"user_id":433,"name":"Goofball","steam_id":76561198074189084,"connected_time":1067000000000,"state":"active","ping":60},{"user_id":440,"name":"Rancid Spider Eggs","steam_id":76561198832006265,"connected_time":587000000000,"state":"active","ping":85},{"user_id":445,"name":"Squiliam","steam_id":76561198025278006,"connected_time":260000000000,"state":"active","ping":91},{"user_id":414,"name":"Huntsman gaming","steam_id":76561198080165712,"connected_time":2513000000000,"state":"active","ping":87},{"user_id":424,"name":"SleepyJackdaw","steam_id":76561198053520098,"connected_time":2023000000000,"state":"active","ping":44},{"user_id":420,"name":"Cynicalrage #TF2center","steam_id":76561198085805532,"connected_time":2141000000000,"state":"active","ping":45},{"user_id":441,"name":"LtK","steam_id":76561197993180943,"connected_time":575000000000,"state":"active","ping":59},{"user_id":387,"name":"ms. capgras","steam_id":76561199080209996,"connected_time":4138000000000,"state":"active","ping":49},{"user_id":370,"name":"Sunkisses_","steam_id":76561198046476671,"connected_time":5452000000000,"state":"active","ping":51},{"user_id":442,"name":"Lore","steam_id":76561198098407538,"connected_time":527000000000,"state":"active","ping":47},{"user_id":425,"name":"Hydrostasis","steam_id":76561198412399283,"connected_time":2018000000000,"state":"active","ping":79},{"user_id":431,"name":"Scoutroad","steam_id":76561198136564680,"connected_time":1722000000000,"state":"active","ping":81}]},{"server_id":402,"name":"Uncletopia | Chicago | 3 | All Maps","name_short":"chi-3","host":"chi-1.us.uncletopia.com","port":27035,"enabled":true,"region":"us-central","cc":"us","latitude":41.881832,"longitude":-87.62318,"reserved":0,"last_update":"0001-01-01T00:00:00Z","name_a2s":"Uncletopia | Chicago | 3 | All Maps","protocol":17,"map":"koth_lakeside_final","folder":"tf","game":"Team Fortress","app_id":440,"player_count":24,"max_players":24,"Bots":0,"server_type":"Dedicated","server_os":"Linux","password":true,"vac":true,"version":"7757534","steam_id":85568392924515191,"keywords":["cp","nocrits","nodmgspread","uncletopia"],"game_id":440,"stv_port":27036,"stv_name":"Uncletopia | Chicago | 3 | All Maps | STV","players":[{"user_id":898,"name":"poopiegamer32 (racist)","steam_id":76561198154746018,"connected_time":311000000000,"state":"active","ping":63},{"user_id":876,"name":"I Bodyshot","steam_id":76561198031757460,"connected_time":2244000000000,"state":"active","ping":67},{"user_id":899,"name":"drellis","steam_id":76561197996649991,"connected_time":103000000000,"state":"active","ping":71},{"user_id":882,"name":"Wug","steam_id":76561198084112264,"connected_time":1886000000000,"state":"active","ping":78},{"user_id":868,"name":"Quack Quack","steam_id":76561198040371105,"connected_time":2973000000000,"state":"active","ping":90},{"user_id":900,"name":"Mentlegen","steam_id":76561198295280927,"connected_time":58000000000,"state":"active","ping":68},{"user_id":869,"name":"♫Pilk King♫","steam_id":76561198073660779,"connected_time":2957000000000,"state":"active","ping":59},{"user_id":847,"name":"AkimboAoki","steam_id":76561198158323058,"connected_time":3915000000000,"state":"active","ping":91},{"user_id":877,"name":"lil fortnite","steam_id":76561199127423378,"connected_time":2064000000000,"state":"active","ping":114},{"user_id":894,"name":"Yeorge","steam_id":76561198207913779,"connected_time":469000000000,"state":"active","ping":64},{"user_id":844,"name":"DWSkilltonTTV","steam_id":76561197967027880,"connected_time":4088000000000,"state":"active","ping":102},{"user_id":851,"name":"DW codeN1nj4","steam_id":76561198025558856,"connected_time":3849000000000,"state":"active","ping":118},{"user_id":880,"name":"I, Gemini","steam_id":76561198282764599,"connected_time":1951000000000,"state":"active","ping":47},{"user_id":896,"name":"McChezzy","steam_id":76561199125249222,"connected_time":432000000000,"state":"active","ping":104},{"user_id":888,"name":"Nick","steam_id":76561199065776495,"connected_time":771000000000,"state":"active","ping":69},{"user_id":793,"name":"MonkeyNobody","steam_id":76561199451266605,"connected_time":7305000000000,"state":"active","ping":116},{"user_id":889,"name":"Rock Kickass","steam_id":76561198450510841,"connected_time":771000000000,"state":"active","ping":117},{"user_id":855,"name":"shortcut","steam_id":76561198045735851,"connected_time":3816000000000,"state":"active","ping":44},{"user_id":872,"name":"Owlnubbies","steam_id":76561198137462310,"connected_time":2790000000000,"state":"active","ping":78},{"user_id":890,"name":"trashed","steam_id":76561199223514262,"connected_time":764000000000,"state":"active","ping":76},{"user_id":891,"name":"onion","steam_id":76561198242311084,"connected_time":746000000000,"state":"active","ping":60},{"user_id":864,"name":"Joshzu","steam_id":76561198200521137,"connected_time":3503000000000,"state":"active","ping":100},{"user_id":884,"name":"salty","steam_id":76561198293673616,"connected_time":1810000000000,"state":"active","ping":75}]},{"server_id":403,"name":"Uncletopia | Chicago | 4 | All Maps","name_short":"chi-4","host":"chi-1.us.uncletopia.com","port":27045,"enabled":true,"region":"us-central","cc":"us","latitude":41.881832,"longitude":-87.62318,"reserved":0,"last_update":"0001-01-01T00:00:00Z","name_a2s":"Uncletopia | Chicago | 4 | All Maps","protocol":17,"map":"pl_snowycoast","folder":"tf","game":"Team Fortress","app_id":440,"player_count":0,"max_players":24,"Bots":0,"server_type":"Dedicated","server_os":"Linux","password":true,"vac":true,"version":"7757534","steam_id":85568392924515193,"keywords":["nocrits","nodmgspread","payload","uncletopia"],"game_id":440,"stv_port":27046,"stv_name":"Uncletopia | Chicago | 4 | All Maps | STV","players":null},{"server_id":36,"name":"Uncletopia | Chicago | 5 | All Maps","name_short":"chi-5","host":"chi-2.us.uncletopia.com","port":27015,"enabled":true,"region":"us-central","cc":"us","latitude":41.881832,"longitude":-87.62318,"reserved":0,"last_update":"0001-01-01T00:00:00Z","name_a2s":"Uncletopia | Chicago | 5 | All Maps","protocol":17,"map":"pl_frontier_final","folder":"tf","game":"Team Fortress","app_id":440,"player_count":0,"max_players":24,"Bots":0,"server_type":"Dedicated","server_os":"Linux","password":true,"vac":true,"version":"7757534","steam_id":85568392924866362,"keywords":["nocrits","nodmgspread","payload","uncletopia"],"game_id":440,"stv_port":27016,"stv_name":"Uncletopia | Chicago | 5 | All Maps | STV","players":null},{"server_id":37,"name":"Uncletopia | Chicago | 6 | All Maps","name_short":"chi-6","host":"chi-2.us.uncletopia.com","port":27025,"enabled":true,"region":"us-central","cc":"us","latitude":41.881832,"longitude":-87.62318,"reserved":0,"last_update":"0001-01-01T00:00:00Z","name_a2s":"Uncletopia | Chicago | 6 | All Maps","protocol":17,"map":"pl_badwater","folder":"tf","game":"Team Fortress","app_id":440,"player_count":19,"max_players":24,"Bots":0,"server_type":"Dedicated","server_os":"Linux","password":true,"vac":true,"version":"7757534","steam_id":85568392924866363,"keywords":["nocrits","nodmgspread","payload","uncletopia"],"game_id":440,"stv_port":27026,"stv_name":"Uncletopia | Chicago | 6 | All Maps | STV","players":[{"user_id":492,"name":"PissCake","steam_id":76561199085472936,"connected_time":5345000000000,"state":"connecting","ping":76},{"user_id":547,"name":"PARTITION(A,p,q)","steam_id":76561198050398028,"connected_time":106000000000,"state":"connecting","ping":66},{"user_id":505,"name":"mitya.t","steam_id":76561197975079473,"connected_time":3525000000000,"state":"connecting","ping":107},{"user_id":532,"name":"twitch.tv/ladyloki_ch","steam_id":76561198280150602,"connected_time":1556000000000,"state":"connecting","ping":109},{"user_id":506,"name":"That \"Spud\" Guy","steam_id":76561197997444126,"connected_time":3466000000000,"state":"connecting","ping":118},{"user_id":517,"name":"Doc Scourge","steam_id":76561198025325334,"connected_time":2543000000000,"state":"connecting","ping":77},{"user_id":533,"name":"JunkYardFox","steam_id":76561199088276403,"connected_time":1363000000000,"state":"connecting","ping":69},{"user_id":534,"name":"creepycrawler","steam_id":76561198352016831,"connected_time":1262000000000,"state":"connecting","ping":79},{"user_id":483,"name":"Go-Go-Rilla","steam_id":76561198143066254,"connected_time":5625000000000,"state":"connecting","ping":75},{"user_id":411,"name":"Shrep","steam_id":76561198127341481,"connected_time":11208000000000,"state":"connecting","ping":75},{"user_id":549,"name":"Training Arc","steam_id":76561198038832034,"connected_time":35000000000,"state":"connecting","ping":124},{"user_id":537,"name":"Daz","steam_id":76561198041431938,"connected_time":1138000000000,"state":"connecting","ping":85},{"user_id":521,"name":"whateverdude22","steam_id":76561198142394470,"connected_time":2296000000000,"state":"connecting","ping":88},{"user_id":529,"name":"opal","steam_id":76561198070050042,"connected_time":1625000000000,"state":"connecting","ping":92},{"user_id":538,"name":"DoctorVoid","steam_id":76561198154715380,"connected_time":1127000000000,"state":"connecting","ping":117},{"user_id":539,"name":"ArnoldGamingﾠٴ","steam_id":76561198040140247,"connected_time":1102000000000,"state":"connecting","ping":113},{"user_id":546,"name":"Omeven","steam_id":76561198256387155,"connected_time":260000000000,"state":"connecting","ping":173},{"user_id":528,"name":"_Ati","steam_id":76561198339777801,"connected_time":1816000000000,"state":"connecting","ping":106}]},{"server_id":38,"name":"Uncletopia | Chicago | 7 | Stopwatch Beta","name_short":"chi-7","host":"chi-2.us.uncletopia.com","port":27035,"enabled":true,"region":"us-central","cc":"us","latitude":41.881832,"longitude":-87.62318,"reserved":0,"last_update":"0001-01-01T00:00:00Z","name_a2s":"Uncletopia | Chicago | 7 | Stopwatch Beta","protocol":17,"map":"pl_borneo","folder":"tf","game":"Team Fortress","app_id":440,"player_count":0,"max_players":24,"Bots":0,"server_type":"Dedicated","server_os":"Linux","password":true,"vac":true,"version":"7757534","steam_id":85568392924866364,"keywords":["nocrits","nodmgspread","payload","uncletopia"],"game_id":440,"stv_port":27036,"stv_name":"Uncletopia | Chicago | 7 | Stopwatch Beta | STV","players":null},{"server_id":39,"name":"Uncletopia | Chicago | 8 | Community","name_short":"chi-8","host":"chi-2.us.uncletopia.com","port":27045,"enabled":true,"region":"us-central","cc":"us","latitude":41.881832,"longitude":-87.62318,"reserved":0,"last_update":"0001-01-01T00:00:00Z","name_a2s":"Uncletopia | Chicago | 8 | Community","protocol":17,"map":"workshop/pl_divulgence_b4b.ugc2884808746","folder":"tf","game":"Team Fortress","app_id":440,"player_count":0,"max_players":24,"Bots":0,"server_type":"Dedicated","server_os":"Linux","password":true,"vac":true,"version":"7757534","steam_id":85568392924866365,"keywords":["nocrits","nodmgspread","payload","uncletopia"],"game_id":440,"stv_port":27046,"stv_name":"Uncletopia | Chicago | 8 | Community | STV","players":null},{"server_id":8,"name":"Uncletopia | Dallas | 1 | All Maps","name_short":"dal-1","host":"dal-1.us.uncletopia.com","port":27015,"enabled":true,"region":"us-central","cc":"us","latitude":32.779167,"longitude":-96.80889,"reserved":0,"last_update":"0001-01-01T00:00:00Z","name_a2s":"Uncletopia | Dallas | 1 | All Maps","protocol":17,"map":"pl_frontier_final","folder":"tf","game":"Team Fortress","app_id":440,"player_count":16,"max_players":24,"Bots":0,"server_type":"Dedicated","server_os":"Linux","password":true,"vac":true,"version":"7757534","steam_id":85568392924469986,"keywords":["nocrits","nodmgspread","payload","uncletopia"],"game_id":440,"stv_port":27016,"stv_name":"Uncletopia | Dallas | 1 | All Maps | STV","players":[{"user_id":443,"name":"SkyShu","steam_id":76561198084848054,"connected_time":2476000000000,"state":"active","ping":38},{"user_id":448,"name":"*starts amen breaking*","steam_id":76561198278519600,"connected_time":2033000000000,"state":"active","ping":90},{"user_id":464,"name":"Shortbane","steam_id":76561198247166584,"connected_time":1348000000000,"state":"active","ping":50},{"user_id":478,"name":"floofy","steam_id":76561198389769098,"connected_time":63000000000,"state":"active","ping":76},{"user_id":466,"name":"ScoutBox","steam_id":76561198111539895,"connected_time":1084000000000,"state":"active","ping":69},{"user_id":429,"name":"FluttyPutty","steam_id":76561198218446556,"connected_time":3669000000000,"state":"active","ping":63},{"user_id":449,"name":"Judith The Adversary","steam_id":76561198932113568,"connected_time":2001000000000,"state":"active","ping":84},{"user_id":439,"name":"Pot Head Pixie","steam_id":76561198083024504,"connected_time":2591000000000,"state":"active","ping":45},{"user_id":440,"name":"๖ۣۜ≫Ð!ϟ☾☉ℛÐ","steam_id":76561198095974361,"connected_time":2547000000000,"state":"active","ping":85},{"user_id":441,"name":"Devon","steam_id":76561198151801996,"connected_time":2524000000000,"state":"active","ping":75},{"user_id":451,"name":"bolainassr0","steam_id":76561199079078845,"connected_time":1895000000000,"state":"active","ping":93},{"user_id":474,"name":"The Bombinomicon","steam_id":76561198209881263,"connected_time":489000000000,"state":"active","ping":86},{"user_id":404,"name":"Etomb","steam_id":76561198210017208,"connected_time":5264000000000,"state":"active","ping":68},{"user_id":456,"name":"SomethingUnusual","steam_id":76561198217824760,"connected_time":1659000000000,"state":"active","ping":125},{"user_id":475,"name":"Homo Ejectus","steam_id":76561197968701952,"connected_time":460000000000,"state":"active","ping":69},{"user_id":461,"name":"Alexei Obolensky","steam_id":76561198010339626,"connected_time":1450000000000,"state":"active","ping":95}]},{"server_id":108,"name":"Uncletopia | Dallas | 2 | All Maps","name_short":"dal-2","host":"dal-1.us.uncletopia.com","port":27025,"enabled":true,"region":"us-central","cc":"us","latitude":32.779167,"longitude":-96.80889,"reserved":0,"last_update":"0001-01-01T00:00:00Z","name_a2s":"Uncletopia | Dallas | 2 | All Maps","protocol":17,"map":"pl_goldrush","folder":"tf","game":"Team Fortress","app_id":440,"player_count":5,"max_players":24,"Bots":0,"server_type":"Dedicated","server_os":"Linux","password":true,"vac":true,"version":"7757534","steam_id":85568392924469988,"keywords":["nocrits","nodmgspread","payload","uncletopia"],"game_id":440,"stv_port":27026,"stv_name":"Uncletopia | Dallas | 2 | All Maps | STV","players":[{"user_id":881,"name":"Chuma-K","steam_id":76561199103657602,"connected_time":1271000000000,"state":"active","ping":196},{"user_id":884,"name":"Snicksnork18","steam_id":76561198074342600,"connected_time":1021000000000,"state":"active","ping":89},{"user_id":885,"name":"Sugercrash","steam_id":76561199187685119,"connected_time":964000000000,"state":"active","ping":72},{"user_id":823,"name":"Hunter Biden's Laptop","steam_id":76561199368837595,"connected_time":6349000000000,"state":"active","ping":99},{"user_id":848,"name":"THE MILK MAN","steam_id":76561198314720486,"connected_time":4665000000000,"state":"active","ping":99}]},{"server_id":5,"name":"Uncletopia | Frankfurt | 1 | All Maps","name_short":"frk-1","host":"frk-1.de.uncletopia.com","port":27015,"enabled":true,"region":"eu","cc":"de","latitude":50.110924,"longitude":8.682127,"reserved":0,"last_update":"0001-01-01T00:00:00Z","name_a2s":"Uncletopia | Frankfurt | 1 | All Maps","protocol":17,"map":"koth_lakeside_final","folder":"tf","game":"Team Fortress","app_id":440,"player_count":0,"max_players":24,"Bots":0,"server_type":"Dedicated","server_os":"Linux","password":true,"vac":true,"version":"7757534","steam_id":85568392924469989,"keywords":["cp","nocrits","nodmgspread","uncletopia"],"game_id":440,"stv_port":27016,"stv_name":"Uncletopia | Frankfurt | 1 | All Maps | STV","players":null},{"server_id":110,"name":"Uncletopia | Frankfurt | 2 | All Maps","name_short":"frk-2","host":"frk-1.de.uncletopia.com","port":27025,"enabled":true,"region":"eu","cc":"de","latitude":50.110924,"longitude":8.682127,"reserved":0,"last_update":"0001-01-01T00:00:00Z","name_a2s":"Uncletopia | Frankfurt | 2 | All Maps","protocol":17,"map":"cp_snakewater_final1","folder":"tf","game":"Team Fortress","app_id":440,"player_count":0,"max_players":24,"Bots":0,"server_type":"Dedicated","server_os":"Linux","password":true,"vac":true,"version":"7757534","steam_id":85568392924469990,"keywords":["cp","nocrits","nodmgspread","uncletopia"],"game_id":440,"stv_port":27026,"stv_name":"Uncletopia | Frankfurt | 2 | All Maps | STV","players":null},{"server_id":308,"name":"Uncletopia | Frankfurt | 3 | All Maps","name_short":"frk-3","host":"frk-1.de.uncletopia.com","port":27035,"enabled":true,"region":"eu","cc":"de","latitude":50.110924,"longitude":8.682127,"reserved":0,"last_update":"0001-01-01T00:00:00Z","name_a2s":"Uncletopia | Frankfurt | 3 | All Maps","protocol":17,"map":"pl_borneo","folder":"tf","game":"Team Fortress","app_id":440,"player_count":0,"max_players":24,"Bots":0,"server_type":"Dedicated","server_os":"Linux","password":true,"vac":true,"version":"7757534","steam_id":85568392924504274,"keywords":["nocrits","nodmgspread","payload","uncletopia"],"game_id":440,"stv_port":27036,"stv_name":"Uncletopia | Frankfurt | 3 | All Maps | STV","players":null},{"server_id":309,"name":"Uncletopia | Frankfurt | 4 | All Maps","name_short":"frk-4","host":"frk-1.de.uncletopia.com","port":27045,"enabled":true,"region":"eu","cc":"de","latitude":50.110924,"longitude":8.682127,"reserved":0,"last_update":"0001-01-01T00:00:00Z","name_a2s":"Uncletopia | Frankfurt | 4 | All Maps","protocol":17,"map":"koth_viaduct","folder":"tf","game":"Team Fortress","app_id":440,"player_count":0,"max_players":24,"Bots":0,"server_type":"Dedicated","server_os":"Linux","password":true,"vac":true,"version":"7757534","steam_id":85568392924504275,"keywords":["cp","nocrits","nodmgspread","uncletopia"],"game_id":440,"stv_port":27046,"stv_name":"Uncletopia | Frankfurt | 4 | All Maps | STV","players":null},{"server_id":310,"name":"Uncletopia | Frankfurt | 5 | All Maps","name_short":"frk-5","host":"frk-1.de.uncletopia.com","port":27055,"enabled":true,"region":"eu","cc":"de","latitude":50.110924,"longitude":8.682127,"reserved":0,"last_update":"0001-01-01T00:00:00Z","name_a2s":"Uncletopia | Frankfurt | 5 | All Maps","protocol":17,"map":"koth_lakeside_final","folder":"tf","game":"Team Fortress","app_id":440,"player_count":0,"max_players":24,"Bots":0,"server_type":"Dedicated","server_os":"Linux","password":true,"vac":true,"version":"7757534","steam_id":85568392924504277,"keywords":["cp","nocrits","nodmgspread","uncletopia"],"game_id":440,"stv_port":27056,"stv_name":"Uncletopia | Frankfurt | 5 | All Maps | STV","players":null},{"server_id":311,"name":"Uncletopia | Frankfurt | 6 | All Maps","name_short":"frk-6","host":"frk-1.de.uncletopia.com","port":27065,"enabled":true,"region":"eu","cc":"de","latitude":50.110924,"longitude":8.682127,"reserved":0,"last_update":"0001-01-01T00:00:00Z","name_a2s":"Uncletopia | Frankfurt | 6 | All Maps","protocol":17,"map":"pl_frontier_final","folder":"tf","game":"Team Fortress","app_id":440,"player_count":0,"max_players":24,"Bots":0,"server_type":"Dedicated","server_os":"Linux","password":true,"vac":true,"version":"7757534","steam_id":85568392924504278,"keywords":["nocrits","nodmgspread","payload","uncletopia"],"game_id":440,"stv_port":27066,"stv_name":"Uncletopia | Frankfurt | 6 | All Maps | STV","players":null},{"server_id":23,"name":"Uncletopia | Frankfurt | 7 | Stopwatch Beta","name_short":"frk-7","host":"frk-1.de.uncletopia.com","port":27075,"enabled":true,"region":"eu","cc":"de","latitude":50.110924,"longitude":8.682127,"reserved":0,"last_update":"0001-01-01T00:00:00Z","name_a2s":"Uncletopia | Frankfurt | 7 | Stopwatch Beta","protocol":17,"map":"cp_sunshine","folder":"tf","game":"Team Fortress","app_id":440,"player_count":0,"max_players":24,"Bots":0,"server_type":"Dedicated","server_os":"Linux","password":true,"vac":true,"version":"7757534","steam_id":85568392924742827,"keywords":["cp","nocrits","nodmgspread","uncletopia"],"game_id":440,"stv_port":27076,"stv_name":"Uncletopia | Frankfurt | 7 | Stopwatch Beta | STV","players":null},{"server_id":24,"name":"Uncletopia | Frankfurt | 8 | Community","name_short":"frk-8","host":"frk-1.de.uncletopia.com","port":27085,"enabled":true,"region":"eu","cc":"de","latitude":50.110924,"longitude":8.682127,"reserved":0,"last_update":"0001-01-01T00:00:00Z","name_a2s":"Uncletopia | Frankfurt | 8 | Community","protocol":17,"map":"koth_lakeside_final","folder":"tf","game":"Team Fortress","app_id":440,"player_count":0,"max_players":24,"Bots":0,"server_type":"Dedicated","server_os":"Linux","password":true,"vac":true,"version":"7757534","steam_id":85568392924742828,"keywords":["cp","nocrits","nodmgspread","uncletopia"],"game_id":440,"stv_port":27086,"stv_name":"Uncletopia | Frankfurt | 8 | Community | STV","players":null},{"server_id":202,"name":"Uncletopia | Hong Kong | 1 | All Maps","name_short":"hgk-1","host":"hgk-1.hk.uncletopia.com","port":27015,"enabled":true,"region":"asia","cc":"hk","latitude":22.302711,"longitude":114.177216,"reserved":0,"last_update":"0001-01-01T00:00:00Z","name_a2s":"Uncletopia | Hong Kong | 1 | All Maps","protocol":17,"map":"koth_highpass","folder":"tf","game":"Team Fortress","app_id":440,"player_count":0,"max_players":24,"Bots":0,"server_type":"Dedicated","server_os":"Linux","password":true,"vac":true,"version":"7757534","steam_id":85568392924494504,"keywords":["cp","nocrits","nodmgspread","uncletopia"],"game_id":440,"stv_port":27016,"stv_name":"Uncletopia | Hong Kong | 1 | All Maps | STV","players":null},{"server_id":1,"name":"Uncletopia | Los Angeles | 1 | All Maps","name_short":"lax-1","host":"lax-1.us.uncletopia.com","port":27015,"enabled":true,"region":"us-west","cc":"us","latitude":33.94279,"longitude":-118.41004,"reserved":0,"last_update":"0001-01-01T00:00:00Z","name_a2s":"Uncletopia | Los Angeles | 1 | All Maps","protocol":17,"map":"cp_altitude","folder":"tf","game":"Team Fortress","app_id":440,"player_count":0,"max_players":24,"Bots":0,"server_type":"Dedicated","server_os":"Linux","password":true,"vac":true,"version":"7757534","steam_id":85568392924469991,"keywords":["cp","nocrits","nodmgspread","uncletopia"],"game_id":440,"stv_port":27016,"stv_name":"Uncletopia | Los Angeles | 1 | All Maps | STV","players":null},{"server_id":112,"name":"Uncletopia | Los Angeles | 2 | All Maps","name_short":"lax-2","host":"lax-1.us.uncletopia.com","port":27025,"enabled":true,"region":"us-west","cc":"us","latitude":33.94279,"longitude":-118.41004,"reserved":0,"last_update":"0001-01-01T00:00:00Z","name_a2s":"Uncletopia | Los Angeles | 2 | All Maps","protocol":17,"map":"pl_swiftwater_final1","folder":"tf","game":"Team Fortress","app_id":440,"player_count":23,"max_players":24,"Bots":0,"server_type":"Dedicated","server_os":"Linux","password":true,"vac":true,"version":"7757534","steam_id":85568392924469992,"keywords":["nocrits","nodmgspread","payload","uncletopia"],"game_id":440,"stv_port":27026,"stv_name":"Uncletopia | Los Angeles | 2 | All Maps | STV","players":[{"user_id":485,"name":"99int","steam_id":76561198076687119,"connected_time":2237000000000,"state":"active","ping":70},{"user_id":515,"name":"hakken","steam_id":76561199102391736,"connected_time":140000000000,"state":"active","ping":45},{"user_id":496,"name":"dash23™","steam_id":76561198314951185,"connected_time":1163000000000,"state":"active","ping":79},{"user_id":510,"name":"Man","steam_id":76561198274547639,"connected_time":384000000000,"state":"active","ping":43},{"user_id":502,"name":"JIBA","steam_id":76561198141315991,"connected_time":573000000000,"state":"active","ping":52},{"user_id":490,"name":"zpalmtree","steam_id":76561198134307620,"connected_time":1686000000000,"state":"active","ping":108},{"user_id":379,"name":"Mr.Pan","steam_id":76561198069030613,"connected_time":13177000000000,"state":"active","ping":83},{"user_id":503,"name":"GlamRock Freddy Fazbear","steam_id":76561198329068407,"connected_time":500000000000,"state":"active","ping":83},{"user_id":504,"name":"Testosterone Dan","steam_id":76561197995058890,"connected_time":499000000000,"state":"active","ping":83},{"user_id":396,"name":"Sanic","steam_id":76561198083124962,"connected_time":11941000000000,"state":"active","ping":76},{"user_id":506,"name":"This Again ?","steam_id":76561198072502345,"connected_time":420000000000,"state":"active","ping":70},{"user_id":487,"name":"vioxynteris","steam_id":76561198161428666,"connected_time":1835000000000,"state":"active","ping":39},{"user_id":507,"name":"Adjim","steam_id":76561198179532535,"connected_time":408000000000,"state":"active","ping":115},{"user_id":508,"name":"JohnnyGitGud","steam_id":76561198401455467,"connected_time":400000000000,"state":"active","ping":67},{"user_id":498,"name":"Can You Feel It Mr.Krabs","steam_id":76561198128302414,"connected_time":970000000000,"state":"active","ping":52},{"user_id":479,"name":"byeah","steam_id":76561199168732067,"connected_time":2373000000000,"state":"active","ping":92},{"user_id":480,"name":"Gazelle","steam_id":76561198336397088,"connected_time":2371000000000,"state":"active","ping":51},{"user_id":509,"name":"Internal Screaming","steam_id":76561198272327629,"connected_time":395000000000,"state":"active","ping":67},{"user_id":511,"name":"Jimjonjoe","steam_id":76561199195695913,"connected_time":367000000000,"state":"active","ping":86},{"user_id":513,"name":"cocaine garage regular","steam_id":76561198093611579,"connected_time":351000000000,"state":"active","ping":60},{"user_id":514,"name":"FROYO b4nny","steam_id":76561197970669109,"connected_time":294000000000,"state":"active","ping":46},{"user_id":516,"name":"El pandora","steam_id":76561198075490385,"connected_time":97000000000,"state":"active","ping":48},{"user_id":494,"name":"Mufalito","steam_id":76561198951889482,"connected_time":1595000000000,"state":"active","ping":185}]},{"server_id":324,"name":"Uncletopia | Los Angeles | 3 | All Maps","name_short":"lax-3","host":"lax-1.us.uncletopia.com","port":27035,"enabled":true,"region":"us-west","cc":"us","latitude":33.94279,"longitude":-118.41004,"reserved":0,"last_update":"0001-01-01T00:00:00Z","name_a2s":"Uncletopia | Los Angeles | 3 | All Maps","protocol":17,"map":"pl_borneo","folder":"tf","game":"Team Fortress","app_id":440,"player_count":5,"max_players":24,"Bots":0,"server_type":"Dedicated","server_os":"Linux","password":true,"vac":true,"version":"7757534","steam_id":85568392924510198,"keywords":["nocrits","nodmgspread","payload","uncletopia"],"game_id":440,"stv_port":27036,"stv_name":"Uncletopia | Los Angeles | 3 | All Maps | STV","players":[{"user_id":18,"name":"Beefsteak","steam_id":76561198029304428,"connected_time":3906000000000,"state":"active","ping":43},{"user_id":19,"name":"Popitrius","steam_id":76561198058946352,"connected_time":3876000000000,"state":"active","ping":57},{"user_id":21,"name":"Biguglytrashtruck","steam_id":76561198017520922,"connected_time":2506000000000,"state":"active","ping":68},{"user_id":23,"name":"The Glizzanator","steam_id":76561198115355451,"connected_time":180000000000,"state":"active","ping":29},{"user_id":24,"name":"BoX_hEaD101","steam_id":76561198200875467,"connected_time":77000000000,"state":"spawning","ping":40}]},{"server_id":25,"name":"Uncletopia | Los Angeles | 4 | Stopwatch Beta","name_short":"lax-4","host":"lax-1.us.uncletopia.com","port":27045,"enabled":true,"region":"us-west","cc":"us","latitude":33.94279,"longitude":-118.41004,"reserved":0,"last_update":"0001-01-01T00:00:00Z","name_a2s":"Uncletopia | Los Angeles | 4 | Stopwatch Beta","protocol":17,"map":"pl_swiftwater_final1","folder":"tf","game":"Team Fortress","app_id":440,"player_count":0,"max_players":24,"Bots":0,"server_type":"Dedicated","server_os":"Linux","password":true,"vac":true,"version":"7757534","steam_id":85568392924510199,"keywords":["nocrits","nodmgspread","payload","uncletopia"],"game_id":440,"stv_port":27046,"stv_name":"Uncletopia | Los Angeles | 4 | Stopwatch Beta | STV","players":null},{"server_id":11,"name":"Uncletopia | London | 1 | All Maps","name_short":"lon-1","host":"lon-1.uk.uncletopia.com","port":27015,"enabled":true,"region":"eu","cc":"gb","latitude":51.509865,"longitude":-0.118092,"reserved":0,"last_update":"0001-01-01T00:00:00Z","name_a2s":"Uncletopia | London | 1 | All Maps","protocol":17,"map":"koth_highpass","folder":"tf","game":"Team Fortress","app_id":440,"player_count":0,"max_players":24,"Bots":0,"server_type":"Dedicated","server_os":"Linux","password":true,"vac":true,"version":"7757534","steam_id":85568392924367362,"keywords":["cp","nocrits","nodmgspread","uncletopia"],"game_id":440,"stv_port":27016,"stv_name":"Uncletopia | London | 1 | All Maps | STV","players":null},{"server_id":114,"name":"Uncletopia | London | 2 | All Maps","name_short":"lon-2","host":"lon-1.uk.uncletopia.com","port":27025,"enabled":true,"region":"eu","cc":"gb","latitude":51.509865,"longitude":-0.118092,"reserved":0,"last_update":"0001-01-01T00:00:00Z","name_a2s":"Uncletopia | London | 2 | All Maps","protocol":17,"map":"koth_viaduct","folder":"tf","game":"Team Fortress","app_id":440,"player_count":0,"max_players":24,"Bots":0,"server_type":"Dedicated","server_os":"Linux","password":true,"vac":true,"version":"7757534","steam_id":85568392924470941,"keywords":["cp","nocrits","nodmgspread","uncletopia"],"game_id":440,"stv_port":27026,"stv_name":"Uncletopia | London | 2 | All Maps | STV","players":null},{"server_id":320,"name":"Uncletopia | London | 3 | All Maps","name_short":"lon-3","host":"lon-1.uk.uncletopia.com","port":27035,"enabled":true,"region":"eu","cc":"gb","latitude":51.509865,"longitude":-0.118092,"reserved":0,"last_update":"0001-01-01T00:00:00Z","name_a2s":"Uncletopia | London | 3 | All Maps","protocol":17,"map":"cp_dustbowl","folder":"tf","game":"Team Fortress","app_id":440,"player_count":0,"max_players":24,"Bots":0,"server_type":"Dedicated","server_os":"Linux","password":true,"vac":true,"version":"7757534","steam_id":85568392924510192,"keywords":["cp","nocrits","nodmgspread","uncletopia"],"game_id":440,"stv_port":27036,"stv_name":"Uncletopia | London | 3 | All Maps | STV","players":null},{"server_id":321,"name":"Uncletopia | London | 4 | All Maps","name_short":"lon-4","host":"lon-1.uk.uncletopia.com","port":27045,"enabled":true,"region":"eu","cc":"gb","latitude":51.509865,"longitude":-0.118092,"reserved":0,"last_update":"0001-01-01T00:00:00Z","name_a2s":"Uncletopia | London | 4 | All Maps","protocol":17,"map":"cp_dustbowl","folder":"tf","game":"Team Fortress","app_id":440,"player_count":0,"max_players":24,"Bots":0,"server_type":"Dedicated","server_os":"Linux","password":true,"vac":true,"version":"7757534","steam_id":85568392924510193,"keywords":["cp","nocrits","nodmgspread","uncletopia"],"game_id":440,"stv_port":27046,"stv_name":"Uncletopia | London | 4 | All Maps | STV","players":null},{"server_id":21,"name":"Uncletopia | London | 5 | All Maps","name_short":"lon-5","host":"lon-1.uk.uncletopia.com","port":27055,"enabled":true,"region":"eu","cc":"gb","latitude":51.509865,"longitude":-0.118092,"reserved":0,"last_update":"0001-01-01T00:00:00Z","name_a2s":"Uncletopia | London | 5 | All Maps","protocol":17,"map":"cp_altitude","folder":"tf","game":"Team Fortress","app_id":440,"player_count":0,"max_players":24,"Bots":0,"server_type":"Dedicated","server_os":"Linux","password":true,"vac":true,"version":"7757534","steam_id":85568392924742829,"keywords":["cp","nocrits","nodmgspread","uncletopia"],"game_id":440,"stv_port":27056,"stv_name":"Uncletopia | London | 5 | All Maps | STV","players":null},{"server_id":22,"name":"Uncletopia | London | 6 | All Maps","name_short":"lon-6","host":"lon-1.uk.uncletopia.com","port":27065,"enabled":true,"region":"eu","cc":"gb","latitude":51.509865,"longitude":-0.118092,"reserved":0,"last_update":"0001-01-01T00:00:00Z","name_a2s":"Uncletopia | London | 6 | All Maps","protocol":17,"map":"cp_mountainlab","folder":"tf","game":"Team Fortress","app_id":440,"player_count":0,"max_players":24,"Bots":0,"server_type":"Dedicated","server_os":"Linux","password":true,"vac":true,"version":"7757534","steam_id":85568392924742830,"keywords":["cp","nocrits","nodmgspread","uncletopia"],"game_id":440,"stv_port":27066,"stv_name":"Uncletopia | London | 6 | All Maps | STV","players":null},{"server_id":40,"name":"Uncletopia | London | 7 | No Payload","name_short":"lon-7","host":"lon-1.uk.uncletopia.com","port":27075,"enabled":true,"region":"eu","cc":"gb","latitude":51.509865,"longitude":-0.118092,"reserved":0,"last_update":"0001-01-01T00:00:00Z","name_a2s":"Uncletopia | London | 7 | No Payload","protocol":17,"map":"pl_badwater","folder":"tf","game":"Team Fortress","app_id":440,"player_count":0,"max_players":24,"Bots":0,"server_type":"Dedicated","server_os":"Linux","password":true,"vac":true,"version":"7757534","steam_id":85568392924964314,"keywords":["nocrits","nodmgspread","payload","uncletopia"],"game_id":440,"stv_port":27076,"stv_name":"Uncletopia | London | 7 | No Payload | STV","players":null},{"server_id":41,"name":"Uncletopia | London | 8 | Community","name_short":"lon-8","host":"lon-1.uk.uncletopia.com","port":27085,"enabled":true,"region":"eu","cc":"gb","latitude":51.509865,"longitude":-0.118092,"reserved":0,"last_update":"0001-01-01T00:00:00Z","name_a2s":"Uncletopia | London | 8 | Community","protocol":17,"map":"workshop/cp_glassworks_rc6a.ugc454118349","folder":"tf","game":"Team Fortress","app_id":440,"player_count":0,"max_players":24,"Bots":0,"server_type":"Dedicated","server_os":"Linux","password":true,"vac":true,"version":"7757534","steam_id":85568392924964315,"keywords":["cp","nocrits","nodmgspread","uncletopia"],"game_id":440,"stv_port":27086,"stv_name":"Uncletopia | London | 8 | Community | STV","players":null},{"server_id":300,"name":"Uncletopia | Montréal | 1 | All Maps","name_short":"mtl-1","host":"mtl-1.ca.uncletopia.com","port":27015,"enabled":true,"region":"us-east","cc":"ca","latitude":45.50889,"longitude":-73.56167,"reserved":0,"last_update":"0001-01-01T00:00:00Z","name_a2s":"Uncletopia | Montréal | 1 | All Maps","protocol":17,"map":"pl_badwater","folder":"tf","game":"Team Fortress","app_id":440,"player_count":0,"max_players":24,"Bots":0,"server_type":"Dedicated","server_os":"Linux","password":true,"vac":true,"version":"7757534","steam_id":85568392924500087,"keywords":["nocrits","nodmgspread","payload","uncletopia"],"game_id":440,"stv_port":27016,"stv_name":"Uncletopia | Montréal | 1 | All Maps | STV","players":null},{"server_id":301,"name":"Uncletopia | Montréal | 2 | All Maps","name_short":"mtl-2","host":"mtl-1.ca.uncletopia.com","port":27025,"enabled":true,"region":"us-east","cc":"ca","latitude":45.50889,"longitude":-73.56167,"reserved":0,"last_update":"0001-01-01T00:00:00Z","name_a2s":"Uncletopia | Montréal | 2 | All Maps","protocol":17,"map":"cp_altitude","folder":"tf","game":"Team Fortress","app_id":440,"player_count":0,"max_players":24,"Bots":0,"server_type":"Dedicated","server_os":"Linux","password":true,"vac":true,"version":"7757534","steam_id":85568392924500088,"keywords":["cp","nocrits","nodmgspread","uncletopia"],"game_id":440,"stv_port":27026,"stv_name":"Uncletopia | Montréal | 2 | All Maps | STV","players":null},{"server_id":302,"name":"Uncletopia | Montréal | 3 | All Maps","name_short":"mtl-3","host":"mtl-1.ca.uncletopia.com","port":27035,"enabled":true,"region":"us-east","cc":"ca","latitude":45.50889,"longitude":-73.56167,"reserved":0,"last_update":"0001-01-01T00:00:00Z","name_a2s":"Uncletopia | Montréal | 3 | All Maps","protocol":17,"map":"cp_mountainlab","folder":"tf","game":"Team Fortress","app_id":440,"player_count":0,"max_players":24,"Bots":0,"server_type":"Dedicated","server_os":"Linux","password":true,"vac":true,"version":"7757534","steam_id":85568392924500089,"keywords":["cp","nocrits","nodmgspread","uncletopia"],"game_id":440,"stv_port":27036,"stv_name":"Uncletopia | Montréal | 3 | All Maps | STV","players":null},{"server_id":303,"name":"Uncletopia | Montréal | 4 | No Payload","name_short":"mtl-4","host":"mtl-1.ca.uncletopia.com","port":27045,"enabled":true,"region":"us-east","cc":"ca","latitude":45.50889,"longitude":-73.56167,"reserved":0,"last_update":"0001-01-01T00:00:00Z","name_a2s":"Uncletopia | Montréal | 4 | No Payload","protocol":17,"map":"cp_gravelpit","folder":"tf","game":"Team Fortress","app_id":440,"player_count":0,"max_players":24,"Bots":0,"server_type":"Dedicated","server_os":"Linux","password":true,"vac":true,"version":"7757534","steam_id":85568392924500090,"keywords":["cp","nocrits","nodmgspread","uncletopia"],"game_id":440,"stv_port":27046,"stv_name":"Uncletopia | Montréal | 4 | No Payload | STV","players":null},{"server_id":13,"name":"Uncletopia | New York City | 1 | All Maps","name_short":"nyc-1","host":"nyc-1.us.uncletopia.com","port":27015,"enabled":true,"region":"us-east","cc":"us","latitude":40.73061,"longitude":-73.93524,"reserved":0,"last_update":"0001-01-01T00:00:00Z","name_a2s":"Uncletopia | New York City | 1 | All Maps","protocol":17,"map":"koth_viaduct","folder":"tf","game":"Team Fortress","app_id":440,"player_count":0,"max_players":24,"Bots":0,"server_type":"Dedicated","server_os":"Linux","password":true,"vac":true,"version":"7757534","steam_id":85568392924469993,"keywords":["cp","nocrits","nodmgspread","uncletopia"],"game_id":440,"stv_port":27016,"stv_name":"Uncletopia | New York City | 1 | All Maps | STV","players":null},{"server_id":14,"name":"Uncletopia | New York City | 2 | All Maps","name_short":"nyc-2","host":"nyc-1.us.uncletopia.com","port":27025,"enabled":true,"region":"us-east","cc":"us","latitude":40.73061,"longitude":-73.93524,"reserved":0,"last_update":"0001-01-01T00:00:00Z","name_a2s":"Uncletopia | New York City | 2 | All Maps","protocol":17,"map":"pl_snowycoast","folder":"tf","game":"Team Fortress","app_id":440,"player_count":0,"max_players":24,"Bots":0,"server_type":"Dedicated","server_os":"Linux","password":true,"vac":true,"version":"7757534","steam_id":85568392924469994,"keywords":["nocrits","nodmgspread","payload","uncletopia"],"game_id":440,"stv_port":27026,"stv_name":"Uncletopia | New York City | 2 | All Maps | STV","players":null},{"server_id":15,"name":"Uncletopia | New York City | 3 | Stopwatch Beta","name_short":"nyc-3","host":"nyc-1.us.uncletopia.com","port":27035,"enabled":true,"region":"us-east","cc":"us","latitude":40.73061,"longitude":-73.93524,"reserved":0,"last_update":"0001-01-01T00:00:00Z","name_a2s":"Uncletopia | New York City | 3 | Stopwatch Beta","protocol":17,"map":"workshop/koth_clearcut_b15.ugc2107050255","folder":"tf","game":"Team Fortress","app_id":440,"player_count":0,"max_players":24,"Bots":0,"server_type":"Dedicated","server_os":"Linux","password":true,"vac":true,"version":"7757534","steam_id":85568392924742820,"keywords":["cp","nocrits","nodmgspread","uncletopia"],"game_id":440,"stv_port":27036,"stv_name":"Uncletopia | New York City | 3 | Stopwatch Beta | STV","players":null},{"server_id":16,"name":"Uncletopia | New York City | 4 | Community","name_short":"nyc-4","host":"nyc-1.us.uncletopia.com","port":27045,"enabled":true,"region":"us-east","cc":"us","latitude":40.73061,"longitude":-73.93524,"reserved":0,"last_update":"0001-01-01T00:00:00Z","name_a2s":"Uncletopia | New York City | 4 | Community","protocol":17,"map":"workshop/cp_reckoner_rc6.ugc674719999","folder":"tf","game":"Team Fortress","app_id":440,"player_count":0,"max_players":24,"Bots":0,"server_type":"Dedicated","server_os":"Linux","password":true,"vac":true,"version":"7757534","steam_id":85568392924742821,"keywords":["cp","nocrits","nodmgspread","uncletopia"],"game_id":440,"stv_port":27046,"stv_name":"Uncletopia | New York City | 4 | Community | STV","players":null},{"server_id":142,"name":"Uncletopia | São Paulo | 1 | All Maps","name_short":"sao-1","host":"sao-1.br.uncletopia.com","port":27015,"enabled":true,"region":"sa","cc":"br","latitude":-23.533773,"longitude":-46.62529,"reserved":0,"last_update":"0001-01-01T00:00:00Z","name_a2s":"Uncletopia | São Paulo | 1 | All Maps","protocol":17,"map":"koth_lakeside_final","folder":"tf","game":"Team Fortress","app_id":440,"player_count":0,"max_players":24,"Bots":0,"server_type":"Dedicated","server_os":"Linux","password":true,"vac":true,"version":"7757534","steam_id":85568392924469996,"keywords":["cp","nocrits","nodmgspread","uncletopia"],"game_id":440,"stv_port":27016,"stv_name":"Uncletopia | São Paulo | 1 | All Maps | STV","players":null},{"server_id":143,"name":"Uncletopia | São Paulo | 2 | All Maps","name_short":"sao-2","host":"sao-2.br.uncletopia.com","port":27015,"enabled":true,"region":"sa","cc":"br","latitude":-23.533773,"longitude":-46.62529,"reserved":0,"last_update":"0001-01-01T00:00:00Z","name_a2s":"Uncletopia | São Paulo | 2 | All Maps","protocol":17,"map":"koth_viaduct","folder":"tf","game":"Team Fortress","app_id":440,"player_count":0,"max_players":24,"Bots":0,"server_type":"Dedicated","server_os":"Linux","password":true,"vac":true,"version":"7757534","steam_id":85568392924485349,"keywords":["cp","nocrits","nodmgspread","uncletopia"],"game_id":440,"stv_port":27016,"stv_name":"Uncletopia | São Paulo | 2 | All Maps | STV","players":null},{"server_id":7,"name":"Uncletopia | Seattle | 1 | All Maps","name_short":"sea-1","host":"sea-1.us.uncletopia.com","port":27015,"enabled":true,"region":"us-west","cc":"us","latitude":47.608013,"longitude":-122.33517,"reserved":0,"last_update":"0001-01-01T00:00:00Z","name_a2s":"Uncletopia | Seattle | 1 | All Maps","protocol":17,"map":"pl_borneo","folder":"tf","game":"Team Fortress","app_id":440,"player_count":24,"max_players":24,"Bots":0,"server_type":"Dedicated","server_os":"Linux","password":true,"vac":true,"version":"7757534","steam_id":85568392924469997,"keywords":["nocrits","nodmgspread","payload","uncletopia"],"game_id":440,"stv_port":27016,"stv_name":"Uncletopia | Seattle | 1 | All Maps | STV","players":[{"user_id":761,"name":"alaska","steam_id":76561198017030029,"connected_time":3228000000000,"state":"active","ping":61},{"user_id":764,"name":"Keamy","steam_id":76561199471434875,"connected_time":3106000000000,"state":"active","ping":31},{"user_id":789,"name":"thunderous prophet","steam_id":76561198131166135,"connected_time":727000000000,"state":"active","ping":34},{"user_id":777,"name":"JimmySquid","steam_id":76561198254242530,"connected_time":2087000000000,"state":"active","ping":94},{"user_id":738,"name":"gorlab","steam_id":76561198025089694,"connected_time":6061000000000,"state":"active","ping":60},{"user_id":786,"name":"Florist","steam_id":76561198009121060,"connected_time":1256000000000,"state":"active","ping":46},{"user_id":783,"name":"fwoov","steam_id":76561198129166260,"connected_time":1548000000000,"state":"active","ping":77},{"user_id":774,"name":"Globb","steam_id":76561198232629304,"connected_time":2656000000000,"state":"active","ping":49},{"user_id":790,"name":"Sir Galahad","steam_id":76561198195999859,"connected_time":36000000000,"state":"active","ping":62},{"user_id":768,"name":"The Super Mario Bros. Movie","steam_id":76561198871692156,"connected_time":2956000000000,"state":"active","ping":45},{"user_id":788,"name":"roryisonamobilehotspot","steam_id":76561198065825165,"connected_time":802000000000,"state":"active","ping":125},{"user_id":787,"name":"They/Them Rattussy","steam_id":76561198238186628,"connected_time":1252000000000,"state":"active","ping":77},{"user_id":791,"name":"MyMonkeyBaby","steam_id":76561198046896670,"connected_time":31000000000,"state":"spawning","ping":44},{"user_id":699,"name":"Lord Hater","steam_id":76561199158148782,"connected_time":9671000000000,"state":"active","ping":57},{"user_id":776,"name":"delight","steam_id":76561197980280272,"connected_time":2372000000000,"state":"active","ping":46},{"user_id":741,"name":"Arsonist Goose","steam_id":76561198147441830,"connected_time":6045000000000,"state":"active","ping":75},{"user_id":785,"name":"look at this picture of a frog","steam_id":76561198169755734,"connected_time":1292000000000,"state":"active","ping":61},{"user_id":734,"name":"Kaiga","steam_id":76561198044052046,"connected_time":6081000000000,"state":"active","ping":132},{"user_id":757,"name":"Cheezbeargur","steam_id":76561198164702899,"connected_time":4084000000000,"state":"active","ping":64},{"user_id":754,"name":"Nightshade","steam_id":76561199011017814,"connected_time":4350000000000,"state":"active","ping":74},{"user_id":772,"name":"cassius","steam_id":76561198203851303,"connected_time":2808000000000,"state":"active","ping":79},{"user_id":758,"name":"soup","steam_id":76561198043209046,"connected_time":4057000000000,"state":"active","ping":81},{"user_id":775,"name":"Beens","steam_id":76561199076061523,"connected_time":2651000000000,"state":"active","ping":66},{"user_id":724,"name":"p9 jorts weed syrup","steam_id":76561199041179985,"connected_time":7542000000000,"state":"active","ping":55}]},{"server_id":119,"name":"Uncletopia | Seattle | 2 | All Maps","name_short":"sea-2","host":"sea-1.us.uncletopia.com","port":27025,"enabled":true,"region":"us-west","cc":"us","latitude":47.608013,"longitude":-122.33517,"reserved":0,"last_update":"0001-01-01T00:00:00Z","name_a2s":"Uncletopia | Seattle | 2 | All Maps","protocol":17,"map":"pl_badwater","folder":"tf","game":"Team Fortress","app_id":440,"player_count":24,"max_players":24,"Bots":0,"server_type":"Dedicated","server_os":"Linux","password":true,"vac":true,"version":"7757534","steam_id":85568392924469998,"keywords":["nocrits","nodmgspread","payload","uncletopia"],"game_id":440,"stv_port":27026,"stv_name":"Uncletopia | Seattle | 2 | All Maps | STV","players":[{"user_id":516,"name":"Vortiger","steam_id":76561198275813176,"connected_time":2050000000000,"state":"active","ping":77},{"user_id":541,"name":"船尾","steam_id":76561198128764422,"connected_time":366000000000,"state":"active","ping":44},{"user_id":532,"name":"threat to albanian natsec","steam_id":76561198070136627,"connected_time":1319000000000,"state":"active","ping":75},{"user_id":538,"name":"Jase","steam_id":76561198122564176,"connected_time":1126000000000,"state":"active","ping":70},{"user_id":540,"name":"SadFapping","steam_id":76561198076651049,"connected_time":782000000000,"state":"active","ping":57},{"user_id":514,"name":"Jovo","steam_id":76561197993265970,"connected_time":2214000000000,"state":"active","ping":45},{"user_id":520,"name":"Cloud","steam_id":76561198272454184,"connected_time":1872000000000,"state":"active","ping":176},{"user_id":521,"name":"g=o","steam_id":76561198067719154,"connected_time":1868000000000,"state":"active","ping":57},{"user_id":522,"name":"2 Point Tom","steam_id":76561198087617008,"connected_time":1745000000000,"state":"active","ping":56},{"user_id":533,"name":"June","steam_id":76561198141803658,"connected_time":1301000000000,"state":"active","ping":75},{"user_id":468,"name":"JTuu","steam_id":76561198030606396,"connected_time":6051000000000,"state":"active","ping":44},{"user_id":548,"name":"Maykza","steam_id":76561198877812314,"connected_time":166000000000,"state":"active","ping":128},{"user_id":543,"name":"*resorts to gunboats*","steam_id":76561198046526036,"connected_time":327000000000,"state":"active","ping":76},{"user_id":524,"name":"mango cafe","steam_id":76561198142328193,"connected_time":1673000000000,"state":"active","ping":49},{"user_id":549,"name":"Bheem","steam_id":76561198170453459,"connected_time":70000000000,"state":"active","ping":40},{"user_id":536,"name":"Phlogging Solly","steam_id":76561198020580071,"connected_time":1218000000000,"state":"active","ping":78},{"user_id":547,"name":"Dilbert Garfunkel","steam_id":76561198088318184,"connected_time":254000000000,"state":"active","ping":50},{"user_id":537,"name":"CheeseCake488","steam_id":76561199407617942,"connected_time":1214000000000,"state":"active","ping":122},{"user_id":504,"name":"Tough Puffin","steam_id":76561198024011010,"connected_time":3103000000000,"state":"active","ping":108},{"user_id":550,"name":"Master Humper","steam_id":76561198142933570,"connected_time":68000000000,"state":"active","ping":75},{"user_id":508,"name":"Grim","steam_id":76561198158911860,"connected_time":2753000000000,"state":"active","ping":56},{"user_id":530,"name":"bepsu","steam_id":76561198826566231,"connected_time":1378000000000,"state":"active","ping":90},{"user_id":439,"name":"[DG] Dmitri, Prince of Chernoby","steam_id":76561198345062036,"connected_time":8687000000000,"state":"active","ping":96},{"user_id":535,"name":"Geon","steam_id":76561199006239194,"connected_time":1251000000000,"state":"active","ping":45}]},{"server_id":406,"name":"Uncletopia | Seattle | 3 | Stopwatch Beta","name_short":"sea-3","host":"sea-1.us.uncletopia.com","port":27035,"enabled":true,"region":"us-west","cc":"us","latitude":47.608013,"longitude":-122.33517,"reserved":0,"last_update":"0001-01-01T00:00:00Z","name_a2s":"Uncletopia | Seattle | 3 | Stopwatch Beta","protocol":17,"map":"pl_swiftwater_final1","folder":"tf","game":"Team Fortress","app_id":440,"player_count":0,"max_players":24,"Bots":0,"server_type":"Dedicated","server_os":"Linux","password":true,"vac":true,"version":"7757534","steam_id":85568392924515217,"keywords":["nocrits","nodmgspread","payload","uncletopia"],"game_id":440,"stv_port":27036,"stv_name":"Uncletopia | Seattle | 3 | Stopwatch Beta | STV","players":null},{"server_id":17,"name":"Uncletopia | San Francisco | 1 | All Maps","name_short":"sfo-1","host":"sfo-1.us.uncletopia.com","port":27015,"enabled":true,"region":"us-west","cc":"us","latitude":37.77397,"longitude":-122.4313,"reserved":0,"last_update":"0001-01-01T00:00:00Z","name_a2s":"Uncletopia | San Francisco | 1 | All Maps","protocol":17,"map":"pl_thundermountain","folder":"tf","game":"Team Fortress","app_id":440,"player_count":22,"max_players":24,"Bots":0,"server_type":"Dedicated","server_os":"Linux","password":true,"vac":true,"version":"7757534","steam_id":85568392924469999,"keywords":["nocrits","nodmgspread","payload","uncletopia"],"game_id":440,"stv_port":27016,"stv_name":"Uncletopia | San Francisco | 1 | All Maps | STV","players":[{"user_id":435,"name":"hart","steam_id":76561198046073848,"connected_time":397000000000,"state":"active","ping":64},{"user_id":431,"name":"Plums","steam_id":76561198319179133,"connected_time":522000000000,"state":"active","ping":30},{"user_id":439,"name":"Alonzo Falcon de aspecto piola","steam_id":76561199203482850,"connected_time":322000000000,"state":"active","ping":173},{"user_id":437,"name":"NaxRat","steam_id":76561198992710128,"connected_time":344000000000,"state":"active","ping":65},{"user_id":396,"name":"Colonel Chikara","steam_id":76561198010021087,"connected_time":2844000000000,"state":"active","ping":50},{"user_id":440,"name":"Mahiru Koizumi","steam_id":76561198164782653,"connected_time":308000000000,"state":"active","ping":115},{"user_id":394,"name":"Wacks","steam_id":76561198079476100,"connected_time":2952000000000,"state":"active","ping":55},{"user_id":416,"name":"Grizzakk","steam_id":76561198115821923,"connected_time":1341000000000,"state":"active","ping":76},{"user_id":384,"name":"Calypso","steam_id":76561198082939544,"connected_time":4433000000000,"state":"active","ping":96},{"user_id":429,"name":"AAGooseman","steam_id":76561198378941369,"connected_time":577000000000,"state":"active","ping":59},{"user_id":442,"name":"Mak","steam_id":76561198089197922,"connected_time":26000000000,"state":"active","ping":70},{"user_id":421,"name":"Satori Komeiji","steam_id":76561198158211423,"connected_time":1237000000000,"state":"active","ping":50},{"user_id":397,"name":"Maid 'n' China","steam_id":76561198423392976,"connected_time":2840000000000,"state":"active","ping":55},{"user_id":179,"name":"⚙Nebula⚙","steam_id":76561198093148959,"connected_time":19041000000000,"state":"active","ping":85},{"user_id":358,"name":"ruben!","steam_id":76561198248731498,"connected_time":6951000000000,"state":"active","ping":62},{"user_id":427,"name":"en.wikipedia.org/wiki/Nae_Nae","steam_id":76561198418288939,"connected_time":959000000000,"state":"active","ping":52},{"user_id":436,"name":"Baggage","steam_id":76561198215128080,"connected_time":365000000000,"state":"active","ping":55},{"user_id":438,"name":"gerg","steam_id":76561197997127387,"connected_time":343000000000,"state":"active","ping":49},{"user_id":441,"name":"social distance warrior","steam_id":76561198128992994,"connected_time":296000000000,"state":"active","ping":60},{"user_id":401,"name":"0r161n4lj0k3","steam_id":76561198127328235,"connected_time":2055000000000,"state":"active","ping":87},{"user_id":232,"name":"Bacon","steam_id":76561198800334545,"connected_time":14939000000000,"state":"active","ping":56},{"user_id":426,"name":"Cola","steam_id":76561198171893399,"connected_time":1157000000000,"state":"active","ping":119}]},{"server_id":18,"name":"Uncletopia | San Francisco | 2 | All Maps","name_short":"sfo-2","host":"sfo-1.us.uncletopia.com","port":27025,"enabled":true,"region":"us-west","cc":"us","latitude":37.77397,"longitude":-122.4313,"reserved":0,"last_update":"0001-01-01T00:00:00Z","name_a2s":"Uncletopia | San Francisco | 2 | All Maps","protocol":17,"map":"cp_process_final","folder":"tf","game":"Team Fortress","app_id":440,"player_count":0,"max_players":24,"Bots":0,"server_type":"Dedicated","server_os":"Linux","password":true,"vac":true,"version":"7757534","steam_id":85568392924470000,"keywords":["cp","nocrits","nodmgspread","uncletopia"],"game_id":440,"stv_port":27026,"stv_name":"Uncletopia | San Francisco | 2 | All Maps | STV","players":null},{"server_id":19,"name":"Uncletopia | San Francisco | 3 | Stopwatch Beta","name_short":"sfo-3","host":"sfo-1.us.uncletopia.com","port":27035,"enabled":true,"region":"us-west","cc":"us","latitude":37.77397,"longitude":-122.4313,"reserved":0,"last_update":"0001-01-01T00:00:00Z","name_a2s":"Uncletopia | San Francisco | 3 | Stopwatch Beta","protocol":17,"map":"koth_lakeside_final","folder":"tf","game":"Team Fortress","app_id":440,"player_count":0,"max_players":24,"Bots":0,"server_type":"Dedicated","server_os":"Linux","password":true,"vac":true,"version":"7757534","steam_id":85568392924742824,"keywords":["cp","nocrits","nodmgspread","uncletopia"],"game_id":440,"stv_port":27036,"stv_name":"Uncletopia | San Francisco | 3 | Stopwatch Beta | STV","players":null},{"server_id":20,"name":"Uncletopia | San Francisco | 4 | Community","name_short":"sfo-4","host":"sfo-1.us.uncletopia.com","port":27045,"enabled":true,"region":"us-west","cc":"us","latitude":37.77397,"longitude":-122.4313,"reserved":0,"last_update":"0001-01-01T00:00:00Z","name_a2s":"Uncletopia | San Francisco | 4 | Community","protocol":17,"map":"workshop/koth_slaughter_rc1.ugc1712845210","folder":"tf","game":"Team Fortress","app_id":440,"player_count":0,"max_players":24,"Bots":0,"server_type":"Dedicated","server_os":"Linux","password":true,"vac":true,"version":"7757534","steam_id":85568392924742826,"keywords":["cp","nocrits","nodmgspread","uncletopia"],"game_id":440,"stv_port":27046,"stv_name":"Uncletopia | San Francisco | 4 | Community | STV","players":null},{"server_id":141,"name":"Uncletopia | Sydney | 1 | All Maps","name_short":"syd-1","host":"syd-1.au.uncletopia.com","port":27015,"enabled":true,"region":"au","cc":"au","latitude":-33.865143,"longitude":151.2099,"reserved":0,"last_update":"0001-01-01T00:00:00Z","name_a2s":"Uncletopia | Sydney | 1 | All Maps","protocol":17,"map":"koth_lakeside_final","folder":"tf","game":"Team Fortress","app_id":440,"player_count":11,"max_players":24,"Bots":0,"server_type":"Dedicated","server_os":"Linux","password":true,"vac":true,"version":"7757534","steam_id":85568392924470001,"keywords":["cp","nocrits","nodmgspread","uncletopia"],"game_id":440,"stv_port":27016,"stv_name":"Uncletopia | Sydney | 1 | All Maps | STV","players":[{"user_id":46,"name":"Lord Headass","steam_id":76561198296532053,"connected_time":478000000000,"state":"active","ping":201},{"user_id":47,"name":"RIP Aaron Paul","steam_id":76561199262196710,"connected_time":455000000000,"state":"active","ping":43},{"user_id":52,"name":"Sky","steam_id":76561198041979829,"connected_time":83000000000,"state":"active","ping":65},{"user_id":43,"name":"Newtron","steam_id":76561199224937937,"connected_time":676000000000,"state":"active","ping":48},{"user_id":49,"name":"Arpazha","steam_id":76561199072257230,"connected_time":408000000000,"state":"active","ping":146},{"user_id":31,"name":"askwaige","steam_id":76561199108254276,"connected_time":1551000000000,"state":"active","ping":58},{"user_id":50,"name":"MR Martian","steam_id":76561198157854561,"connected_time":340000000000,"state":"active","ping":90},{"user_id":38,"name":"CypressFluff (She/Her)","steam_id":76561198174667818,"connected_time":892000000000,"state":"active","ping":54},{"user_id":44,"name":"Shnookums","steam_id":76561198890195653,"connected_time":664000000000,"state":"active","ping":46},{"user_id":51,"name":"Jetfire","steam_id":76561198047370036,"connected_time":335000000000,"state":"active","ping":75},{"user_id":53,"name":"BamBoozled","steam_id":76561199065491364,"connected_time":51000000000,"state":"active","ping":56}]},{"server_id":123,"name":"Uncletopia | Sydney | 2 | All Maps","name_short":"syd-2","host":"syd-1.au.uncletopia.com","port":27025,"enabled":true,"region":"au","cc":"au","latitude":-33.865143,"longitude":151.2099,"reserved":0,"last_update":"0001-01-01T00:00:00Z","name_a2s":"Uncletopia | Sydney | 2 | All Maps","protocol":17,"map":"pl_frontier_final","folder":"tf","game":"Team Fortress","app_id":440,"player_count":15,"max_players":24,"Bots":0,"server_type":"Dedicated","server_os":"Linux","password":true,"vac":true,"version":"7757534","steam_id":85568392924470002,"keywords":["nocrits","nodmgspread","payload","uncletopia"],"game_id":440,"stv_port":27026,"stv_name":"Uncletopia | Sydney | 2 | All Maps | STV","players":[{"user_id":154,"name":"Etihad Sponsorship (legal)","steam_id":76561198031293430,"connected_time":1972000000000,"state":"active","ping":87},{"user_id":176,"name":"Easel (any/all)","steam_id":76561198049213583,"connected_time":119000000000,"state":"active","ping":61},{"user_id":146,"name":"pants money","steam_id":76561198066256359,"connected_time":3317000000000,"state":"active","ping":56},{"user_id":156,"name":"Mac","steam_id":76561198063407128,"connected_time":1948000000000,"state":"active","ping":46},{"user_id":15,"name":"Doctor Estonia","steam_id":76561198057365089,"connected_time":10431000000000,"state":"active","ping":94},{"user_id":157,"name":"Distilledrain41","steam_id":76561198272717119,"connected_time":1919000000000,"state":"active","ping":47},{"user_id":155,"name":"TheDoctor30","steam_id":76561198433686866,"connected_time":1968000000000,"state":"active","ping":100},{"user_id":174,"name":"EpicGuy4227","steam_id":76561198094132328,"connected_time":445000000000,"state":"active","ping":50},{"user_id":172,"name":"Tsolis","steam_id":76561198013950614,"connected_time":733000000000,"state":"active","ping":60},{"user_id":169,"name":"no teles 4 u","steam_id":76561198018478297,"connected_time":824000000000,"state":"active","ping":70},{"user_id":165,"name":"jrg","steam_id":76561197997362731,"connected_time":1736000000000,"state":"active","ping":48},{"user_id":153,"name":"Sledgehammer","steam_id":76561198066726621,"connected_time":2485000000000,"state":"active","ping":45},{"user_id":142,"name":"Cup","steam_id":76561198038485845,"connected_time":3736000000000,"state":"active","ping":40},{"user_id":170,"name":"Shadow Puppeteer","steam_id":76561198151121997,"connected_time":748000000000,"state":"active","ping":70},{"user_id":171,"name":"R","steam_id":76561197996963023,"connected_time":745000000000,"state":"active","ping":78}]},{"server_id":395,"name":"Uncletopia | Sydney | 3 | All Maps","name_short":"syd-3","host":"syd-1.au.uncletopia.com","port":27035,"enabled":true,"region":"au","cc":"au","latitude":-33.865143,"longitude":151.2099,"reserved":0,"last_update":"0001-01-01T00:00:00Z","name_a2s":"Uncletopia | Sydney | 3 | All Maps","protocol":17,"map":"pl_pier","folder":"tf","game":"Team Fortress","app_id":440,"player_count":0,"max_players":24,"Bots":0,"server_type":"Dedicated","server_os":"Linux","password":true,"vac":true,"version":"7757534","steam_id":85568392925194467,"keywords":["nocrits","nodmgspread","payload","uncletopia"],"game_id":440,"stv_port":27036,"stv_name":"Uncletopia | Sydney | 3 | All Maps | STV","players":null},{"server_id":396,"name":"Uncletopia | Sydney | 4 | All Maps","name_short":"syd-4","host":"syd-1.au.uncletopia.com","port":27045,"enabled":true,"region":"au","cc":"au","latitude":-33.865143,"longitude":151.2099,"reserved":0,"last_update":"0001-01-01T00:00:00Z","name_a2s":"Uncletopia | Sydney | 4 | All Maps","protocol":17,"map":"koth_highpass","folder":"tf","game":"Team Fortress","app_id":440,"player_count":0,"max_players":24,"Bots":0,"server_type":"Dedicated","server_os":"Linux","password":true,"vac":true,"version":"7757534","steam_id":85568392925397958,"keywords":["cp","nocrits","nodmgspread","uncletopia"],"game_id":440,"stv_port":27046,"stv_name":"Uncletopia | Sydney | 4 | All Maps | STV","players":null},{"server_id":58,"name":"Uncletopia | Sydney | 5 | Stopwatch Beta","name_short":"syd-5","host":"syd-1.au.uncletopia.com","port":27055,"enabled":true,"region":"au","cc":"au","latitude":-33.865143,"longitude":151.2099,"reserved":0,"last_update":"0001-01-01T00:00:00Z","name_a2s":"Uncletopia | Sydney | 5 | Stopwatch Beta","protocol":17,"map":"koth_cascade","folder":"tf","game":"Team Fortress","app_id":440,"player_count":0,"max_players":24,"Bots":0,"server_type":"Dedicated","server_os":"Linux","password":true,"vac":true,"version":"7757534","steam_id":85568392925397959,"keywords":["cp","nocrits","nodmgspread","uncletopia"],"game_id":440,"stv_port":27056,"stv_name":"Uncletopia | Sydney | 5 | Stopwatch Beta | STV","players":null},{"server_id":59,"name":"Uncletopia | Sydney | 6 | Community","name_short":"syd-6","host":"syd-1.au.uncletopia.com","port":27065,"enabled":true,"region":"au","cc":"au","latitude":-33.865143,"longitude":151.2099,"reserved":0,"last_update":"0001-01-01T00:00:00Z","name_a2s":"Uncletopia | Sydney | 6 | Community","protocol":17,"map":"workshop/pl_barnblitz_pro7.ugc582280235","folder":"tf","game":"Team Fortress","app_id":440,"player_count":1,"max_players":24,"Bots":0,"server_type":"Dedicated","server_os":"Linux","password":true,"vac":true,"version":"7757534","steam_id":85568392925397960,"keywords":["nocrits","nodmgspread","payload","uncletopia"],"game_id":440,"stv_port":27066,"stv_name":"Uncletopia | Sydney | 6 | Community | STV","players":[{"user_id":8,"name":"movablellama","steam_id":76561199466321887,"connected_time":389000000000,"state":"active","ping":88}]},{"server_id":49,"name":"Uncletopia | Warsaw | 1 | All Maps","name_short":"waw-1","host":"waw-1.pl.uncletopia.com","port":27015,"enabled":true,"region":"eu","cc":"pl","latitude":52.2297,"longitude":21.017532,"reserved":0,"last_update":"0001-01-01T00:00:00Z","name_a2s":"","protocol":0,"map":"","folder":"","game":"","app_id":0,"player_count":0,"max_players":0,"Bots":0,"server_type":"","server_os":"","password":false,"vac":false,"version":"","steam_id":0,"keywords":null,"game_id":0,"stv_port":0,"stv_name":"","players":null},{"server_id":50,"name":"Uncletopia | Warsaw | 2 | All Maps","name_short":"waw-2","host":"waw-1.pl.uncletopia.com","port":27025,"enabled":true,"region":"eu","cc":"pl","latitude":52.2297,"longitude":21.017532,"reserved":0,"last_update":"0001-01-01T00:00:00Z","name_a2s":"Uncletopia | Warsaw | 2 | All Maps","protocol":17,"map":"koth_viaduct","folder":"tf","game":"Team Fortress","app_id":440,"player_count":0,"max_players":24,"Bots":0,"server_type":"Dedicated","server_os":"Linux","password":true,"vac":true,"version":"7757534","steam_id":85568392925397851,"keywords":["cp","nocrits","nodmgspread","uncletopia"],"game_id":440,"stv_port":27026,"stv_name":"Uncletopia | Warsaw | 2 | All Maps | STV","players":null},{"server_id":51,"name":"Uncletopia | Warsaw | 3 | All Maps","name_short":"waw-3","host":"waw-1.pl.uncletopia.com","port":27035,"enabled":true,"region":"eu","cc":"pl","latitude":52.2297,"longitude":21.017532,"reserved":0,"last_update":"0001-01-01T00:00:00Z","name_a2s":"Uncletopia | Warsaw | 3 | All Maps","protocol":17,"map":"pl_badwater","folder":"tf","game":"Team Fortress","app_id":440,"player_count":0,"max_players":24,"Bots":0,"server_type":"Dedicated","server_os":"Linux","password":true,"vac":true,"version":"7757534","steam_id":85568392925397852,"keywords":["nocrits","nodmgspread","payload","uncletopia"],"game_id":440,"stv_port":27036,"stv_name":"Uncletopia | Warsaw | 3 | All Maps | STV","players":null},{"server_id":52,"name":"Uncletopia | Warsaw | 4 | All Maps","name_short":"waw-4","host":"waw-1.pl.uncletopia.com","port":27045,"enabled":true,"region":"eu","cc":"pl","latitude":52.2297,"longitude":21.017532,"reserved":0,"last_update":"0001-01-01T00:00:00Z","name_a2s":"Uncletopia | Warsaw | 4 | All Maps","protocol":17,"map":"koth_lakeside_final","folder":"tf","game":"Team Fortress","app_id":440,"player_count":0,"max_players":24,"Bots":0,"server_type":"Dedicated","server_os":"Linux","password":true,"vac":true,"version":"7757534","steam_id":85568392925397853,"keywords":["cp","nocrits","nodmgspread","uncletopia"],"game_id":440,"stv_port":27046,"stv_name":"Uncletopia | Warsaw | 4 | All Maps | STV","players":null},{"server_id":53,"name":"Uncletopia | Warsaw | 5 | Stopwatch Beta","name_short":"waw-5","host":"waw-1.pl.uncletopia.com","port":27055,"enabled":true,"region":"eu","cc":"pl","latitude":52.2297,"longitude":21.017532,"reserved":0,"last_update":"0001-01-01T00:00:00Z","name_a2s":"Uncletopia | Warsaw | 5 | Stopwatch Beta","protocol":17,"map":"pl_borneo","folder":"tf","game":"Team Fortress","app_id":440,"player_count":0,"max_players":24,"Bots":0,"server_type":"Dedicated","server_os":"Linux","password":true,"vac":true,"version":"7757534","steam_id":85568392925397854,"keywords":["nocrits","nodmgspread","payload","uncletopia"],"game_id":440,"stv_port":27056,"stv_name":"Uncletopia | Warsaw | 5 | Stopwatch Beta | STV","players":null},{"server_id":54,"name":"Uncletopia | Warsaw | 6 | Community","name_short":"waw-6","host":"waw-1.pl.uncletopia.com","port":27065,"enabled":true,"region":"eu","cc":"pl","latitude":52.2297,"longitude":21.017532,"reserved":0,"last_update":"0001-01-01T00:00:00Z","name_a2s":"Uncletopia | Warsaw | 6 | Community","protocol":17,"map":"koth_lakeside_final","folder":"tf","game":"Team Fortress","app_id":440,"player_count":0,"max_players":24,"Bots":0,"server_type":"Dedicated","server_os":"Linux","password":true,"vac":true,"version":"7757534","steam_id":85568392925397856,"keywords":["cp","nocrits","nodmgspread","uncletopia"],"game_id":440,"stv_port":27066,"stv_name":"Uncletopia | Warsaw | 6 | Community | STV","players":null}]}