{"status":true,"message":"","result":[{"server_id":9,"name":"Uncletopia | Atlanta | 1 | All Maps","name_short":"atl-1","host":"atl-1.us.uncletopia.com","port":27015,"enabled":true,"region":"us-east","cc":"us","latitude":33.753746,"longitude":-84.38633,"reserved":0,"last_update":"0001-01-01T00:00:00Z","name_a2s":"Uncletopia | Atlanta | 1 | All Maps","protocol":17,"map":"cp_snakewater_final1","folder":"tf","game":"Team Fortress","app_id":440,"player_count":0,"max_players":24,"Bots":0,"server_type":"Dedicated","server_os":"Linux","password":true,"vac":true,"version":"7757534","steam_id":85568392924469982,"keywords":["cp","nocrits","nodmgspread","uncletopia"],"game_id":440,"stv_port":27016,"stv_name":"Uncletopia | Atlanta | 1 | All Maps | STV","players":null},{"server_id":104,"name":"Uncletopia | Atlanta | 2 | All Maps","name_short":"atl-2","host":"atl-1.us.uncletopia.com","port":27025,"enabled":true,"region":"us-east","cc":"us","latitude":33.753746,"longitude":-84.38633,"reserved":0,"last_update":"0001-01-01T00:00:00Z","name_a2s":"Uncletopia | Atlanta | 2 | All Maps","protocol":17,"map":"pl_snowycoast","folder":"tf","game":"Team Fortress","app_id":440,"player_count":1,"max_players":24,"Bots":0,"server_type":"Dedicated","server_os":"Linux","password":true,"vac":true,"version":"7757534","steam_id":85568392924469983,"keywords":["nocrits","nodmgspread","payload","uncletopia"],"game_id":440,"stv_port":27026,"stv_name":"Uncletopia | Atlanta | 2 | All Maps | STV","players":[{"user_id":784,"name":"[‚ÄΩ]Questionable.Femboy[‚ÄΩ]","steam_id":76561199025374371,"connected_time":45000000000,"state":"active","ping":149}]},{"server_id":400,"name":"Uncletopia | Atlanta | 3 | Community","name_short":"atl-3","host":"atl-1.us.uncletopia.com","port":27035,"enabled":true,"region":"us-east","cc":"us","latitude":33.753746,"longitude":-84.38633,"reserved":0,"last_update":"0001-01-01T00:00:00Z","name_a2s":"Uncletopia | Atlanta | 3 | Community","protocol":17,"map":"workshop/koth_trenchfoot_b1a.ugc731436616","folder":"tf","game":"Team Fortress","app_id":440,"player_count":0,"max_players":24,"Bots":0,"server_type":"Dedicated","server_os":"Linux","password":true,"vac":true,"version":"7757534","steam_id":85568392924515187,"keywords":["cp","nocrits","nodmgspread","uncletopia"],"game_id":440,"stv_port":27036,"stv_name":"Uncletopia | Atlanta | 3 | Community | STV","players":null},{"server_id":401,"name":"Uncletopia | Atlanta | 4 | No Payload","name_short":"atl-4","host":"atl-1.us.uncletopia.com","port":27045,"enabled":true,"region":"us-east","cc":"us","latitude":33.753746,"longitude":-84.38633,"reserved":0,"last_update":"0001-01-01T00:00:00Z","name_a2s":"","protocol":0,"map":"","folder":"","game":"","app_id":0,"player_count":0,"max_players":0,"Bots":0,"server_type":"","server_os":"","password":false,"vac":false,"version":"","steam_id":0,"keywords":null,"game_id":0,"stv_port":0,"stv_name":"","players":null},{"server_id":2,"name":"Uncletopia | Chicago | 1 | All Maps","name_short":"chi-1","host":"chi-1.us.uncletopia.com","port":27015,"enabled":true,"region":"us-central","cc":"us","latitude":41.881832,"longitude":-87.62318,"reserved":0,"last_update":"0001-01-01T00:00:00Z","name_a2s":"Uncletopia | Chicago | 1 | All Maps","protocol":17,"map":"pl_barnblitz","folder":"tf","game":"Team Fortress","app_id":440,"player_count":24,"max_players":24,"Bots":0,"server_type":"Dedicated","server_os":"Linux","password":true,"vac":true,"version":"7757534","steam_id":85568392924469984,"keywords":["nocrits","nodmgspread","payload","uncletopia"],"game_id":440,"stv_port":27016,"stv_name":"Uncletopia | Chicago | 1 | All Maps | STV","players":[{"user_id":1071,"name":"PBxJAY","steam_id":76561198402471788,"connected_time":3419000000000,"state":"active","ping":129},{"user_id":1090,"name":"WHOPPER WHOPPER WHOPPER","steam_id":76561198035776269,"connected_time":2638000000000,"state":"active","ping":60},{"user_id":1103,"name":"Joakt","steam_id":76561199171401911,"connected_time":1790000000000,"state":"active","ping":47},{"user_id":1100,"name":"Ryuujin","steam_id":76561198000897946,"connected_time":2217000000000,"state":"active","ping":119},{"user_id":1029,"name":"Ayylmao","steam_id":76561198104780147,"connected_time":6654000000000,"state":"active","ping":45},{"user_id":1066,"name":"miji","steam_id":76561198002909892,"connected_time":3884000000000,"state":"active","ping":55},{"user_id":1041,"name":"Bede","steam_id":76561198200063398,"connected_time":5922000000000,"state":"active","ping":63},{"user_id":1033,"name":"koishi gaming Ê•µ","steam_id":76561198189371461,"connected_time":6237000000000,"state":"active","ping":77},{"user_id":1106,"name":"Carpigani","steam_id":76561199472897062,"connected_time":1463000000000,"state":"active","ping":153},{"user_id":1112,"name":"soph","steam_id":76561198067497459,"connected_time":873000000000,"state":"active","ping":75},{"user_id":1063,"name":"Whitest Noise","steam_id":76561198079343840,"connected_time":4027000000000,"state":"active","ping":59},{"user_id":1067,"name":"hermit wizard","steam_id":76561198015156743,"connected_time":3754000000000,"state":"active","ping":77},{"user_id":1098,"name":"Viol3tOni","steam_id":76561198079208738,"connected_time":2285000000000,"state":"active","ping":108},{"user_id":1113,"name":"C4K3","steam_id":76561197996963285,"connected_time":842000000000,"state":"active","ping":86},{"user_id":1108,"name":"PENGEST","steam_id":76561198202605381,"connected_time":1432000000000,"state":"active","ping":103},{"user_id":1084,"name":"Tanman653","steam_id":76561199046653301,"connected_time":2959000000000,"state":"active","ping":107},{"user_id":1109,"name":"sweaterfan","steam_id":76561199389567214,"connected_time":1391000000000,"state":"active","ping":68},{"user_id":1083,"name":"Spy Gaming","steam_id":76561198453295613,"connected_time":2970000000000,"state":"active","ping":110},{"user_id":1114,"name":"mournings end part 2 enthusiast","steam_id":76561197993524097,"connected_time":251000000000,"state":"active","ping":83},{"user_id":1087,"name":"Brisk","steam_id":76561198129769783,"connected_time":2829000000000,"state":"active","ping":77},{"user_id":1111,"name":"Eden Hazard","steam_id":76561198089241053,"connected_time":1158000000000,"state":"active","ping":71},{"user_id":1076,"name":"Urine Enthusiast [Piss Gaming]","steam_id":76561198067798973,"connected_time":3252000000000,"state":"active","ping":128},{"user_id":1079,"name":"Lipton","steam_id":76561198135397441,"connected_time":3194000000000,"state":"active","ping":83},{"user_id":1117,"name":"Dr. B Busta","steam_id":76561198206387303,"connected_time":106000000000,"state":"active","ping":90}]},{"server_id":106,"name":"Uncletopia | Chicago | 2 | All Maps","name_short":"chi-2","host":"chi-1.us.uncletopia.com","port":27025,"enabled":true,"region":"us-central","cc":"us","latitude":41.881832,"longitude":-87.62318,"reserved":0,"last_update":"0001-01-01T00:00:00Z","name_a2s":"Uncletopia | Chicago | 2 | All Maps","protocol":17,"map":"pl_badwater","folder":"tf","game":"Team Fortress","app_id":440,"player_count":24,"max_players":24,"Bots":0,"server_type":"Dedicated","server_os":"Linux","password":true,"vac":true,"version":"7757534","steam_id":85568392924469985,"keywords":["nocrits","nodmgspread","payload","uncletopia"],"game_id":440,"stv_port":27026,"stv_name":"Uncletopia | Chicago | 2 | All Maps | STV","players":[{"user_id":925,"name":"AnonymousCritter","steam_id":76561198864475187,"connected_time":2097000000000,"state":"active","ping":53},{"user_id":952,"name":"Ashes!","steam_id":76561197998475441,"connected_time":178000000000,"state":"active","ping":91},{"user_id":940,"name":"le Shtink","steam_id":76561199433948284,"connected_time":1287000000000,"state":"active","ping":64},{"user_id":941,"name":"Satan-2","steam_id":76561199231742764,"connected_time":1280000000000,"state":"active","ping":64},{"user_id":921,"name":"The Rising of the Engineer Hero","steam_id":76561198107199405,"connected_time":2216000000000,"state":"active","ping":166},{"user_id":948,"name":"doozy","steam_id":76561198033106776,"connected_time":1000000000000,"state":"active","ping":129},{"user_id":942,"name":"Japheth","steam_id":76561198012902961,"connected_time":1255000000000,"state":"active","ping":75},{"user_id":943,"name":"Wumps","steam_id":76561198207226825,"connected_time":1232000000000,"state":"active","ping":75},{"user_id":913,"name":"sammie.tebo","steam_id":76561199212495985,"connected_time":3568000000000,"state":"active","ping":158},{"user_id":944,"name":"GOT DA STRAP ON ME #NOLESBO","steam_id":76561198144766439,"connected_time":1228000000000,"state":"active","ping":45},{"user_id":926,"name":"Old St. Scat","steam_id":76561198322096569,"connected_time":1986000000000,"state":"active","ping":98},{"user_id":950,"name":"rose","steam_id":76561198048882285,"connected_time":306000000000,"state":"active","ping":59},{"user_id":951,"name":"Lilith","steam_id":76561198125102885,"connected_time":294000000000,"state":"active","ping":67},{"user_id":953,"name":"Got Oil?","steam_id":76561199238964574,"connected_time":148000000000,"state":"active","ping":69},{"user_id":937,"name":"Lilac","steam_id":76561198977523626,"connected_time":1583000000000,"state":"active","ping":91},{"user_id":882,"name":"ShiverBorn","steam_id":76561198384811149,"connected_time":7424000000000,"state":"active","ping":78},{"user_id":945,"name":"badboy6996","steam_id":76561197969386201,"connected_time":1174000000000,"state":"active","ping":46},{"user_id":949,"name":"Rain","steam_id":76561198022607401,"connected_time":956000000000,"state":"active","ping":76},{"user_id":934,"name":"Oni","steam_id":76561198112066584,"connected_time":1671000000000,"state":"active","ping":68},{"user_id":910,"name":"SmudgeAlot","steam_id":76561199470365621,"connected_time":3958000000000,"state":"active","ping":98},{"user_id":935,"name":"Coolshroomish","steam_id":76561199109440924,"connected_time":1662000000000,"state":"active","ping":112},{"user_id":938,"name":"SearingGustav #tG","steam_id":76561198040560786,"connected_time":1527000000000,"state":"active","ping":107},{"user_id":939,"name":"StarTube","steam_id":76561199122946418,"connected_time":1502000000000,"state":"active","ping":145},{"user_id":947,"name":"iggy destruction","steam_id":76561198081576799,"connected_time":1088000000000,"state":"active","ping":91}]},{"server_id":402,"name":"Uncletopia | Chicago | 3 | All Maps","name_short":"chi-3","host":"chi-1.us.uncletopia.com","port":27035,"enabled":true,"region":"us-central","cc":"us","latitude":41.881832,"longitude":-87.62318,"reserved":0,"last_update":"0001-01-01T00:00:00Z","name_a2s":"Uncletopia | Chicago | 3 | All Maps","protocol":17,"map":"pl_pier","folder":"tf","game":"Team Fortress","app_id":440,"player_count":18,"max_players":24,"Bots":0,"server_type":"Dedicated","server_os":"Linux","password":true,"vac":true,"version":"7757534","steam_id":85568392924515191,"keywords":["nocrits","nodmgspread","payload","uncletopia"],"game_id":440,"stv_port":27036,"stv_name":"Uncletopia | Chicago | 3 | All Maps | STV","players":[{"user_id":843,"name":"strawberry shortcock","steam_id":76561198032040831,"connected_time":1323000000000,"state":"active","ping":74},{"user_id":859,"name":"Bearegard","steam_id":76561198061926542,"connected_time":140000000000,"state":"active","ping":65},{"user_id":860,"name":"Happy Yaoi Sunday","steam_id":76561198111290441,"connected_time":133000000000,"state":"active","ping":48},{"user_id":845,"name":"FoxyTheFish","steam_id":76561199074190919,"connected_time":1169000000000,"state":"active","ping":132},{"user_id":846,"name":"Kretim","steam_id":76561199204273483,"connected_time":1078000000000,"state":"active","ping":71},{"user_id":787,"name":"Srattinee","steam_id":76561198199840395,"connected_time":6010000000000,"state":"active","ping":56},{"user_id":858,"name":"KnightOfGames","steam_id":76561198080460659,"connected_time":187000000000,"state":"active","ping":77},{"user_id":861,"name":"John16Mark","steam_id":76561198119445407,"connected_time":126000000000,"state":"active","ping":78},{"user_id":848,"name":"Clumsy","steam_id":76561198056345245,"connected_time":953000000000,"state":"active","ping":64},{"user_id":788,"name":"Shaw Han","steam_id":76561198204259015,"connected_time":6004000000000,"state":"active","ping":56},{"user_id":862,"name":"ChurroMk.‚Ö°","steam_id":76561198388188696,"connected_time":90000000000,"state":"active","ping":120},{"user_id":851,"name":"uwuziel","steam_id":76561198143355561,"connected_time":547000000000,"state":"active","ping":65},{"user_id":853,"name":"Yoshimelon","steam_id":76561198253054325,"connected_time":431000000000,"state":"active","ping":72},{"user_id":854,"name":"Mengle","steam_id":76561198001953684,"connected_time":398000000000,"state":"active","ping":60},{"user_id":855,"name":"bassya","steam_id":76561198849524221,"connected_time":249000000000,"state":"active","ping":165},{"user_id":856,"name":"Panfried","steam_id":76561198009882074,"connected_time":240000000000,"state":"active","ping":69},{"user_id":857,"name":"twin","steam_id":76561198055626638,"connected_time":189000000000,"state":"active","ping":90},{"user_id":747,"name":"FullMetalSlugCat","steam_id":76561199193784099,"connected_time":9204000000000,"state":"active","ping":85}]},{"server_id":403,"name":"Uncletopia | Chicago | 4 | All Maps","name_short":"chi-4","host":"chi-1.us.uncletopia.com","port":27045,"enabled":true,"region":"us-central","cc":"us","latitude":41.881832,"longitude":-87.62318,"reserved":0,"last_update":"0001-01-01T00:00:00Z","name_a2s":"Uncletopia | Chicago | 4 | All Maps","protocol":17,"map":"pl_borneo","folder":"tf","game":"Team Fortress","app_id":440,"player_count":2,"max_players":24,"Bots":0,"server_type":"Dedicated","server_os":"Linux","password":true,"vac":true,"version":"7757534","steam_id":85568392924515193,"keywords":["nocrits","nodmgspread","payload","uncletopia"],"game_id":440,"stv_port":27046,"stv_name":"Uncletopia | Chicago | 4 | All Maps | STV","players":[{"user_id":639,"name":"Cuntslinger","steam_id":76561198303948269,"connected_time":2719000000000,"state":"active","ping":57},{"user_id":649,"name":"CreepyCook","steam_id":76561198242874622,"connected_time":1498000000000,"state":"active","ping":83}]},{"server_id":36,"name":"Uncletopia | Chicago | 5 | All Maps","name_short":"chi-5","host":"chi-2.us.uncletopia.com","port":27015,"enabled":true,"region":"us-central","cc":"us","latitude":41.881832,"longitude":-87.62318,"reserved":0,"last_update":"0001-01-01T00:00:00Z","name_a2s":"Uncletopia | Chicago | 5 | All Maps","protocol":17,"map":"koth_lakeside_final","folder":"tf","game":"Team Fortress","app_id":440,"player_count":0,"max_players":24,"Bots":0,"server_type":"Dedicated","server_os":"Linux","password":true,"vac":true,"version":"7757534","steam_id":85568392924866362,"keywords":["cp","nocrits","nodmgspread","uncletopia"],"game_id":440,"stv_port":27016,"stv_name":"Uncletopia | Chicago | 5 | All Maps | STV","players":null},{"server_id":37,"name":"Uncletopia | Chicago | 6 | All Maps","name_short":"chi-6","host":"chi-2.us.uncletopia.com","port":27025,"enabled":true,"region":"us-central","cc":"us","latitude":41.881832,"longitude":-87.62318,"reserved":0,"last_update":"0001-01-01T00:00:00Z","name_a2s":"Uncletopia | Chicago | 6 | All Maps","protocol":17,"map":"koth_highpass","folder":"tf","game":"Team Fortress","app_id":440,"player_count":0,"max_players":24,"Bots":0,"server_type":"Dedicated","server_os":"Linux","password":true,"vac":true,"version":"7757534","steam_id":85568392924866363,"keywords":["cp","nocrits","nodmgspread","uncletopia"],"game_id":440,"stv_port":27026,"stv_name":"Uncletopia | Chicago | 6 | All Maps | STV","players":null},{"server_id":38,"name":"Uncletopia | Chicago | 7 | Stopwatch Beta","name_short":"chi-7","host":"chi-2.us.uncletopia.com","port":27035,"enabled":true,"region":"us-central","cc":"us","latitude":41.881832,"longitude":-87.62318,"reserved":0,"last_update":"0001-01-01T00:00:00Z","name_a2s":"Uncletopia | Chicago | 7 | Stopwatch Beta","protocol":17,"map":"workshop/koth_ashville_final.ugc2130459942","folder":"tf","game":"Team Fortress","app_id":440,"player_count":0,"max_players":24,"Bots":0,"server_type":"Dedicated","server_os":"Linux","password":true,"vac":true,"version":"7757534","steam_id":85568392924866364,"keywords":["cp","nocrits","nodmgspread","uncletopia"],"game_id":440,"stv_port":27036,"stv_name":"Uncletopia | Chicago | 7 | Stopwatch Beta | STV","players":null},{"server_id":39,"name":"Uncletopia | Chicago | 8 | Community","name_short":"chi-8","host":"chi-2.us.uncletopia.com","port":27045,"enabled":true,"region":"us-central","cc":"us","latitude":41.881832,"longitude":-87.62318,"reserved":0,"last_update":"0001-01-01T00:00:00Z","name_a2s":"Uncletopia | Chicago | 8 | Community","protocol":17,"map":"workshop/koth_ramjam_rc1.ugc459778887","folder":"tf","game":"Team Fortress","app_id":440,"player_count":2,"max_players":24,"Bots":0,"server_type":"Dedicated","server_os":"Linux","password":true,"vac":true,"version":"7757534","steam_id":85568392924866365,"keywords":["cp","nocrits","nodmgspread","uncletopia"],"game_id":440,"stv_port":27046,"stv_name":"Uncletopia | Chicago | 8 | Community | STV","players":[{"user_id":13,"name":"090-nsalih","steam_id":76561199467467873,"connected_time":2414000000000,"state":"active","ping":132},{"user_id":8,"name":"heisenburger","steam_id":76561198986534519,"connected_time":4874000000000,"state":"active","ping":78}]},{"server_id":8,"name":"Uncletopia | Dallas | 1 | All Maps","name_short":"dal-1","host":"dal-1.us.uncletopia.com","port":27015,"enabled":true,"region":"us-central","cc":"us","latitude":32.779167,"longitude":-96.80889,"reserved":0,"last_update":"0001-01-01T00:00:00Z","name_a2s":"Uncletopia | Dallas | 1 | All Maps","protocol":17,"map":"pl_barnblitz","folder":"tf","game":"Team Fortress","app_id":440,"player_count":24,"max_players":24,"Bots":0,"server_type":"Dedicated","server_os":"Linux","password":true,"vac":true,"version":"7757534","steam_id":85568392924469986,"keywords":["nocrits","nodmgspread","payload","uncletopia"],"game_id":440,"stv_port":27016,"stv_name":"Uncletopia | Dallas | 1 | All Maps | STV","players":[{"user_id":836,"name":"loki loki","steam_id":76561198062058311,"connected_time":3013000000000,"state":"active","ping":78},{"user_id":890,"name":"Veridian","steam_id":76561198096334078,"connected_time":354000000000,"state":"active","ping":75},{"user_id":870,"name":"Tyfonic","steam_id":76561198179282774,"connected_time":1602000000000,"state":"active","ping":91},{"user_id":885,"name":"ÁßÅ„ÅØ‰∏çÊ≠£Ë°åÁÇ∫„Çí„Åó„Å¶„ÅÑ","steam_id":76561199465653959,"connected_time":652000000000,"state":"active","ping":131},{"user_id":875,"name":"Spoon.","steam_id":76561198383523581,"connected_time":973000000000,"state":"active","ping":54},{"user_id":879,"name":"techturkey","steam_id":76561199154637989,"connected_time":873000000000,"state":"active","ping":80},{"user_id":867,"name":"Faraday","steam_id":76561198089928357,"connected_time":1657000000000,"state":"active","ping":56},{"user_id":877,"name":"Moon Goon","steam_id":76561198051498778,"connected_time":898000000000,"state":"active","ping":63},{"user_id":876,"name":"Chin","steam_id":76561198953123833,"connected_time":962000000000,"state":"active","ping":75},{"user_id":858,"name":"l1R0GUE1l","steam_id":76561199012375718,"connected_time":2335000000000,"state":"active","ping":106},{"user_id":887,"name":"puffy","steam_id":76561198411347037,"connected_time":617000000000,"state":"active","ping":83},{"user_id":891,"name":"blekk","steam_id":76561198000082101,"connected_time":350000000000,"state":"active","ping":60},{"user_id":857,"name":"EmpireSieger95","steam_id":76561199031944116,"connected_time":2388000000000,"state":"active","ping":86},{"user_id":892,"name":"takeshi_","steam_id":76561198148797456,"connected_time":186000000000,"state":"active","ping":84},{"user_id":842,"name":"Hector Salamanca","steam_id":76561199103213955,"connected_time":2889000000000,"state":"active","ping":102},{"user_id":888,"name":"Tomoko2001","steam_id":76561198047117990,"connected_time":613000000000,"state":"active","ping":69},{"user_id":862,"name":"Auburn","steam_id":76561198199541493,"connected_time":2023000000000,"state":"active","ping":84},{"user_id":880,"name":"Dishonored","steam_id":76561198799292091,"connected_time":872000000000,"state":"active","ping":86},{"user_id":847,"name":"fish album fan","steam_id":76561198281735951,"connected_time":2828000000000,"state":"active","ping":77},{"user_id":848,"name":"brockonline","steam_id":76561199015537819,"connected_time":2821000000000,"state":"active","ping":84},{"user_id":881,"name":"Thr33o","steam_id":76561197996697610,"connected_time":866000000000,"state":"active","ping":79},{"user_id":851,"name":"Rat_king","steam_id":76561199465689129,"connected_time":2763000000000,"state":"active","ping":59},{"user_id":893,"name":"∆ê’å—¥∆≥","steam_id":76561198099470277,"connected_time":141000000000,"state":"active","ping":80},{"user_id":889,"name":"O_x","steam_id":76561198289696924,"connected_time":611000000000,"state":"active","ping":75}]},{"server_id":108,"name":"Uncletopia | Dallas | 2 | All Maps","name_short":"dal-2","host":"dal-1.us.uncletopia.com","port":27025,"enabled":true,"region":"us-central","cc":"us","latitude":32.779167,"longitude":-96.80889,"reserved":0,"last_update":"0001-01-01T00:00:00Z","name_a2s":"Uncletopia | Dallas | 2 | All Maps","protocol":17,"map":"pl_barnblitz","folder":"tf","game":"Team Fortress","app_id":440,"player_count":24,"max_players":24,"Bots":0,"server_type":"Dedicated","server_os":"Linux","password":true,"vac":true,"version":"7757534","steam_id":85568392924469988,"keywords":["nocrits","nodmgspread","payload","uncletopia"],"game_id":440,"stv_port":27026,"stv_name":"Uncletopia | Dallas | 2 | All Maps | STV","players":[{"user_id":597,"name":"Full Throttle Axolotl","steam_id":76561198041836477,"connected_time":2467000000000,"state":"active","ping":57},{"user_id":567,"name":"Korporal K. Reep","steam_id":76561199098222561,"connected_time":6111000000000,"state":"active","ping":178},{"user_id":613,"name":"nemaxilb :3","steam_id":76561199074875663,"connected_time":1640000000000,"state":"active","ping":75},{"user_id":640,"name":"a syndrome of sorts in her bone","steam_id":76561198090484580,"connected_time":397000000000,"state":"active","ping":86},{"user_id":598,"name":"18 pounds","steam_id":76561198025804838,"connected_time":2453000000000,"state":"active","ping":46},{"user_id":615,"name":"to_op4u","steam_id":76561198354526834,"connected_time":1592000000000,"state":"active","ping":71},{"user_id":639,"name":"ü§®","steam_id":76561199365672047,"connected_time":664000000000,"state":"active","ping":104},{"user_id":632,"name":"Rivers Cuomo","steam_id":76561198076462003,"connected_time":1118000000000,"state":"active","ping":78},{"user_id":537,"name":"zpalmtree","steam_id":76561198134307620,"connected_time":9548000000000,"state":"active","ping":96},{"user_id":617,"name":"Axel Beoulve","steam_id":76561198126511231,"connected_time":1518000000000,"state":"active","ping":112},{"user_id":599,"name":"Octosquid","steam_id":76561198336922072,"connected_time":2439000000000,"state":"active","ping":54},{"user_id":608,"name":"Mufalito","steam_id":76561198951889482,"connected_time":2086000000000,"state":"active","ping":134},{"user_id":600,"name":"PopePurple","steam_id":76561198080955830,"connected_time":2431000000000,"state":"active","ping":109},{"user_id":641,"name":"Team Fartpiss Poo","steam_id":76561199163591880,"connected_time":345000000000,"state":"active","ping":99},{"user_id":637,"name":"Dwarf","steam_id":76561198333801915,"connected_time":974000000000,"state":"active","ping":81},{"user_id":638,"name":"MDT.Chocoman","steam_id":76561197971687670,"connected_time":844000000000,"state":"active","ping":73},{"user_id":607,"name":"xXxbloddywritszxXx","steam_id":76561198025849070,"connected_time":2115000000000,"state":"active","ping":57},{"user_id":627,"name":"turtle","steam_id":76561198112673874,"connected_time":1315000000000,"state":"active","ping":91},{"user_id":624,"name":"Heidi","steam_id":76561198889596543,"connected_time":1375000000000,"state":"active","ping":39},{"user_id":634,"name":"i gotta pee bad","steam_id":76561198006307133,"connected_time":1061000000000,"state":"active","ping":86},{"user_id":642,"name":"funny weed dot com","steam_id":76561198843967834,"connected_time":127000000000,"state":"spawning","ping":127},{"user_id":626,"name":"nick","steam_id":76561198090776040,"connected_time":1327000000000,"state":"active","ping":62},{"user_id":635,"name":"Mr. Positive","steam_id":76561198147725777,"connected_time":1041000000000,"state":"active","ping":85},{"user_id":636,"name":"Big Man Lard","steam_id":76561198069074737,"connected_time":1019000000000,"state":"active","ping":85}]},{"server_id":5,"name":"Uncletopia | Frankfurt | 1 | All Maps","name_short":"frk-1","host":"frk-1.de.uncletopia.com","port":27015,"enabled":true,"region":"eu","cc":"de","latitude":50.110924,"longitude":8.682127,"reserved":0,"last_update":"0001-01-01T00:00:00Z","name_a2s":"Uncletopia | Frankfurt | 1 | All Maps","protocol":17,"map":"pl_snowycoast","folder":"tf","game":"Team Fortress","app_id":440,"player_count":0,"max_players":24,"Bots":0,"server_type":"Dedicated","server_os":"Linux","password":true,"vac":true,"version":"7757534","steam_id":85568392924469989,"keywords":["nocrits","nodmgspread","payload","uncletopia"],"game_id":440,"stv_port":27016,"stv_name":"Uncletopia | Frankfurt | 1 | All Maps | STV","players":null},{"server_id":110,"name":"Uncletopia | Frankfurt | 2 | All Maps","name_short":"frk-2","host":"frk-1.de.uncletopia.com","port":27025,"enabled":true,"region":"eu","cc":"de","latitude":50.110924,"longitude":8.682127,"reserved":0,"last_update":"0001-01-01T00:00:00Z","name_a2s":"Uncletopia | Frankfurt | 2 | All Maps","protocol":17,"map":"cp_snakewater_final1","folder":"tf","game":"Team Fortress","app_id":440,"player_count":0,"max_players":24,"Bots":0,"server_type":"Dedicated","server_os":"Linux","password":true,"vac":true,"version":"7757534","steam_id":85568392924469990,"keywords":["cp","nocrits","nodmgspread","uncletopia"],"game_id":440,"stv_port":27026,"stv_name":"Uncletopia | Frankfurt | 2 | All Maps | STV","players":null},{"server_id":308,"name":"Uncletopia | Frankfurt | 3 | All Maps","name_short":"frk-3","host":"frk-1.de.uncletopia.com","port":27035,"enabled":true,"region":"eu","cc":"de","latitude":50.110924,"longitude":8.682127,"reserved":0,"last_update":"0001-01-01T00:00:00Z","name_a2s":"Uncletopia | Frankfurt | 3 | All Maps","protocol":17,"map":"cp_snakewater_final1","folder":"tf","game":"Team Fortress","app_id":440,"player_count":1,"max_players":24,"Bots":0,"server_type":"Dedicated","server_os":"Linux","password":true,"vac":true,"version":"7757534","steam_id":85568392924504274,"keywords":["cp","nocrits","nodmgspread","uncletopia"],"game_id":440,"stv_port":27036,"stv_name":"Uncletopia | Frankfurt | 3 | All Maps | STV","players":[{"user_id":4,"name":"Polech","steam_id":76561199187916824,"connected_time":21000000000,"state":"active","ping":93}]},{"server_id":309,"name":"Uncletopia | Frankfurt | 4 | All Maps","name_short":"frk-4","host":"frk-1.de.uncletopia.com","port":27045,"enabled":true,"region":"eu","cc":"de","latitude":50.110924,"longitude":8.682127,"reserved":0,"last_update":"0001-01-01T00:00:00Z","name_a2s":"Uncletopia | Frankfurt | 4 | All Maps","protocol":17,"map":"koth_viaduct","folder":"tf","game":"Team Fortress","app_id":440,"player_count":0,"max_players":24,"Bots":0,"server_type":"Dedicated","server_os":"Linux","password":true,"vac":true,"version":"7757534","steam_id":85568392924504275,"keywords":["cp","nocrits","nodmgspread","uncletopia"],"game_id":440,"stv_port":27046,"stv_name":"Uncletopia | Frankfurt | 4 | All Maps | STV","players":null},{"server_id":310,"name":"Uncletopia | Frankfurt | 5 | All Maps","name_short":"frk-5","host":"frk-1.de.uncletopia.com","port":27055,"enabled":true,"region":"eu","cc":"de","latitude":50.110924,"longitude":8.682127,"reserved":0,"last_update":"0001-01-01T00:00:00Z","name_a2s":"Uncletopia | Frankfurt | 5 | All Maps","protocol":17,"map":"koth_lakeside_final","folder":"tf","game":"Team Fortress","app_id":440,"player_count":15,"max_players":24,"Bots":0,"server_type":"Dedicated","server_os":"Linux","password":true,"vac":true,"version":"7757534","steam_id":85568392924504277,"keywords":["cp","nocrits","nodmgspread","uncletopia"],"game_id":440,"stv_port":27056,"stv_name":"Uncletopia | Frankfurt | 5 | All Maps | STV","players":[{"user_id":3,"name":"Sanity Regression","steam_id":76561198967535773,"connected_time":920000000000,"state":"active","ping":71},{"user_id":6,"name":"Brezak","steam_id":76561198967550414,"connected_time":773000000000,"state":"active","ping":48},{"user_id":7,"name":"fried","steam_id":76561198307522022,"connected_time":713000000000,"state":"active","ping":46},{"user_id":15,"name":"GMsU | Rebikas","steam_id":76561198077053764,"connected_time":264000000000,"state":"active","ping":45},{"user_id":9,"name":".FilthyActsAtAReasonablePrice.","steam_id":76561199212653573,"connected_time":557000000000,"state":"active","ping":67},{"user_id":10,"name":"FingerMan","steam_id":76561198004040091,"connected_time":555000000000,"state":"active","ping":54},{"user_id":11,"name":"Ezekiel","steam_id":76561199024034022,"connected_time":509000000000,"state":"active","ping":78},{"user_id":12,"name":"gjhkgfkjfh","steam_id":76561198031181349,"connected_time":455000000000,"state":"active","ping":84},{"user_id":13,"name":"gexfan3165","steam_id":76561199459414738,"connected_time":385000000000,"state":"active","ping":67},{"user_id":14,"name":"sape","steam_id":76561198089322416,"connected_time":327000000000,"state":"active","ping":112},{"user_id":16,"name":"leonardini.w","steam_id":76561199097963071,"connected_time":253000000000,"state":"active","ping":86},{"user_id":21,"name":"Your Average Medic Main","steam_id":76561199403752637,"connected_time":17000000000,"state":"active","ping":280},{"user_id":18,"name":"Spieller","steam_id":76561198057197847,"connected_time":137000000000,"state":"active","ping":75},{"user_id":19,"name":"icebro","steam_id":76561199123450840,"connected_time":133000000000,"state":"active","ping":67},{"user_id":20,"name":"ü•∂RV14üî•","steam_id":76561199168204989,"connected_time":88000000000,"state":"active","ping":87}]},{"server_id":311,"name":"Uncletopia | Frankfurt | 6 | All Maps","name_short":"frk-6","host":"frk-1.de.uncletopia.com","port":27065,"enabled":true,"region":"eu","cc":"de","latitude":50.110924,"longitude":8.682127,"reserved":0,"last_update":"0001-01-01T00:00:00Z","name_a2s":"Uncletopia | Frankfurt | 6 | All Maps","protocol":17,"map":"pl_frontier_final","folder":"tf","game":"Team Fortress","app_id":440,"player_count":0,"max_players":24,"Bots":0,"server_type":"Dedicated","server_os":"Linux","password":true,"vac":true,"version":"7757534","steam_id":85568392924504278,"keywords":["nocrits","nodmgspread","payload","uncletopia"],"game_id":440,"stv_port":27066,"stv_name":"Uncletopia | Frankfurt | 6 | All Maps | STV","players":null},{"server_id":23,"name":"Uncletopia | Frankfurt | 7 | Stopwatch Beta","name_short":"frk-7","host":"frk-1.de.uncletopia.com","port":27075,"enabled":true,"region":"eu","cc":"de","latitude":50.110924,"longitude":8.682127,"reserved":0,"last_update":"0001-01-01T00:00:00Z","name_a2s":"Uncletopia | Frankfurt | 7 | Stopwatch Beta","protocol":17,"map":"cp_sunshine","folder":"tf","game":"Team Fortress","app_id":440,"player_count":0,"max_players":24,"Bots":0,"server_type":"Dedicated","server_os":"Linux","password":true,"vac":true,"version":"7757534","steam_id":85568392924742827,"keywords":["cp","nocrits","nodmgspread","uncletopia"],"game_id":440,"stv_port":27076,"stv_name":"Uncletopia | Frankfurt | 7 | Stopwatch Beta | STV","players":null},{"server_id":24,"name":"Uncletopia | Frankfurt | 8 | Community","name_short":"frk-8","host":"frk-1.de.uncletopia.com","port":27085,"enabled":true,"region":"eu","cc":"de","latitude":50.110924,"longitude":8.682127,"reserved":0,"last_update":"0001-01-01T00:00:00Z","name_a2s":"Uncletopia | Frankfurt | 8 | Community","protocol":17,"map":"koth_lakeside_final","folder":"tf","game":"Team Fortress","app_id":440,"player_count":0,"max_players":24,"Bots":0,"server_type":"Dedicated","server_os":"Linux","password":true,"vac":true,"version":"7757534","steam_id":85568392924742828,"keywords":["cp","nocrits","nodmgspread","uncletopia"],"game_id":440,"stv_port":27086,"stv_name":"Uncletopia | Frankfurt | 8 | Community | STV","players":null},{"server_id":202,"name":"Uncletopia | Hong Kong | 1 | All Maps","name_short":"hgk-1","host":"hgk-1.hk.uncletopia.com","port":27015,"enabled":true,"region":"asia","cc":"hk","latitude":22.302711,"longitude":114.177216,"reserved":0,"last_update":"0001-01-01T00:00:00Z","name_a2s":"Uncletopia | Hong Kong | 1 | All Maps","protocol":17,"map":"cp_gorge","folder":"tf","game":"Team Fortress","app_id":440,"player_count":24,"max_players":24,"Bots":0,"server_type":"Dedicated","server_os":"Linux","password":true,"vac":true,"version":"7757534","steam_id":85568392924494504,"keywords":["cp","nocrits","nodmgspread","uncletopia"],"game_id":440,"stv_port":27016,"stv_name":"Uncletopia | Hong Kong | 1 | All Maps | STV","players":[{"user_id":180,"name":"Buttman","steam_id":76561198044693388,"connected_time":1671000000000,"state":"active","ping":54},{"user_id":120,"name":"phd in ejaculation management","steam_id":76561198138187921,"connected_time":9227000000000,"state":"active","ping":46},{"user_id":118,"name":"P","steam_id":76561198304514505,"connected_time":9908000000000,"state":"active","ping":75},{"user_id":153,"name":"spinach (old mouse)","steam_id":76561198042539541,"connected_time":4866000000000,"state":"active","ping":81},{"user_id":125,"name":"ArcticDolphin","steam_id":76561198203626319,"connected_time":9023000000000,"state":"active","ping":125},{"user_id":150,"name":"Momoxhien","steam_id":76561198414997429,"connected_time":5218000000000,"state":"active","ping":189},{"user_id":184,"name":"voice_enable 0","steam_id":76561199168965951,"connected_time":968000000000,"state":"active","ping":121},{"user_id":171,"name":"Incompertent mercenaries","steam_id":76561198386626651,"connected_time":1863000000000,"state":"active","ping":60},{"user_id":192,"name":"hayonsteam","steam_id":76561199438952901,"connected_time":468000000000,"state":"active","ping":52},{"user_id":182,"name":"MongGoyo63","steam_id":76561198349540834,"connected_time":1365000000000,"state":"active","ping":84},{"user_id":168,"name":"Worst player ever","steam_id":76561199245124028,"connected_time":2692000000000,"state":"active","ping":119},{"user_id":167,"name":"GreggieBoi","steam_id":76561199085200364,"connected_time":2763000000000,"state":"active","ping":95},{"user_id":179,"name":"Vortex Artemisio","steam_id":76561198833527091,"connected_time":1818000000000,"state":"active","ping":89},{"user_id":169,"name":"7853","steam_id":76561199390507975,"connected_time":2677000000000,"state":"active","ping":52},{"user_id":173,"name":"Milk‚ù§","steam_id":76561198163911560,"connected_time":1858000000000,"state":"active","ping":136},{"user_id":111,"name":"Mysterious_Network","steam_id":76561199445957166,"connected_time":10748000000000,"state":"active","ping":82},{"user_id":186,"name":"whoops","steam_id":76561199144084820,"connected_time":787000000000,"state":"active","ping":84},{"user_id":188,"name":"F2P Strikes Again","steam_id":76561199480327796,"connected_time":666000000000,"state":"active","ping":84},{"user_id":190,"name":"AmaiToxic","steam_id":76561199122491157,"connected_time":506000000000,"state":"active","ping":137},{"user_id":146,"name":":uroSmonk:","steam_id":76561198074339034,"connected_time":5736000000000,"state":"active","ping":74},{"user_id":144,"name":"screaming sniper","steam_id":76561199085568674,"connected_time":6164000000000,"state":"active","ping":71},{"user_id":176,"name":"brainless bozo","steam_id":76561198055553140,"connected_time":1828000000000,"state":"active","ping":76},{"user_id":177,"name":"Taisho","steam_id":76561198334229197,"connected_time":1827000000000,"state":"active","ping":65},{"user_id":165,"name":"David Keithson","steam_id":76561199279393636,"connected_time":3088000000000,"state":"active","ping":77}]},{"server_id":1,"name":"Uncletopia | Los Angeles | 1 | All Maps","name_short":"lax-1","host":"lax-1.us.uncletopia.com","port":27015,"enabled":true,"region":"us-west","cc":"us","latitude":33.94279,"longitude":-118.41004,"reserved":0,"last_update":"0001-01-01T00:00:00Z","name_a2s":"Uncletopia | Los Angeles | 1 | All Maps","protocol":17,"map":"cp_altitude","folder":"tf","game":"Team Fortress","app_id":440,"player_count":0,"max_players":24,"Bots":0,"server_type":"Dedicated","server_os":"Linux","password":true,"vac":true,"version":"7757534","steam_id":85568392924469991,"keywords":["cp","nocrits","nodmgspread","uncletopia"],"game_id":440,"stv_port":27016,"stv_name":"Uncletopia | Los Angeles | 1 | All Maps | STV","players":null},{"server_id":112,"name":"Uncletopia | Los Angeles | 2 | All Maps","name_short":"lax-2","host":"lax-1.us.uncletopia.com","port":27025,"enabled":true,"region":"us-west","cc":"us","latitude":33.94279,"longitude":-118.41004,"reserved":0,"last_update":"0001-01-01T00:00:00Z","name_a2s":"Uncletopia | Los Angeles | 2 | All Maps","protocol":17,"map":"koth_lakeside_final","folder":"tf","game":"Team Fortress","app_id":440,"player_count":24,"max_players":24,"Bots":0,"server_type":"Dedicated","server_os":"Linux","password":true,"vac":true,"version":"7757534","steam_id":85568392924469992,"keywords":["cp","nocrits","nodmgspread","uncletopia"],"game_id":440,"stv_port":27026,"stv_name":"Uncletopia | Los Angeles | 2 | All Maps | STV","players":[{"user_id":908,"name":"jadesouledout","steam_id":76561198866936507,"connected_time":2916000000000,"state":"active","ping":54},{"user_id":919,"name":"Wacks","steam_id":76561198079476100,"connected_time":2601000000000,"state":"active","ping":57},{"user_id":946,"name":"wesker can hit it tbh","steam_id":76561197968351430,"connected_time":286000000000,"state":"active","ping":46},{"user_id":930,"name":"ScoutBox","steam_id":76561198111539895,"connected_time":1633000000000,"state":"active","ping":45},{"user_id":910,"name":"CPTforever","steam_id":76561198237767198,"connected_time":2845000000000,"state":"active","ping":55},{"user_id":934,"name":"Grognak","steam_id":76561198044710527,"connected_time":1162000000000,"state":"active","ping":83},{"user_id":911,"name":"Elite_Friendly","steam_id":76561198819972127,"connected_time":2770000000000,"state":"active","ping":77},{"user_id":947,"name":"derpins","steam_id":76561198125261443,"connected_time":282000000000,"state":"active","ping":79},{"user_id":912,"name":"YellowPro55","steam_id":76561198355177278,"connected_time":2672000000000,"state":"active","ping":98},{"user_id":953,"name":"‰ªôÂ•≥Â§¥Â≠ê‰∫éË∞¶","steam_id":76561199031075505,"connected_time":71000000000,"state":"active","ping":141},{"user_id":936,"name":"Hifumi Togo","steam_id":76561198074930636,"connected_time":1125000000000,"state":"active","ping":94},{"user_id":943,"name":"DoppiDonny","steam_id":76561198048208808,"connected_time":545000000000,"state":"active","ping":97},{"user_id":931,"name":"Rain","steam_id":76561198032318897,"connected_time":1622000000000,"state":"active","ping":71},{"user_id":948,"name":"HellaCopter","steam_id":76561198062313698,"connected_time":274000000000,"state":"active","ping":75},{"user_id":938,"name":"Mini","steam_id":76561198119708149,"connected_time":1073000000000,"state":"active","ping":58},{"user_id":950,"name":"Big Boy Beni","steam_id":76561197995469460,"connected_time":228000000000,"state":"active","ping":34},{"user_id":916,"name":"FI LO","steam_id":76561198976530881,"connected_time":2625000000000,"state":"active","ping":44},{"user_id":898,"name":"Ken-Sama","steam_id":76561198040465331,"connected_time":4535000000000,"state":"active","ping":58},{"user_id":933,"name":"patjiaviar","steam_id":76561199465783209,"connected_time":1466000000000,"state":"active","ping":50},{"user_id":942,"name":"DeepFriedLimes","steam_id":76561199061820143,"connected_time":667000000000,"state":"active","ping":78},{"user_id":944,"name":"FutureSlyty","steam_id":76561198377973894,"connected_time":438000000000,"state":"active","ping":89},{"user_id":952,"name":"Flash Point","steam_id":76561198090879923,"connected_time":167000000000,"state":"active","ping":77},{"user_id":923,"name":"Chicken Joe","steam_id":76561198095143020,"connected_time":2583000000000,"state":"active","ping":62},{"user_id":951,"name":"‚ùÑ Alice ‚ô•","steam_id":76561198869945051,"connected_time":220000000000,"state":"active","ping":89}]},{"server_id":324,"name":"Uncletopia | Los Angeles | 3 | All Maps","name_short":"lax-3","host":"lax-1.us.uncletopia.com","port":27035,"enabled":true,"region":"us-west","cc":"us","latitude":33.94279,"longitude":-118.41004,"reserved":0,"last_update":"0001-01-01T00:00:00Z","name_a2s":"Uncletopia | Los Angeles | 3 | All Maps","protocol":17,"map":"pl_swiftwater_final1","folder":"tf","game":"Team Fortress","app_id":440,"player_count":24,"max_players":24,"Bots":0,"server_type":"Dedicated","server_os":"Linux","password":true,"vac":true,"version":"7757534","steam_id":85568392924510198,"keywords":["nocrits","nodmgspread","payload","uncletopia"],"game_id":440,"stv_port":27036,"stv_name":"Uncletopia | Los Angeles | 3 | All Maps | STV","players":[{"user_id":644,"name":"MonkeyNobody","steam_id":76561199451266605,"connected_time":1410000000000,"state":"active","ping":55},{"user_id":603,"name":"LX-24","steam_id":76561198016168993,"connected_time":4674000000000,"state":"active","ping":82},{"user_id":662,"name":"frozenwasanokmovie","steam_id":76561198157407952,"connected_time":446000000000,"state":"active","ping":49},{"user_id":637,"name":"sevvy \u003c3","steam_id":76561198219129496,"connected_time":1665000000000,"state":"active","ping":57},{"user_id":643,"name":"Jam Jammy","steam_id":76561198066498488,"connected_time":1459000000000,"state":"active","ping":119},{"user_id":638,"name":"BlixyDragon","steam_id":76561198295422834,"connected_time":1611000000000,"state":"active","ping":189},{"user_id":607,"name":"agentredx05","steam_id":76561198324962084,"connected_time":4277000000000,"state":"active","ping":100},{"user_id":670,"name":"BackToSchoolAds","steam_id":76561198870281128,"connected_time":182000000000,"state":"active","ping":82},{"user_id":663,"name":"trev","steam_id":76561198372593596,"connected_time":394000000000,"state":"active","ping":55},{"user_id":661,"name":"Pacman","steam_id":76561199466007022,"connected_time":465000000000,"state":"active","ping":57},{"user_id":626,"name":"luca","steam_id":76561198069235730,"connected_time":1881000000000,"state":"active","ping":94},{"user_id":664,"name":"2 CD's","steam_id":76561199004227813,"connected_time":351000000000,"state":"active","ping":105},{"user_id":669,"name":"Goober","steam_id":76561198931169208,"connected_time":198000000000,"state":"active","ping":48},{"user_id":666,"name":"bri","steam_id":76561198881665250,"connected_time":291000000000,"state":"active","ping":72},{"user_id":660,"name":"Popitrius","steam_id":76561198058946352,"connected_time":578000000000,"state":"active","ping":62},{"user_id":642,"name":"Starkiller","steam_id":76561198101643120,"connected_time":1479000000000,"state":"active","ping":83},{"user_id":654,"name":"Delta","steam_id":76561198359667448,"connected_time":829000000000,"state":"active","ping":195},{"user_id":651,"name":"Bludgeon","steam_id":76561198272009412,"connected_time":1246000000000,"state":"active","ping":54},{"user_id":627,"name":"Gay Cake","steam_id":76561198004388831,"connected_time":1860000000000,"state":"active","ping":123},{"user_id":628,"name":"Holiday Fartcruise","steam_id":76561198043851584,"connected_time":1855000000000,"state":"active","ping":159},{"user_id":629,"name":"nella","steam_id":76561198079349621,"connected_time":1840000000000,"state":"active","ping":56},{"user_id":630,"name":"Featherless Biped","steam_id":76561198034171721,"connected_time":1838000000000,"state":"active","ping":110},{"user_id":631,"name":"Agent Mania","steam_id":76561198029741272,"connected_time":1830000000000,"state":"active","ping":55},{"user_id":667,"name":"Psych03","steam_id":76561198061753667,"connected_time":284000000000,"state":"active","ping":52}]},{"server_id":25,"name":"Uncletopia | Los Angeles | 4 | Stopwatch Beta","name_short":"lax-4","host":"lax-1.us.uncletopia.com","port":27045,"enabled":true,"region":"us-west","cc":"us","latitude":33.94279,"longitude":-118.41004,"reserved":0,"last_update":"0001-01-01T00:00:00Z","name_a2s":"Uncletopia | Los Angeles | 4 | Stopwatch Beta","protocol":17,"map":"pl_swiftwater_final1","folder":"tf","game":"Team Fortress","app_id":440,"player_count":0,"max_players":24,"Bots":0,"server_type":"Dedicated","server_os":"Linux","password":true,"vac":true,"version":"7757534","steam_id":85568392924510199,"keywords":["nocrits","nodmgspread","payload","uncletopia"],"game_id":440,"stv_port":27046,"stv_name":"Uncletopia | Los Angeles | 4 | Stopwatch Beta | STV","players":null},{"server_id":11,"name":"Uncletopia | London | 1 | All Maps","name_short":"lon-1","host":"lon-1.uk.uncletopia.com","port":27015,"enabled":true,"region":"eu","cc":"gb","latitude":51.509865,"longitude":-0.118092,"reserved":0,"last_update":"0001-01-01T00:00:00Z","name_a2s":"Uncletopia | London | 1 | All Maps","protocol":17,"map":"cp_steel","folder":"tf","game":"Team Fortress","app_id":440,"player_count":24,"max_players":24,"Bots":0,"server_type":"Dedicated","server_os":"Linux","password":true,"vac":true,"version":"7757534","steam_id":85568392924367362,"keywords":["cp","nocrits","nodmgspread","uncletopia"],"game_id":440,"stv_port":27016,"stv_name":"Uncletopia | London | 1 | All Maps | STV","players":[{"user_id":71,"name":"strideŒî","steam_id":76561199007826093,"connected_time":953000000000,"state":"active","ping":78},{"user_id":16,"name":"bachusa1657","steam_id":76561198202175911,"connected_time":4245000000000,"state":"active","ping":78},{"user_id":59,"name":"Mercenary","steam_id":76561198965998351,"connected_time":1981000000000,"state":"active","ping":74},{"user_id":61,"name":"sriracha..","steam_id":76561198005560221,"connected_time":1804000000000,"state":"active","ping":78},{"user_id":63,"name":"DunkleG","steam_id":76561198053816186,"connected_time":1714000000000,"state":"active","ping":78},{"user_id":73,"name":"Wacka Wacka","steam_id":76561198146194820,"connected_time":762000000000,"state":"active","ping":48},{"user_id":21,"name":"Guru","steam_id":76561198093853069,"connected_time":3839000000000,"state":"active","ping":74},{"user_id":22,"name":"BONK-TEC!","steam_id":76561198272667029,"connected_time":3821000000000,"state":"active","ping":50},{"user_id":77,"name":"Fatass Cat In A Tuxedo","steam_id":76561198363366212,"connected_time":165000000000,"state":"active","ping":74},{"user_id":24,"name":"Rin-Nakaret","steam_id":76561197971051188,"connected_time":3729000000000,"state":"active","ping":60},{"user_id":68,"name":"Blob","steam_id":76561197971418993,"connected_time":1054000000000,"state":"active","ping":90},{"user_id":26,"name":"Hedge Knight","steam_id":76561198989449047,"connected_time":3687000000000,"state":"active","ping":127},{"user_id":76,"name":"Dark ^^","steam_id":76561198036241064,"connected_time":273000000000,"state":"active","ping":67},{"user_id":69,"name":"subway vergil","steam_id":76561199110064166,"connected_time":1050000000000,"state":"active","ping":54},{"user_id":74,"name":"Trokmanaoul","steam_id":76561199148272568,"connected_time":636000000000,"state":"active","ping":85},{"user_id":52,"name":"Cryspoeth47","steam_id":76561198892776023,"connected_time":2711000000000,"state":"active","ping":119},{"user_id":78,"name":"jonbob","steam_id":76561197963506620,"connected_time":132000000000,"state":"active","ping":45},{"user_id":36,"name":"Egor Pomidor","steam_id":76561199175688390,"connected_time":3191000000000,"state":"active","ping":84},{"user_id":62,"name":"vet","steam_id":76561198110545854,"connected_time":1736000000000,"state":"active","ping":159},{"user_id":72,"name":"Neimon","steam_id":76561198343485710,"connected_time":817000000000,"state":"active","ping":131},{"user_id":40,"name":"Commander DM","steam_id":76561198059236770,"connected_time":3121000000000,"state":"active","ping":84},{"user_id":65,"name":"Mark Johnson","steam_id":76561198218293684,"connected_time":1326000000000,"state":"active","ping":54},{"user_id":44,"name":"Sirky","steam_id":76561198082407725,"connected_time":3034000000000,"state":"active","ping":48},{"user_id":45,"name":"Lord Aerial","steam_id":76561198288157281,"connected_time":3022000000000,"state":"active","ping":76}]},{"server_id":114,"name":"Uncletopia | London | 2 | All Maps","name_short":"lon-2","host":"lon-1.uk.uncletopia.com","port":27025,"enabled":true,"region":"eu","cc":"gb","latitude":51.509865,"longitude":-0.118092,"reserved":0,"last_update":"0001-01-01T00:00:00Z","name_a2s":"Uncletopia | London | 2 | All Maps","protocol":17,"map":"koth_viaduct","folder":"tf","game":"Team Fortress","app_id":440,"player_count":0,"max_players":24,"Bots":0,"server_type":"Dedicated","server_os":"Linux","password":true,"vac":true,"version":"7757534","steam_id":85568392924470941,"keywords":["cp","nocrits","nodmgspread","uncletopia"],"game_id":440,"stv_port":27026,"stv_name":"Uncletopia | London | 2 | All Maps | STV","players":null},{"server_id":320,"name":"Uncletopia | London | 3 | All Maps","name_short":"lon-3","host":"lon-1.uk.uncletopia.com","port":27035,"enabled":true,"region":"eu","cc":"gb","latitude":51.509865,"longitude":-0.118092,"reserved":0,"last_update":"0001-01-01T00:00:00Z","name_a2s":"Uncletopia | London | 3 | All Maps","protocol":17,"map":"cp_dustbowl","folder":"tf","game":"Team Fortress","app_id":440,"player_count":0,"max_players":24,"Bots":0,"server_type":"Dedicated","server_os":"Linux","password":true,"vac":true,"version":"7757534","steam_id":85568392924510192,"keywords":["cp","nocrits","nodmgspread","uncletopia"],"game_id":440,"stv_port":27036,"stv_name":"Uncletopia | London | 3 | All Maps | STV","players":null},{"server_id":321,"name":"Uncletopia | London | 4 | All Maps","name_short":"lon-4","host":"lon-1.uk.uncletopia.com","port":27045,"enabled":true,"region":"eu","cc":"gb","latitude":51.509865,"longitude":-0.118092,"reserved":0,"last_update":"0001-01-01T00:00:00Z","name_a2s":"Uncletopia | London | 4 | All Maps","protocol":17,"map":"cp_dustbowl","folder":"tf","game":"Team Fortress","app_id":440,"player_count":0,"max_players":24,"Bots":0,"server_type":"Dedicated","server_os":"Linux","password":true,"vac":true,"version":"7757534","steam_id":85568392924510193,"keywords":["cp","nocrits","nodmgspread","uncletopia"],"game_id":440,"stv_port":27046,"stv_name":"Uncletopia | London | 4 | All Maps | STV","players":null},{"server_id":21,"name":"Uncletopia | London | 5 | All Maps","name_short":"lon-5","host":"lon-1.uk.uncletopia.com","port":27055,"enabled":true,"region":"eu","cc":"gb","latitude":51.509865,"longitude":-0.118092,"reserved":0,"last_update":"0001-01-01T00:00:00Z","name_a2s":"Uncletopia | London | 5 | All Maps","protocol":17,"map":"koth_cascade","folder":"tf","game":"Team Fortress","app_id":440,"player_count":0,"max_players":24,"Bots":0,"server_type":"Dedicated","server_os":"Linux","password":true,"vac":true,"version":"7757534","steam_id":85568392924742829,"keywords":["cp","nocrits","nodmgspread","uncletopia"],"game_id":440,"stv_port":27056,"stv_name":"Uncletopia | London | 5 | All Maps | STV","players":null},{"server_id":22,"name":"Uncletopia | London | 6 | All Maps","name_short":"lon-6","host":"lon-1.uk.uncletopia.com","port":27065,"enabled":true,"region":"eu","cc":"gb","latitude":51.509865,"longitude":-0.118092,"reserved":0,"last_update":"0001-01-01T00:00:00Z","name_a2s":"Uncletopia | London | 6 | All Maps","protocol":17,"map":"cp_mountainlab","folder":"tf","game":"Team Fortress","app_id":440,"player_count":0,"max_players":24,"Bots":0,"server_type":"Dedicated","server_os":"Linux","password":true,"vac":true,"version":"7757534","steam_id":85568392924742830,"keywords":["cp","nocrits","nodmgspread","uncletopia"],"game_id":440,"stv_port":27066,"stv_name":"Uncletopia | London | 6 | All Maps | STV","players":null},{"server_id":40,"name":"Uncletopia | London | 7 | No Payload","name_short":"lon-7","host":"lon-1.uk.uncletopia.com","port":27075,"enabled":true,"region":"eu","cc":"gb","latitude":51.509865,"longitude":-0.118092,"reserved":0,"last_update":"0001-01-01T00:00:00Z","name_a2s":"Uncletopia | London | 7 | No Payload","protocol":17,"map":"pl_badwater","folder":"tf","game":"Team Fortress","app_id":440,"player_count":0,"max_players":24,"Bots":0,"server_type":"Dedicated","server_os":"Linux","password":true,"vac":true,"version":"7757534","steam_id":85568392924964314,"keywords":["nocrits","nodmgspread","payload","uncletopia"],"game_id":440,"stv_port":27076,"stv_name":"Uncletopia | London | 7 | No Payload | STV","players":null},{"server_id":41,"name":"Uncletopia | London | 8 | Community","name_short":"lon-8","host":"lon-1.uk.uncletopia.com","port":27085,"enabled":true,"region":"eu","cc":"gb","latitude":51.509865,"longitude":-0.118092,"reserved":0,"last_update":"0001-01-01T00:00:00Z","name_a2s":"Uncletopia | London | 8 | Community","protocol":17,"map":"workshop/koth_bagel_rc6.ugc2514036946","folder":"tf","game":"Team Fortress","app_id":440,"player_count":0,"max_players":24,"Bots":0,"server_type":"Dedicated","server_os":"Linux","password":true,"vac":true,"version":"7757534","steam_id":85568392924964315,"keywords":["cp","nocrits","nodmgspread","uncletopia"],"game_id":440,"stv_port":27086,"stv_name":"Uncletopia | London | 8 | Community | STV","players":null},{"server_id":300,"name":"Uncletopia | Montr√©al | 1 | All Maps","name_short":"mtl-1","host":"mtl-1.ca.uncletopia.com","port":27015,"enabled":true,"region":"us-east","cc":"ca","latitude":45.50889,"longitude":-73.56167,"reserved":0,"last_update":"0001-01-01T00:00:00Z","name_a2s":"Uncletopia | Montr√©al | 1 | All Maps","protocol":17,"map":"cp_sunshine","folder":"tf","game":"Team Fortress","app_id":440,"player_count":0,"max_players":24,"Bots":0,"server_type":"Dedicated","server_os":"Linux","password":true,"vac":true,"version":"7757534","steam_id":85568392924500087,"keywords":["cp","nocrits","nodmgspread","uncletopia"],"game_id":440,"stv_port":27016,"stv_name":"Uncletopia | Montr√©al | 1 | All Maps | STV","players":null},{"server_id":301,"name":"Uncletopia | Montr√©al | 2 | All Maps","name_short":"mtl-2","host":"mtl-1.ca.uncletopia.com","port":27025,"enabled":true,"region":"us-east","cc":"ca","latitude":45.50889,"longitude":-73.56167,"reserved":0,"last_update":"0001-01-01T00:00:00Z","name_a2s":"Uncletopia | Montr√©al | 2 | All Maps","protocol":17,"map":"pl_snowycoast","folder":"tf","game":"Team Fortress","app_id":440,"player_count":0,"max_players":24,"Bots":0,"server_type":"Dedicated","server_os":"Linux","password":true,"vac":true,"version":"7757534","steam_id":85568392924500088,"keywords":["nocrits","nodmgspread","payload","uncletopia"],"game_id":440,"stv_port":27026,"stv_name":"Uncletopia | Montr√©al | 2 | All Maps | STV","players":null},{"server_id":302,"name":"Uncletopia | Montr√©al | 3 | All Maps","name_short":"mtl-3","host":"mtl-1.ca.uncletopia.com","port":27035,"enabled":true,"region":"us-east","cc":"ca","latitude":45.50889,"longitude":-73.56167,"reserved":0,"last_update":"0001-01-01T00:00:00Z","name_a2s":"Uncletopia | Montr√©al | 3 | All Maps","protocol":17,"map":"koth_cascade","folder":"tf","game":"Team Fortress","app_id":440,"player_count":0,"max_players":24,"Bots":0,"server_type":"Dedicated","server_os":"Linux","password":true,"vac":true,"version":"7757534","steam_id":85568392924500089,"keywords":["cp","nocrits","nodmgspread","uncletopia"],"game_id":440,"stv_port":27036,"stv_name":"Uncletopia | Montr√©al | 3 | All Maps | STV","players":null},{"server_id":303,"name":"Uncletopia | Montr√©al | 4 | No Payload","name_short":"mtl-4","host":"mtl-1.ca.uncletopia.com","port":27045,"enabled":true,"region":"us-east","cc":"ca","latitude":45.50889,"longitude":-73.56167,"reserved":0,"last_update":"0001-01-01T00:00:00Z","name_a2s":"Uncletopia | Montr√©al | 4 | No Payload","protocol":17,"map":"koth_suijin","folder":"tf","game":"Team Fortress","app_id":440,"player_count":0,"max_players":24,"Bots":0,"server_type":"Dedicated","server_os":"Linux","password":true,"vac":true,"version":"7757534","steam_id":85568392924500090,"keywords":["cp","nocrits","nodmgspread","uncletopia"],"game_id":440,"stv_port":27046,"stv_name":"Uncletopia | Montr√©al | 4 | No Payload | STV","players":null},{"server_id":13,"name":"Uncletopia | New York City | 1 | All Maps","name_short":"nyc-1","host":"nyc-1.us.uncletopia.com","port":27015,"enabled":true,"region":"us-east","cc":"us","latitude":40.73061,"longitude":-73.93524,"reserved":0,"last_update":"0001-01-01T00:00:00Z","name_a2s":"Uncletopia | New York City | 1 | All Maps","protocol":17,"map":"cp_snakewater_final1","folder":"tf","game":"Team Fortress","app_id":440,"player_count":0,"max_players":24,"Bots":0,"server_type":"Dedicated","server_os":"Linux","password":true,"vac":true,"version":"7757534","steam_id":85568392924469993,"keywords":["cp","nocrits","nodmgspread","uncletopia"],"game_id":440,"stv_port":27016,"stv_name":"Uncletopia | New York City | 1 | All Maps | STV","players":null},{"server_id":14,"name":"Uncletopia | New York City | 2 | All Maps","name_short":"nyc-2","host":"nyc-1.us.uncletopia.com","port":27025,"enabled":true,"region":"us-east","cc":"us","latitude":40.73061,"longitude":-73.93524,"reserved":0,"last_update":"0001-01-01T00:00:00Z","name_a2s":"Uncletopia | New York City | 2 | All Maps","protocol":17,"map":"koth_highpass","folder":"tf","game":"Team Fortress","app_id":440,"player_count":0,"max_players":24,"Bots":0,"server_type":"Dedicated","server_os":"Linux","password":true,"vac":true,"version":"7757534","steam_id":85568392924469994,"keywords":["cp","nocrits","nodmgspread","uncletopia"],"game_id":440,"stv_port":27026,"stv_name":"Uncletopia | New York City | 2 | All Maps | STV","players":null},{"server_id":15,"name":"Uncletopia | New York City | 3 | Stopwatch Beta","name_short":"nyc-3","host":"nyc-1.us.uncletopia.com","port":27035,"enabled":true,"region":"us-east","cc":"us","latitude":40.73061,"longitude":-73.93524,"reserved":0,"last_update":"0001-01-01T00:00:00Z","name_a2s":"Uncletopia | New York City | 3 | Stopwatch Beta","protocol":17,"map":"workshop/cp_reckoner_rc6.ugc674719999","folder":"tf","game":"Team Fortress","app_id":440,"player_count":0,"max_players":24,"Bots":0,"server_type":"Dedicated","server_os":"Linux","password":true,"vac":true,"version":"7757534","steam_id":85568392924742820,"keywords":["cp","nocrits","nodmgspread","uncletopia"],"game_id":440,"stv_port":27036,"stv_name":"Uncletopia | New York City | 3 | Stopwatch Beta | STV","players":null},{"server_id":16,"name":"Uncletopia | New York City | 4 | Community","name_short":"nyc-4","host":"nyc-1.us.uncletopia.com","port":27045,"enabled":true,"region":"us-east","cc":"us","latitude":40.73061,"longitude":-73.93524,"reserved":0,"last_update":"0001-01-01T00:00:00Z","name_a2s":"Uncletopia | New York City | 4 | Community","protocol":17,"map":"workshop/cp_alloy_rc3.ugc592805587","folder":"tf","game":"Team Fortress","app_id":440,"player_count":0,"max_players":24,"Bots":0,"server_type":"Dedicated","server_os":"Linux","password":true,"vac":true,"version":"7757534","steam_id":85568392924742821,"keywords":["cp","nocrits","nodmgspread","uncletopia"],"game_id":440,"stv_port":27046,"stv_name":"Uncletopia | New York City | 4 | Community | STV","players":null},{"server_id":142,"name":"Uncletopia | S√£o Paulo | 1 | All Maps","name_short":"sao-1","host":"sao-1.br.uncletopia.com","port":27015,"enabled":true,"region":"sa","cc":"br","latitude":-23.533773,"longitude":-46.62529,"reserved":0,"last_update":"0001-01-01T00:00:00Z","name_a2s":"Uncletopia | S√£o Paulo | 1 | All Maps","protocol":17,"map":"koth_cascade","folder":"tf","game":"Team Fortress","app_id":440,"player_count":0,"max_players":24,"Bots":0,"server_type":"Dedicated","server_os":"Linux","password":true,"vac":true,"version":"7757534","steam_id":85568392924469996,"keywords":["cp","nocrits","nodmgspread","uncletopia"],"game_id":440,"stv_port":27016,"stv_name":"Uncletopia | S√£o Paulo | 1 | All Maps | STV","players":null},{"server_id":143,"name":"Uncletopia | S√£o Paulo | 2 | All Maps","name_short":"sao-2","host":"sao-2.br.uncletopia.com","port":27015,"enabled":true,"region":"sa","cc":"br","latitude":-23.533773,"longitude":-46.62529,"reserved":0,"last_update":"0001-01-01T00:00:00Z","name_a2s":"Uncletopia | S√£o Paulo | 2 | All Maps","protocol":17,"map":"koth_highpass","folder":"tf","game":"Team Fortress","app_id":440,"player_count":0,"max_players":24,"Bots":0,"server_type":"Dedicated","server_os":"Linux","password":true,"vac":true,"version":"7757534","steam_id":85568392924485349,"keywords":["cp","nocrits","nodmgspread","uncletopia"],"game_id":440,"stv_port":27016,"stv_name":"Uncletopia | S√£o Paulo | 2 | All Maps | STV","players":null},{"server_id":7,"name":"Uncletopia | Seattle | 1 | All Maps","name_short":"sea-1","host":"sea-1.us.uncletopia.com","port":27015,"enabled":true,"region":"us-west","cc":"us","latitude":47.608013,"longitude":-122.33517,"reserved":0,"last_update":"0001-01-01T00:00:00Z","name_a2s":"Uncletopia | Seattle | 1 | All Maps","protocol":17,"map":"cp_mountainlab","folder":"tf","game":"Team Fortress","app_id":440,"player_count":18,"max_players":24,"Bots":0,"server_type":"Dedicated","server_os":"Linux","password":true,"vac":true,"version":"7757534","steam_id":85568392924469997,"keywords":["cp","nocrits","nodmgspread","uncletopia"],"game_id":440,"stv_port":27016,"stv_name":"Uncletopia | Seattle | 1 | All Maps | STV","players":[{"user_id":869,"name":"fungi","steam_id":76561198169755734,"connected_time":161000000000,"state":"active","ping":60},{"user_id":826,"name":"‚ô•haunti","steam_id":76561199235580556,"connected_time":2550000000000,"state":"active","ping":45},{"user_id":872,"name":"Heavily Armed Enby","steam_id":76561199064861814,"connected_time":12000000000,"state":"active","ping":37},{"user_id":822,"name":"toes","steam_id":76561198221151676,"connected_time":2740000000000,"state":"active","ping":46},{"user_id":864,"name":"Banannixx","steam_id":76561198132126943,"connected_time":532000000000,"state":"active","ping":56},{"user_id":749,"name":"ejschild745","steam_id":76561199013388867,"connected_time":8665000000000,"state":"active","ping":70},{"user_id":871,"name":"micheal","steam_id":76561199480548883,"connected_time":33000000000,"state":"active","ping":113},{"user_id":839,"name":"Minted","steam_id":76561198051562461,"connected_time":969000000000,"state":"active","ping":46},{"user_id":841,"name":"p9 jorts (zoot)","steam_id":76561199041179985,"connected_time":934000000000,"state":"active","ping":56},{"user_id":827,"name":"AjiZu","steam_id":76561198143301039,"connected_time":2501000000000,"state":"active","ping":86},{"user_id":845,"name":"oil","steam_id":76561198099980149,"connected_time":846000000000,"state":"active","ping":77},{"user_id":863,"name":"rorywashere /·ê† - Àï -„Éû ‚≥ä","steam_id":76561198065825165,"connected_time":566000000000,"state":"active","ping":110},{"user_id":732,"name":"Fawful's Minion","steam_id":76561198090120779,"connected_time":10463000000000,"state":"active","ping":89},{"user_id":812,"name":"SanitysEdge","steam_id":76561198130732813,"connected_time":3137000000000,"state":"active","ping":56},{"user_id":867,"name":"kentoran","steam_id":76561198116113779,"connected_time":338000000000,"state":"active","ping":57},{"user_id":868,"name":"Meth Goblin","steam_id":76561198086355221,"connected_time":328000000000,"state":"active","ping":127},{"user_id":792,"name":"Lord Hater","steam_id":76561199158148782,"connected_time":4114000000000,"state":"active","ping":55},{"user_id":849,"name":"Nierin","steam_id":76561198227545132,"connected_time":811000000000,"state":"active","ping":90}]},{"server_id":119,"name":"Uncletopia | Seattle | 2 | All Maps","name_short":"sea-2","host":"sea-1.us.uncletopia.com","port":27025,"enabled":true,"region":"us-west","cc":"us","latitude":47.608013,"longitude":-122.33517,"reserved":0,"last_update":"0001-01-01T00:00:00Z","name_a2s":"Uncletopia | Seattle | 2 | All Maps","protocol":17,"map":"cp_steel","folder":"tf","game":"Team Fortress","app_id":440,"player_count":23,"max_players":24,"Bots":0,"server_type":"Dedicated","server_os":"Linux","password":true,"vac":true,"version":"7757534","steam_id":85568392924469998,"keywords":["cp","nocrits","nodmgspread","uncletopia"],"game_id":440,"stv_port":27026,"stv_name":"Uncletopia | Seattle | 2 | All Maps | STV","players":[{"user_id":654,"name":"JayLatne","steam_id":76561198258221077,"connected_time":1598000000000,"state":"active","ping":53},{"user_id":661,"name":"[Bandit]","steam_id":76561197986919852,"connected_time":1385000000000,"state":"active","ping":46},{"user_id":669,"name":"funkdonut","steam_id":76561199062326425,"connected_time":256000000000,"state":"active","ping":57},{"user_id":632,"name":"Macro","steam_id":76561199442846226,"connected_time":3848000000000,"state":"active","ping":124},{"user_id":638,"name":"stogna bologna","steam_id":76561197997123642,"connected_time":3613000000000,"state":"active","ping":55},{"user_id":670,"name":"rock gaming","steam_id":76561199402868311,"connected_time":252000000000,"state":"active","ping":85},{"user_id":649,"name":"Snippykeegan","steam_id":76561198274529343,"connected_time":2127000000000,"state":"active","ping":72},{"user_id":648,"name":"Mitsuri's V-Taper","steam_id":76561198045209288,"connected_time":2477000000000,"state":"active","ping":71},{"user_id":674,"name":"Jade","steam_id":76561198092408457,"connected_time":17000000000,"state":"active","ping":70},{"user_id":663,"name":"Tyzombiecrusher","steam_id":76561198175855278,"connected_time":798000000000,"state":"active","ping":100},{"user_id":650,"name":"alcoHollis","steam_id":76561198069797453,"connected_time":1853000000000,"state":"active","ping":54},{"user_id":656,"name":"hart","steam_id":76561198046073848,"connected_time":1591000000000,"state":"active","ping":48},{"user_id":666,"name":"Dismuth","steam_id":76561197998960203,"connected_time":547000000000,"state":"active","ping":147},{"user_id":640,"name":"Puskinti","steam_id":76561198032120688,"connected_time":3602000000000,"state":"active","ping":68},{"user_id":671,"name":"CEOlifestyle","steam_id":76561198025747866,"connected_time":216000000000,"state":"active","ping":46},{"user_id":672,"name":"Lunacy","steam_id":76561199386273760,"connected_time":187000000000,"state":"active","ping":89},{"user_id":667,"name":"Xyk","steam_id":76561198023268899,"connected_time":355000000000,"state":"active","ping":115},{"user_id":628,"name":"Wafflemuscle","steam_id":76561198868628982,"connected_time":4366000000000,"state":"active","ping":50},{"user_id":642,"name":"Kaos","steam_id":76561198059816476,"connected_time":3546000000000,"state":"active","ping":99},{"user_id":643,"name":"GeekyFox3","steam_id":76561198267733290,"connected_time":3544000000000,"state":"active","ping":102},{"user_id":615,"name":"MisterManne","steam_id":76561198106598600,"connected_time":5512000000000,"state":"active","ping":57},{"user_id":673,"name":"Barress","steam_id":76561198011728743,"connected_time":106000000000,"state":"active","ping":66},{"user_id":660,"name":"Quietsharp","steam_id":76561198277968438,"connected_time":1494000000000,"state":"active","ping":78}]},{"server_id":406,"name":"Uncletopia | Seattle | 3 | Stopwatch Beta","name_short":"sea-3","host":"sea-1.us.uncletopia.com","port":27035,"enabled":true,"region":"us-west","cc":"us","latitude":47.608013,"longitude":-122.33517,"reserved":0,"last_update":"0001-01-01T00:00:00Z","name_a2s":"Uncletopia | Seattle | 3 | Stopwatch Beta","protocol":17,"map":"koth_highpass","folder":"tf","game":"Team Fortress","app_id":440,"player_count":0,"max_players":24,"Bots":0,"server_type":"Dedicated","server_os":"Linux","password":true,"vac":true,"version":"7757534","steam_id":85568392924515217,"keywords":["cp","nocrits","nodmgspread","uncletopia"],"game_id":440,"stv_port":27036,"stv_name":"Uncletopia | Seattle | 3 | Stopwatch Beta | STV","players":null},{"server_id":17,"name":"Uncletopia | San Francisco | 1 | All Maps","name_short":"sfo-1","host":"sfo-1.us.uncletopia.com","port":27015,"enabled":true,"region":"us-west","cc":"us","latitude":37.77397,"longitude":-122.4313,"reserved":0,"last_update":"0001-01-01T00:00:00Z","name_a2s":"Uncletopia | San Francisco | 1 | All Maps","protocol":17,"map":"cp_dustbowl","folder":"tf","game":"Team Fortress","app_id":440,"player_count":21,"max_players":24,"Bots":0,"server_type":"Dedicated","server_os":"Linux","password":true,"vac":true,"version":"7757534","steam_id":85568392924469999,"keywords":["cp","nocrits","nodmgspread","uncletopia"],"game_id":440,"stv_port":27016,"stv_name":"Uncletopia | San Francisco | 1 | All Maps | STV","players":[{"user_id":558,"name":"Antwan","steam_id":76561198246200638,"connected_time":1111000000000,"state":"active","ping":84},{"user_id":574,"name":"MisterT","steam_id":76561198079868873,"connected_time":121000000000,"state":"active","ping":58},{"user_id":442,"name":"Durial321","steam_id":76561198145669711,"connected_time":9822000000000,"state":"active","ping":56},{"user_id":481,"name":"bigman1","steam_id":76561198050225055,"connected_time":7629000000000,"state":"active","ping":60},{"user_id":573,"name":"heimdall","steam_id":76561198069380992,"connected_time":164000000000,"state":"active","ping":100},{"user_id":577,"name":"Harold","steam_id":76561198057317770,"connected_time":63000000000,"state":"active","ping":44},{"user_id":572,"name":"Brando","steam_id":76561198078306678,"connected_time":209000000000,"state":"active","ping":85},{"user_id":575,"name":"AceSea","steam_id":76561198851176490,"connected_time":113000000000,"state":"active","ping":38},{"user_id":576,"name":"literally tyler durden","steam_id":76561199014628655,"connected_time":67000000000,"state":"active","ping":102},{"user_id":554,"name":"Tomato","steam_id":76561198299160693,"connected_time":1229000000000,"state":"active","ping":67},{"user_id":559,"name":"Gilbert","steam_id":76561198124545020,"connected_time":1103000000000,"state":"active","ping":57},{"user_id":556,"name":"John Smith","steam_id":76561198185776555,"connected_time":1158000000000,"state":"active","ping":62},{"user_id":560,"name":"joy","steam_id":76561198072344194,"connected_time":1064000000000,"state":"active","ping":60},{"user_id":571,"name":"mr. gomble","steam_id":76561198353865966,"connected_time":358000000000,"state":"active","ping":112},{"user_id":530,"name":"Ian","steam_id":76561198159334435,"connected_time":3123000000000,"state":"active","ping":164},{"user_id":578,"name":"geg hafly","steam_id":76561198123679124,"connected_time":52000000000,"state":"active","ping":56},{"user_id":474,"name":"Bocchi the Cock","steam_id":76561198152455316,"connected_time":7992000000000,"state":"active","ping":153},{"user_id":561,"name":"freyja","steam_id":76561198012480197,"connected_time":969000000000,"state":"active","ping":39},{"user_id":579,"name":"hanoyonline2","steam_id":76561199239035603,"connected_time":23000000000,"state":"spawning","ping":250},{"user_id":563,"name":"Willowl","steam_id":76561198074612980,"connected_time":932000000000,"state":"active","ping":149},{"user_id":567,"name":"BLU Payload Cart","steam_id":76561198352427247,"connected_time":708000000000,"state":"active","ping":63}]},{"server_id":18,"name":"Uncletopia | San Francisco | 2 | All Maps","name_short":"sfo-2","host":"sfo-1.us.uncletopia.com","port":27025,"enabled":true,"region":"us-west","cc":"us","latitude":37.77397,"longitude":-122.4313,"reserved":0,"last_update":"0001-01-01T00:00:00Z","name_a2s":"Uncletopia | San Francisco | 2 | All Maps","protocol":17,"map":"cp_process_final","folder":"tf","game":"Team Fortress","app_id":440,"player_count":1,"max_players":24,"Bots":0,"server_type":"Dedicated","server_os":"Linux","password":true,"vac":true,"version":"7757534","steam_id":85568392924470000,"keywords":["cp","nocrits","nodmgspread","uncletopia"],"game_id":440,"stv_port":27026,"stv_name":"Uncletopia | San Francisco | 2 | All Maps | STV","players":[{"user_id":778,"name":"Dimov","steam_id":76561198106046056,"connected_time":74000000000,"state":"spawning","ping":124}]},{"server_id":19,"name":"Uncletopia | San Francisco | 3 | Stopwatch Beta","name_short":"sfo-3","host":"sfo-1.us.uncletopia.com","port":27035,"enabled":true,"region":"us-west","cc":"us","latitude":37.77397,"longitude":-122.4313,"reserved":0,"last_update":"0001-01-01T00:00:00Z","name_a2s":"Uncletopia | San Francisco | 3 | Stopwatch Beta","protocol":17,"map":"pl_borneo","folder":"tf","game":"Team Fortress","app_id":440,"player_count":0,"max_players":24,"Bots":0,"server_type":"Dedicated","server_os":"Linux","password":true,"vac":true,"version":"7757534","steam_id":85568392924742824,"keywords":["nocrits","nodmgspread","payload","uncletopia"],"game_id":440,"stv_port":27036,"stv_name":"Uncletopia | San Francisco | 3 | Stopwatch Beta | STV","players":null},{"server_id":20,"name":"Uncletopia | San Francisco | 4 | Community","name_short":"sfo-4","host":"sfo-1.us.uncletopia.com","port":27045,"enabled":true,"region":"us-west","cc":"us","latitude":37.77397,"longitude":-122.4313,"reserved":0,"last_update":"0001-01-01T00:00:00Z","name_a2s":"Uncletopia | San Francisco | 4 | Community","protocol":17,"map":"workshop/cp_caldera_rc2.ugc2834196889","folder":"tf","game":"Team Fortress","app_id":440,"player_count":1,"max_players":24,"Bots":0,"server_type":"Dedicated","server_os":"Linux","password":true,"vac":true,"version":"7757534","steam_id":85568392924742826,"keywords":["cp","nocrits","nodmgspread","uncletopia"],"game_id":440,"stv_port":27046,"stv_name":"Uncletopia | San Francisco | 4 | Community | STV","players":[{"user_id":6,"name":"cofferhead","steam_id":76561199191108449,"connected_time":266000000000,"state":"active","ping":376}]},{"server_id":141,"name":"Uncletopia | Sydney | 1 | All Maps","name_short":"syd-1","host":"syd-1.au.uncletopia.com","port":27015,"enabled":true,"region":"au","cc":"au","latitude":-33.865143,"longitude":151.2099,"reserved":0,"last_update":"0001-01-01T00:00:00Z","name_a2s":"Uncletopia | Sydney | 1 | All Maps","protocol":17,"map":"pl_pier","folder":"tf","game":"Team Fortress","app_id":440,"player_count":22,"max_players":24,"Bots":0,"server_type":"Dedicated","server_os":"Linux","password":true,"vac":true,"version":"7757534","steam_id":85568392924470001,"keywords":["nocrits","nodmgspread","payload","uncletopia"],"game_id":440,"stv_port":27016,"stv_name":"Uncletopia | Sydney | 1 | All Maps | STV","players":[{"user_id":175,"name":"MININinja1308","steam_id":76561199040303660,"connected_time":525000000000,"state":"active","ping":58},{"user_id":118,"name":"Loga(n)","steam_id":76561198252922034,"connected_time":3671000000000,"state":"active","ping":74},{"user_id":163,"name":"CypressFluff (She/Her)","steam_id":76561198174667818,"connected_time":1346000000000,"state":"active","ping":65},{"user_id":144,"name":"Zoey","steam_id":76561198126153554,"connected_time":2204000000000,"state":"active","ping":68},{"user_id":122,"name":"Juni","steam_id":76561198329391466,"connected_time":3593000000000,"state":"active","ping":72},{"user_id":126,"name":"mushroom","steam_id":76561197992336470,"connected_time":3335000000000,"state":"active","ping":89},{"user_id":170,"name":"Cofwee","steam_id":76561198072414195,"connected_time":880000000000,"state":"active","ping":77},{"user_id":162,"name":"tom :D","steam_id":76561198073393715,"connected_time":1475000000000,"state":"active","ping":107},{"user_id":178,"name":"Toody","steam_id":76561198212656752,"connected_time":43000000000,"state":"active","ping":57},{"user_id":172,"name":"juusha","steam_id":76561198911542330,"connected_time":667000000000,"state":"active","ping":78},{"user_id":135,"name":"Tiger_Tan","steam_id":76561198221733844,"connected_time":2638000000000,"state":"active","ping":69},{"user_id":147,"name":"PieMuncher","steam_id":76561198107221185,"connected_time":2113000000000,"state":"active","ping":69},{"user_id":100,"name":"Voncrumb","steam_id":76561198054076313,"connected_time":5035000000000,"state":"active","ping":46},{"user_id":148,"name":"floop flub","steam_id":76561198418968979,"connected_time":2111000000000,"state":"active","ping":92},{"user_id":169,"name":"Bigrichard","steam_id":76561198032092945,"connected_time":1003000000000,"state":"active","ping":87},{"user_id":173,"name":"Charm","steam_id":76561198028891054,"connected_time":665000000000,"state":"active","ping":59},{"user_id":159,"name":"homes inc","steam_id":76561198170188198,"connected_time":1702000000000,"state":"active","ping":49},{"user_id":155,"name":"MrSpooder","steam_id":76561199029919742,"connected_time":1953000000000,"state":"active","ping":45},{"user_id":174,"name":"voxii","steam_id":76561198099698281,"connected_time":655000000000,"state":"active","ping":69},{"user_id":152,"name":"soupy","steam_id":76561198073734936,"connected_time":2034000000000,"state":"active","ping":91},{"user_id":158,"name":"wilson","steam_id":76561198094093147,"connected_time":1855000000000,"state":"active","ping":129},{"user_id":111,"name":"weezer","steam_id":76561199439508788,"connected_time":4547000000000,"state":"active","ping":65}]},{"server_id":123,"name":"Uncletopia | Sydney | 2 | All Maps","name_short":"syd-2","host":"syd-1.au.uncletopia.com","port":27025,"enabled":true,"region":"au","cc":"au","latitude":-33.865143,"longitude":151.2099,"reserved":0,"last_update":"0001-01-01T00:00:00Z","name_a2s":"Uncletopia | Sydney | 2 | All Maps","protocol":17,"map":"pl_badwater","folder":"tf","game":"Team Fortress","app_id":440,"player_count":24,"max_players":24,"Bots":0,"server_type":"Dedicated","server_os":"Linux","password":true,"vac":true,"version":"7757534","steam_id":85568392924470002,"keywords":["nocrits","nodmgspread","payload","uncletopia"],"game_id":440,"stv_port":27026,"stv_name":"Uncletopia | Sydney | 2 | All Maps | STV","players":[{"user_id":279,"name":"whiteshaq","steam_id":76561198131988811,"connected_time":1963000000000,"state":"active","ping":48},{"user_id":225,"name":"Jodelk√∂nig Franzl Lang","steam_id":76561198007667830,"connected_time":4855000000000,"state":"active","ping":46},{"user_id":305,"name":"Crabloid","steam_id":76561199081848498,"connected_time":338000000000,"state":"active","ping":61},{"user_id":198,"name":"Livid","steam_id":76561198060024585,"connected_time":6722000000000,"state":"active","ping":42},{"user_id":280,"name":"EpicGuy4227","steam_id":76561198094132328,"connected_time":1945000000000,"state":"active","ping":62},{"user_id":287,"name":"Arpazha","steam_id":76561199072257230,"connected_time":1666000000000,"state":"active","ping":144},{"user_id":298,"name":"faithless","steam_id":76561198064565908,"connected_time":1193000000000,"state":"active","ping":77},{"user_id":295,"name":"Papa","steam_id":76561198332139009,"connected_time":1353000000000,"state":"active","ping":87},{"user_id":296,"name":"seiran","steam_id":76561198880907232,"connected_time":1349000000000,"state":"active","ping":104},{"user_id":299,"name":"–í–õ–ê–î–ï–õ–ò–¶–ê","steam_id":76561198855684280,"connected_time":1036000000000,"state":"active","ping":70},{"user_id":274,"name":"Don Cheezel","steam_id":76561198321407264,"connected_time":2440000000000,"state":"active","ping":59},{"user_id":283,"name":"Yric","steam_id":76561198050493469,"connected_time":1844000000000,"state":"active","ping":49},{"user_id":293,"name":"the normoaner","steam_id":76561198082423230,"connected_time":1425000000000,"state":"active","ping":76},{"user_id":303,"name":"‚ÇÆ…Ü‚Ç¥‚ÇÆ≈Ç‚Çµ…Ñ‚±†√ò‚±§…Ñ‚Ç•","steam_id":76561199349964541,"connected_time":502000000000,"state":"active","ping":61},{"user_id":300,"name":"Fixer","steam_id":76561199349854515,"connected_time":981000000000,"state":"active","ping":62},{"user_id":183,"name":"itsjustmarvin77","steam_id":76561199375656301,"connected_time":7832000000000,"state":"active","ping":75},{"user_id":278,"name":"Redditor","steam_id":76561199475501282,"connected_time":2190000000000,"state":"active","ping":57},{"user_id":285,"name":"gary without the r","steam_id":76561198061532381,"connected_time":1837000000000,"state":"active","ping":60},{"user_id":304,"name":"riskybiznutz","steam_id":76561198040467549,"connected_time":411000000000,"state":"active","ping":56},{"user_id":306,"name":"Not A F2P","steam_id":76561198376756608,"connected_time":280000000000,"state":"active","ping":60},{"user_id":292,"name":"biff","steam_id":76561198069603865,"connected_time":1461000000000,"state":"active","ping":58},{"user_id":238,"name":"Tantei Rotana","steam_id":76561198041204323,"connected_time":3734000000000,"state":"active","ping":61},{"user_id":294,"name":"alex","steam_id":76561198053382248,"connected_time":1381000000000,"state":"active","ping":44},{"user_id":302,"name":"you have been deemed, Gilbert","steam_id":76561198301282416,"connected_time":660000000000,"state":"active","ping":61}]},{"server_id":395,"name":"Uncletopia | Sydney | 3 | All Maps","name_short":"syd-3","host":"syd-1.au.uncletopia.com","port":27035,"enabled":true,"region":"au","cc":"au","latitude":-33.865143,"longitude":151.2099,"reserved":0,"last_update":"0001-01-01T00:00:00Z","name_a2s":"Uncletopia | Sydney | 3 | All Maps","protocol":17,"map":"pl_upward","folder":"tf","game":"Team Fortress","app_id":440,"player_count":18,"max_players":24,"Bots":0,"server_type":"Dedicated","server_os":"Linux","password":true,"vac":true,"version":"7757534","steam_id":85568392925194467,"keywords":["nocrits","nodmgspread","payload","uncletopia"],"game_id":440,"stv_port":27036,"stv_name":"Uncletopia | Sydney | 3 | All Maps | STV","players":[{"user_id":365,"name":"‡∏∏bifcheg","steam_id":76561198319806610,"connected_time":8457000000000,"state":"active","ping":69},{"user_id":461,"name":"smite","steam_id":76561198845304189,"connected_time":1736000000000,"state":"active","ping":81},{"user_id":463,"name":"CheeseFlag126","steam_id":76561199262769917,"connected_time":1456000000000,"state":"active","ping":67},{"user_id":464,"name":"Munch","steam_id":76561198308105172,"connected_time":1404000000000,"state":"active","ping":101},{"user_id":475,"name":"mixyad3","steam_id":76561198046461767,"connected_time":637000000000,"state":"active","ping":47},{"user_id":467,"name":"BadmanTing","steam_id":76561198011496098,"connected_time":1064000000000,"state":"active","ping":51},{"user_id":476,"name":"¬Ø\\_(„ÉÑ)_/¬Ø","steam_id":76561199206182584,"connected_time":575000000000,"state":"active","ping":59},{"user_id":471,"name":"Kremmen","steam_id":76561198051368641,"connected_time":966000000000,"state":"active","ping":71},{"user_id":477,"name":"bitch furry","steam_id":76561199057568663,"connected_time":529000000000,"state":"active","ping":59},{"user_id":478,"name":"SUSHIMAN","steam_id":76561199089989428,"connected_time":505000000000,"state":"active","ping":103},{"user_id":479,"name":"Lord Oink the Manly (she/her)","steam_id":76561198125237921,"connected_time":482000000000,"state":"active","ping":35},{"user_id":480,"name":"Toucan 2","steam_id":76561198184873390,"connected_time":425000000000,"state":"active","ping":54},{"user_id":481,"name":"eekynetwo(F2P Piss Sniper)","steam_id":76561198990017441,"connected_time":417000000000,"state":"active","ping":144},{"user_id":488,"name":"South African Bloke","steam_id":76561198097583470,"connected_time":79000000000,"state":"active","ping":65},{"user_id":483,"name":"badmn","steam_id":76561198056462343,"connected_time":362000000000,"state":"active","ping":58},{"user_id":486,"name":"helton1 #RemoveCrossbow","steam_id":76561198841855657,"connected_time":187000000000,"state":"active","ping":50},{"user_id":487,"name":"Morterkai","steam_id":76561198048247068,"connected_time":121000000000,"state":"active","ping":61},{"user_id":357,"name":"Long_Neck","steam_id":76561198059207275,"connected_time":9336000000000,"state":"active","ping":84}]},{"server_id":396,"name":"Uncletopia | Sydney | 4 | All Maps","name_short":"syd-4","host":"syd-1.au.uncletopia.com","port":27045,"enabled":true,"region":"au","cc":"au","latitude":-33.865143,"longitude":151.2099,"reserved":0,"last_update":"0001-01-01T00:00:00Z","name_a2s":"Uncletopia | Sydney | 4 | All Maps","protocol":17,"map":"cp_sunshine","folder":"tf","game":"Team Fortress","app_id":440,"player_count":0,"max_players":24,"Bots":0,"server_type":"Dedicated","server_os":"Linux","password":true,"vac":true,"version":"7757534","steam_id":85568392925397958,"keywords":["cp","nocrits","nodmgspread","uncletopia"],"game_id":440,"stv_port":27046,"stv_name":"Uncletopia | Sydney | 4 | All Maps | STV","players":null},{"server_id":58,"name":"Uncletopia | Sydney | 5 | Stopwatch Beta","name_short":"syd-5","host":"syd-1.au.uncletopia.com","port":27055,"enabled":true,"region":"au","cc":"au","latitude":-33.865143,"longitude":151.2099,"reserved":0,"last_update":"0001-01-01T00:00:00Z","name_a2s":"Uncletopia | Sydney | 5 | Stopwatch Beta","protocol":17,"map":"workshop/cp_reckoner_rc6.ugc674719999","folder":"tf","game":"Team Fortress","app_id":440,"player_count":0,"max_players":24,"Bots":0,"server_type":"Dedicated","server_os":"Linux","password":true,"vac":true,"version":"7757534","steam_id":85568392925397959,"keywords":["cp","nocrits","nodmgspread","uncletopia"],"game_id":440,"stv_port":27056,"stv_name":"Uncletopia | Sydney | 5 | Stopwatch Beta | STV","players":null},{"server_id":59,"name":"Uncletopia | Sydney | 6 | Community","name_short":"syd-6","host":"syd-1.au.uncletopia.com","port":27065,"enabled":true,"region":"au","cc":"au","latitude":-33.865143,"longitude":151.2099,"reserved":0,"last_update":"0001-01-01T00:00:00Z","name_a2s":"Uncletopia | Sydney | 6 | Community","protocol":17,"map":"workshop/koth_ramjam_rc1.ugc459778887","folder":"tf","game":"Team Fortress","app_id":440,"player_count":0,"max_players":24,"Bots":0,"server_type":"Dedicated","server_os":"Linux","password":true,"vac":true,"version":"7757534","steam_id":85568392925397960,"keywords":["cp","nocrits","nodmgspread","uncletopia"],"game_id":440,"stv_port":27066,"stv_name":"Uncletopia | Sydney | 6 | Community | STV","players":null},{"server_id":49,"name":"Uncletopia | Warsaw | 1 | All Maps","name_short":"waw-1","host":"waw-1.pl.uncletopia.com","port":27015,"enabled":true,"region":"eu","cc":"pl","latitude":52.2297,"longitude":21.017532,"reserved":0,"last_update":"0001-01-01T00:00:00Z","name_a2s":"","protocol":0,"map":"","folder":"","game":"","app_id":0,"player_count":0,"max_players":0,"Bots":0,"server_type":"","server_os":"","password":false,"vac":false,"version":"","steam_id":0,"keywords":null,"game_id":0,"stv_port":0,"stv_name":"","players":null},{"server_id":50,"name":"Uncletopia | Warsaw | 2 | All Maps","name_short":"waw-2","host":"waw-1.pl.uncletopia.com","port":27025,"enabled":true,"region":"eu","cc":"pl","latitude":52.2297,"longitude":21.017532,"reserved":0,"last_update":"0001-01-01T00:00:00Z","name_a2s":"Uncletopia | Warsaw | 2 | All Maps","protocol":17,"map":"koth_viaduct","folder":"tf","game":"Team Fortress","app_id":440,"player_count":0,"max_players":24,"Bots":0,"server_type":"Dedicated","server_os":"Linux","password":true,"vac":true,"version":"7757534","steam_id":85568392925397851,"keywords":["cp","nocrits","nodmgspread","uncletopia"],"game_id":440,"stv_port":27026,"stv_name":"Uncletopia | Warsaw | 2 | All Maps | STV","players":null},{"server_id":51,"name":"Uncletopia | Warsaw | 3 | All Maps","name_short":"waw-3","host":"waw-1.pl.uncletopia.com","port":27035,"enabled":true,"region":"eu","cc":"pl","latitude":52.2297,"longitude":21.017532,"reserved":0,"last_update":"0001-01-01T00:00:00Z","name_a2s":"Uncletopia | Warsaw | 3 | All Maps","protocol":17,"map":"pl_badwater","folder":"tf","game":"Team Fortress","app_id":440,"player_count":0,"max_players":24,"Bots":0,"server_type":"Dedicated","server_os":"Linux","password":true,"vac":true,"version":"7757534","steam_id":85568392925397852,"keywords":["nocrits","nodmgspread","payload","uncletopia"],"game_id":440,"stv_port":27036,"stv_name":"Uncletopia | Warsaw | 3 | All Maps | STV","players":null},{"server_id":52,"name":"Uncletopia | Warsaw | 4 | All Maps","name_short":"waw-4","host":"waw-1.pl.uncletopia.com","port":27045,"enabled":true,"region":"eu","cc":"pl","latitude":52.2297,"longitude":21.017532,"reserved":0,"last_update":"0001-01-01T00:00:00Z","name_a2s":"Uncletopia | Warsaw | 4 | All Maps","protocol":17,"map":"koth_lakeside_final","folder":"tf","game":"Team Fortress","app_id":440,"player_count":0,"max_players":24,"Bots":0,"server_type":"Dedicated","server_os":"Linux","password":true,"vac":true,"version":"7757534","steam_id":85568392925397853,"keywords":["cp","nocrits","nodmgspread","uncletopia"],"game_id":440,"stv_port":27046,"stv_name":"Uncletopia | Warsaw | 4 | All Maps | STV","players":null},{"server_id":53,"name":"Uncletopia | Warsaw | 5 | Stopwatch Beta","name_short":"waw-5","host":"waw-1.pl.uncletopia.com","port":27055,"enabled":true,"region":"eu","cc":"pl","latitude":52.2297,"longitude":21.017532,"reserved":0,"last_update":"0001-01-01T00:00:00Z","name_a2s":"Uncletopia | Warsaw | 5 | Stopwatch Beta","protocol":17,"map":"pl_borneo","folder":"tf","game":"Team Fortress","app_id":440,"player_count":0,"max_players":24,"Bots":0,"server_type":"Dedicated","server_os":"Linux","password":true,"vac":true,"version":"7757534","steam_id":85568392925397854,"keywords":["nocrits","nodmgspread","payload","uncletopia"],"game_id":440,"stv_port":27056,"stv_name":"Uncletopia | Warsaw | 5 | Stopwatch Beta | STV","players":null},{"server_id":54,"name":"Uncletopia | Warsaw | 6 | Community","name_short":"waw-6","host":"waw-1.pl.uncletopia.com","port":27065,"enabled":true,"region":"eu","cc":"pl","latitude":52.2297,"longitude":21.017532,"reserved":0,"last_update":"0001-01-01T00:00:00Z","name_a2s":"Uncletopia | Warsaw | 6 | Community","protocol":17,"map":"koth_lakeside_final","folder":"tf","game":"Team Fortress","app_id":440,"player_count":0,"max_players":24,"Bots":0,"server_type":"Dedicated","server_os":"Linux","password":true,"vac":true,"version":"7757534","steam_id":85568392925397856,"keywords":["cp","nocrits","nodmgspread","uncletopia"],"game_id":440,"stv_port":27066,"stv_name":"Uncletopia | Warsaw | 6 | Community | STV","players":null}]}