{"status":true,"message":"","result":[{"server_id":9,"name":"Uncletopia | Atlanta | 1 | All Maps","name_short":"atl-1","host":"atl-1.us.uncletopia.com","port":27015,"enabled":true,"region":"us-east","cc":"us","latitude":33.753746,"longitude":-84.38633,"reserved":0,"last_update":"0001-01-01T00:00:00Z","name_a2s":"Uncletopia | Atlanta | 1 | All Maps","protocol":17,"map":"pl_borneo","folder":"tf","game":"Team Fortress","app_id":440,"player_count":24,"max_players":24,"Bots":0,"server_type":"Dedicated","server_os":"Linux","password":true,"vac":true,"version":"7742253","steam_id":85568392924469982,"keywords":["nocrits","nodmgspread","payload","uncletopia"],"game_id":440,"stv_port":27016,"stv_name":"Uncletopia | Atlanta | 1 | All Maps | STV","players":[{"user_id":487,"name":"☙ Corrupt ❧","steam_id":76561197977631915,"connected_time":429000000000,"state":"active","ping":57},{"user_id":482,"name":"stink","steam_id":76561198099318923,"connected_time":562000000000,"state":"active","ping":76},{"user_id":426,"name":"ATL1 | eish","steam_id":76561198089463603,"connected_time":6437000000000,"state":"active","ping":117},{"user_id":458,"name":"spinglebarp","steam_id":76561198091472345,"connected_time":3960000000000,"state":"active","ping":56},{"user_id":488,"name":"Noodles","steam_id":76561198386282249,"connected_time":397000000000,"state":"active","ping":62},{"user_id":468,"name":"the mold untold","steam_id":76561198857781374,"connected_time":3196000000000,"state":"active","ping":40},{"user_id":479,"name":"newyears.jimmy.2014","steam_id":76561199177672325,"connected_time":1868000000000,"state":"active","ping":45},{"user_id":489,"name":"Im High","steam_id":76561198049954886,"connected_time":338000000000,"state":"active","ping":73},{"user_id":475,"name":"lker","steam_id":76561197976975075,"connected_time":2463000000000,"state":"active","ping":40},{"user_id":457,"name":"festive pork trooper","steam_id":76561198150327877,"connected_time":3981000000000,"state":"active","ping":44},{"user_id":449,"name":"Veilos","steam_id":76561198071897172,"connected_time":4772000000000,"state":"active","ping":78},{"user_id":469,"name":"reneas chow mieng","steam_id":76561198061024704,"connected_time":3190000000000,"state":"active","ping":49},{"user_id":341,"name":"Alt","steam_id":76561197992591984,"connected_time":12808000000000,"state":"active","ping":89},{"user_id":491,"name":"banana97286","steam_id":76561199367847817,"connected_time":308000000000,"state":"active","ping":56},{"user_id":461,"name":"Lost (15)","steam_id":76561198093713427,"connected_time":3638000000000,"state":"active","ping":92},{"user_id":389,"name":"ATL1 | to4st","steam_id":76561198981009008,"connected_time":9897000000000,"state":"active","ping":66},{"user_id":444,"name":"Abbashea","steam_id":76561199182136969,"connected_time":4947000000000,"state":"active","ping":107},{"user_id":410,"name":"Groovy","steam_id":76561198062633485,"connected_time":7285000000000,"state":"active","ping":70},{"user_id":478,"name":"ash","steam_id":76561198127890645,"connected_time":2198000000000,"state":"active","ping":74},{"user_id":476,"name":"Room","steam_id":76561199174579733,"connected_time":2397000000000,"state":"active","ping":78},{"user_id":484,"name":"ATL1 | Chance","steam_id":76561198122256825,"connected_time":460000000000,"state":"active","ping":65},{"user_id":452,"name":"Reclipser","steam_id":76561198093697554,"connected_time":4402000000000,"state":"active","ping":82},{"user_id":481,"name":"ATL1 | Twa","steam_id":76561198295529541,"connected_time":664000000000,"state":"active","ping":71},{"user_id":465,"name":"nomad","steam_id":76561197998740399,"connected_time":3222000000000,"state":"active","ping":70}]},{"server_id":400,"name":"Uncletopia | Atlanta | 3 | Stopwatch Beta","name_short":"atl-3","host":"atl-1.us.uncletopia.com","port":27035,"enabled":true,"region":"us-east","cc":"us","latitude":33.753746,"longitude":-84.38633,"reserved":0,"last_update":"0001-01-01T00:00:00Z","name_a2s":"Uncletopia | Atlanta | 3 | Stopwatch Beta","protocol":17,"map":"koth_highpass","folder":"tf","game":"Team Fortress","app_id":440,"player_count":5,"max_players":24,"Bots":0,"server_type":"Dedicated","server_os":"Linux","password":true,"vac":true,"version":"7742253","steam_id":85568392924515187,"keywords":["cp","nocrits","nodmgspread","uncletopia"],"game_id":440,"stv_port":27036,"stv_name":"Uncletopia | Atlanta | 3 | Stopwatch Beta | STV","players":[{"user_id":36,"name":"jorjor wells","steam_id":76561199073429082,"connected_time":409000000000,"state":"active","ping":72},{"user_id":37,"name":"krool","steam_id":76561198229263964,"connected_time":192000000000,"state":"active","ping":65},{"user_id":35,"name":"Stop Tryharding :(","steam_id":76561199130074444,"connected_time":1980000000000,"state":"active","ping":90},{"user_id":22,"name":"Probably P3","steam_id":76561198000127035,"connected_time":4316000000000,"state":"active","ping":56},{"user_id":24,"name":"Men ENJOYER.","steam_id":76561198981257947,"connected_time":3704000000000,"state":"active","ping":70}]},{"server_id":401,"name":"Uncletopia | Atlanta | 4 | No Payload","name_short":"atl-4","host":"atl-1.us.uncletopia.com","port":27045,"enabled":true,"region":"us-east","cc":"us","latitude":33.753746,"longitude":-84.38633,"reserved":0,"last_update":"0001-01-01T00:00:00Z","name_a2s":"Uncletopia | Atlanta | 4 | No Payload","protocol":17,"map":"pl_pier","folder":"tf","game":"Team Fortress","app_id":440,"player_count":0,"max_players":24,"Bots":0,"server_type":"Dedicated","server_os":"Linux","password":true,"vac":true,"version":"7723704","steam_id":85568392924515188,"keywords":["nocrits","nodmgspread","payload","uncletopia"],"game_id":440,"stv_port":27046,"stv_name":"Uncletopia | Atlanta | 4 | No Payload | STV","players":null},{"server_id":2,"name":"Uncletopia | Chicago | 1 | All Maps","name_short":"chi-1","host":"chi-1.us.uncletopia.com","port":27015,"enabled":true,"region":"us-central","cc":"us","latitude":41.881832,"longitude":-87.62318,"reserved":0,"last_update":"0001-01-01T00:00:00Z","name_a2s":"Uncletopia | Chicago | 1 | All Maps","protocol":17,"map":"pl_badwater","folder":"tf","game":"Team Fortress","app_id":440,"player_count":18,"max_players":24,"Bots":0,"server_type":"Dedicated","server_os":"Linux","password":true,"vac":true,"version":"7742253","steam_id":85568392924469984,"keywords":["nocrits","nodmgspread","payload","uncletopia"],"game_id":440,"stv_port":27016,"stv_name":"Uncletopia | Chicago | 1 | All Maps | STV","players":[{"user_id":255,"name":"SWISS!","steam_id":76561198271971252,"connected_time":5890000000000,"state":"active","ping":68},{"user_id":332,"name":"Silly Scientist","steam_id":76561199199886079,"connected_time":71000000000,"state":"active","ping":53},{"user_id":321,"name":"Stboxnard","steam_id":76561198089888887,"connected_time":1126000000000,"state":"active","ping":106},{"user_id":276,"name":"the deadliest pyroshark","steam_id":76561198374227766,"connected_time":4365000000000,"state":"active","ping":73},{"user_id":273,"name":"blob","steam_id":76561198122375328,"connected_time":4447000000000,"state":"active","ping":46},{"user_id":307,"name":"Profact","steam_id":76561198019274719,"connected_time":2455000000000,"state":"active","ping":62},{"user_id":316,"name":"Dacia Sandero","steam_id":76561198106762185,"connected_time":1272000000000,"state":"active","ping":51},{"user_id":309,"name":"irish \u003c3","steam_id":76561198164420174,"connected_time":2399000000000,"state":"active","ping":46},{"user_id":322,"name":"Kinbo2487","steam_id":76561198184714198,"connected_time":1089000000000,"state":"active","ping":67},{"user_id":310,"name":"taxpaying kitty cat town citize","steam_id":76561198094601849,"connected_time":2060000000000,"state":"active","ping":63},{"user_id":323,"name":"averted","steam_id":76561198067784310,"connected_time":1034000000000,"state":"active","ping":61},{"user_id":163,"name":"Legion","steam_id":76561199036242643,"connected_time":13591000000000,"state":"active","ping":61},{"user_id":331,"name":"BenNikkin","steam_id":76561198146801256,"connected_time":356000000000,"state":"active","ping":68},{"user_id":318,"name":"theTheSuzan","steam_id":76561198044181453,"connected_time":1247000000000,"state":"active","ping":113},{"user_id":271,"name":"brn","steam_id":76561198118211523,"connected_time":4800000000000,"state":"active","ping":61},{"user_id":311,"name":"Ademar","steam_id":76561199391802581,"connected_time":1913000000000,"state":"spawning","ping":72},{"user_id":319,"name":"FrogSalad","steam_id":76561198405982285,"connected_time":1229000000000,"state":"active","ping":40},{"user_id":325,"name":"poorman #1 sniper","steam_id":76561198447884169,"connected_time":674000000000,"state":"active","ping":48}]},{"server_id":106,"name":"Uncletopia | Chicago | 2 | All Maps","name_short":"chi-2","host":"chi-1.us.uncletopia.com","port":27025,"enabled":true,"region":"us-central","cc":"us","latitude":41.881832,"longitude":-87.62318,"reserved":0,"last_update":"0001-01-01T00:00:00Z","name_a2s":"Uncletopia | Chicago | 2 | All Maps","protocol":17,"map":"cp_snakewater_final1","folder":"tf","game":"Team Fortress","app_id":440,"player_count":21,"max_players":24,"Bots":0,"server_type":"Dedicated","server_os":"Linux","password":true,"vac":true,"version":"7742253","steam_id":85568392924469985,"keywords":["cp","nocrits","nodmgspread","uncletopia"],"game_id":440,"stv_port":27026,"stv_name":"Uncletopia | Chicago | 2 | All Maps | STV","players":[{"user_id":451,"name":"mommy","steam_id":76561198129195009,"connected_time":79000000000,"state":"active","ping":71},{"user_id":442,"name":"maS","steam_id":76561198033846407,"connected_time":1273000000000,"state":"active","ping":45},{"user_id":443,"name":"Metal Silver","steam_id":76561198422159570,"connected_time":1272000000000,"state":"active","ping":130},{"user_id":450,"name":"I-die-often","steam_id":76561197996780327,"connected_time":471000000000,"state":"active","ping":92},{"user_id":433,"name":"no","steam_id":76561198248853140,"connected_time":1707000000000,"state":"active","ping":42},{"user_id":432,"name":"Kohbold","steam_id":76561198996480140,"connected_time":1823000000000,"state":"active","ping":72},{"user_id":440,"name":"Guy From Canada","steam_id":76561199190195411,"connected_time":1311000000000,"state":"active","ping":80},{"user_id":447,"name":"Rudy","steam_id":76561198013456828,"connected_time":773000000000,"state":"active","ping":56},{"user_id":387,"name":"^_^","steam_id":76561198971354161,"connected_time":4291000000000,"state":"active","ping":56},{"user_id":427,"name":"Kraftlos","steam_id":76561198074350350,"connected_time":2036000000000,"state":"active","ping":66},{"user_id":400,"name":"TheGhostThatWas","steam_id":76561198055836483,"connected_time":3553000000000,"state":"active","ping":60},{"user_id":446,"name":"Samsiel","steam_id":76561198094134951,"connected_time":814000000000,"state":"active","ping":90},{"user_id":428,"name":"NUt","steam_id":76561198031007966,"connected_time":2025000000000,"state":"active","ping":59},{"user_id":421,"name":"ArcaneMil","steam_id":76561198281745268,"connected_time":2224000000000,"state":"active","ping":76},{"user_id":431,"name":"Gingoguy","steam_id":76561198088931297,"connected_time":1936000000000,"state":"active","ping":54},{"user_id":412,"name":"RICE A RONI JABRONI","steam_id":76561198251653444,"connected_time":2646000000000,"state":"active","ping":79},{"user_id":444,"name":"Summer","steam_id":76561198121692871,"connected_time":986000000000,"state":"active","ping":79},{"user_id":449,"name":"MisterRoller47","steam_id":76561198967158754,"connected_time":641000000000,"state":"active","ping":79},{"user_id":404,"name":"layabout","steam_id":76561198130892117,"connected_time":3528000000000,"state":"active","ping":79},{"user_id":414,"name":"jdt631","steam_id":76561198271999934,"connected_time":2480000000000,"state":"active","ping":87},{"user_id":437,"name":"Tom","steam_id":76561198126800063,"connected_time":1440000000000,"state":"active","ping":134}]},{"server_id":402,"name":"Uncletopia | Chicago | 3 | All Maps","name_short":"chi-3","host":"chi-1.us.uncletopia.com","port":27035,"enabled":true,"region":"us-central","cc":"us","latitude":41.881832,"longitude":-87.62318,"reserved":0,"last_update":"0001-01-01T00:00:00Z","name_a2s":"Uncletopia | Chicago | 3 | All Maps","protocol":17,"map":"pl_badwater","folder":"tf","game":"Team Fortress","app_id":440,"player_count":24,"max_players":24,"Bots":0,"server_type":"Dedicated","server_os":"Linux","password":true,"vac":true,"version":"7742253","steam_id":85568392924515191,"keywords":["nocrits","nodmgspread","payload","uncletopia"],"game_id":440,"stv_port":27036,"stv_name":"Uncletopia | Chicago | 3 | All Maps | STV","players":[{"user_id":573,"name":"Ye ( I Love Caulk ) West","steam_id":76561198068830312,"connected_time":1307000000000,"state":"active","ping":53},{"user_id":540,"name":"nine denzelfuture","steam_id":76561199239168878,"connected_time":2719000000000,"state":"active","ping":107},{"user_id":577,"name":"hashmap","steam_id":76561198043794014,"connected_time":659000000000,"state":"active","ping":48},{"user_id":517,"name":"THORNFIELDGAMER","steam_id":76561199087167473,"connected_time":4124000000000,"state":"active","ping":84},{"user_id":553,"name":"Rikachu","steam_id":76561198012712022,"connected_time":2495000000000,"state":"active","ping":118},{"user_id":518,"name":"cheesefieldgamer","steam_id":76561198996563979,"connected_time":4096000000000,"state":"active","ping":130},{"user_id":571,"name":"jrdoran","steam_id":76561197984753094,"connected_time":1403000000000,"state":"active","ping":50},{"user_id":575,"name":"Unregistered Criminal","steam_id":76561198041942292,"connected_time":1011000000000,"state":"active","ping":78},{"user_id":550,"name":"FROYO donovin","steam_id":76561198045679387,"connected_time":2523000000000,"state":"active","ping":49},{"user_id":539,"name":"it is here","steam_id":76561198204517523,"connected_time":2726000000000,"state":"active","ping":53},{"user_id":545,"name":"Kelpy G","steam_id":76561198105330587,"connected_time":2632000000000,"state":"active","ping":80},{"user_id":542,"name":"the McRib™ is back baby","steam_id":76561198070782529,"connected_time":2715000000000,"state":"active","ping":82},{"user_id":576,"name":"orangj","steam_id":76561198026604607,"connected_time":915000000000,"state":"active","ping":61},{"user_id":546,"name":"sonny","steam_id":76561198078381913,"connected_time":2629000000000,"state":"active","ping":84},{"user_id":554,"name":"stinkybomb moron","steam_id":76561198057374871,"connected_time":2329000000000,"state":"active","ping":67},{"user_id":547,"name":"zoki","steam_id":76561198087600524,"connected_time":2620000000000,"state":"active","ping":58},{"user_id":566,"name":"BurnN8or101","steam_id":76561198132668224,"connected_time":1658000000000,"state":"active","ping":81},{"user_id":567,"name":"Cleric","steam_id":76561198045887994,"connected_time":1648000000000,"state":"active","ping":46},{"user_id":563,"name":"king of bogers","steam_id":76561198045731295,"connected_time":1713000000000,"state":"active","ping":67},{"user_id":551,"name":"yoodle doodle","steam_id":76561198054897884,"connected_time":2514000000000,"state":"active","ping":77},{"user_id":572,"name":"SewerNinja","steam_id":76561198015268145,"connected_time":1346000000000,"state":"active","ping":76},{"user_id":534,"name":"KTB","steam_id":76561197990744614,"connected_time":3083000000000,"state":"active","ping":45},{"user_id":560,"name":"Arick","steam_id":76561198053743602,"connected_time":1953000000000,"state":"active","ping":46},{"user_id":574,"name":"YOLK BASED JAM TO EGG TO","steam_id":76561198012510968,"connected_time":1199000000000,"state":"active","ping":57}]},{"server_id":403,"name":"Uncletopia | Chicago | 4 | All Maps","name_short":"chi-4","host":"chi-1.us.uncletopia.com","port":27045,"enabled":true,"region":"us-central","cc":"us","latitude":41.881832,"longitude":-87.62318,"reserved":0,"last_update":"0001-01-01T00:00:00Z","name_a2s":"Uncletopia | Chicago | 4 | All Maps","protocol":17,"map":"pl_barnblitz","folder":"tf","game":"Team Fortress","app_id":440,"player_count":24,"max_players":24,"Bots":0,"server_type":"Dedicated","server_os":"Linux","password":true,"vac":true,"version":"7742253","steam_id":85568392924515193,"keywords":["nocrits","nodmgspread","payload","uncletopia"],"game_id":440,"stv_port":27046,"stv_name":"Uncletopia | Chicago | 4 | All Maps | STV","players":[{"user_id":193,"name":"Pixeled","steam_id":76561198088917077,"connected_time":2755000000000,"state":"active","ping":92},{"user_id":221,"name":"Aldinach","steam_id":76561198079912615,"connected_time":457000000000,"state":"active","ping":46},{"user_id":198,"name":"Jolt","steam_id":76561198168669087,"connected_time":1566000000000,"state":"active","ping":61},{"user_id":211,"name":"Regi","steam_id":76561198271508598,"connected_time":778000000000,"state":"active","ping":55},{"user_id":180,"name":"the zoo","steam_id":76561198013732450,"connected_time":3699000000000,"state":"active","ping":51},{"user_id":184,"name":"Inkan","steam_id":76561198109064207,"connected_time":2999000000000,"state":"active","ping":78},{"user_id":214,"name":"Wally The Fukn Walrus","steam_id":76561198019034045,"connected_time":702000000000,"state":"active","ping":57},{"user_id":165,"name":"MintyPawz","steam_id":76561198111430103,"connected_time":4415000000000,"state":"active","ping":93},{"user_id":199,"name":"Frick On a Leash","steam_id":76561198044911149,"connected_time":1549000000000,"state":"active","ping":91},{"user_id":222,"name":"Cato Sicarius","steam_id":76561198185598330,"connected_time":451000000000,"state":"active","ping":83},{"user_id":187,"name":"tinkercrab11","steam_id":76561198881792140,"connected_time":2922000000000,"state":"active","ping":80},{"user_id":208,"name":"∀ɐ","steam_id":76561198139718219,"connected_time":920000000000,"state":"active","ping":79},{"user_id":225,"name":"cave full of snakes","steam_id":76561199084459911,"connected_time":198000000000,"state":"active","ping":94},{"user_id":224,"name":"Strangelove","steam_id":76561198353773611,"connected_time":324000000000,"state":"active","ping":85},{"user_id":220,"name":"Menlymen","steam_id":76561198046508051,"connected_time":565000000000,"state":"active","ping":73},{"user_id":217,"name":"Rukks","steam_id":76561197993918954,"connected_time":685000000000,"state":"active","ping":61},{"user_id":192,"name":"Ford Truck Gaming","steam_id":76561199042674833,"connected_time":2788000000000,"state":"active","ping":85},{"user_id":146,"name":"Treader","steam_id":76561198096555885,"connected_time":5768000000000,"state":"active","ping":74},{"user_id":218,"name":"thomasdee725","steam_id":76561199189526173,"connected_time":685000000000,"state":"active","ping":84},{"user_id":174,"name":"jolo","steam_id":76561198042831480,"connected_time":3841000000000,"state":"active","ping":74},{"user_id":172,"name":"❤Dumpster Cat❤","steam_id":76561199200969139,"connected_time":3869000000000,"state":"active","ping":115},{"user_id":223,"name":"KapeCon","steam_id":76561198861638518,"connected_time":377000000000,"state":"active","ping":63},{"user_id":206,"name":"pencilneck","steam_id":76561198865971290,"connected_time":996000000000,"state":"active","ping":91},{"user_id":178,"name":"noot noot","steam_id":76561198318446417,"connected_time":3759000000000,"state":"active","ping":83}]},{"server_id":36,"name":"Uncletopia | Chicago | 5 | All Maps","name_short":"chi-5","host":"chi-2.us.uncletopia.com","port":27015,"enabled":true,"region":"us-central","cc":"us","latitude":41.881832,"longitude":-87.62318,"reserved":0,"last_update":"0001-01-01T00:00:00Z","name_a2s":"Uncletopia | Chicago | 5 | All Maps","protocol":17,"map":"cp_dustbowl","folder":"tf","game":"Team Fortress","app_id":440,"player_count":24,"max_players":24,"Bots":0,"server_type":"Dedicated","server_os":"Linux","password":true,"vac":true,"version":"7742253","steam_id":85568392924866362,"keywords":["cp","nocrits","nodmgspread","uncletopia"],"game_id":440,"stv_port":27016,"stv_name":"Uncletopia | Chicago | 5 | All Maps | STV","players":[{"user_id":568,"name":"Dullahan","steam_id":76561198119668908,"connected_time":665000000000,"state":"active","ping":92},{"user_id":574,"name":"watchfull","steam_id":76561198433266742,"connected_time":510000000000,"state":"active","ping":105},{"user_id":569,"name":"GreenApples","steam_id":76561198120559543,"connected_time":657000000000,"state":"active","ping":92},{"user_id":570,"name":"Blue Collar","steam_id":76561198354781722,"connected_time":645000000000,"state":"active","ping":88},{"user_id":539,"name":"Coolbeans4Evah","steam_id":76561198840823486,"connected_time":2610000000000,"state":"active","ping":60},{"user_id":573,"name":"Frylocks anatomy","steam_id":76561198877036011,"connected_time":547000000000,"state":"active","ping":118},{"user_id":530,"name":"BiLl","steam_id":76561198124067025,"connected_time":3106000000000,"state":"active","ping":167},{"user_id":571,"name":"Nobody","steam_id":76561198160544586,"connected_time":623000000000,"state":"active","ping":68},{"user_id":531,"name":"Clay Pot","steam_id":76561199030644557,"connected_time":3074000000000,"state":"active","ping":84},{"user_id":582,"name":"B0b-1","steam_id":76561198093902432,"connected_time":314000000000,"state":"active","ping":70},{"user_id":553,"name":"Marauding Morty","steam_id":76561198013159528,"connected_time":2038000000000,"state":"active","ping":61},{"user_id":561,"name":"Luingar","steam_id":76561198008543248,"connected_time":1553000000000,"state":"active","ping":64},{"user_id":524,"name":"ShitsandGiggles™","steam_id":76561198058708019,"connected_time":3215000000000,"state":"active","ping":49},{"user_id":566,"name":"Chuburn","steam_id":76561199078803862,"connected_time":1051000000000,"state":"active","ping":65},{"user_id":562,"name":"i hate 2fort","steam_id":76561199241619967,"connected_time":1545000000000,"state":"active","ping":59},{"user_id":576,"name":"caption cool","steam_id":76561197990612056,"connected_time":431000000000,"state":"active","ping":48},{"user_id":528,"name":"snow worm","steam_id":76561198328256922,"connected_time":3167000000000,"state":"active","ping":76},{"user_id":532,"name":"Uncle Majic the Hip Hop Magicia","steam_id":76561198107924303,"connected_time":3050000000000,"state":"active","ping":74},{"user_id":583,"name":"Lone Dancer","steam_id":76561199096241116,"connected_time":238000000000,"state":"active","ping":60},{"user_id":432,"name":"Pancreas Enjoyer","steam_id":76561199438598904,"connected_time":9410000000000,"state":"active","ping":145},{"user_id":579,"name":"Lemur2016","steam_id":76561198194372906,"connected_time":377000000000,"state":"active","ping":58},{"user_id":580,"name":"gigaramen","steam_id":76561199228384234,"connected_time":376000000000,"state":"active","ping":104},{"user_id":581,"name":"bower50","steam_id":76561198112506117,"connected_time":374000000000,"state":"active","ping":107},{"user_id":503,"name":"I Have Soft Thighs","steam_id":76561198864353110,"connected_time":4697000000000,"state":"active","ping":63}]},{"server_id":37,"name":"Uncletopia | Chicago | 6 | All Maps","name_short":"chi-6","host":"chi-2.us.uncletopia.com","port":27025,"enabled":true,"region":"us-central","cc":"us","latitude":41.881832,"longitude":-87.62318,"reserved":0,"last_update":"0001-01-01T00:00:00Z","name_a2s":"Uncletopia | Chicago | 6 | All Maps","protocol":17,"map":"pl_upward","folder":"tf","game":"Team Fortress","app_id":440,"player_count":23,"max_players":24,"Bots":0,"server_type":"Dedicated","server_os":"Linux","password":true,"vac":true,"version":"7742253","steam_id":85568392924866363,"keywords":["nocrits","nodmgspread","payload","uncletopia"],"game_id":440,"stv_port":27026,"stv_name":"Uncletopia | Chicago | 6 | All Maps | STV","players":[{"user_id":523,"name":"Playboi Clarti","steam_id":76561199027038197,"connected_time":595000000000,"state":"active","ping":163},{"user_id":505,"name":"peter griffin","steam_id":76561198079485096,"connected_time":2775000000000,"state":"active","ping":79},{"user_id":524,"name":"Diktoulong","steam_id":76561198170613135,"connected_time":548000000000,"state":"active","ping":92},{"user_id":495,"name":"BrotherGrowly","steam_id":76561198086663043,"connected_time":3663000000000,"state":"active","ping":92},{"user_id":534,"name":"Howoriginal","steam_id":76561197993701184,"connected_time":167000000000,"state":"active","ping":58},{"user_id":528,"name":"Baphy","steam_id":76561199088719865,"connected_time":341000000000,"state":"active","ping":150},{"user_id":519,"name":"Aglet Gaming","steam_id":76561198052368295,"connected_time":927000000000,"state":"active","ping":144},{"user_id":508,"name":"Adam (Cursed Confetti Creature)","steam_id":76561198317690197,"connected_time":2349000000000,"state":"active","ping":45},{"user_id":530,"name":"JamakaJudd","steam_id":76561198045755086,"connected_time":311000000000,"state":"active","ping":72},{"user_id":520,"name":"murderous deer","steam_id":76561198350832152,"connected_time":862000000000,"state":"active","ping":65},{"user_id":486,"name":"BillButtLicker69","steam_id":76561198070119268,"connected_time":4221000000000,"state":"active","ping":110},{"user_id":499,"name":"aversa","steam_id":76561198840460101,"connected_time":3059000000000,"state":"active","ping":128},{"user_id":525,"name":"Burghley","steam_id":76561199211314980,"connected_time":487000000000,"state":"active","ping":62},{"user_id":526,"name":"festive jester","steam_id":76561198079609974,"connected_time":485000000000,"state":"active","ping":110},{"user_id":529,"name":"Tsuchinoko","steam_id":76561198083175190,"connected_time":331000000000,"state":"active","ping":61},{"user_id":531,"name":"Birdhorse Of Course","steam_id":76561198038997485,"connected_time":294000000000,"state":"active","ping":64},{"user_id":532,"name":"Loogey03","steam_id":76561198155483586,"connected_time":230000000000,"state":"active","ping":59},{"user_id":527,"name":"blessed","steam_id":76561198060507425,"connected_time":459000000000,"state":"active","ping":73},{"user_id":498,"name":"KevCraft","steam_id":76561199000622939,"connected_time":3504000000000,"state":"active","ping":59},{"user_id":510,"name":"Polpetta777","steam_id":76561198044331477,"connected_time":2266000000000,"state":"active","ping":61},{"user_id":484,"name":"c.a.m.e.l","steam_id":76561199033087225,"connected_time":4351000000000,"state":"active","ping":81},{"user_id":506,"name":"hazel","steam_id":76561198447244031,"connected_time":2656000000000,"state":"active","ping":114},{"user_id":533,"name":"Stormy 2pointO","steam_id":76561198127638432,"connected_time":230000000000,"state":"active","ping":48}]},{"server_id":38,"name":"Uncletopia | Chicago | 7 | Stopwatch Beta","name_short":"chi-7","host":"chi-2.us.uncletopia.com","port":27035,"enabled":true,"region":"us-central","cc":"us","latitude":41.881832,"longitude":-87.62318,"reserved":0,"last_update":"0001-01-01T00:00:00Z","name_a2s":"Uncletopia | Chicago | 7 | Stopwatch Beta","protocol":17,"map":"workshop/koth_bagel_rc5.ugc2514036946","folder":"tf","game":"Team Fortress","app_id":440,"player_count":0,"max_players":24,"Bots":0,"server_type":"Dedicated","server_os":"Linux","password":true,"vac":true,"version":"7742253","steam_id":85568392924866364,"keywords":["cp","nocrits","nodmgspread","uncletopia"],"game_id":440,"stv_port":27036,"stv_name":"Uncletopia | Chicago | 7 | Stopwatch Beta | STV","players":null},{"server_id":39,"name":"Uncletopia | Chicago | 8 | Community","name_short":"chi-8","host":"chi-2.us.uncletopia.com","port":27045,"enabled":true,"region":"us-central","cc":"us","latitude":41.881832,"longitude":-87.62318,"reserved":0,"last_update":"0001-01-01T00:00:00Z","name_a2s":"Uncletopia | Chicago | 8 | Community","protocol":17,"map":"koth_lakeside_final","folder":"tf","game":"Team Fortress","app_id":440,"player_count":1,"max_players":24,"Bots":0,"server_type":"Dedicated","server_os":"Linux","password":true,"vac":true,"version":"7742253","steam_id":85568392924866365,"keywords":["cp","nocrits","nodmgspread","uncletopia"],"game_id":440,"stv_port":27046,"stv_name":"Uncletopia | Chicago | 8 | Community | STV","players":[{"user_id":6,"name":"chill","steam_id":76561198982840251,"connected_time":137000000000,"state":"active","ping":60}]},{"server_id":8,"name":"Uncletopia | Dallas | 1 | All Maps","name_short":"dal-1","host":"dal-1.us.uncletopia.com","port":27015,"enabled":true,"region":"us-central","cc":"us","latitude":32.779167,"longitude":-96.80889,"reserved":0,"last_update":"0001-01-01T00:00:00Z","name_a2s":"Uncletopia | Dallas | 1 | All Maps","protocol":17,"map":"pl_swiftwater_final1","folder":"tf","game":"Team Fortress","app_id":440,"player_count":24,"max_players":24,"Bots":0,"server_type":"Dedicated","server_os":"Linux","password":true,"vac":true,"version":"7742253","steam_id":85568392924469986,"keywords":["nocrits","nodmgspread","payload","uncletopia"],"game_id":440,"stv_port":27016,"stv_name":"Uncletopia | Dallas | 1 | All Maps | STV","players":[{"user_id":372,"name":"FG7","steam_id":76561198381197197,"connected_time":2316000000000,"state":"active","ping":110},{"user_id":403,"name":"Shoop!","steam_id":76561198960010297,"connected_time":118000000000,"state":"active","ping":61},{"user_id":389,"name":"drugsmoker117289","steam_id":76561198079009899,"connected_time":1278000000000,"state":"active","ping":60},{"user_id":370,"name":"survivalist bubbie","steam_id":76561198860460013,"connected_time":2319000000000,"state":"active","ping":75},{"user_id":375,"name":"survivalist keeda","steam_id":76561198277979851,"connected_time":1928000000000,"state":"active","ping":122},{"user_id":410,"name":"Emka","steam_id":76561198203357580,"connected_time":17000000000,"state":"spawning","ping":55},{"user_id":349,"name":"Rat Smacker","steam_id":76561199090197628,"connected_time":4109000000000,"state":"active","ping":65},{"user_id":371,"name":"Va1lentine","steam_id":76561198216281649,"connected_time":2318000000000,"state":"active","ping":95},{"user_id":387,"name":"The Krinkler","steam_id":76561198020308956,"connected_time":1380000000000,"state":"active","ping":75},{"user_id":401,"name":"chunkysquare","steam_id":76561199076468383,"connected_time":162000000000,"state":"active","ping":87},{"user_id":350,"name":"Damian0gre","steam_id":76561197970831355,"connected_time":4037000000000,"state":"active","ping":50},{"user_id":373,"name":"Zen Skye","steam_id":76561198114452552,"connected_time":2286000000000,"state":"active","ping":84},{"user_id":402,"name":"SHADOW (he/him)","steam_id":76561198207768148,"connected_time":160000000000,"state":"active","ping":101},{"user_id":392,"name":"Ground Control to Majortom","steam_id":76561198065589126,"connected_time":1219000000000,"state":"active","ping":78},{"user_id":405,"name":"+","steam_id":76561198262422184,"connected_time":73000000000,"state":"active","ping":45},{"user_id":396,"name":"Bamvie","steam_id":76561198880489665,"connected_time":985000000000,"state":"active","ping":35},{"user_id":388,"name":"ScaredyCat","steam_id":76561198799338137,"connected_time":1374000000000,"state":"active","ping":77},{"user_id":406,"name":"Mr. Cheesey","steam_id":76561198153462183,"connected_time":71000000000,"state":"spawning","ping":87},{"user_id":407,"name":"Ramdaram","steam_id":76561198314381849,"connected_time":69000000000,"state":"active","ping":90},{"user_id":301,"name":"intense radish","steam_id":76561199061038624,"connected_time":8508000000000,"state":"active","ping":63},{"user_id":408,"name":"RerophantGreen","steam_id":76561198293286670,"connected_time":52000000000,"state":"spawning","ping":101},{"user_id":383,"name":"Bubba","steam_id":76561197963726153,"connected_time":1578000000000,"state":"active","ping":86},{"user_id":395,"name":"playa","steam_id":76561199245670274,"connected_time":1117000000000,"state":"active","ping":77},{"user_id":409,"name":"kosher salt","steam_id":76561198171099271,"connected_time":51000000000,"state":"active","ping":87}]},{"server_id":108,"name":"Uncletopia | Dallas | 2 | All Maps","name_short":"dal-2","host":"dal-1.us.uncletopia.com","port":27025,"enabled":true,"region":"us-central","cc":"us","latitude":32.779167,"longitude":-96.80889,"reserved":0,"last_update":"0001-01-01T00:00:00Z","name_a2s":"Uncletopia | Dallas | 2 | All Maps","protocol":17,"map":"cp_granary","folder":"tf","game":"Team Fortress","app_id":440,"player_count":24,"max_players":24,"Bots":0,"server_type":"Dedicated","server_os":"Linux","password":true,"vac":true,"version":"7742253","steam_id":85568392924469988,"keywords":["cp","nocrits","nodmgspread","uncletopia"],"game_id":440,"stv_port":27026,"stv_name":"Uncletopia | Dallas | 2 | All Maps | STV","players":[{"user_id":456,"name":"coal","steam_id":76561198027252280,"connected_time":599000000000,"state":"active","ping":62},{"user_id":421,"name":"Carsen","steam_id":76561198225481404,"connected_time":3419000000000,"state":"active","ping":88},{"user_id":422,"name":"Elias","steam_id":76561198106431732,"connected_time":3405000000000,"state":"active","ping":75},{"user_id":448,"name":"sex haver (with men)","steam_id":76561198097160898,"connected_time":1398000000000,"state":"active","ping":59},{"user_id":458,"name":"BigBubble42","steam_id":76561198136286123,"connected_time":454000000000,"state":"active","ping":31},{"user_id":427,"name":"Ferguson","steam_id":76561198121349387,"connected_time":2275000000000,"state":"active","ping":55},{"user_id":437,"name":"Typical Gentleman","steam_id":76561199229771413,"connected_time":1632000000000,"state":"active","ping":95},{"user_id":459,"name":"Sanic_Bum","steam_id":76561198094179822,"connected_time":450000000000,"state":"active","ping":75},{"user_id":438,"name":"remedu","steam_id":76561198005152587,"connected_time":1632000000000,"state":"active","ping":45},{"user_id":460,"name":"Roxinabox","steam_id":76561198307329984,"connected_time":407000000000,"state":"active","ping":68},{"user_id":455,"name":"Ctrl And F4","steam_id":76561199367935846,"connected_time":640000000000,"state":"active","ping":69},{"user_id":414,"name":"mocha","steam_id":76561198825658971,"connected_time":3895000000000,"state":"active","ping":76},{"user_id":434,"name":"Rendoas","steam_id":76561198002105259,"connected_time":1781000000000,"state":"active","ping":48},{"user_id":461,"name":"shotgun king has a knife now","steam_id":76561199233433896,"connected_time":389000000000,"state":"active","ping":89},{"user_id":415,"name":"「SHIRO」 シロ","steam_id":76561198079198618,"connected_time":3864000000000,"state":"active","ping":181},{"user_id":441,"name":"tragic","steam_id":76561198024043469,"connected_time":1515000000000,"state":"active","ping":76},{"user_id":443,"name":"Char Aznable","steam_id":76561198041630663,"connected_time":1497000000000,"state":"active","ping":70},{"user_id":424,"name":"Emperorsauce","steam_id":76561199212336335,"connected_time":2625000000000,"state":"active","ping":67},{"user_id":374,"name":"Rhutebeer","steam_id":76561198018302761,"connected_time":7307000000000,"state":"active","ping":79},{"user_id":444,"name":"skrt","steam_id":76561198233984300,"connected_time":1487000000000,"state":"active","ping":74},{"user_id":462,"name":"The destroyer of foreskin","steam_id":76561198135275966,"connected_time":212000000000,"state":"active","ping":76},{"user_id":445,"name":"real goblin videos","steam_id":76561198119536224,"connected_time":1480000000000,"state":"active","ping":77},{"user_id":463,"name":"Mr. Bixby","steam_id":76561198868839264,"connected_time":211000000000,"state":"active","ping":68},{"user_id":452,"name":"Texan #1","steam_id":76561199016285746,"connected_time":816000000000,"state":"active","ping":85}]},{"server_id":5,"name":"Uncletopia | Frankfurt | 1 | All Maps","name_short":"frk-1","host":"frk-1.de.uncletopia.com","port":27015,"enabled":true,"region":"eu","cc":"de","latitude":50.110924,"longitude":8.682127,"reserved":0,"last_update":"0001-01-01T00:00:00Z","name_a2s":"Uncletopia | Frankfurt | 1 | All Maps","protocol":17,"map":"pl_borneo","folder":"tf","game":"Team Fortress","app_id":440,"player_count":21,"max_players":24,"Bots":0,"server_type":"Dedicated","server_os":"Linux","password":true,"vac":true,"version":"7742253","steam_id":85568392924469989,"keywords":["nocrits","nodmgspread","payload","uncletopia"],"game_id":440,"stv_port":27016,"stv_name":"Uncletopia | Frankfurt | 1 | All Maps | STV","players":[{"user_id":847,"name":"Soggy.burrito14","steam_id":76561198066249669,"connected_time":156000000000,"state":"active","ping":138},{"user_id":822,"name":"The Ghost Of Siberian | #FIXTF2","steam_id":76561198183368329,"connected_time":1567000000000,"state":"active","ping":104},{"user_id":823,"name":"AsuX","steam_id":76561197990333289,"connected_time":1495000000000,"state":"active","ping":61},{"user_id":841,"name":"Waffel","steam_id":76561198137729291,"connected_time":739000000000,"state":"active","ping":89},{"user_id":794,"name":"volatility.","steam_id":76561198130017335,"connected_time":3437000000000,"state":"active","ping":61},{"user_id":824,"name":"proph","steam_id":76561197998803950,"connected_time":1494000000000,"state":"active","ping":54},{"user_id":843,"name":"Infantile Pillock","steam_id":76561198283851362,"connected_time":654000000000,"state":"active","ping":61},{"user_id":812,"name":"Caelestis","steam_id":76561198170017997,"connected_time":2126000000000,"state":"active","ping":80},{"user_id":792,"name":"Talent","steam_id":76561198153880354,"connected_time":3551000000000,"state":"active","ping":60},{"user_id":813,"name":"NayrMcDrd","steam_id":76561199013184576,"connected_time":2126000000000,"state":"active","ping":73},{"user_id":826,"name":"LionKing","steam_id":76561198023399545,"connected_time":1471000000000,"state":"active","ping":48},{"user_id":695,"name":"alex","steam_id":76561199193938910,"connected_time":11284000000000,"state":"active","ping":80},{"user_id":844,"name":"etc","steam_id":76561197998394797,"connected_time":636000000000,"state":"active","ping":53},{"user_id":798,"name":"❅✮nurse✮❅ lft 6s","steam_id":76561198204505424,"connected_time":3261000000000,"state":"active","ping":85},{"user_id":839,"name":"Steen","steam_id":76561198122992510,"connected_time":916000000000,"state":"active","ping":45},{"user_id":815,"name":"xbox360noscope","steam_id":76561198029873185,"connected_time":2072000000000,"state":"active","ping":59},{"user_id":816,"name":"No, Why?","steam_id":76561198888755969,"connected_time":2007000000000,"state":"active","ping":79},{"user_id":849,"name":"cslevi","steam_id":76561198142858923,"connected_time":56000000000,"state":"active","ping":64},{"user_id":846,"name":"lowdash","steam_id":76561198327827635,"connected_time":298000000000,"state":"active","ping":72},{"user_id":845,"name":"K1nG","steam_id":76561198130134788,"connected_time":619000000000,"state":"active","ping":50},{"user_id":832,"name":"Nnyllazxz","steam_id":76561198247797436,"connected_time":1350000000000,"state":"active","ping":146}]},{"server_id":110,"name":"Uncletopia | Frankfurt | 2 | All Maps","name_short":"frk-2","host":"frk-1.de.uncletopia.com","port":27025,"enabled":true,"region":"eu","cc":"de","latitude":50.110924,"longitude":8.682127,"reserved":0,"last_update":"0001-01-01T00:00:00Z","name_a2s":"Uncletopia | Frankfurt | 2 | All Maps","protocol":17,"map":"pl_upward","folder":"tf","game":"Team Fortress","app_id":440,"player_count":0,"max_players":24,"Bots":0,"server_type":"Dedicated","server_os":"Linux","password":true,"vac":true,"version":"7742253","steam_id":85568392924469990,"keywords":["nocrits","nodmgspread","payload","uncletopia"],"game_id":440,"stv_port":27026,"stv_name":"Uncletopia | Frankfurt | 2 | All Maps | STV","players":null},{"server_id":308,"name":"Uncletopia | Frankfurt | 3 | All Maps","name_short":"frk-3","host":"frk-1.de.uncletopia.com","port":27035,"enabled":true,"region":"eu","cc":"de","latitude":50.110924,"longitude":8.682127,"reserved":0,"last_update":"0001-01-01T00:00:00Z","name_a2s":"Uncletopia | Frankfurt | 3 | All Maps","protocol":17,"map":"koth_viaduct","folder":"tf","game":"Team Fortress","app_id":440,"player_count":0,"max_players":24,"Bots":0,"server_type":"Dedicated","server_os":"Linux","password":true,"vac":true,"version":"7742253","steam_id":85568392924504274,"keywords":["cp","nocrits","nodmgspread","uncletopia"],"game_id":440,"stv_port":27036,"stv_name":"Uncletopia | Frankfurt | 3 | All Maps | STV","players":null},{"server_id":309,"name":"Uncletopia | Frankfurt | 4 | All Maps","name_short":"frk-4","host":"frk-1.de.uncletopia.com","port":27045,"enabled":true,"region":"eu","cc":"de","latitude":50.110924,"longitude":8.682127,"reserved":0,"last_update":"0001-01-01T00:00:00Z","name_a2s":"Uncletopia | Frankfurt | 4 | All Maps","protocol":17,"map":"pl_upward","folder":"tf","game":"Team Fortress","app_id":440,"player_count":8,"max_players":24,"Bots":0,"server_type":"Dedicated","server_os":"Linux","password":true,"vac":true,"version":"7742253","steam_id":85568392924504275,"keywords":["nocrits","nodmgspread","payload","uncletopia"],"game_id":440,"stv_port":27046,"stv_name":"Uncletopia | Frankfurt | 4 | All Maps | STV","players":[{"user_id":893,"name":"Dr Sex","steam_id":76561198029044617,"connected_time":2894000000000,"state":"active","ping":60},{"user_id":922,"name":"D *","steam_id":76561198086304421,"connected_time":754000000000,"state":"active","ping":72},{"user_id":925,"name":"Human Rights","steam_id":76561198102420849,"connected_time":513000000000,"state":"active","ping":54},{"user_id":862,"name":"Milca_11","steam_id":76561198848650365,"connected_time":4707000000000,"state":"active","ping":99},{"user_id":924,"name":"...jla","steam_id":76561198052435481,"connected_time":584000000000,"state":"active","ping":53},{"user_id":849,"name":"Lazulura","steam_id":76561198103569919,"connected_time":5465000000000,"state":"active","ping":86},{"user_id":895,"name":"pezza","steam_id":76561197995173247,"connected_time":2573000000000,"state":"active","ping":60},{"user_id":879,"name":"i n n o","steam_id":76561199230689289,"connected_time":3565000000000,"state":"active","ping":68}]},{"server_id":310,"name":"Uncletopia | Frankfurt | 5 | All Maps","name_short":"frk-5","host":"frk-1.de.uncletopia.com","port":27055,"enabled":true,"region":"eu","cc":"de","latitude":50.110924,"longitude":8.682127,"reserved":0,"last_update":"0001-01-01T00:00:00Z","name_a2s":"Uncletopia | Frankfurt | 5 | All Maps","protocol":17,"map":"pl_badwater","folder":"tf","game":"Team Fortress","app_id":440,"player_count":0,"max_players":24,"Bots":0,"server_type":"Dedicated","server_os":"Linux","password":true,"vac":true,"version":"7742253","steam_id":85568392924504277,"keywords":["nocrits","nodmgspread","payload","uncletopia"],"game_id":440,"stv_port":27056,"stv_name":"Uncletopia | Frankfurt | 5 | All Maps | STV","players":null},{"server_id":311,"name":"Uncletopia | Frankfurt | 6 | All Maps","name_short":"frk-6","host":"frk-1.de.uncletopia.com","port":27065,"enabled":true,"region":"eu","cc":"de","latitude":50.110924,"longitude":8.682127,"reserved":0,"last_update":"0001-01-01T00:00:00Z","name_a2s":"Uncletopia | Frankfurt | 6 | All Maps","protocol":17,"map":"pl_upward","folder":"tf","game":"Team Fortress","app_id":440,"player_count":0,"max_players":24,"Bots":0,"server_type":"Dedicated","server_os":"Linux","password":true,"vac":true,"version":"7742253","steam_id":85568392924504278,"keywords":["nocrits","nodmgspread","payload","uncletopia"],"game_id":440,"stv_port":27066,"stv_name":"Uncletopia | Frankfurt | 6 | All Maps | STV","players":null},{"server_id":23,"name":"Uncletopia | Frankfurt | 7 | Stopwatch Beta","name_short":"frk-7","host":"frk-1.de.uncletopia.com","port":27075,"enabled":true,"region":"eu","cc":"de","latitude":50.110924,"longitude":8.682127,"reserved":0,"last_update":"0001-01-01T00:00:00Z","name_a2s":"Uncletopia | Frankfurt | 7 | Stopwatch Beta","protocol":17,"map":"workshop/pl_barnblitz_pro7.ugc582280235","folder":"tf","game":"Team Fortress","app_id":440,"player_count":0,"max_players":24,"Bots":0,"server_type":"Dedicated","server_os":"Linux","password":true,"vac":true,"version":"7742253","steam_id":85568392924742827,"keywords":["nocrits","nodmgspread","payload","uncletopia"],"game_id":440,"stv_port":27076,"stv_name":"Uncletopia | Frankfurt | 7 | Stopwatch Beta | STV","players":null},{"server_id":24,"name":"Uncletopia | Frankfurt | 8 | Community","name_short":"frk-8","host":"frk-1.de.uncletopia.com","port":27085,"enabled":true,"region":"eu","cc":"de","latitude":50.110924,"longitude":8.682127,"reserved":0,"last_update":"0001-01-01T00:00:00Z","name_a2s":"Uncletopia | Frankfurt | 8 | Community","protocol":17,"map":"workshop/koth_bagel_rc5.ugc2514036946","folder":"tf","game":"Team Fortress","app_id":440,"player_count":0,"max_players":24,"Bots":0,"server_type":"Dedicated","server_os":"Linux","password":true,"vac":true,"version":"7742253","steam_id":85568392924742828,"keywords":["cp","nocrits","nodmgspread","uncletopia"],"game_id":440,"stv_port":27086,"stv_name":"Uncletopia | Frankfurt | 8 | Community | STV","players":null},{"server_id":202,"name":"Uncletopia | Hong Kong | 1 | All Maps","name_short":"hgk-1","host":"hgk-1.hk.uncletopia.com","port":27015,"enabled":true,"region":"asia","cc":"hk","latitude":22.302711,"longitude":114.177216,"reserved":0,"last_update":"0001-01-01T00:00:00Z","name_a2s":"Uncletopia | Hong Kong | 1 | All Maps","protocol":17,"map":"cp_dustbowl","folder":"tf","game":"Team Fortress","app_id":440,"player_count":0,"max_players":24,"Bots":0,"server_type":"Dedicated","server_os":"Linux","password":true,"vac":true,"version":"7742253","steam_id":85568392924494504,"keywords":["cp","nocrits","nodmgspread","uncletopia"],"game_id":440,"stv_port":27016,"stv_name":"Uncletopia | Hong Kong | 1 | All Maps | STV","players":null},{"server_id":1,"name":"Uncletopia | Los Angeles | 1 | All Maps","name_short":"lax-1","host":"lax-1.us.uncletopia.com","port":27015,"enabled":true,"region":"us-west","cc":"us","latitude":33.94279,"longitude":-118.41004,"reserved":0,"last_update":"0001-01-01T00:00:00Z","name_a2s":"Uncletopia | Los Angeles | 1 | All Maps","protocol":17,"map":"pl_pier","folder":"tf","game":"Team Fortress","app_id":440,"player_count":24,"max_players":24,"Bots":0,"server_type":"Dedicated","server_os":"Linux","password":true,"vac":true,"version":"7742253","steam_id":85568392924469991,"keywords":["nocrits","nodmgspread","payload","uncletopia"],"game_id":440,"stv_port":27016,"stv_name":"Uncletopia | Los Angeles | 1 | All Maps | STV","players":[{"user_id":263,"name":"Gazelle","steam_id":76561198336397088,"connected_time":240000000000,"state":"active","ping":58},{"user_id":262,"name":"Nintendo DSi XL","steam_id":76561198280682611,"connected_time":354000000000,"state":"active","ping":45},{"user_id":222,"name":"Cat Pog","steam_id":76561198304243946,"connected_time":3284000000000,"state":"active","ping":71},{"user_id":251,"name":"[DATS➡] Sugar Meowth","steam_id":76561197995251793,"connected_time":908000000000,"state":"active","ping":75},{"user_id":264,"name":"Jax O'Gaytor","steam_id":76561198288922168,"connected_time":173000000000,"state":"active","ping":65},{"user_id":265,"name":"Strawburrr","steam_id":76561199208694620,"connected_time":110000000000,"state":"active","ping":109},{"user_id":226,"name":"Goonther","steam_id":76561198170128009,"connected_time":2998000000000,"state":"active","ping":62},{"user_id":260,"name":"ShadowPunk","steam_id":76561198202832124,"connected_time":401000000000,"state":"active","ping":91},{"user_id":244,"name":"WillsJit","steam_id":76561198064191759,"connected_time":1453000000000,"state":"active","ping":68},{"user_id":252,"name":"Len","steam_id":76561199141913673,"connected_time":838000000000,"state":"active","ping":36},{"user_id":248,"name":":D","steam_id":76561198082011283,"connected_time":1067000000000,"state":"active","ping":54},{"user_id":228,"name":"yeah","steam_id":76561198334059206,"connected_time":2787000000000,"state":"active","ping":59},{"user_id":239,"name":"Spazzls","steam_id":76561198075224361,"connected_time":2021000000000,"state":"active","ping":108},{"user_id":206,"name":"☆Jolt☆","steam_id":76561198053917008,"connected_time":3914000000000,"state":"active","ping":135},{"user_id":233,"name":"Hindmost","steam_id":76561199081837220,"connected_time":2415000000000,"state":"active","ping":103},{"user_id":232,"name":"Frazzer","steam_id":76561198088679707,"connected_time":2552000000000,"state":"active","ping":45},{"user_id":253,"name":"gaurav bring the soup","steam_id":76561198059390980,"connected_time":818000000000,"state":"active","ping":45},{"user_id":230,"name":"Delimeat","steam_id":76561198043824595,"connected_time":2611000000000,"state":"active","ping":46},{"user_id":254,"name":"CornLover63","steam_id":76561198083068428,"connected_time":793000000000,"state":"active","ping":86},{"user_id":255,"name":"Switz","steam_id":76561198278994676,"connected_time":775000000000,"state":"active","ping":66},{"user_id":241,"name":"HEFTY HOG","steam_id":76561198079923652,"connected_time":1954000000000,"state":"active","ping":91},{"user_id":256,"name":"Back with the milk","steam_id":76561199020105501,"connected_time":675000000000,"state":"active","ping":115},{"user_id":249,"name":"Shitty_Wizard","steam_id":76561198047889979,"connected_time":1063000000000,"state":"active","ping":82},{"user_id":245,"name":"Dubbie","steam_id":76561199067557726,"connected_time":1433000000000,"state":"active","ping":56}]},{"server_id":112,"name":"Uncletopia | Los Angeles | 2 | All Maps","name_short":"lax-2","host":"lax-1.us.uncletopia.com","port":27025,"enabled":true,"region":"us-west","cc":"us","latitude":33.94279,"longitude":-118.41004,"reserved":0,"last_update":"0001-01-01T00:00:00Z","name_a2s":"Uncletopia | Los Angeles | 2 | All Maps","protocol":17,"map":"pl_barnblitz","folder":"tf","game":"Team Fortress","app_id":440,"player_count":20,"max_players":24,"Bots":0,"server_type":"Dedicated","server_os":"Linux","password":true,"vac":true,"version":"7742253","steam_id":85568392924469992,"keywords":["nocrits","nodmgspread","payload","uncletopia"],"game_id":440,"stv_port":27026,"stv_name":"Uncletopia | Los Angeles | 2 | All Maps | STV","players":[{"user_id":359,"name":"Walter White","steam_id":76561198265079595,"connected_time":2513000000000,"state":"connecting","ping":113},{"user_id":382,"name":"FellowCum","steam_id":76561198809618726,"connected_time":582000000000,"state":"connecting","ping":55},{"user_id":383,"name":"eggnog","steam_id":76561198439899407,"connected_time":424000000000,"state":"connecting","ping":96},{"user_id":384,"name":"Chief Beef","steam_id":76561198110682938,"connected_time":369000000000,"state":"connecting","ping":100},{"user_id":352,"name":"Marc Antony","steam_id":76561198011366517,"connected_time":2889000000000,"state":"connecting","ping":116},{"user_id":360,"name":"LeFunnyMan","steam_id":76561199081645289,"connected_time":2239000000000,"state":"connecting","ping":101},{"user_id":361,"name":"Open Mailbox","steam_id":76561198051933580,"connected_time":2139000000000,"state":"connecting","ping":142},{"user_id":340,"name":"spot (paradise edition)","steam_id":76561198151135298,"connected_time":3701000000000,"state":"connecting","ping":42},{"user_id":385,"name":"lana_del_rey.com","steam_id":76561198172447621,"connected_time":353000000000,"state":"connecting","ping":71},{"user_id":386,"name":"chump change","steam_id":76561198172288783,"connected_time":294000000000,"state":"connecting","ping":81},{"user_id":311,"name":"Cute Gatito","steam_id":76561198351147780,"connected_time":5509000000000,"state":"connecting","ping":52},{"user_id":349,"name":"ThtGyVrThr","steam_id":76561198805852870,"connected_time":3091000000000,"state":"connecting","ping":89},{"user_id":379,"name":"TheBrocklobster","steam_id":76561198039682984,"connected_time":1007000000000,"state":"spawning","ping":63},{"user_id":375,"name":"yellow","steam_id":76561198366474647,"connected_time":1596000000000,"state":"connecting","ping":60},{"user_id":380,"name":"Dank Ghost","steam_id":76561198400690889,"connected_time":790000000000,"state":"connecting","ping":131},{"user_id":365,"name":"MarshallMellows","steam_id":76561198231561020,"connected_time":1991000000000,"state":"spawning","ping":79},{"user_id":377,"name":"smeasly","steam_id":76561198028718812,"connected_time":1319000000000,"state":"connecting","ping":89},{"user_id":367,"name":"boku no upgrade teleporter","steam_id":76561198054260599,"connected_time":1974000000000,"state":"connecting","ping":89},{"user_id":368,"name":"conductor i have a problem","steam_id":76561198140231083,"connected_time":1924000000000,"state":"connecting","ping":93}]},{"server_id":324,"name":"Uncletopia | Los Angeles | 3 | All Maps","name_short":"lax-3","host":"lax-1.us.uncletopia.com","port":27035,"enabled":true,"region":"us-west","cc":"us","latitude":33.94279,"longitude":-118.41004,"reserved":0,"last_update":"0001-01-01T00:00:00Z","name_a2s":"Uncletopia | Los Angeles | 3 | All Maps","protocol":17,"map":"koth_suijin","folder":"tf","game":"Team Fortress","app_id":440,"player_count":3,"max_players":24,"Bots":0,"server_type":"Dedicated","server_os":"Linux","password":true,"vac":true,"version":"7742253","steam_id":85568392924510198,"keywords":["cp","nocrits","nodmgspread","uncletopia"],"game_id":440,"stv_port":27036,"stv_name":"Uncletopia | Los Angeles | 3 | All Maps | STV","players":[{"user_id":17,"name":"Grandpa","steam_id":76561199176185327,"connected_time":180000000000,"state":"active","ping":110},{"user_id":18,"name":"demolondon the thrice","steam_id":76561198936116083,"connected_time":147000000000,"state":"active","ping":98},{"user_id":19,"name":"Last_tac0_standing","steam_id":76561199439832438,"connected_time":108000000000,"state":"active","ping":129}]},{"server_id":25,"name":"Uncletopia | Los Angeles | 4 | Stopwatch Beta","name_short":"lax-4","host":"lax-1.us.uncletopia.com","port":27045,"enabled":true,"region":"us-west","cc":"us","latitude":33.94279,"longitude":-118.41004,"reserved":0,"last_update":"0001-01-01T00:00:00Z","name_a2s":"Uncletopia | Los Angeles | 4 | Stopwatch Beta","protocol":17,"map":"workshop/koth_bagel_rc5.ugc2514036946","folder":"tf","game":"Team Fortress","app_id":440,"player_count":0,"max_players":24,"Bots":0,"server_type":"Dedicated","server_os":"Linux","password":true,"vac":true,"version":"7742253","steam_id":85568392924510199,"keywords":["cp","nocrits","nodmgspread","uncletopia"],"game_id":440,"stv_port":27046,"stv_name":"Uncletopia | Los Angeles | 4 | Stopwatch Beta | STV","players":null},{"server_id":11,"name":"Uncletopia | London | 1 | All Maps","name_short":"lon-1","host":"lon-1.uk.uncletopia.com","port":27015,"enabled":true,"region":"eu","cc":"gb","latitude":51.509865,"longitude":-0.118092,"reserved":0,"last_update":"0001-01-01T00:00:00Z","name_a2s":"Uncletopia | London | 1 | All Maps","protocol":17,"map":"pl_frontier_final","folder":"tf","game":"Team Fortress","app_id":440,"player_count":23,"max_players":24,"Bots":0,"server_type":"Dedicated","server_os":"Linux","password":true,"vac":true,"version":"7742253","steam_id":85568392924367362,"keywords":["nocrits","nodmgspread","payload","uncletopia"],"game_id":440,"stv_port":27016,"stv_name":"Uncletopia | London | 1 | All Maps | STV","players":[{"user_id":756,"name":"Chilchang Billing","steam_id":76561197993300020,"connected_time":2640000000000,"state":"active","ping":74},{"user_id":760,"name":"Mafour","steam_id":76561197994581337,"connected_time":2196000000000,"state":"active","ping":88},{"user_id":773,"name":"Smoogle McDoogle","steam_id":76561198138121795,"connected_time":831000000000,"state":"active","ping":39},{"user_id":764,"name":"NotNecessary","steam_id":76561199451938365,"connected_time":1469000000000,"state":"active","ping":46},{"user_id":777,"name":"nothing to smile about","steam_id":76561199062586342,"connected_time":382000000000,"state":"active","ping":65},{"user_id":731,"name":"gnarly business","steam_id":76561198832688767,"connected_time":4844000000000,"state":"active","ping":48},{"user_id":734,"name":"Unexpected","steam_id":76561198944781914,"connected_time":4419000000000,"state":"active","ping":79},{"user_id":762,"name":"Not Jessie","steam_id":76561198025129721,"connected_time":1866000000000,"state":"active","ping":27},{"user_id":767,"name":"Majsco","steam_id":76561197988710485,"connected_time":1024000000000,"state":"active","ping":46},{"user_id":776,"name":"Zigguski","steam_id":76561198022990016,"connected_time":669000000000,"state":"active","ping":49},{"user_id":748,"name":"Brugvald Bronzebeard","steam_id":76561198119220824,"connected_time":3779000000000,"state":"active","ping":46},{"user_id":742,"name":"donal rump","steam_id":76561198136239861,"connected_time":3957000000000,"state":"active","ping":34},{"user_id":771,"name":"Teffg","steam_id":76561198274386094,"connected_time":982000000000,"state":"active","ping":87},{"user_id":717,"name":"Real (Real)","steam_id":76561198323425034,"connected_time":5948000000000,"state":"active","ping":74},{"user_id":753,"name":"Tsuruko","steam_id":76561198063618114,"connected_time":3181000000000,"state":"active","ping":71},{"user_id":775,"name":"heff","steam_id":76561198121744206,"connected_time":734000000000,"state":"active","ping":40},{"user_id":765,"name":"2Fort Landlord","steam_id":76561198012350923,"connected_time":1469000000000,"state":"active","ping":74},{"user_id":738,"name":"Sneaky boi","steam_id":76561199195985387,"connected_time":4131000000000,"state":"active","ping":87},{"user_id":752,"name":"Economic crisis","steam_id":76561198063562843,"connected_time":3256000000000,"state":"active","ping":60},{"user_id":758,"name":"SlonkyDonky","steam_id":76561198425787528,"connected_time":2487000000000,"state":"active","ping":51},{"user_id":749,"name":"Seruna","steam_id":76561198045070476,"connected_time":3758000000000,"state":"active","ping":66},{"user_id":750,"name":"Weezer Enjoyer","steam_id":76561199064771019,"connected_time":3664000000000,"state":"active","ping":59},{"user_id":772,"name":"Rain","steam_id":76561198186993269,"connected_time":919000000000,"state":"active","ping":54}]},{"server_id":114,"name":"Uncletopia | London | 2 | All Maps","name_short":"lon-2","host":"lon-1.uk.uncletopia.com","port":27025,"enabled":true,"region":"eu","cc":"gb","latitude":51.509865,"longitude":-0.118092,"reserved":0,"last_update":"0001-01-01T00:00:00Z","name_a2s":"Uncletopia | London | 2 | All Maps","protocol":17,"map":"pl_swiftwater_final1","folder":"tf","game":"Team Fortress","app_id":440,"player_count":24,"max_players":24,"Bots":0,"server_type":"Dedicated","server_os":"Linux","password":true,"vac":true,"version":"7742253","steam_id":85568392924470941,"keywords":["nocrits","nodmgspread","payload","uncletopia"],"game_id":440,"stv_port":27026,"stv_name":"Uncletopia | London | 2 | All Maps | STV","players":[{"user_id":849,"name":"cadetto","steam_id":76561199233979726,"connected_time":8537000000000,"state":"active","ping":90},{"user_id":937,"name":"Echo of Abyss","steam_id":76561198981841782,"connected_time":1457000000000,"state":"active","ping":68},{"user_id":947,"name":"dec","steam_id":76561198009660168,"connected_time":1030000000000,"state":"active","ping":54},{"user_id":950,"name":"jams","steam_id":76561198010380786,"connected_time":726000000000,"state":"active","ping":44},{"user_id":948,"name":"Thebluetotodile","steam_id":76561198377832877,"connected_time":1010000000000,"state":"active","ping":65},{"user_id":938,"name":"chestnutflea","steam_id":76561198144268690,"connected_time":1451000000000,"state":"active","ping":47},{"user_id":961,"name":"Gmcginty","steam_id":76561198235517132,"connected_time":193000000000,"state":"active","ping":53},{"user_id":908,"name":"THE SCOUT HERE!","steam_id":76561198077283980,"connected_time":3679000000000,"state":"active","ping":53},{"user_id":931,"name":"Dee","steam_id":76561198257836694,"connected_time":1949000000000,"state":"active","ping":39},{"user_id":943,"name":"☃❆FLVRRY☃❆","steam_id":76561199072765441,"connected_time":1318000000000,"state":"active","ping":37},{"user_id":918,"name":"snowi","steam_id":76561198006502679,"connected_time":2694000000000,"state":"active","ping":61},{"user_id":951,"name":"noob","steam_id":76561198452111945,"connected_time":713000000000,"state":"active","ping":61},{"user_id":952,"name":"kay","steam_id":76561198845973327,"connected_time":712000000000,"state":"active","ping":45},{"user_id":954,"name":"Kremete","steam_id":76561198047984096,"connected_time":656000000000,"state":"active","ping":62},{"user_id":915,"name":"cinny","steam_id":76561198832112629,"connected_time":3118000000000,"state":"active","ping":86},{"user_id":953,"name":"Superiumentarius","steam_id":76561198081642249,"connected_time":708000000000,"state":"active","ping":60},{"user_id":955,"name":"Sabour","steam_id":76561197963965445,"connected_time":606000000000,"state":"active","ping":65},{"user_id":904,"name":"simn","steam_id":76561198159182269,"connected_time":4128000000000,"state":"active","ping":59},{"user_id":929,"name":"Great recession of 2008","steam_id":76561198881151562,"connected_time":2163000000000,"state":"active","ping":98},{"user_id":956,"name":"YV","steam_id":76561198147868242,"connected_time":556000000000,"state":"active","ping":57},{"user_id":959,"name":"Grand Wizard","steam_id":76561199414716848,"connected_time":226000000000,"state":"active","ping":74},{"user_id":942,"name":"Misctek","steam_id":76561199037541925,"connected_time":1335000000000,"state":"active","ping":74},{"user_id":932,"name":"Biscuitbox","steam_id":76561198448396620,"connected_time":1904000000000,"state":"active","ping":44},{"user_id":962,"name":"CiVillain","steam_id":76561198059617732,"connected_time":189000000000,"state":"active","ping":66}]},{"server_id":320,"name":"Uncletopia | London | 3 | All Maps","name_short":"lon-3","host":"lon-1.uk.uncletopia.com","port":27035,"enabled":true,"region":"eu","cc":"gb","latitude":51.509865,"longitude":-0.118092,"reserved":0,"last_update":"0001-01-01T00:00:00Z","name_a2s":"Uncletopia | London | 3 | All Maps","protocol":17,"map":"koth_cascade","folder":"tf","game":"Team Fortress","app_id":440,"player_count":0,"max_players":24,"Bots":0,"server_type":"Dedicated","server_os":"Linux","password":true,"vac":true,"version":"7742253","steam_id":85568392924510192,"keywords":["cp","nocrits","nodmgspread","uncletopia"],"game_id":440,"stv_port":27036,"stv_name":"Uncletopia | London | 3 | All Maps | STV","players":null},{"server_id":321,"name":"Uncletopia | London | 4 | All Maps","name_short":"lon-4","host":"lon-1.uk.uncletopia.com","port":27045,"enabled":true,"region":"eu","cc":"gb","latitude":51.509865,"longitude":-0.118092,"reserved":0,"last_update":"0001-01-01T00:00:00Z","name_a2s":"Uncletopia | London | 4 | All Maps","protocol":17,"map":"cp_snakewater_final1","folder":"tf","game":"Team Fortress","app_id":440,"player_count":0,"max_players":24,"Bots":0,"server_type":"Dedicated","server_os":"Linux","password":true,"vac":true,"version":"7742253","steam_id":85568392924510193,"keywords":["cp","nocrits","nodmgspread","uncletopia"],"game_id":440,"stv_port":27046,"stv_name":"Uncletopia | London | 4 | All Maps | STV","players":null},{"server_id":21,"name":"Uncletopia | London | 5 | All Maps","name_short":"lon-5","host":"lon-1.uk.uncletopia.com","port":27055,"enabled":true,"region":"eu","cc":"gb","latitude":51.509865,"longitude":-0.118092,"reserved":0,"last_update":"0001-01-01T00:00:00Z","name_a2s":"Uncletopia | London | 5 | All Maps","protocol":17,"map":"koth_lakeside_final","folder":"tf","game":"Team Fortress","app_id":440,"player_count":0,"max_players":24,"Bots":0,"server_type":"Dedicated","server_os":"Linux","password":true,"vac":true,"version":"7742253","steam_id":85568392924742829,"keywords":["cp","nocrits","nodmgspread","uncletopia"],"game_id":440,"stv_port":27056,"stv_name":"Uncletopia | London | 5 | All Maps | STV","players":null},{"server_id":22,"name":"Uncletopia | London | 6 | All Maps","name_short":"lon-6","host":"lon-1.uk.uncletopia.com","port":27065,"enabled":true,"region":"eu","cc":"gb","latitude":51.509865,"longitude":-0.118092,"reserved":0,"last_update":"0001-01-01T00:00:00Z","name_a2s":"Uncletopia | London | 6 | All Maps","protocol":17,"map":"koth_viaduct","folder":"tf","game":"Team Fortress","app_id":440,"player_count":0,"max_players":24,"Bots":0,"server_type":"Dedicated","server_os":"Linux","password":true,"vac":true,"version":"7742253","steam_id":85568392924742830,"keywords":["cp","nocrits","nodmgspread","uncletopia"],"game_id":440,"stv_port":27066,"stv_name":"Uncletopia | London | 6 | All Maps | STV","players":null},{"server_id":40,"name":"Uncletopia | London | 7 | No Payload","name_short":"lon-7","host":"lon-1.uk.uncletopia.com","port":27075,"enabled":true,"region":"eu","cc":"gb","latitude":51.509865,"longitude":-0.118092,"reserved":0,"last_update":"0001-01-01T00:00:00Z","name_a2s":"Uncletopia | London | 7 | No Payload","protocol":17,"map":"cp_metalworks","folder":"tf","game":"Team Fortress","app_id":440,"player_count":0,"max_players":24,"Bots":0,"server_type":"Dedicated","server_os":"Linux","password":true,"vac":true,"version":"7742253","steam_id":85568392924964314,"keywords":["cp","nocrits","nodmgspread","uncletopia"],"game_id":440,"stv_port":27076,"stv_name":"Uncletopia | London | 7 | No Payload | STV","players":null},{"server_id":41,"name":"Uncletopia | London | 8 | Community","name_short":"lon-8","host":"lon-1.uk.uncletopia.com","port":27085,"enabled":true,"region":"eu","cc":"gb","latitude":51.509865,"longitude":-0.118092,"reserved":0,"last_update":"0001-01-01T00:00:00Z","name_a2s":"Uncletopia | London | 8 | Community","protocol":17,"map":"workshop/koth_bagel_rc5.ugc2514036946","folder":"tf","game":"Team Fortress","app_id":440,"player_count":0,"max_players":24,"Bots":0,"server_type":"Dedicated","server_os":"Linux","password":true,"vac":true,"version":"7742253","steam_id":85568392924964315,"keywords":["cp","nocrits","nodmgspread","uncletopia"],"game_id":440,"stv_port":27086,"stv_name":"Uncletopia | London | 8 | Community | STV","players":null},{"server_id":300,"name":"Uncletopia | Montréal | 1 | All Maps","name_short":"mtl-1","host":"mtl-1.ca.uncletopia.com","port":27015,"enabled":true,"region":"us-east","cc":"ca","latitude":45.50889,"longitude":-73.56167,"reserved":0,"last_update":"0001-01-01T00:00:00Z","name_a2s":"Uncletopia | Montréal | 1 | All Maps","protocol":17,"map":"pl_borneo","folder":"tf","game":"Team Fortress","app_id":440,"player_count":23,"max_players":24,"Bots":0,"server_type":"Dedicated","server_os":"Linux","password":true,"vac":true,"version":"7742253","steam_id":85568392924500087,"keywords":["nocrits","nodmgspread","payload","uncletopia"],"game_id":440,"stv_port":27016,"stv_name":"Uncletopia | Montréal | 1 | All Maps | STV","players":[{"user_id":7,"name":"Special Needs Kajiu","steam_id":76561198060395370,"connected_time":4979000000000,"state":"active","ping":69},{"user_id":8,"name":"crimbq","steam_id":76561198055864346,"connected_time":4969000000000,"state":"active","ping":124},{"user_id":31,"name":"Jester of Darkness","steam_id":76561198102824084,"connected_time":538000000000,"state":"active","ping":102},{"user_id":32,"name":"Clebinho Xeroso","steam_id":76561198178048259,"connected_time":417000000000,"state":"active","ping":169},{"user_id":33,"name":"Chechens Spotted","steam_id":76561199028910893,"connected_time":343000000000,"state":"active","ping":87},{"user_id":13,"name":"Stuart [VidaHonrada]","steam_id":76561198033384564,"connected_time":3705000000000,"state":"active","ping":64},{"user_id":25,"name":"Dunmaglass","steam_id":76561198128928443,"connected_time":1441000000000,"state":"active","ping":65},{"user_id":34,"name":"dustbowl.hater.2003","steam_id":76561198865158742,"connected_time":337000000000,"state":"active","ping":48},{"user_id":26,"name":"Jean Deere","steam_id":76561198105101309,"connected_time":1385000000000,"state":"active","ping":67},{"user_id":27,"name":"Moose Overlord","steam_id":76561198141898814,"connected_time":1187000000000,"state":"active","ping":61},{"user_id":29,"name":"cornshot","steam_id":76561198043496387,"connected_time":849000000000,"state":"active","ping":107},{"user_id":35,"name":"JungleCat","steam_id":76561198449676149,"connected_time":258000000000,"state":"active","ping":63},{"user_id":36,"name":"Riandox","steam_id":76561198130577326,"connected_time":258000000000,"state":"active","ping":48},{"user_id":37,"name":"Qwertyioi","steam_id":76561199062151466,"connected_time":242000000000,"state":"active","ping":57},{"user_id":38,"name":"FranckyFox2468","steam_id":76561198037679126,"connected_time":229000000000,"state":"active","ping":44},{"user_id":39,"name":"Bandit","steam_id":76561198328421159,"connected_time":195000000000,"state":"active","ping":49},{"user_id":40,"name":"scarybroccoli","steam_id":76561198296440084,"connected_time":144000000000,"state":"active","ping":91},{"user_id":41,"name":"big sword","steam_id":76561198285264050,"connected_time":126000000000,"state":"active","ping":69},{"user_id":42,"name":"Luis wid a mic","steam_id":76561198349570006,"connected_time":85000000000,"state":"active","ping":47},{"user_id":43,"name":"Level 1 Crook","steam_id":76561198441098132,"connected_time":61000000000,"state":"active","ping":45},{"user_id":44,"name":"Soysneed","steam_id":76561198977949047,"connected_time":41000000000,"state":"active","ping":92},{"user_id":45,"name":"kogasira","steam_id":76561198094152516,"connected_time":37000000000,"state":"active","ping":67},{"user_id":46,"name":"Surinferior","steam_id":76561198008953177,"connected_time":12000000000,"state":"spawning","ping":87}]},{"server_id":301,"name":"Uncletopia | Montréal | 2 | All Maps","name_short":"mtl-2","host":"mtl-1.ca.uncletopia.com","port":27025,"enabled":true,"region":"us-east","cc":"ca","latitude":45.50889,"longitude":-73.56167,"reserved":0,"last_update":"0001-01-01T00:00:00Z","name_a2s":"Uncletopia | Montréal | 2 | All Maps","protocol":17,"map":"koth_highpass","folder":"tf","game":"Team Fortress","app_id":440,"player_count":0,"max_players":24,"Bots":0,"server_type":"Dedicated","server_os":"Linux","password":true,"vac":true,"version":"7742253","steam_id":85568392924500088,"keywords":["cp","nocrits","nodmgspread","uncletopia"],"game_id":440,"stv_port":27026,"stv_name":"Uncletopia | Montréal | 2 | All Maps | STV","players":null},{"server_id":302,"name":"Uncletopia | Montréal | 3 | All Maps","name_short":"mtl-3","host":"mtl-1.ca.uncletopia.com","port":27035,"enabled":true,"region":"us-east","cc":"ca","latitude":45.50889,"longitude":-73.56167,"reserved":0,"last_update":"0001-01-01T00:00:00Z","name_a2s":"Uncletopia | Montréal | 3 | All Maps","protocol":17,"map":"koth_highpass","folder":"tf","game":"Team Fortress","app_id":440,"player_count":0,"max_players":24,"Bots":0,"server_type":"Dedicated","server_os":"Linux","password":true,"vac":true,"version":"7742253","steam_id":85568392924500089,"keywords":["cp","nocrits","nodmgspread","uncletopia"],"game_id":440,"stv_port":27036,"stv_name":"Uncletopia | Montréal | 3 | All Maps | STV","players":null},{"server_id":303,"name":"Uncletopia | Montréal | 4 | No Payload","name_short":"mtl-4","host":"mtl-1.ca.uncletopia.com","port":27045,"enabled":true,"region":"us-east","cc":"ca","latitude":45.50889,"longitude":-73.56167,"reserved":0,"last_update":"0001-01-01T00:00:00Z","name_a2s":"Uncletopia | Montréal | 4 | No Payload","protocol":17,"map":"cp_snakewater_final1","folder":"tf","game":"Team Fortress","app_id":440,"player_count":0,"max_players":24,"Bots":0,"server_type":"Dedicated","server_os":"Linux","password":true,"vac":true,"version":"7742253","steam_id":85568392924500090,"keywords":["cp","nocrits","nodmgspread","uncletopia"],"game_id":440,"stv_port":27046,"stv_name":"Uncletopia | Montréal | 4 | No Payload | STV","players":null},{"server_id":13,"name":"Uncletopia | New York City | 1 | All Maps","name_short":"nyc-1","host":"nyc-1.us.uncletopia.com","port":27015,"enabled":true,"region":"us-east","cc":"us","latitude":40.73061,"longitude":-73.93524,"reserved":0,"last_update":"0001-01-01T00:00:00Z","name_a2s":"Uncletopia | New York City | 1 | All Maps","protocol":17,"map":"koth_viaduct","folder":"tf","game":"Team Fortress","app_id":440,"player_count":23,"max_players":24,"Bots":0,"server_type":"Dedicated","server_os":"Linux","password":true,"vac":true,"version":"7742253","steam_id":85568392924469993,"keywords":["cp","nocrits","nodmgspread","uncletopia"],"game_id":440,"stv_port":27016,"stv_name":"Uncletopia | New York City | 1 | All Maps | STV","players":[{"user_id":420,"name":"p00l","steam_id":76561198060142652,"connected_time":2788000000000,"state":"active","ping":51},{"user_id":414,"name":"TheBoxWizard","steam_id":76561198447992832,"connected_time":3306000000000,"state":"active","ping":40},{"user_id":375,"name":"Ballin \u0026 Can't Get Up","steam_id":76561198047394013,"connected_time":6127000000000,"state":"active","ping":61},{"user_id":437,"name":"pnapl","steam_id":76561198065895995,"connected_time":877000000000,"state":"active","ping":62},{"user_id":440,"name":"SuitedUPmon","steam_id":76561198032582983,"connected_time":214000000000,"state":"active","ping":62},{"user_id":439,"name":"Ripley","steam_id":76561198080766916,"connected_time":223000000000,"state":"active","ping":67},{"user_id":441,"name":"MitcheyHD","steam_id":76561198066489645,"connected_time":210000000000,"state":"active","ping":61},{"user_id":413,"name":"the swarm","steam_id":76561198422570099,"connected_time":3368000000000,"state":"active","ping":58},{"user_id":438,"name":"blagh","steam_id":76561198123056791,"connected_time":661000000000,"state":"active","ping":54},{"user_id":335,"name":"srv","steam_id":76561198026589960,"connected_time":8424000000000,"state":"active","ping":68},{"user_id":416,"name":"TheChickenChuck","steam_id":76561199192686708,"connected_time":3293000000000,"state":"active","ping":113},{"user_id":423,"name":"cellogamer","steam_id":76561198016937098,"connected_time":2494000000000,"state":"active","ping":49},{"user_id":429,"name":"atserc","steam_id":76561197997570349,"connected_time":1987000000000,"state":"active","ping":95},{"user_id":442,"name":"ZenkoZSprite","steam_id":76561198190132250,"connected_time":105000000000,"state":"active","ping":66},{"user_id":443,"name":"The Collective","steam_id":76561198170423483,"connected_time":5000000000,"state":"spawning","ping":77},{"user_id":436,"name":"jamal","steam_id":76561198020736672,"connected_time":1292000000000,"state":"active","ping":60},{"user_id":410,"name":"Torque","steam_id":76561197997551936,"connected_time":3501000000000,"state":"active","ping":64},{"user_id":425,"name":"Nexusthenormie","steam_id":76561198880184146,"connected_time":2409000000000,"state":"active","ping":48},{"user_id":433,"name":"Ronin Grinch","steam_id":76561198041439581,"connected_time":1384000000000,"state":"active","ping":51},{"user_id":406,"name":"Mr.Manman","steam_id":76561198826448660,"connected_time":3943000000000,"state":"active","ping":69},{"user_id":387,"name":"J.R Prime","steam_id":76561198967753173,"connected_time":5397000000000,"state":"active","ping":68},{"user_id":400,"name":"miso","steam_id":76561198038735096,"connected_time":4438000000000,"state":"active","ping":53},{"user_id":434,"name":"Laelaps","steam_id":76561198100061416,"connected_time":1381000000000,"state":"active","ping":64}]},{"server_id":14,"name":"Uncletopia | New York City | 2 | All Maps","name_short":"nyc-2","host":"nyc-1.us.uncletopia.com","port":27025,"enabled":true,"region":"us-east","cc":"us","latitude":40.73061,"longitude":-73.93524,"reserved":0,"last_update":"0001-01-01T00:00:00Z","name_a2s":"Uncletopia | New York City | 2 | All Maps","protocol":17,"map":"koth_lakeside_final","folder":"tf","game":"Team Fortress","app_id":440,"player_count":0,"max_players":24,"Bots":0,"server_type":"Dedicated","server_os":"Linux","password":true,"vac":true,"version":"7742253","steam_id":85568392924469994,"keywords":["cp","nocrits","nodmgspread","uncletopia"],"game_id":440,"stv_port":27026,"stv_name":"Uncletopia | New York City | 2 | All Maps | STV","players":null},{"server_id":15,"name":"Uncletopia | New York City | 3 | Stopwatch Beta","name_short":"nyc-3","host":"nyc-1.us.uncletopia.com","port":27035,"enabled":true,"region":"us-east","cc":"us","latitude":40.73061,"longitude":-73.93524,"reserved":0,"last_update":"0001-01-01T00:00:00Z","name_a2s":"Uncletopia | New York City | 3 | Stopwatch Beta","protocol":17,"map":"workshop/koth_product_final.ugc454272353","folder":"tf","game":"Team Fortress","app_id":440,"player_count":0,"max_players":24,"Bots":0,"server_type":"Dedicated","server_os":"Linux","password":true,"vac":true,"version":"7742253","steam_id":85568392924742820,"keywords":["cp","nocrits","nodmgspread","uncletopia"],"game_id":440,"stv_port":27036,"stv_name":"Uncletopia | New York City | 3 | Stopwatch Beta | STV","players":null},{"server_id":16,"name":"Uncletopia | New York City | 4 | Community","name_short":"nyc-4","host":"nyc-1.us.uncletopia.com","port":27045,"enabled":true,"region":"us-east","cc":"us","latitude":40.73061,"longitude":-73.93524,"reserved":0,"last_update":"0001-01-01T00:00:00Z","name_a2s":"Uncletopia | New York City | 4 | Community","protocol":17,"map":"workshop/pl_vigil_rc9.ugc1266210012","folder":"tf","game":"Team Fortress","app_id":440,"player_count":0,"max_players":24,"Bots":0,"server_type":"Dedicated","server_os":"Linux","password":true,"vac":true,"version":"7742253","steam_id":85568392924742821,"keywords":["nocrits","nodmgspread","payload","uncletopia"],"game_id":440,"stv_port":27046,"stv_name":"Uncletopia | New York City | 4 | Community | STV","players":null},{"server_id":142,"name":"Uncletopia | São Paulo | 1 | All Maps","name_short":"sao-1","host":"sao-1.br.uncletopia.com","port":27015,"enabled":true,"region":"sa","cc":"br","latitude":-23.533773,"longitude":-46.62529,"reserved":0,"last_update":"0001-01-01T00:00:00Z","name_a2s":"Uncletopia | São Paulo | 1 | All Maps","protocol":17,"map":"pl_swiftwater_final1","folder":"tf","game":"Team Fortress","app_id":440,"player_count":24,"max_players":24,"Bots":0,"server_type":"Dedicated","server_os":"Linux","password":true,"vac":true,"version":"7742253","steam_id":85568392924469996,"keywords":["nocrits","nodmgspread","payload","uncletopia"],"game_id":440,"stv_port":27016,"stv_name":"Uncletopia | São Paulo | 1 | All Maps | STV","players":[{"user_id":209,"name":"rafx","steam_id":76561198083321227,"connected_time":6153000000000,"state":"active","ping":64},{"user_id":224,"name":"dudu","steam_id":76561198068520025,"connected_time":4803000000000,"state":"active","ping":47},{"user_id":269,"name":"ayu","steam_id":76561197977365746,"connected_time":379000000000,"state":"active","ping":48},{"user_id":254,"name":".fnord","steam_id":76561198119754613,"connected_time":1732000000000,"state":"active","ping":52},{"user_id":267,"name":"ＥｎｄｅｒＮｅｃｒｏ","steam_id":76561198044304293,"connected_time":605000000000,"state":"active","ping":45},{"user_id":220,"name":"terzo","steam_id":76561198044494120,"connected_time":5097000000000,"state":"active","ping":46},{"user_id":270,"name":"$r. Hello There #savetf2","steam_id":76561198874231807,"connected_time":350000000000,"state":"active","ping":44},{"user_id":262,"name":"Stalin","steam_id":76561198073356694,"connected_time":1178000000000,"state":"active","ping":68},{"user_id":240,"name":"yes","steam_id":76561198276113571,"connected_time":3622000000000,"state":"active","ping":40},{"user_id":266,"name":"nicolas","steam_id":76561198866931910,"connected_time":674000000000,"state":"active","ping":79},{"user_id":258,"name":"Stoopid","steam_id":76561198126485401,"connected_time":1216000000000,"state":"active","ping":60},{"user_id":194,"name":"niruma","steam_id":76561198067799345,"connected_time":7293000000000,"state":"active","ping":45},{"user_id":260,"name":"Mikael_01","steam_id":76561199080253129,"connected_time":1191000000000,"state":"active","ping":52},{"user_id":212,"name":"V̴̢̘͕͛̒̓_Rupt","steam_id":76561198056688070,"connected_time":5666000000000,"state":"active","ping":57},{"user_id":248,"name":"Cabeleira","steam_id":76561198323253534,"connected_time":2408000000000,"state":"active","ping":45},{"user_id":140,"name":"Pathetic","steam_id":76561198051056987,"connected_time":13165000000000,"state":"active","ping":72},{"user_id":202,"name":"Zoom!","steam_id":76561198289562649,"connected_time":6761000000000,"state":"active","ping":46},{"user_id":271,"name":"matteus_","steam_id":76561198119027709,"connected_time":222000000000,"state":"active","ping":50},{"user_id":246,"name":"stwawbewwy milk :3","steam_id":76561198254171043,"connected_time":2797000000000,"state":"active","ping":44},{"user_id":272,"name":"Jumpy","steam_id":76561198352019378,"connected_time":126000000000,"state":"active","ping":47},{"user_id":261,"name":"Copa Pistao","steam_id":76561199240099576,"connected_time":1188000000000,"state":"active","ping":39},{"user_id":250,"name":"Sonia Metralha","steam_id":76561198983533099,"connected_time":2396000000000,"state":"active","ping":58},{"user_id":252,"name":"Novum","steam_id":76561198863734507,"connected_time":2082000000000,"state":"active","ping":69},{"user_id":263,"name":"Tigas","steam_id":76561198151597169,"connected_time":1152000000000,"state":"active","ping":56}]},{"server_id":143,"name":"Uncletopia | São Paulo | 2 | All Maps","name_short":"sao-2","host":"sao-2.br.uncletopia.com","port":27015,"enabled":true,"region":"sa","cc":"br","latitude":-23.533773,"longitude":-46.62529,"reserved":0,"last_update":"0001-01-01T00:00:00Z","name_a2s":"Uncletopia | São Paulo | 2 | All Maps","protocol":17,"map":"pl_badwater","folder":"tf","game":"Team Fortress","app_id":440,"player_count":0,"max_players":24,"Bots":0,"server_type":"Dedicated","server_os":"Linux","password":true,"vac":true,"version":"7742253","steam_id":85568392924485349,"keywords":["nocrits","nodmgspread","payload","uncletopia"],"game_id":440,"stv_port":27016,"stv_name":"Uncletopia | São Paulo | 2 | All Maps | STV","players":null},{"server_id":7,"name":"Uncletopia | Seattle | 1 | All Maps","name_short":"sea-1","host":"sea-1.us.uncletopia.com","port":27015,"enabled":true,"region":"us-west","cc":"us","latitude":47.608013,"longitude":-122.33517,"reserved":0,"last_update":"0001-01-01T00:00:00Z","name_a2s":"Uncletopia | Seattle | 1 | All Maps","protocol":17,"map":"pl_wutville_event","folder":"tf","game":"Team Fortress","app_id":440,"player_count":11,"max_players":24,"Bots":0,"server_type":"Dedicated","server_os":"Linux","password":true,"vac":true,"version":"7742253","steam_id":85568392924469997,"keywords":["nocrits","nodmgspread","payload","uncletopia"],"game_id":440,"stv_port":27016,"stv_name":"Uncletopia | Seattle | 1 | All Maps | STV","players":[{"user_id":156,"name":"jon pickle water","steam_id":76561199036212135,"connected_time":306000000000,"state":"active","ping":54},{"user_id":81,"name":"dust","steam_id":76561198045218909,"connected_time":5939000000000,"state":"active","ping":38},{"user_id":154,"name":"FattSucc","steam_id":76561198009500503,"connected_time":1108000000000,"state":"active","ping":131},{"user_id":143,"name":"hunky dory","steam_id":76561198030422254,"connected_time":1322000000000,"state":"active","ping":135},{"user_id":149,"name":"LostVoid","steam_id":76561198259983156,"connected_time":1195000000000,"state":"active","ping":61},{"user_id":131,"name":"westward","steam_id":76561198805512350,"connected_time":2583000000000,"state":"active","ping":60},{"user_id":157,"name":"warrior","steam_id":76561198361999761,"connected_time":276000000000,"state":"active","ping":71},{"user_id":151,"name":"Humbetymymeaty","steam_id":76561198435326008,"connected_time":1155000000000,"state":"active","ping":74},{"user_id":113,"name":"Dad 2","steam_id":76561198138546187,"connected_time":3859000000000,"state":"active","ping":85},{"user_id":152,"name":"KingTinkerer","steam_id":76561198226856548,"connected_time":1154000000000,"state":"active","ping":66},{"user_id":97,"name":"rat gets the cheese","steam_id":76561198031234032,"connected_time":4885000000000,"state":"active","ping":93}]},{"server_id":119,"name":"Uncletopia | Seattle | 2 | All Maps","name_short":"sea-2","host":"sea-1.us.uncletopia.com","port":27025,"enabled":true,"region":"us-west","cc":"us","latitude":47.608013,"longitude":-122.33517,"reserved":0,"last_update":"0001-01-01T00:00:00Z","name_a2s":"Uncletopia | Seattle | 2 | All Maps","protocol":17,"map":"pl_frontier_final","folder":"tf","game":"Team Fortress","app_id":440,"player_count":24,"max_players":24,"Bots":0,"server_type":"Dedicated","server_os":"Linux","password":true,"vac":true,"version":"7742253","steam_id":85568392924469998,"keywords":["nocrits","nodmgspread","payload","uncletopia"],"game_id":440,"stv_port":27026,"stv_name":"Uncletopia | Seattle | 2 | All Maps | STV","players":[{"user_id":282,"name":"Femboi Fox","steam_id":76561198915758702,"connected_time":2245000000000,"state":"active","ping":62},{"user_id":309,"name":"kiriko","steam_id":76561198041286321,"connected_time":890000000000,"state":"active","ping":45},{"user_id":325,"name":"William Murdoch","steam_id":76561198031394373,"connected_time":2000000000,"state":"spawning","ping":143},{"user_id":247,"name":"Uncle","steam_id":76561197988647705,"connected_time":5066000000000,"state":"active","ping":105},{"user_id":318,"name":"Tom H.A.N.X","steam_id":76561198061064737,"connected_time":341000000000,"state":"active","ping":52},{"user_id":310,"name":"The Super Mario Bros. Movie","steam_id":76561198871692156,"connected_time":864000000000,"state":"active","ping":50},{"user_id":237,"name":"dave strider","steam_id":76561198065112186,"connected_time":5380000000000,"state":"active","ping":65},{"user_id":319,"name":"ImMightyBlak","steam_id":76561198855653525,"connected_time":259000000000,"state":"active","ping":102},{"user_id":296,"name":"manbearswineflu","steam_id":76561198083945137,"connected_time":1742000000000,"state":"active","ping":107},{"user_id":320,"name":"bowling","steam_id":76561198854571744,"connected_time":218000000000,"state":"active","ping":57},{"user_id":304,"name":"Goose News","steam_id":76561198060511862,"connected_time":1532000000000,"state":"active","ping":95},{"user_id":324,"name":"dipinpreet","steam_id":76561198329035044,"connected_time":17000000000,"state":"spawning","ping":120},{"user_id":314,"name":"emerge","steam_id":76561198186882891,"connected_time":619000000000,"state":"active","ping":107},{"user_id":312,"name":"LazyDoll","steam_id":76561198053186338,"connected_time":679000000000,"state":"active","ping":75},{"user_id":301,"name":"Gary Sinfeld","steam_id":76561198042274074,"connected_time":1650000000000,"state":"active","ping":41},{"user_id":302,"name":"Larry Laffer","steam_id":76561198171666514,"connected_time":1594000000000,"state":"active","ping":47},{"user_id":289,"name":"Fh","steam_id":76561198000903511,"connected_time":1910000000000,"state":"active","ping":63},{"user_id":315,"name":"Surly Joe","steam_id":76561199150833796,"connected_time":601000000000,"state":"active","ping":136},{"user_id":280,"name":"MCman","steam_id":76561198412110305,"connected_time":2628000000000,"state":"active","ping":75},{"user_id":316,"name":"HandyHerbcock","steam_id":76561198074648416,"connected_time":488000000000,"state":"active","ping":60},{"user_id":274,"name":"demoman","steam_id":76561199389584938,"connected_time":3407000000000,"state":"active","ping":41},{"user_id":322,"name":"Plant","steam_id":76561198892328663,"connected_time":181000000000,"state":"active","ping":83},{"user_id":326,"name":"CuddleSquid","steam_id":76561198001543433,"connected_time":0,"state":"spawning","ping":0},{"user_id":323,"name":"meow","steam_id":76561198298140571,"connected_time":88000000000,"state":"active","ping":86}]},{"server_id":406,"name":"Uncletopia | Seattle | 3 | Stopwatch Beta","name_short":"sea-3","host":"sea-1.us.uncletopia.com","port":27035,"enabled":true,"region":"us-west","cc":"us","latitude":47.608013,"longitude":-122.33517,"reserved":0,"last_update":"0001-01-01T00:00:00Z","name_a2s":"Uncletopia | Seattle | 3 | Stopwatch Beta","protocol":17,"map":"workshop/pl_vigil_rc9.ugc1266210012","folder":"tf","game":"Team Fortress","app_id":440,"player_count":0,"max_players":24,"Bots":0,"server_type":"Dedicated","server_os":"Linux","password":true,"vac":true,"version":"7742253","steam_id":85568392924515217,"keywords":["nocrits","nodmgspread","payload","uncletopia"],"game_id":440,"stv_port":27036,"stv_name":"Uncletopia | Seattle | 3 | Stopwatch Beta | STV","players":null},{"server_id":17,"name":"Uncletopia | San Francisco | 1 | All Maps","name_short":"sfo-1","host":"sfo-1.us.uncletopia.com","port":27015,"enabled":true,"region":"us-west","cc":"us","latitude":37.77397,"longitude":-122.4313,"reserved":0,"last_update":"0001-01-01T00:00:00Z","name_a2s":"Uncletopia | San Francisco | 1 | All Maps","protocol":17,"map":"pl_frontier_final","folder":"tf","game":"Team Fortress","app_id":440,"player_count":24,"max_players":24,"Bots":0,"server_type":"Dedicated","server_os":"Linux","password":true,"vac":true,"version":"7742253","steam_id":85568392924469999,"keywords":["nocrits","nodmgspread","payload","uncletopia"],"game_id":440,"stv_port":27016,"stv_name":"Uncletopia | San Francisco | 1 | All Maps | STV","players":[{"user_id":88,"name":"Xavibite","steam_id":76561198209380493,"connected_time":2036000000000,"state":"active","ping":107},{"user_id":95,"name":"facedatfatchat","steam_id":76561198335285125,"connected_time":842000000000,"state":"active","ping":61},{"user_id":68,"name":"Fred","steam_id":76561197983870604,"connected_time":2937000000000,"state":"active","ping":63},{"user_id":96,"name":"catscatechu","steam_id":76561198192500633,"connected_time":834000000000,"state":"active","ping":68},{"user_id":36,"name":"JellyParrot","steam_id":76561199190990163,"connected_time":4734000000000,"state":"active","ping":101},{"user_id":90,"name":"schwicky shwag","steam_id":76561198037921140,"connected_time":1788000000000,"state":"active","ping":47},{"user_id":89,"name":"WalkinMan","steam_id":76561198047941142,"connected_time":1948000000000,"state":"active","ping":27},{"user_id":91,"name":"DoctorHa","steam_id":76561198044026008,"connected_time":1300000000000,"state":"active","ping":64},{"user_id":34,"name":"Xeno","steam_id":76561198089138085,"connected_time":4775000000000,"state":"active","ping":59},{"user_id":94,"name":"Livin' Like Larry","steam_id":76561198313360974,"connected_time":862000000000,"state":"active","ping":42},{"user_id":30,"name":"DonoC","steam_id":76561198274473338,"connected_time":4940000000000,"state":"active","ping":88},{"user_id":97,"name":"RoboEvolution","steam_id":76561198306522669,"connected_time":828000000000,"state":"active","ping":92},{"user_id":87,"name":"Adawnby","steam_id":76561198103057295,"connected_time":2072000000000,"state":"active","ping":86},{"user_id":92,"name":"Agent86","steam_id":76561198046794593,"connected_time":1217000000000,"state":"active","ping":108},{"user_id":98,"name":"xlesz","steam_id":76561199020119161,"connected_time":706000000000,"state":"active","ping":60},{"user_id":76,"name":"Varth Dader","steam_id":76561198134195099,"connected_time":2755000000000,"state":"active","ping":118},{"user_id":99,"name":"Pie™","steam_id":76561198158312625,"connected_time":658000000000,"state":"active","ping":160},{"user_id":60,"name":"cpt.kooler","steam_id":76561198293305307,"connected_time":3651000000000,"state":"active","ping":54},{"user_id":80,"name":"Gerbz","steam_id":76561198296032677,"connected_time":2403000000000,"state":"active","ping":83},{"user_id":64,"name":"McLovin","steam_id":76561198332980753,"connected_time":3319000000000,"state":"active","ping":64},{"user_id":49,"name":"Gwatts","steam_id":76561198151550902,"connected_time":4474000000000,"state":"active","ping":72},{"user_id":86,"name":"❤ Ashley ❤","steam_id":76561198056428303,"connected_time":2135000000000,"state":"active","ping":49},{"user_id":51,"name":"RoboTime","steam_id":76561198281814769,"connected_time":4464000000000,"state":"active","ping":60},{"user_id":100,"name":"Dorte Voloxi","steam_id":76561198118620969,"connected_time":527000000000,"state":"active","ping":82}]},{"server_id":18,"name":"Uncletopia | San Francisco | 2 | All Maps","name_short":"sfo-2","host":"sfo-1.us.uncletopia.com","port":27025,"enabled":true,"region":"us-west","cc":"us","latitude":37.77397,"longitude":-122.4313,"reserved":0,"last_update":"0001-01-01T00:00:00Z","name_a2s":"Uncletopia | San Francisco | 2 | All Maps","protocol":17,"map":"cp_process_final","folder":"tf","game":"Team Fortress","app_id":440,"player_count":0,"max_players":24,"Bots":0,"server_type":"Dedicated","server_os":"Linux","password":true,"vac":true,"version":"7742253","steam_id":85568392924470000,"keywords":["cp","nocrits","nodmgspread","uncletopia"],"game_id":440,"stv_port":27026,"stv_name":"Uncletopia | San Francisco | 2 | All Maps | STV","players":null},{"server_id":19,"name":"Uncletopia | San Francisco | 3 | Stopwatch Beta","name_short":"sfo-3","host":"sfo-1.us.uncletopia.com","port":27035,"enabled":true,"region":"us-west","cc":"us","latitude":37.77397,"longitude":-122.4313,"reserved":0,"last_update":"0001-01-01T00:00:00Z","name_a2s":"Uncletopia | San Francisco | 3 | Stopwatch Beta","protocol":17,"map":"koth_lakeside_final","folder":"tf","game":"Team Fortress","app_id":440,"player_count":0,"max_players":24,"Bots":0,"server_type":"Dedicated","server_os":"Linux","password":true,"vac":true,"version":"7742253","steam_id":85568392924742824,"keywords":["cp","nocrits","nodmgspread","uncletopia"],"game_id":440,"stv_port":27036,"stv_name":"Uncletopia | San Francisco | 3 | Stopwatch Beta | STV","players":null},{"server_id":20,"name":"Uncletopia | San Francisco | 4 | Community","name_short":"sfo-4","host":"sfo-1.us.uncletopia.com","port":27045,"enabled":true,"region":"us-west","cc":"us","latitude":37.77397,"longitude":-122.4313,"reserved":0,"last_update":"0001-01-01T00:00:00Z","name_a2s":"Uncletopia | San Francisco | 4 | Community","protocol":17,"map":"workshop/pl_barnblitz_pro7.ugc582280235","folder":"tf","game":"Team Fortress","app_id":440,"player_count":0,"max_players":24,"Bots":0,"server_type":"Dedicated","server_os":"Linux","password":true,"vac":true,"version":"7742253","steam_id":85568392924742826,"keywords":["nocrits","nodmgspread","payload","uncletopia"],"game_id":440,"stv_port":27046,"stv_name":"Uncletopia | San Francisco | 4 | Community | STV","players":null},{"server_id":141,"name":"Uncletopia | Sydney | 1 | All Maps","name_short":"syd-1","host":"syd-1.au.uncletopia.com","port":27015,"enabled":true,"region":"au","cc":"au","latitude":-33.865143,"longitude":151.2099,"reserved":0,"last_update":"0001-01-01T00:00:00Z","name_a2s":"Uncletopia | Sydney | 1 | All Maps","protocol":17,"map":"koth_lakeside_final","folder":"tf","game":"Team Fortress","app_id":440,"player_count":2,"max_players":24,"Bots":0,"server_type":"Dedicated","server_os":"Linux","password":true,"vac":true,"version":"7742253","steam_id":85568392924470001,"keywords":["cp","nocrits","nodmgspread","uncletopia"],"game_id":440,"stv_port":27016,"stv_name":"Uncletopia | Sydney | 1 | All Maps | STV","players":[{"user_id":13,"name":"wmanrad","steam_id":76561199466115899,"connected_time":464000000000,"state":"active","ping":146},{"user_id":17,"name":"ktanrad","steam_id":76561199224431674,"connected_time":438000000000,"state":"active","ping":143}]},{"server_id":123,"name":"Uncletopia | Sydney | 2 | All Maps","name_short":"syd-2","host":"syd-1.au.uncletopia.com","port":27025,"enabled":true,"region":"au","cc":"au","latitude":-33.865143,"longitude":151.2099,"reserved":0,"last_update":"0001-01-01T00:00:00Z","name_a2s":"Uncletopia | Sydney | 2 | All Maps","protocol":17,"map":"koth_highpass","folder":"tf","game":"Team Fortress","app_id":440,"player_count":2,"max_players":24,"Bots":0,"server_type":"Dedicated","server_os":"Linux","password":true,"vac":true,"version":"7742253","steam_id":85568392924470002,"keywords":["cp","nocrits","nodmgspread","uncletopia"],"game_id":440,"stv_port":27026,"stv_name":"Uncletopia | Sydney | 2 | All Maps | STV","players":[{"user_id":17,"name":"♡🍌 Leipä 🍌♡","steam_id":76561198108464364,"connected_time":829000000000,"state":"active","ping":339},{"user_id":21,"name":"WickedOS","steam_id":76561198452767008,"connected_time":491000000000,"state":"active","ping":55}]},{"server_id":395,"name":"Uncletopia | Sydney | 3 | All Maps","name_short":"syd-3","host":"syd-1.au.uncletopia.com","port":27035,"enabled":true,"region":"au","cc":"au","latitude":-33.865143,"longitude":151.2099,"reserved":0,"last_update":"0001-01-01T00:00:00Z","name_a2s":"Uncletopia | Sydney | 3 | All Maps","protocol":17,"map":"koth_viaduct","folder":"tf","game":"Team Fortress","app_id":440,"player_count":0,"max_players":24,"Bots":0,"server_type":"Dedicated","server_os":"Linux","password":true,"vac":true,"version":"7742253","steam_id":85568392925194467,"keywords":["cp","nocrits","nodmgspread","uncletopia"],"game_id":440,"stv_port":27036,"stv_name":"Uncletopia | Sydney | 3 | All Maps | STV","players":null},{"server_id":396,"name":"Uncletopia | Sydney | 4 | All Maps","name_short":"syd-4","host":"syd-1.au.uncletopia.com","port":27045,"enabled":true,"region":"au","cc":"au","latitude":-33.865143,"longitude":151.2099,"reserved":0,"last_update":"0001-01-01T00:00:00Z","name_a2s":"Uncletopia | Sydney | 4 | All Maps","protocol":17,"map":"koth_highpass","folder":"tf","game":"Team Fortress","app_id":440,"player_count":0,"max_players":24,"Bots":0,"server_type":"Dedicated","server_os":"Linux","password":true,"vac":true,"version":"7742253","steam_id":85568392925397958,"keywords":["cp","nocrits","nodmgspread","uncletopia"],"game_id":440,"stv_port":27046,"stv_name":"Uncletopia | Sydney | 4 | All Maps | STV","players":null},{"server_id":58,"name":"Uncletopia | Sydney | 5 | Stopwatch Beta","name_short":"syd-5","host":"syd-1.au.uncletopia.com","port":27055,"enabled":true,"region":"au","cc":"au","latitude":-33.865143,"longitude":151.2099,"reserved":0,"last_update":"0001-01-01T00:00:00Z","name_a2s":"Uncletopia | Sydney | 5 | Stopwatch Beta","protocol":17,"map":"cp_sunshine","folder":"tf","game":"Team Fortress","app_id":440,"player_count":0,"max_players":24,"Bots":0,"server_type":"Dedicated","server_os":"Linux","password":true,"vac":true,"version":"7742253","steam_id":85568392925397959,"keywords":["cp","nocrits","nodmgspread","uncletopia"],"game_id":440,"stv_port":27056,"stv_name":"Uncletopia | Sydney | 5 | Stopwatch Beta | STV","players":null},{"server_id":59,"name":"Uncletopia | Sydney | 6 | Community","name_short":"syd-6","host":"syd-1.au.uncletopia.com","port":27065,"enabled":true,"region":"au","cc":"au","latitude":-33.865143,"longitude":151.2099,"reserved":0,"last_update":"0001-01-01T00:00:00Z","name_a2s":"Uncletopia | Sydney | 6 | Community","protocol":17,"map":"workshop/pl_cactuscanyon_redux_rc4b.ugc2579644293","folder":"tf","game":"Team Fortress","app_id":440,"player_count":6,"max_players":24,"Bots":0,"server_type":"Dedicated","server_os":"Linux","password":true,"vac":true,"version":"7742253","steam_id":85568392925397960,"keywords":["nocrits","nodmgspread","payload","uncletopia"],"game_id":440,"stv_port":27066,"stv_name":"Uncletopia | Sydney | 6 | Community | STV","players":[{"user_id":17,"name":"movablellama","steam_id":76561199466321887,"connected_time":799000000000,"state":"active","ping":76},{"user_id":6,"name":"C3ratops","steam_id":76561198847054264,"connected_time":2238000000000,"state":"spawning","ping":259},{"user_id":19,"name":"Bisuto","steam_id":76561199019233291,"connected_time":463000000000,"state":"active","ping":155},{"user_id":20,"name":"GoblinSoup","steam_id":76561198888203067,"connected_time":31000000000,"state":"active","ping":271},{"user_id":14,"name":"verycoolmike","steam_id":76561199262584655,"connected_time":1600000000000,"state":"active","ping":50},{"user_id":21,"name":"poiuytrewq","steam_id":76561198983465797,"connected_time":26000000000,"state":"spawning","ping":275}]},{"server_id":49,"name":"Uncletopia | Warsaw | 1 | All Maps","name_short":"waw-1","host":"waw-1.pl.uncletopia.com","port":27015,"enabled":true,"region":"eu","cc":"pl","latitude":52.2297,"longitude":21.017532,"reserved":0,"last_update":"0001-01-01T00:00:00Z","name_a2s":"","protocol":0,"map":"","folder":"","game":"","app_id":0,"player_count":0,"max_players":0,"Bots":0,"server_type":"","server_os":"","password":false,"vac":false,"version":"","steam_id":0,"keywords":null,"game_id":0,"stv_port":0,"stv_name":"","players":null},{"server_id":50,"name":"Uncletopia | Warsaw | 2 | All Maps","name_short":"waw-2","host":"waw-1.pl.uncletopia.com","port":27025,"enabled":true,"region":"eu","cc":"pl","latitude":52.2297,"longitude":21.017532,"reserved":0,"last_update":"0001-01-01T00:00:00Z","name_a2s":"Uncletopia | Warsaw | 2 | All Maps","protocol":17,"map":"cp_mountainlab","folder":"tf","game":"Team Fortress","app_id":440,"player_count":0,"max_players":24,"Bots":0,"server_type":"Dedicated","server_os":"Linux","password":true,"vac":true,"version":"7742253","steam_id":85568392925397851,"keywords":["cp","nocrits","nodmgspread","uncletopia"],"game_id":440,"stv_port":27026,"stv_name":"Uncletopia | Warsaw | 2 | All Maps | STV","players":null},{"server_id":51,"name":"Uncletopia | Warsaw | 3 | All Maps","name_short":"waw-3","host":"waw-1.pl.uncletopia.com","port":27035,"enabled":true,"region":"eu","cc":"pl","latitude":52.2297,"longitude":21.017532,"reserved":0,"last_update":"0001-01-01T00:00:00Z","name_a2s":"Uncletopia | Warsaw | 3 | All Maps","protocol":17,"map":"pl_badwater","folder":"tf","game":"Team Fortress","app_id":440,"player_count":0,"max_players":24,"Bots":0,"server_type":"Dedicated","server_os":"Linux","password":true,"vac":true,"version":"7742253","steam_id":85568392925397852,"keywords":["nocrits","nodmgspread","payload","uncletopia"],"game_id":440,"stv_port":27036,"stv_name":"Uncletopia | Warsaw | 3 | All Maps | STV","players":null},{"server_id":52,"name":"Uncletopia | Warsaw | 4 | All Maps","name_short":"waw-4","host":"waw-1.pl.uncletopia.com","port":27045,"enabled":true,"region":"eu","cc":"pl","latitude":52.2297,"longitude":21.017532,"reserved":0,"last_update":"0001-01-01T00:00:00Z","name_a2s":"Uncletopia | Warsaw | 4 | All Maps","protocol":17,"map":"pl_snowycoast","folder":"tf","game":"Team Fortress","app_id":440,"player_count":0,"max_players":24,"Bots":0,"server_type":"Dedicated","server_os":"Linux","password":true,"vac":true,"version":"7742253","steam_id":85568392925397853,"keywords":["nocrits","nodmgspread","payload","uncletopia"],"game_id":440,"stv_port":27046,"stv_name":"Uncletopia | Warsaw | 4 | All Maps | STV","players":null},{"server_id":53,"name":"Uncletopia | Warsaw | 5 | Stopwatch Beta","name_short":"waw-5","host":"waw-1.pl.uncletopia.com","port":27055,"enabled":true,"region":"eu","cc":"pl","latitude":52.2297,"longitude":21.017532,"reserved":0,"last_update":"0001-01-01T00:00:00Z","name_a2s":"Uncletopia | Warsaw | 5 | Stopwatch Beta","protocol":17,"map":"pl_swiftwater_final1","folder":"tf","game":"Team Fortress","app_id":440,"player_count":0,"max_players":24,"Bots":0,"server_type":"Dedicated","server_os":"Linux","password":true,"vac":true,"version":"7742253","steam_id":85568392925397854,"keywords":["nocrits","nodmgspread","payload","uncletopia"],"game_id":440,"stv_port":27056,"stv_name":"Uncletopia | Warsaw | 5 | Stopwatch Beta | STV","players":null},{"server_id":54,"name":"Uncletopia | Warsaw | 6 | Community","name_short":"waw-6","host":"waw-1.pl.uncletopia.com","port":27065,"enabled":true,"region":"eu","cc":"pl","latitude":52.2297,"longitude":21.017532,"reserved":0,"last_update":"0001-01-01T00:00:00Z","name_a2s":"Uncletopia | Warsaw | 6 | Community","protocol":17,"map":"workshop/pl_vigil_rc9.ugc1266210012","folder":"tf","game":"Team Fortress","app_id":440,"player_count":0,"max_players":24,"Bots":0,"server_type":"Dedicated","server_os":"Linux","password":true,"vac":true,"version":"7742253","steam_id":85568392925397856,"keywords":["nocrits","nodmgspread","payload","uncletopia"],"game_id":440,"stv_port":27066,"stv_name":"Uncletopia | Warsaw | 6 | Community | STV","players":null}]}