{"status":true,"message":"","result":[{"server_id":9,"name":"Uncletopia | Atlanta | 1 | All Maps","name_short":"atl-1","host":"atl-1.us.uncletopia.com","port":27015,"enabled":true,"region":"us-east","cc":"us","latitude":33.753746,"longitude":-84.38633,"reserved":0,"last_update":"0001-01-01T00:00:00Z","name_a2s":"Uncletopia | Atlanta | 1 | All Maps","protocol":17,"map":"cp_dustbowl","folder":"tf","game":"Team Fortress","app_id":440,"player_count":0,"max_players":24,"Bots":0,"server_type":"Dedicated","server_os":"Linux","password":true,"vac":true,"version":"7961495","steam_id":85568392924469982,"keywords":["cp","nocrits","nodmgspread","uncletopia"],"game_id":440,"stv_port":27016,"stv_name":"Uncletopia | Atlanta | 1 | All Maps | STV","players":null},{"server_id":104,"name":"Uncletopia | Atlanta | 2 | All Maps","name_short":"atl-2","host":"atl-1.us.uncletopia.com","port":27025,"enabled":true,"region":"us-east","cc":"us","latitude":33.753746,"longitude":-84.38633,"reserved":0,"last_update":"0001-01-01T00:00:00Z","name_a2s":"Uncletopia | Atlanta | 2 | All Maps","protocol":17,"map":"pl_badwater","folder":"tf","game":"Team Fortress","app_id":440,"player_count":24,"max_players":24,"Bots":0,"server_type":"Dedicated","server_os":"Linux","password":true,"vac":true,"version":"7961495","steam_id":85568392924469983,"keywords":["nocrits","nodmgspread","payload","uncletopia"],"game_id":440,"stv_port":27026,"stv_name":"Uncletopia | Atlanta | 2 | All Maps | STV","players":null},{"server_id":400,"name":"Uncletopia | Atlanta | 3 | Stopwatch","name_short":"atl-3","host":"atl-1.us.uncletopia.com","port":27035,"enabled":true,"region":"us-east","cc":"us","latitude":33.753746,"longitude":-84.38633,"reserved":0,"last_update":"0001-01-01T00:00:00Z","name_a2s":"Uncletopia | Atlanta | 3 | Stopwatch","protocol":17,"map":"pl_swiftwater_final1","folder":"tf","game":"Team Fortress","app_id":440,"player_count":0,"max_players":24,"Bots":0,"server_type":"Dedicated","server_os":"Linux","password":true,"vac":true,"version":"7961495","steam_id":85568392924515187,"keywords":["nocrits","nodmgspread","payload","uncletopia"],"game_id":440,"stv_port":27036,"stv_name":"Uncletopia | Atlanta | 3 | Stopwatch | STV","players":null},{"server_id":401,"name":"Uncletopia | Atlanta | 4 | Community","name_short":"atl-4","host":"atl-1.us.uncletopia.com","port":27045,"enabled":true,"region":"us-east","cc":"us","latitude":33.753746,"longitude":-84.38633,"reserved":0,"last_update":"0001-01-01T00:00:00Z","name_a2s":"Uncletopia | Atlanta | 4 | Community","protocol":17,"map":"cp_villa_b19","folder":"tf","game":"Team Fortress","app_id":440,"player_count":0,"max_players":24,"Bots":0,"server_type":"Dedicated","server_os":"Linux","password":true,"vac":true,"version":"7961495","steam_id":85568392924515188,"keywords":["cp","nocrits","nodmgspread","uncletopia"],"game_id":440,"stv_port":27046,"stv_name":"Uncletopia | Atlanta | 4 | Community | STV","players":null},{"server_id":2,"name":"Uncletopia | Chicago | 1 | All Maps","name_short":"chi-1","host":"chi-1.us.uncletopia.com","port":27015,"enabled":true,"region":"us-central","cc":"us","latitude":41.881832,"longitude":-87.62318,"reserved":0,"last_update":"0001-01-01T00:00:00Z","name_a2s":"Uncletopia | Chicago | 1 | All Maps","protocol":17,"map":"koth_king","folder":"tf","game":"Team Fortress","app_id":440,"player_count":24,"max_players":24,"Bots":0,"server_type":"Dedicated","server_os":"Linux","password":true,"vac":true,"version":"7961495","steam_id":85568392924469984,"keywords":["cp","nocrits","nodmgspread","uncletopia"],"game_id":440,"stv_port":27016,"stv_name":"Uncletopia | Chicago | 1 | All Maps | STV","players":[{"user_id":51,"name":"Lambert","steam_id":76561198062772532,"connected_time":3254000000000,"state":"active","ping":73},{"user_id":45,"name":"I came (up)","steam_id":76561198057745131,"connected_time":3628000000000,"state":"active","ping":52},{"user_id":79,"name":"CreepyCandy","steam_id":76561198026728726,"connected_time":189000000000,"state":"active","ping":65},{"user_id":74,"name":"milk then cereal","steam_id":76561198047168548,"connected_time":498000000000,"state":"active","ping":101},{"user_id":54,"name":"Mixomin","steam_id":76561198295061570,"connected_time":3141000000000,"state":"active","ping":49},{"user_id":36,"name":"Herb","steam_id":76561198330311949,"connected_time":3991000000000,"state":"active","ping":63},{"user_id":66,"name":"deeter","steam_id":76561199124943003,"connected_time":1382000000000,"state":"active","ping":76},{"user_id":70,"name":"Yengozi","steam_id":76561198448764748,"connected_time":884000000000,"state":"active","ping":84},{"user_id":61,"name":"PERC·µâ","steam_id":76561198300393063,"connected_time":2199000000000,"state":"active","ping":45},{"user_id":67,"name":"Toxapex","steam_id":76561198341537452,"connected_time":1074000000000,"state":"active","ping":67},{"user_id":75,"name":"Acro","steam_id":76561198092451804,"connected_time":483000000000,"state":"active","ping":68},{"user_id":71,"name":"el wiwi","steam_id":76561198857304367,"connected_time":870000000000,"state":"active","ping":76},{"user_id":76,"name":"Boboblin","steam_id":76561199030131717,"connected_time":465000000000,"state":"active","ping":98},{"user_id":53,"name":"Ryzema","steam_id":76561198165594229,"connected_time":3192000000000,"state":"active","ping":84},{"user_id":64,"name":"cadian guard drop engineer","steam_id":76561199104829802,"connected_time":1597000000000,"state":"active","ping":113},{"user_id":26,"name":"kimchy101","steam_id":76561198202721584,"connected_time":4100000000000,"state":"active","ping":56},{"user_id":59,"name":"The rat","steam_id":76561198050432341,"connected_time":2822000000000,"state":"active","ping":144},{"user_id":50,"name":"Kos, or some say Kosm","steam_id":76561197998833309,"connected_time":3443000000000,"state":"active","ping":70},{"user_id":29,"name":"fasterbum","steam_id":76561198142577444,"connected_time":4079000000000,"state":"active","ping":56},{"user_id":72,"name":"FunGi","steam_id":76561198881418662,"connected_time":813000000000,"state":"active","ping":80},{"user_id":52,"name":"Mario2109","steam_id":76561198431842219,"connected_time":3198000000000,"state":"active","ping":52},{"user_id":33,"name":"redarcher42","steam_id":76561199027887687,"connected_time":4012000000000,"state":"active","ping":85},{"user_id":68,"name":"Master Oogway","steam_id":76561198051869638,"connected_time":1002000000000,"state":"active","ping":60},{"user_id":77,"name":"Charlotte","steam_id":76561199084344266,"connected_time":453000000000,"state":"active","ping":59}]},{"server_id":106,"name":"Uncletopia | Chicago | 2 | All Maps","name_short":"chi-2","host":"chi-1.us.uncletopia.com","port":27025,"enabled":true,"region":"us-central","cc":"us","latitude":41.881832,"longitude":-87.62318,"reserved":0,"last_update":"0001-01-01T00:00:00Z","name_a2s":"Uncletopia | Chicago | 2 | All Maps","protocol":17,"map":"pl_upward","folder":"tf","game":"Team Fortress","app_id":440,"player_count":24,"max_players":24,"Bots":0,"server_type":"Dedicated","server_os":"Linux","password":true,"vac":true,"version":"7961495","steam_id":85568392924469985,"keywords":["nocrits","nodmgspread","payload","uncletopia"],"game_id":440,"stv_port":27026,"stv_name":"Uncletopia | Chicago | 2 | All Maps | STV","players":[{"user_id":48,"name":"GuyGoom","steam_id":76561198254522178,"connected_time":71000000000,"state":"active","ping":54},{"user_id":46,"name":"fi_ji","steam_id":76561198126087725,"connected_time":138000000000,"state":"active","ping":67},{"user_id":8,"name":"Shaunt","steam_id":76561198171551057,"connected_time":3019000000000,"state":"active","ping":51},{"user_id":9,"name":"onion connoisseur","steam_id":76561198065266282,"connected_time":2920000000000,"state":"active","ping":72},{"user_id":10,"name":"GreatTimBones","steam_id":76561198409145748,"connected_time":2902000000000,"state":"active","ping":85},{"user_id":11,"name":"MagicCraftMaster","steam_id":76561198179156615,"connected_time":2843000000000,"state":"active","ping":69},{"user_id":47,"name":"Lumnop","steam_id":76561198038458838,"connected_time":123000000000,"state":"active","ping":60},{"user_id":39,"name":"gale","steam_id":76561198250068972,"connected_time":1289000000000,"state":"active","ping":99},{"user_id":14,"name":"Alecto","steam_id":76561198042476864,"connected_time":2625000000000,"state":"active","ping":53},{"user_id":36,"name":"Luca!","steam_id":76561198137880777,"connected_time":1418000000000,"state":"active","ping":88},{"user_id":41,"name":"Dreszerg","steam_id":76561198838757422,"connected_time":1166000000000,"state":"active","ping":86},{"user_id":18,"name":"little goblin man","steam_id":76561198880907211,"connected_time":2479000000000,"state":"active","ping":62},{"user_id":19,"name":"Aspxts","steam_id":76561199125254746,"connected_time":2464000000000,"state":"active","ping":55},{"user_id":21,"name":"GX thedittoguy","steam_id":76561199013129784,"connected_time":2341000000000,"state":"active","ping":80},{"user_id":22,"name":"2 hours of sleep","steam_id":76561198868600487,"connected_time":2299000000000,"state":"active","ping":107},{"user_id":23,"name":"JC The Dumb","steam_id":76561199186185567,"connected_time":2289000000000,"state":"active","ping":113},{"user_id":24,"name":"GX Compress Dong","steam_id":76561198018950826,"connected_time":2273000000000,"state":"active","ping":92},{"user_id":25,"name":"Pandora Nyx","steam_id":76561198093475054,"connected_time":2246000000000,"state":"active","ping":64},{"user_id":45,"name":"Mr. Tickle","steam_id":76561198126684647,"connected_time":931000000000,"state":"active","ping":66},{"user_id":42,"name":"CherriKat","steam_id":76561198821297512,"connected_time":1162000000000,"state":"active","ping":104},{"user_id":43,"name":"Crazy Insane Proboscis Monkey","steam_id":76561198061011176,"connected_time":1161000000000,"state":"active","ping":90},{"user_id":31,"name":"Nemesis Vampy üè¥‚ò≠","steam_id":76561198092062889,"connected_time":2081000000000,"state":"active","ping":75},{"user_id":49,"name":"Kirby.exe","steam_id":76561198242714582,"connected_time":58000000000,"state":"spawning","ping":260},{"user_id":38,"name":"Mister36","steam_id":76561198019132100,"connected_time":1400000000000,"state":"active","ping":60}]},{"server_id":402,"name":"Uncletopia | Chicago | 3 | All Maps","name_short":"chi-3","host":"chi-1.us.uncletopia.com","port":27035,"enabled":true,"region":"us-central","cc":"us","latitude":41.881832,"longitude":-87.62318,"reserved":0,"last_update":"0001-01-01T00:00:00Z","name_a2s":"Uncletopia | Chicago | 3 | All Maps","protocol":17,"map":"pl_swiftwater_final1","folder":"tf","game":"Team Fortress","app_id":440,"player_count":22,"max_players":24,"Bots":0,"server_type":"Dedicated","server_os":"Linux","password":true,"vac":true,"version":"7961495","steam_id":85568392924515191,"keywords":["nocrits","nodmgspread","payload","uncletopia"],"game_id":440,"stv_port":27036,"stv_name":"Uncletopia | Chicago | 3 | All Maps | STV","players":[{"user_id":156,"name":"Rappitor","steam_id":76561198105613110,"connected_time":4710000000000,"state":"active","ping":47},{"user_id":219,"name":"Xynnan","steam_id":76561198122232186,"connected_time":3487000000000,"state":"active","ping":72},{"user_id":71,"name":"Nefy","steam_id":76561198030017316,"connected_time":7401000000000,"state":"active","ping":81},{"user_id":7,"name":"CreateADebate","steam_id":76561198115760035,"connected_time":12556000000000,"state":"active","ping":63},{"user_id":327,"name":"toastloard","steam_id":76561198368386853,"connected_time":166000000000,"state":"active","ping":60},{"user_id":325,"name":"boog","steam_id":76561197993699665,"connected_time":506000000000,"state":"active","ping":81},{"user_id":324,"name":"The Greendale Human Beings","steam_id":76561198055433422,"connected_time":641000000000,"state":"active","ping":100},{"user_id":330,"name":"MonkyBoo","steam_id":76561198304371716,"connected_time":60000000000,"state":"active","ping":63},{"user_id":320,"name":"rapscallion","steam_id":76561198188722751,"connected_time":1302000000000,"state":"active","ping":91},{"user_id":305,"name":"ChillmyGrill","steam_id":76561199112703727,"connected_time":2091000000000,"state":"active","ping":76},{"user_id":321,"name":"***FoRgIvEn ***","steam_id":76561199216222247,"connected_time":1110000000000,"state":"active","ping":89},{"user_id":331,"name":"Fredrick","steam_id":76561197981419964,"connected_time":22000000000,"state":"active","ping":69},{"user_id":328,"name":"Rin \"Hindwing\" Redtail","steam_id":76561199074865638,"connected_time":119000000000,"state":"active","ping":73},{"user_id":329,"name":"Bee","steam_id":76561198074681324,"connected_time":113000000000,"state":"active","ping":63},{"user_id":19,"name":"Lost","steam_id":76561198093713427,"connected_time":11890000000000,"state":"active","ping":60},{"user_id":307,"name":"TheAyteYo","steam_id":76561198401002628,"connected_time":2083000000000,"state":"active","ping":69},{"user_id":332,"name":"irritable vowel syndrome","steam_id":76561198117033273,"connected_time":18000000000,"state":"active","ping":145},{"user_id":89,"name":"Drachma","steam_id":76561198007310514,"connected_time":6159000000000,"state":"active","ping":55},{"user_id":209,"name":"June","steam_id":76561198268826419,"connected_time":3594000000000,"state":"active","ping":71},{"user_id":318,"name":"fictitious swag circulation","steam_id":76561198072179483,"connected_time":1654000000000,"state":"active","ping":93},{"user_id":323,"name":"SpyMann","steam_id":76561198242718980,"connected_time":856000000000,"state":"active","ping":71},{"user_id":118,"name":"pop7up","steam_id":76561198159869674,"connected_time":5110000000000,"state":"active","ping":68}]},{"server_id":403,"name":"Uncletopia | Chicago | 4 | All Maps","name_short":"chi-4","host":"chi-1.us.uncletopia.com","port":27045,"enabled":true,"region":"us-central","cc":"us","latitude":41.881832,"longitude":-87.62318,"reserved":0,"last_update":"0001-01-01T00:00:00Z","name_a2s":"Uncletopia | Chicago | 4 | All Maps","protocol":17,"map":"cp_process_final","folder":"tf","game":"Team Fortress","app_id":440,"player_count":25,"max_players":24,"Bots":0,"server_type":"Dedicated","server_os":"Linux","password":true,"vac":true,"version":"7961495","steam_id":85568392924515193,"keywords":["cp","nocrits","nodmgspread","uncletopia"],"game_id":440,"stv_port":27046,"stv_name":"Uncletopia | Chicago | 4 | All Maps | STV","players":[{"user_id":34,"name":"toerpe","steam_id":76561198055678550,"connected_time":253000000000,"state":"active","ping":79},{"user_id":29,"name":"Sham Cow","steam_id":76561198064556977,"connected_time":362000000000,"state":"active","ping":90},{"user_id":23,"name":"Amyxts36","steam_id":76561198872232094,"connected_time":632000000000,"state":"active","ping":68},{"user_id":24,"name":"feenman","steam_id":76561199383834799,"connected_time":614000000000,"state":"active","ping":88},{"user_id":15,"name":"McSmitten","steam_id":76561198022358379,"connected_time":1111000000000,"state":"active","ping":74},{"user_id":45,"name":"femboy official","steam_id":76561198149371666,"connected_time":9000000000,"state":"spawning","ping":122},{"user_id":17,"name":"Kisune","steam_id":76561199368978007,"connected_time":947000000000,"state":"active","ping":58},{"user_id":18,"name":"The Great Eagle Scourge of 1822","steam_id":76561198325086209,"connected_time":934000000000,"state":"active","ping":112},{"user_id":26,"name":"NikoOS (NO SOUND)","steam_id":76561198180020521,"connected_time":476000000000,"state":"active","ping":160},{"user_id":27,"name":"‚ô• alixei! ‚ô•","steam_id":76561198014557455,"connected_time":428000000000,"state":"active","ping":54},{"user_id":28,"name":"Knifedge825","steam_id":76561198423967605,"connected_time":412000000000,"state":"active","ping":64},{"user_id":30,"name":"Spoon ¬Ω","steam_id":76561198032696548,"connected_time":357000000000,"state":"active","ping":151},{"user_id":31,"name":"grimscar500","steam_id":76561198814014565,"connected_time":343000000000,"state":"active","ping":107},{"user_id":32,"name":"Stewie","steam_id":76561197991798513,"connected_time":331000000000,"state":"active","ping":79},{"user_id":33,"name":"Sqilliam Afton","steam_id":76561198326052355,"connected_time":300000000000,"state":"active","ping":156},{"user_id":35,"name":"Bada Bingus","steam_id":76561198046743307,"connected_time":218000000000,"state":"active","ping":89},{"user_id":36,"name":"eaglesfan609","steam_id":76561198151032242,"connected_time":217000000000,"state":"active","ping":61},{"user_id":37,"name":"Gaminglast","steam_id":76561198362927765,"connected_time":177000000000,"state":"active","ping":164},{"user_id":38,"name":"CoralDawn","steam_id":76561198292292930,"connected_time":151000000000,"state":"active","ping":62},{"user_id":39,"name":"Freddy fatbear","steam_id":76561199077997794,"connected_time":136000000000,"state":"active","ping":88},{"user_id":40,"name":"FinnGator","steam_id":76561198241766488,"connected_time":113000000000,"state":"active","ping":85},{"user_id":41,"name":"Fraglin","steam_id":76561198124964000,"connected_time":97000000000,"state":"active","ping":105},{"user_id":42,"name":"King","steam_id":76561198039763676,"connected_time":83000000000,"state":"active","ping":78},{"user_id":43,"name":"tumoronmynuts","steam_id":76561198372676773,"connected_time":72000000000,"state":"active","ping":80},{"user_id":46,"name":"Jamie","steam_id":76561198058840477,"connected_time":5000000000,"state":"spawning","ping":87}]},{"server_id":36,"name":"Uncletopia | Chicago | 5 | All Maps","name_short":"chi-5","host":"chi-2.us.uncletopia.com","port":27015,"enabled":true,"region":"us-central","cc":"us","latitude":41.881832,"longitude":-87.62318,"reserved":0,"last_update":"0001-01-01T00:00:00Z","name_a2s":"Uncletopia | Chicago | 5 | All Maps","protocol":17,"map":"koth_viaduct","folder":"tf","game":"Team Fortress","app_id":440,"player_count":1,"max_players":24,"Bots":0,"server_type":"Dedicated","server_os":"Linux","password":true,"vac":true,"version":"7961495","steam_id":85568392924866362,"keywords":["cp","nocrits","nodmgspread","uncletopia"],"game_id":440,"stv_port":27016,"stv_name":"Uncletopia | Chicago | 5 | All Maps | STV","players":[{"user_id":4,"name":"gen","steam_id":76561199118569153,"connected_time":388000000000,"state":"active","ping":50}]},{"server_id":37,"name":"Uncletopia | Chicago | 6 | All Maps","name_short":"chi-6","host":"chi-2.us.uncletopia.com","port":27025,"enabled":true,"region":"us-central","cc":"us","latitude":41.881832,"longitude":-87.62318,"reserved":0,"last_update":"0001-01-01T00:00:00Z","name_a2s":"Uncletopia | Chicago | 6 | All Maps","protocol":17,"map":"cp_process_final","folder":"tf","game":"Team Fortress","app_id":440,"player_count":21,"max_players":24,"Bots":0,"server_type":"Dedicated","server_os":"Linux","password":true,"vac":true,"version":"7961495","steam_id":85568392924866363,"keywords":["cp","nocrits","nodmgspread","uncletopia"],"game_id":440,"stv_port":27026,"stv_name":"Uncletopia | Chicago | 6 | All Maps | STV","players":[{"user_id":125,"name":"murderous deer","steam_id":76561198350832152,"connected_time":2726000000000,"state":"active","ping":73},{"user_id":168,"name":"That Dude","steam_id":76561198980486227,"connected_time":37000000000,"state":"spawning","ping":99},{"user_id":162,"name":"Blankfield","steam_id":76561199013167718,"connected_time":738000000000,"state":"active","ping":72},{"user_id":105,"name":"Cheesi","steam_id":76561199417190840,"connected_time":4838000000000,"state":"active","ping":62},{"user_id":165,"name":"pipepeepi","steam_id":76561198845905873,"connected_time":288000000000,"state":"active","ping":60},{"user_id":159,"name":"Drew P. Sack","steam_id":76561198036201738,"connected_time":903000000000,"state":"active","ping":56},{"user_id":133,"name":"Sir Loincloth","steam_id":76561198033073991,"connected_time":1978000000000,"state":"active","ping":71},{"user_id":161,"name":"Huntpk","steam_id":76561198340591674,"connected_time":758000000000,"state":"active","ping":40},{"user_id":130,"name":"LukeLeal","steam_id":76561198049822995,"connected_time":2288000000000,"state":"active","ping":167},{"user_id":154,"name":"Urbanzpinapple","steam_id":76561198115426938,"connected_time":1339000000000,"state":"active","ping":59},{"user_id":136,"name":"Crazy Cane","steam_id":76561198993941174,"connected_time":1741000000000,"state":"active","ping":70},{"user_id":151,"name":"crayonnipple","steam_id":76561198070253331,"connected_time":1364000000000,"state":"active","ping":61},{"user_id":160,"name":"Gigacheat","steam_id":76561198862843572,"connected_time":791000000000,"state":"active","ping":74},{"user_id":164,"name":"tacofever","steam_id":76561198010966507,"connected_time":330000000000,"state":"active","ping":100},{"user_id":107,"name":"skoops","steam_id":76561198083276946,"connected_time":4806000000000,"state":"active","ping":70},{"user_id":155,"name":"ElChuchoXf","steam_id":76561199235124146,"connected_time":1279000000000,"state":"active","ping":147},{"user_id":117,"name":"FunnyUsernameWow","steam_id":76561198324177635,"connected_time":3735000000000,"state":"active","ping":61},{"user_id":138,"name":"poiuytrewqwqwqwqwqwqwqwqwqwqwqw","steam_id":76561199105253001,"connected_time":1487000000000,"state":"active","ping":74},{"user_id":166,"name":"garette‚Ñ¢","steam_id":76561198330911140,"connected_time":261000000000,"state":"active","ping":78},{"user_id":148,"name":"Billy Mays","steam_id":76561197998876324,"connected_time":1371000000000,"state":"active","ping":81},{"user_id":167,"name":"JsLo64V","steam_id":76561199076233876,"connected_time":132000000000,"state":"active","ping":155}]},{"server_id":38,"name":"Uncletopia | Chicago | 7 | Stopwatch","name_short":"chi-7","host":"chi-2.us.uncletopia.com","port":27035,"enabled":true,"region":"us-central","cc":"us","latitude":41.881832,"longitude":-87.62318,"reserved":0,"last_update":"0001-01-01T00:00:00Z","name_a2s":"Uncletopia | Chicago | 7 | Stopwatch","protocol":17,"map":"pl_badwater","folder":"tf","game":"Team Fortress","app_id":440,"player_count":0,"max_players":24,"Bots":0,"server_type":"Dedicated","server_os":"Linux","password":true,"vac":true,"version":"7961495","steam_id":85568392924866364,"keywords":["nocrits","nodmgspread","payload","uncletopia"],"game_id":440,"stv_port":27036,"stv_name":"Uncletopia | Chicago | 7 | Stopwatch | STV","players":null},{"server_id":39,"name":"Uncletopia | Chicago | 8 | Community","name_short":"chi-8","host":"chi-2.us.uncletopia.com","port":27045,"enabled":true,"region":"us-central","cc":"us","latitude":41.881832,"longitude":-87.62318,"reserved":0,"last_update":"0001-01-01T00:00:00Z","name_a2s":"Uncletopia | Chicago | 8 | Community","protocol":17,"map":"workshop/pl_badwater_pro_v12.ugc2142942074","folder":"tf","game":"Team Fortress","app_id":440,"player_count":1,"max_players":24,"Bots":0,"server_type":"Dedicated","server_os":"Linux","password":true,"vac":true,"version":"7961495","steam_id":85568392924866365,"keywords":["nocrits","nodmgspread","payload","uncletopia"],"game_id":440,"stv_port":27046,"stv_name":"Uncletopia | Chicago | 8 | Community | STV","players":[{"user_id":5,"name":"beastierbeast","steam_id":76561199030645530,"connected_time":111000000000,"state":"active","ping":54}]},{"server_id":8,"name":"Uncletopia | Dallas | 1 | All Maps","name_short":"dal-1","host":"dal-1.us.uncletopia.com","port":27015,"enabled":true,"region":"us-central","cc":"us","latitude":32.779167,"longitude":-96.80889,"reserved":0,"last_update":"0001-01-01T00:00:00Z","name_a2s":"Uncletopia | Dallas | 1 | All Maps","protocol":17,"map":"pl_snowycoast","folder":"tf","game":"Team Fortress","app_id":440,"player_count":24,"max_players":24,"Bots":0,"server_type":"Dedicated","server_os":"Linux","password":true,"vac":true,"version":"7961495","steam_id":85568392924469986,"keywords":["nocrits","nodmgspread","payload","uncletopia"],"game_id":440,"stv_port":27016,"stv_name":"Uncletopia | Dallas | 1 | All Maps | STV","players":[{"user_id":201,"name":"alejandro","steam_id":76561198095113674,"connected_time":825000000000,"state":"active","ping":82},{"user_id":200,"name":"Crack Addict","steam_id":76561198166681494,"connected_time":899000000000,"state":"active","ping":45},{"user_id":166,"name":"Alkimia","steam_id":76561198385763137,"connected_time":4463000000000,"state":"active","ping":142},{"user_id":202,"name":"jerma but crying and lesbian","steam_id":76561198110661425,"connected_time":818000000000,"state":"active","ping":70},{"user_id":157,"name":"Carbonated Cocaine","steam_id":76561198110678966,"connected_time":5149000000000,"state":"active","ping":50},{"user_id":198,"name":"stupid jim","steam_id":76561199077027954,"connected_time":1155000000000,"state":"active","ping":60},{"user_id":138,"name":"Gobl1n","steam_id":76561198808610991,"connected_time":5713000000000,"state":"active","ping":82},{"user_id":195,"name":"StarStrike","steam_id":76561198176532091,"connected_time":1460000000000,"state":"active","ping":70},{"user_id":175,"name":"K4$P3–Ø","steam_id":76561198263271697,"connected_time":2681000000000,"state":"active","ping":62},{"user_id":204,"name":"Prof. Eggnog","steam_id":76561198193389166,"connected_time":362000000000,"state":"active","ping":96},{"user_id":182,"name":"tsz","steam_id":76561199246231090,"connected_time":1864000000000,"state":"active","ping":83},{"user_id":188,"name":"TriggerHappyPacifist","steam_id":76561197963455267,"connected_time":1739000000000,"state":"active","ping":184},{"user_id":189,"name":"fearlessbot","steam_id":76561199002587064,"connected_time":1733000000000,"state":"active","ping":166},{"user_id":173,"name":"B.","steam_id":76561198040445907,"connected_time":3075000000000,"state":"active","ping":75},{"user_id":199,"name":"Anor","steam_id":76561198356139775,"connected_time":917000000000,"state":"active","ping":81},{"user_id":190,"name":"Kojo","steam_id":76561198063529069,"connected_time":1732000000000,"state":"active","ping":79},{"user_id":191,"name":"Phos","steam_id":76561198122339506,"connected_time":1716000000000,"state":"active","ping":71},{"user_id":192,"name":"aofi the flat tgirl","steam_id":76561199172110503,"connected_time":1694000000000,"state":"active","ping":48},{"user_id":176,"name":"howbizarre","steam_id":76561198955248082,"connected_time":2544000000000,"state":"active","ping":78},{"user_id":133,"name":"FrostNova","steam_id":76561198348354629,"connected_time":6899000000000,"state":"active","ping":79},{"user_id":194,"name":"ThePriceIsRice","steam_id":76561198079069543,"connected_time":1531000000000,"state":"active","ping":113},{"user_id":197,"name":"tooba","steam_id":76561198202589758,"connected_time":1304000000000,"state":"active","ping":77},{"user_id":205,"name":"Tribute","steam_id":76561198081594043,"connected_time":27000000000,"state":"active","ping":56},{"user_id":135,"name":"atserc","steam_id":76561197997570349,"connected_time":6569000000000,"state":"active","ping":95}]},{"server_id":108,"name":"Uncletopia | Dallas | 2 | All Maps","name_short":"dal-2","host":"dal-1.us.uncletopia.com","port":27025,"enabled":true,"region":"us-central","cc":"us","latitude":32.779167,"longitude":-96.80889,"reserved":0,"last_update":"0001-01-01T00:00:00Z","name_a2s":"Uncletopia | Dallas | 2 | All Maps","protocol":17,"map":"pl_snowycoast","folder":"tf","game":"Team Fortress","app_id":440,"player_count":2,"max_players":24,"Bots":0,"server_type":"Dedicated","server_os":"Linux","password":true,"vac":true,"version":"7961495","steam_id":85568392924469988,"keywords":["nocrits","nodmgspread","payload","uncletopia"],"game_id":440,"stv_port":27026,"stv_name":"Uncletopia | Dallas | 2 | All Maps | STV","players":[{"user_id":6,"name":"Brightmuffin","steam_id":76561198357333409,"connected_time":673000000000,"state":"active","ping":57},{"user_id":8,"name":"Wehttam","steam_id":76561199229493583,"connected_time":169000000000,"state":"active","ping":85}]},{"server_id":404,"name":"Uncletopia | Dallas | 3 | All Maps","name_short":"dal-3","host":"dal-1.us.uncletopia.com","port":27035,"enabled":true,"region":"us-central","cc":"us","latitude":32.779167,"longitude":-96.80889,"reserved":0,"last_update":"0001-01-01T00:00:00Z","name_a2s":"Uncletopia | Dallas | 3 | All Maps","protocol":17,"map":"cp_mountainlab","folder":"tf","game":"Team Fortress","app_id":440,"player_count":1,"max_players":24,"Bots":0,"server_type":"Dedicated","server_os":"Linux","password":true,"vac":true,"version":"7961495","steam_id":85568392924515219,"keywords":["cp","nocrits","nodmgspread","uncletopia"],"game_id":440,"stv_port":27036,"stv_name":"Uncletopia | Dallas | 3 | All Maps | STV","players":[{"user_id":8,"name":"Diehardboom","steam_id":76561198008934263,"connected_time":820000000000,"state":"active","ping":69}]},{"server_id":405,"name":"Uncletopia | Dallas | 4 | Community","name_short":"dal-4","host":"dal-1.us.uncletopia.com","port":27045,"enabled":true,"region":"us-central","cc":"us","latitude":32.779167,"longitude":-96.80889,"reserved":0,"last_update":"0001-01-01T00:00:00Z","name_a2s":"Uncletopia | Dallas | 4 | Community","protocol":17,"map":"pl_pier","folder":"tf","game":"Team Fortress","app_id":440,"player_count":0,"max_players":24,"Bots":0,"server_type":"Dedicated","server_os":"Linux","password":true,"vac":true,"version":"7961495","steam_id":85568392924515220,"keywords":["nocrits","nodmgspread","payload","uncletopia"],"game_id":440,"stv_port":27046,"stv_name":"Uncletopia | Dallas | 4 | Community | STV","players":null},{"server_id":5,"name":"Uncletopia | Frankfurt | 1 | All Maps","name_short":"frk-1","host":"frk-1.de.uncletopia.com","port":27015,"enabled":true,"region":"eu","cc":"de","latitude":50.110924,"longitude":8.682127,"reserved":0,"last_update":"0001-01-01T00:00:00Z","name_a2s":"Uncletopia | Frankfurt | 1 | All Maps","protocol":17,"map":"koth_lakeside_final","folder":"tf","game":"Team Fortress","app_id":440,"player_count":24,"max_players":24,"Bots":0,"server_type":"Dedicated","server_os":"Linux","password":true,"vac":true,"version":"7961495","steam_id":85568392924469989,"keywords":["cp","nocrits","nodmgspread","uncletopia"],"game_id":440,"stv_port":27016,"stv_name":"Uncletopia | Frankfurt | 1 | All Maps | STV","players":[{"user_id":182,"name":"Olufsen","steam_id":76561198009324148,"connected_time":989000000000,"state":"active","ping":101},{"user_id":131,"name":"Wodaz","steam_id":76561198043263557,"connected_time":3716000000000,"state":"active","ping":58},{"user_id":183,"name":"Zu","steam_id":76561198054192354,"connected_time":972000000000,"state":"active","ping":51},{"user_id":194,"name":"Concerned Mothers In Your Area","steam_id":76561198132926700,"connected_time":365000000000,"state":"active","ping":71},{"user_id":178,"name":"jello_hey","steam_id":76561199176327650,"connected_time":1411000000000,"state":"active","ping":144},{"user_id":198,"name":"Virgil","steam_id":76561198248786778,"connected_time":191000000000,"state":"active","ping":115},{"user_id":168,"name":"pajer0","steam_id":76561198002913482,"connected_time":1949000000000,"state":"active","ping":95},{"user_id":179,"name":"ReAnimated","steam_id":76561198070923649,"connected_time":1384000000000,"state":"active","ping":47},{"user_id":196,"name":"Guru","steam_id":76561198093853069,"connected_time":242000000000,"state":"active","ping":56},{"user_id":147,"name":"CommanderLex","steam_id":76561198123115529,"connected_time":2767000000000,"state":"active","ping":55},{"user_id":153,"name":"denismaidanov","steam_id":76561198338601367,"connected_time":2537000000000,"state":"active","ping":100},{"user_id":193,"name":"CatInTheFestiveHat","steam_id":76561198096468920,"connected_time":418000000000,"state":"active","ping":46},{"user_id":189,"name":"bonk","steam_id":76561199158470103,"connected_time":866000000000,"state":"active","ping":151},{"user_id":199,"name":"R!not","steam_id":76561197986328786,"connected_time":143000000000,"state":"active","ping":45},{"user_id":28,"name":"‚ôÇ Animan ‚ôÇ Studios ‚ôÇ","steam_id":76561198308302932,"connected_time":10394000000000,"state":"active","ping":88},{"user_id":197,"name":"Grimbeard","steam_id":76561197961823531,"connected_time":235000000000,"state":"active","ping":55},{"user_id":167,"name":"bl√•haj peek","steam_id":76561198796577795,"connected_time":2001000000000,"state":"active","ping":60},{"user_id":192,"name":"they call me \"the menace\"","steam_id":76561198129828715,"connected_time":512000000000,"state":"active","ping":59},{"user_id":162,"name":"Barry Bee Benson","steam_id":76561198115199225,"connected_time":2149000000000,"state":"active","ping":60},{"user_id":176,"name":"Cocsam","steam_id":76561198050827179,"connected_time":1577000000000,"state":"active","ping":63},{"user_id":187,"name":"–¥–∂–µ–≥–µ–º–∏ —Ö—ç–ø–∫–∏–Ω–≥—Å","steam_id":76561198131531394,"connected_time":901000000000,"state":"active","ping":95},{"user_id":151,"name":"MR BUBBLES","steam_id":76561198019005259,"connected_time":2586000000000,"state":"active","ping":99},{"user_id":188,"name":"misha YB`g","steam_id":76561198066656865,"connected_time":886000000000,"state":"active","ping":46},{"user_id":200,"name":"The One (and only)","steam_id":76561198827193499,"connected_time":115000000000,"state":"active","ping":68}]},{"server_id":110,"name":"Uncletopia | Frankfurt | 2 | All Maps","name_short":"frk-2","host":"frk-1.de.uncletopia.com","port":27025,"enabled":true,"region":"eu","cc":"de","latitude":50.110924,"longitude":8.682127,"reserved":0,"last_update":"0001-01-01T00:00:00Z","name_a2s":"Uncletopia | Frankfurt | 2 | All Maps","protocol":17,"map":"cp_process_final","folder":"tf","game":"Team Fortress","app_id":440,"player_count":8,"max_players":24,"Bots":0,"server_type":"Dedicated","server_os":"Linux","password":true,"vac":true,"version":"7961495","steam_id":85568392924469990,"keywords":["cp","nocrits","nodmgspread","uncletopia"],"game_id":440,"stv_port":27026,"stv_name":"Uncletopia | Frankfurt | 2 | All Maps | STV","players":[{"user_id":386,"name":"Shapeshifter","steam_id":76561198052898368,"connected_time":5422000000000,"state":"active","ping":78},{"user_id":430,"name":"Professionals Have Standards","steam_id":76561199400481314,"connected_time":308000000000,"state":"active","ping":68},{"user_id":432,"name":"mushroom","steam_id":76561198817034571,"connected_time":42000000000,"state":"active","ping":77},{"user_id":428,"name":"Driver's drunkest God","steam_id":76561198969373800,"connected_time":699000000000,"state":"active","ping":70},{"user_id":431,"name":"JackDegle","steam_id":76561198427027677,"connected_time":258000000000,"state":"active","ping":61},{"user_id":433,"name":"crack cloud$","steam_id":76561198111134021,"connected_time":3000000000,"state":"spawning","ping":90},{"user_id":363,"name":"FAZE supercharger832","steam_id":76561198871408515,"connected_time":6551000000000,"state":"active","ping":49},{"user_id":414,"name":"nevim","steam_id":76561199120843402,"connected_time":2537000000000,"state":"active","ping":45}]},{"server_id":308,"name":"Uncletopia | Frankfurt | 3 | All Maps","name_short":"frk-3","host":"frk-1.de.uncletopia.com","port":27035,"enabled":true,"region":"eu","cc":"de","latitude":50.110924,"longitude":8.682127,"reserved":0,"last_update":"0001-01-01T00:00:00Z","name_a2s":"Uncletopia | Frankfurt | 3 | All Maps","protocol":17,"map":"pl_thundermountain","folder":"tf","game":"Team Fortress","app_id":440,"player_count":22,"max_players":24,"Bots":0,"server_type":"Dedicated","server_os":"Linux","password":true,"vac":true,"version":"7961495","steam_id":85568392924504274,"keywords":["nocrits","nodmgspread","payload","uncletopia"],"game_id":440,"stv_port":27036,"stv_name":"Uncletopia | Frankfurt | 3 | All Maps | STV","players":[{"user_id":264,"name":"√ñmer","steam_id":76561199143290099,"connected_time":40000000000,"state":"active","ping":91},{"user_id":265,"name":"galaxy","steam_id":76561198164819022,"connected_time":14000000000,"state":"active","ping":64},{"user_id":238,"name":"Volt","steam_id":76561198237074532,"connected_time":1299000000000,"state":"active","ping":104},{"user_id":208,"name":"dispenser","steam_id":76561199008411791,"connected_time":3311000000000,"state":"active","ping":59},{"user_id":240,"name":"Danwise Dangee","steam_id":76561197980723749,"connected_time":1146000000000,"state":"active","ping":69},{"user_id":242,"name":"Mopey_HippoTTV","steam_id":76561198040354226,"connected_time":1069000000000,"state":"active","ping":69},{"user_id":246,"name":"scrunt","steam_id":76561198128250460,"connected_time":490000000000,"state":"active","ping":112},{"user_id":258,"name":"Qwerty","steam_id":76561198023525894,"connected_time":248000000000,"state":"active","ping":73},{"user_id":248,"name":"Lucki","steam_id":76561198410249745,"connected_time":471000000000,"state":"active","ping":74},{"user_id":263,"name":"Acekeni‚Ñ¢ ‚à§ [GMD]","steam_id":76561198352700499,"connected_time":83000000000,"state":"active","ping":75},{"user_id":254,"name":"wolfgang","steam_id":76561199111818670,"connected_time":351000000000,"state":"active","ping":128},{"user_id":219,"name":"GlueTasty {she/her}","steam_id":76561199086480891,"connected_time":2670000000000,"state":"active","ping":70},{"user_id":252,"name":"Gunvald","steam_id":76561198020195322,"connected_time":399000000000,"state":"active","ping":83},{"user_id":255,"name":"Well","steam_id":76561198411337640,"connected_time":335000000000,"state":"active","ping":90},{"user_id":230,"name":"PashaVerti","steam_id":76561199013963024,"connected_time":2301000000000,"state":"active","ping":70},{"user_id":256,"name":"Shlyk","steam_id":76561198333387103,"connected_time":315000000000,"state":"active","ping":100},{"user_id":257,"name":"r0la","steam_id":76561198128315340,"connected_time":280000000000,"state":"active","ping":120},{"user_id":259,"name":"JamesPepega","steam_id":76561198019156154,"connected_time":239000000000,"state":"active","ping":63},{"user_id":260,"name":"i do hard drugs on the regular","steam_id":76561198263228457,"connected_time":170000000000,"state":"active","ping":98},{"user_id":261,"name":"starplatinumdiozawarudo1","steam_id":76561199425261653,"connected_time":162000000000,"state":"active","ping":79},{"user_id":262,"name":"highest noon","steam_id":76561199103959197,"connected_time":161000000000,"state":"active","ping":101},{"user_id":192,"name":"you like buff tf2 men don't you","steam_id":76561198837586838,"connected_time":4142000000000,"state":"active","ping":71}]},{"server_id":309,"name":"Uncletopia | Frankfurt | 4 | All Maps","name_short":"frk-4","host":"frk-1.de.uncletopia.com","port":27045,"enabled":true,"region":"eu","cc":"de","latitude":50.110924,"longitude":8.682127,"reserved":0,"last_update":"0001-01-01T00:00:00Z","name_a2s":"Uncletopia | Frankfurt | 4 | All Maps","protocol":17,"map":"koth_suijin","folder":"tf","game":"Team Fortress","app_id":440,"player_count":24,"max_players":24,"Bots":0,"server_type":"Dedicated","server_os":"Linux","password":true,"vac":true,"version":"7961495","steam_id":85568392924504275,"keywords":["cp","nocrits","nodmgspread","uncletopia"],"game_id":440,"stv_port":27046,"stv_name":"Uncletopia | Frankfurt | 4 | All Maps | STV","players":[{"user_id":384,"name":"ü•∂üíéAntonüíéü•∂","steam_id":76561198353673297,"connected_time":73000000000,"state":"active","ping":59},{"user_id":376,"name":"Akker","steam_id":76561199000630792,"connected_time":665000000000,"state":"active","ping":51},{"user_id":377,"name":"Fran","steam_id":76561199070516960,"connected_time":625000000000,"state":"active","ping":57},{"user_id":345,"name":"Space","steam_id":76561198021572167,"connected_time":3721000000000,"state":"active","ping":59},{"user_id":372,"name":"marvi444","steam_id":76561198431534139,"connected_time":1248000000000,"state":"active","ping":38},{"user_id":355,"name":"Alice","steam_id":76561198052410860,"connected_time":2507000000000,"state":"active","ping":148},{"user_id":378,"name":"íÜú·¥Ä·¥ã·¥Ä…™…¥·¥úíÜú","steam_id":76561199089954377,"connected_time":616000000000,"state":"active","ping":71},{"user_id":364,"name":"shix","steam_id":76561198819968777,"connected_time":1712000000000,"state":"active","ping":92},{"user_id":353,"name":"Aye Aye","steam_id":76561199012566222,"connected_time":2882000000000,"state":"active","ping":52},{"user_id":385,"name":"DraftLight","steam_id":76561198012059990,"connected_time":47000000000,"state":"active","ping":57},{"user_id":379,"name":"tom.isboosted","steam_id":76561198863833655,"connected_time":578000000000,"state":"active","ping":76},{"user_id":311,"name":"Mantella","steam_id":76561198982047757,"connected_time":5612000000000,"state":"active","ping":61},{"user_id":296,"name":"dan1el","steam_id":76561198358104049,"connected_time":6934000000000,"state":"active","ping":115},{"user_id":366,"name":"Cheese","steam_id":76561198146419076,"connected_time":1476000000000,"state":"active","ping":68},{"user_id":346,"name":"Birdseye","steam_id":76561198025852216,"connected_time":3582000000000,"state":"active","ping":60},{"user_id":342,"name":"failed poet","steam_id":76561198987041283,"connected_time":3811000000000,"state":"active","ping":64},{"user_id":367,"name":"waddle dork","steam_id":76561198297349985,"connected_time":1472000000000,"state":"active","ping":55},{"user_id":359,"name":"im tired","steam_id":76561198812159557,"connected_time":2078000000000,"state":"active","ping":69},{"user_id":337,"name":"Gimli","steam_id":76561198004149706,"connected_time":4124000000000,"state":"active","ping":71},{"user_id":349,"name":"Eyosh","steam_id":76561197998352095,"connected_time":2973000000000,"state":"active","ping":54},{"user_id":383,"name":"RiX","steam_id":76561197969053733,"connected_time":213000000000,"state":"active","ping":69},{"user_id":380,"name":"The Manager of Sex (Real)","steam_id":76561198385989487,"connected_time":569000000000,"state":"active","ping":100},{"user_id":336,"name":"Kitfist","steam_id":76561198048559338,"connected_time":4155000000000,"state":"active","ping":63},{"user_id":381,"name":"kastanomata","steam_id":76561198271832763,"connected_time":568000000000,"state":"active","ping":69}]},{"server_id":310,"name":"Uncletopia | Frankfurt | 5 | All Maps","name_short":"frk-5","host":"frk-1.de.uncletopia.com","port":27055,"enabled":true,"region":"eu","cc":"de","latitude":50.110924,"longitude":8.682127,"reserved":0,"last_update":"0001-01-01T00:00:00Z","name_a2s":"Uncletopia | Frankfurt | 5 | All Maps","protocol":17,"map":"koth_sawmill","folder":"tf","game":"Team Fortress","app_id":440,"player_count":24,"max_players":24,"Bots":0,"server_type":"Dedicated","server_os":"Linux","password":true,"vac":true,"version":"7961495","steam_id":85568392924504277,"keywords":["cp","nocrits","nodmgspread","uncletopia"],"game_id":440,"stv_port":27056,"stv_name":"Uncletopia | Frankfurt | 5 | All Maps | STV","players":[{"user_id":272,"name":"Nick","steam_id":76561198036109469,"connected_time":4556000000000,"state":"active","ping":91},{"user_id":347,"name":"pl_badwater","steam_id":76561199407941086,"connected_time":962000000000,"state":"active","ping":60},{"user_id":344,"name":"Salih","steam_id":76561198287934839,"connected_time":1137000000000,"state":"active","ping":51},{"user_id":354,"name":"Jeerven","steam_id":76561198259189841,"connected_time":600000000000,"state":"active","ping":60},{"user_id":282,"name":"Syd","steam_id":76561198020515027,"connected_time":3503000000000,"state":"active","ping":101},{"user_id":348,"name":"aaron","steam_id":76561198388750592,"connected_time":867000000000,"state":"active","ping":53},{"user_id":362,"name":"MayhemDeLuxe","steam_id":76561198114298414,"connected_time":101000000000,"state":"active","ping":60},{"user_id":349,"name":"Wojtman Laughman","steam_id":76561198215426891,"connected_time":791000000000,"state":"active","ping":68},{"user_id":339,"name":"Staudi","steam_id":76561198051338007,"connected_time":1311000000000,"state":"active","ping":104},{"user_id":289,"name":"midlpsyzl47","steam_id":76561199475972637,"connected_time":3275000000000,"state":"active","ping":71},{"user_id":321,"name":"gooschha","steam_id":76561198064837246,"connected_time":1838000000000,"state":"active","ping":57},{"user_id":356,"name":"hardy","steam_id":76561198029228735,"connected_time":550000000000,"state":"active","ping":92},{"user_id":357,"name":"Meshers","steam_id":76561198260064322,"connected_time":540000000000,"state":"active","ping":74},{"user_id":248,"name":"Rocket¬≤","steam_id":76561198305856721,"connected_time":5629000000000,"state":"active","ping":77},{"user_id":340,"name":"Astrocards","steam_id":76561199184079830,"connected_time":1310000000000,"state":"active","ping":162},{"user_id":363,"name":"Copium Inhaler","steam_id":76561198045143915,"connected_time":53000000000,"state":"active","ping":83},{"user_id":345,"name":"Lewylow","steam_id":76561198005425686,"connected_time":1076000000000,"state":"active","ping":62},{"user_id":249,"name":"Taconice","steam_id":76561198057812100,"connected_time":5620000000000,"state":"active","ping":81},{"user_id":364,"name":"miguel","steam_id":76561198147584613,"connected_time":46000000000,"state":"active","ping":68},{"user_id":295,"name":"Lgnd","steam_id":76561199178109069,"connected_time":2955000000000,"state":"active","ping":103},{"user_id":268,"name":"BAMBAH","steam_id":76561198089591177,"connected_time":4730000000000,"state":"active","ping":65},{"user_id":353,"name":"maliyk","steam_id":76561199083648131,"connected_time":731000000000,"state":"active","ping":161},{"user_id":366,"name":"Qdarks","steam_id":76561198013391340,"connected_time":43000000000,"state":"active","ping":145},{"user_id":367,"name":"Ball Brother 3","steam_id":76561198817410355,"connected_time":28000000000,"state":"spawning","ping":88}]},{"server_id":311,"name":"Uncletopia | Frankfurt | 6 | All Maps","name_short":"frk-6","host":"frk-1.de.uncletopia.com","port":27065,"enabled":true,"region":"eu","cc":"de","latitude":50.110924,"longitude":8.682127,"reserved":0,"last_update":"0001-01-01T00:00:00Z","name_a2s":"Uncletopia | Frankfurt | 6 | All Maps","protocol":17,"map":"cp_sunshine","folder":"tf","game":"Team Fortress","app_id":440,"player_count":24,"max_players":24,"Bots":0,"server_type":"Dedicated","server_os":"Linux","password":true,"vac":true,"version":"7961495","steam_id":85568392924504278,"keywords":["cp","nocrits","nodmgspread","uncletopia"],"game_id":440,"stv_port":27066,"stv_name":"Uncletopia | Frankfurt | 6 | All Maps | STV","players":[{"user_id":332,"name":"Superiumentarius","steam_id":76561198081642249,"connected_time":910000000000,"state":"active","ping":45},{"user_id":295,"name":"endlesshills","steam_id":76561198081908373,"connected_time":3776000000000,"state":"active","ping":54},{"user_id":342,"name":"‚òûLaZe‚òú","steam_id":76561198202191400,"connected_time":457000000000,"state":"active","ping":62},{"user_id":331,"name":"XPullaHiiri","steam_id":76561198031652375,"connected_time":943000000000,"state":"active","ping":87},{"user_id":325,"name":"fisch","steam_id":76561198382833003,"connected_time":1294000000000,"state":"active","ping":60},{"user_id":340,"name":"mark","steam_id":76561198309246388,"connected_time":471000000000,"state":"active","ping":46},{"user_id":296,"name":"WiLD","steam_id":76561198345622161,"connected_time":3769000000000,"state":"active","ping":82},{"user_id":350,"name":"froglids","steam_id":76561198045466919,"connected_time":68000000000,"state":"active","ping":61},{"user_id":277,"name":"Cosmetic brain","steam_id":76561198055936410,"connected_time":5322000000000,"state":"active","ping":89},{"user_id":292,"name":"avanaR","steam_id":76561198132062124,"connected_time":4085000000000,"state":"active","ping":64},{"user_id":328,"name":"Nittugai","steam_id":76561198067366462,"connected_time":1133000000000,"state":"active","ping":61},{"user_id":343,"name":"alss2008","steam_id":76561198003927328,"connected_time":444000000000,"state":"active","ping":81},{"user_id":327,"name":"bAdmon","steam_id":76561197961785793,"connected_time":1207000000000,"state":"active","ping":56},{"user_id":306,"name":"ALARM","steam_id":76561198120686521,"connected_time":3191000000000,"state":"active","ping":48},{"user_id":351,"name":"A Bl√•haj Fan","steam_id":76561199029212388,"connected_time":61000000000,"state":"active","ping":57},{"user_id":324,"name":"Koli","steam_id":76561197992428783,"connected_time":1485000000000,"state":"active","ping":46},{"user_id":345,"name":"jmp","steam_id":76561198168283286,"connected_time":373000000000,"state":"active","ping":63},{"user_id":319,"name":"f√©nix","steam_id":76561198083199151,"connected_time":2125000000000,"state":"active","ping":62},{"user_id":320,"name":"TheHacker-","steam_id":76561198091867843,"connected_time":2073000000000,"state":"active","ping":136},{"user_id":346,"name":"Hamedius","steam_id":76561199152512027,"connected_time":355000000000,"state":"active","ping":69},{"user_id":309,"name":"1couver","steam_id":76561198168553215,"connected_time":2792000000000,"state":"active","ping":102},{"user_id":335,"name":"Fat Pigeon","steam_id":76561198817940142,"connected_time":799000000000,"state":"active","ping":51},{"user_id":347,"name":"Gender Offender","steam_id":76561198369227367,"connected_time":333000000000,"state":"active","ping":84},{"user_id":329,"name":"pef","steam_id":76561198398629859,"connected_time":1012000000000,"state":"active","ping":105}]},{"server_id":23,"name":"Uncletopia | Frankfurt | 7 | Stopwatch","name_short":"frk-7","host":"frk-1.de.uncletopia.com","port":27075,"enabled":true,"region":"eu","cc":"de","latitude":50.110924,"longitude":8.682127,"reserved":0,"last_update":"0001-01-01T00:00:00Z","name_a2s":"Uncletopia | Frankfurt | 7 | Stopwatch","protocol":17,"map":"koth_highpass","folder":"tf","game":"Team Fortress","app_id":440,"player_count":0,"max_players":24,"Bots":0,"server_type":"Dedicated","server_os":"Linux","password":true,"vac":true,"version":"7961495","steam_id":85568392924742827,"keywords":["cp","nocrits","nodmgspread","uncletopia"],"game_id":440,"stv_port":27076,"stv_name":"Uncletopia | Frankfurt | 7 | Stopwatch | STV","players":null},{"server_id":24,"name":"Uncletopia | Frankfurt | 8 | Community","name_short":"frk-8","host":"frk-1.de.uncletopia.com","port":27085,"enabled":true,"region":"eu","cc":"de","latitude":50.110924,"longitude":8.682127,"reserved":0,"last_update":"0001-01-01T00:00:00Z","name_a2s":"Uncletopia | Frankfurt | 8 | Community","protocol":17,"map":"workshop/cp_reckoner_rc6.ugc674719999","folder":"tf","game":"Team Fortress","app_id":440,"player_count":0,"max_players":24,"Bots":0,"server_type":"Dedicated","server_os":"Linux","password":true,"vac":true,"version":"7961495","steam_id":85568392924742828,"keywords":["cp","nocrits","nodmgspread","uncletopia"],"game_id":440,"stv_port":27086,"stv_name":"Uncletopia | Frankfurt | 8 | Community | STV","players":null},{"server_id":202,"name":"Uncletopia | Hong Kong | 1 | All Maps","name_short":"hgk-1","host":"hgk-1.hk.uncletopia.com","port":27015,"enabled":true,"region":"asia","cc":"hk","latitude":22.302711,"longitude":114.177216,"reserved":0,"last_update":"0001-01-01T00:00:00Z","name_a2s":"Uncletopia | Hong Kong | 1 | All Maps","protocol":17,"map":"pl_snowycoast","folder":"tf","game":"Team Fortress","app_id":440,"player_count":24,"max_players":24,"Bots":0,"server_type":"Dedicated","server_os":"Linux","password":true,"vac":true,"version":"7961495","steam_id":85568392924494504,"keywords":["nocrits","nodmgspread","payload","uncletopia"],"game_id":440,"stv_port":27016,"stv_name":"Uncletopia | Hong Kong | 1 | All Maps | STV","players":[{"user_id":688,"name":"Sayo-Nara","steam_id":76561198005744733,"connected_time":3761000000000,"state":"active","ping":92},{"user_id":703,"name":"NootNoot","steam_id":76561199122109977,"connected_time":2725000000000,"state":"active","ping":65},{"user_id":684,"name":"Hatred eyes","steam_id":76561199162652759,"connected_time":4263000000000,"state":"active","ping":66},{"user_id":672,"name":"meowdy","steam_id":76561198337154745,"connected_time":4981000000000,"state":"active","ping":87},{"user_id":718,"name":"Hay","steam_id":76561199438952901,"connected_time":581000000000,"state":"active","ping":52},{"user_id":708,"name":"ÊòØCocoaÂóé","steam_id":76561198972098557,"connected_time":1362000000000,"state":"active","ping":53},{"user_id":705,"name":"TomProPlayer","steam_id":76561199223292521,"connected_time":2179000000000,"state":"active","ping":73},{"user_id":711,"name":"braindead","steam_id":76561198312344936,"connected_time":1097000000000,"state":"active","ping":112},{"user_id":710,"name":"NOPE","steam_id":76561199244543572,"connected_time":1244000000000,"state":"active","ping":66},{"user_id":619,"name":"Momoxhien","steam_id":76561198414997429,"connected_time":6954000000000,"state":"active","ping":64},{"user_id":714,"name":"blobeye","steam_id":76561198420018387,"connected_time":1015000000000,"state":"active","ping":51},{"user_id":616,"name":"ÊØç„ÅÆËÇâÂõ£Â≠ê@hao123.com","steam_id":76561198069561896,"connected_time":7070000000000,"state":"active","ping":44},{"user_id":706,"name":"13MAN","steam_id":76561198900023603,"connected_time":2093000000000,"state":"active","ping":91},{"user_id":685,"name":"Streety","steam_id":76561199098969003,"connected_time":4239000000000,"state":"active","ping":62},{"user_id":717,"name":"moonchiid","steam_id":76561199125350361,"connected_time":757000000000,"state":"active","ping":162},{"user_id":704,"name":"P","steam_id":76561198304514505,"connected_time":2447000000000,"state":"active","ping":83},{"user_id":697,"name":"SunShine","steam_id":76561198323642446,"connected_time":3111000000000,"state":"active","ping":100},{"user_id":715,"name":"SICSIN","steam_id":76561198083923462,"connected_time":994000000000,"state":"active","ping":84},{"user_id":692,"name":"Temsik","steam_id":76561198070234656,"connected_time":3596000000000,"state":"active","ping":133},{"user_id":719,"name":"sert753","steam_id":76561198034441919,"connected_time":538000000000,"state":"active","ping":112},{"user_id":720,"name":"BFG","steam_id":76561198067308685,"connected_time":79000000000,"state":"active","ping":47},{"user_id":721,"name":"Bloeder","steam_id":76561199008174374,"connected_time":57000000000,"state":"active","ping":91},{"user_id":678,"name":"creamüç¶","steam_id":76561198394576258,"connected_time":4644000000000,"state":"active","ping":65},{"user_id":673,"name":"‰ªôÂ•≥Â§¥Â≠ê‰∫éË∞¶","steam_id":76561199031075505,"connected_time":4871000000000,"state":"active","ping":90}]},{"server_id":1,"name":"Uncletopia | Los Angeles | 1 | All Maps","name_short":"lax-1","host":"lax-1.us.uncletopia.com","port":27015,"enabled":true,"region":"us-west","cc":"us","latitude":33.94279,"longitude":-118.41004,"reserved":0,"last_update":"0001-01-01T00:00:00Z","name_a2s":"Uncletopia | Los Angeles | 1 | All Maps","protocol":17,"map":"pl_snowycoast","folder":"tf","game":"Team Fortress","app_id":440,"player_count":0,"max_players":24,"Bots":0,"server_type":"Dedicated","server_os":"Linux","password":true,"vac":true,"version":"7961495","steam_id":85568392924469991,"keywords":["nocrits","nodmgspread","payload","uncletopia"],"game_id":440,"stv_port":27016,"stv_name":"Uncletopia | Los Angeles | 1 | All Maps | STV","players":null},{"server_id":112,"name":"Uncletopia | Los Angeles | 2 | All Maps","name_short":"lax-2","host":"lax-1.us.uncletopia.com","port":27025,"enabled":true,"region":"us-west","cc":"us","latitude":33.94279,"longitude":-118.41004,"reserved":0,"last_update":"0001-01-01T00:00:00Z","name_a2s":"Uncletopia | Los Angeles | 2 | All Maps","protocol":17,"map":"pl_snowycoast","folder":"tf","game":"Team Fortress","app_id":440,"player_count":22,"max_players":24,"Bots":0,"server_type":"Dedicated","server_os":"Linux","password":true,"vac":true,"version":"7961495","steam_id":85568392924469992,"keywords":["nocrits","nodmgspread","payload","uncletopia"],"game_id":440,"stv_port":27026,"stv_name":"Uncletopia | Los Angeles | 2 | All Maps | STV","players":[{"user_id":156,"name":"Umbra (F2P)","steam_id":76561199153209011,"connected_time":415000000000,"state":"active","ping":69},{"user_id":147,"name":"Giantbob","steam_id":76561199043760220,"connected_time":683000000000,"state":"active","ping":68},{"user_id":158,"name":"NASA PEEPO","steam_id":76561198024982267,"connected_time":314000000000,"state":"active","ping":60},{"user_id":136,"name":"FaZe hyazZzZ","steam_id":76561199100342013,"connected_time":1481000000000,"state":"active","ping":48},{"user_id":148,"name":"grand piano tuna","steam_id":76561198135137213,"connected_time":676000000000,"state":"active","ping":76},{"user_id":159,"name":"Pirate with radio","steam_id":76561199247095754,"connected_time":279000000000,"state":"active","ping":135},{"user_id":150,"name":"grape","steam_id":76561199071151136,"connected_time":602000000000,"state":"active","ping":35},{"user_id":130,"name":"K","steam_id":76561198844500671,"connected_time":1906000000000,"state":"active","ping":109},{"user_id":157,"name":"Jade Jetts [She/They]","steam_id":76561198206130076,"connected_time":406000000000,"state":"active","ping":63},{"user_id":144,"name":"Joseph Stalin","steam_id":76561198382398935,"connected_time":763000000000,"state":"active","ping":83},{"user_id":160,"name":"space dog","steam_id":76561198153384032,"connected_time":176000000000,"state":"active","ping":89},{"user_id":145,"name":"Bostonstapler","steam_id":76561197996334971,"connected_time":752000000000,"state":"active","ping":79},{"user_id":100,"name":"Esteban Delsin","steam_id":76561198433519639,"connected_time":3369000000000,"state":"active","ping":102},{"user_id":151,"name":"Dingus McGhee","steam_id":76561198276227393,"connected_time":601000000000,"state":"active","ping":110},{"user_id":152,"name":"thebestman982","steam_id":76561199001698710,"connected_time":581000000000,"state":"active","ping":95},{"user_id":153,"name":"Strigby","steam_id":76561198004116353,"connected_time":524000000000,"state":"active","ping":104},{"user_id":155,"name":"cozmo","steam_id":76561198043167542,"connected_time":445000000000,"state":"active","ping":60},{"user_id":161,"name":"jayeskae","steam_id":76561198144220801,"connected_time":81000000000,"state":"active","ping":78},{"user_id":135,"name":"da chronic","steam_id":76561198806800054,"connected_time":1597000000000,"state":"active","ping":69},{"user_id":121,"name":"Zee‚úû","steam_id":76561198274550638,"connected_time":2357000000000,"state":"active","ping":90},{"user_id":122,"name":"coyold","steam_id":76561198837549867,"connected_time":2328000000000,"state":"active","ping":128},{"user_id":143,"name":"bl√•haj enjoyer","steam_id":76561198132803810,"connected_time":924000000000,"state":"active","ping":88}]},{"server_id":324,"name":"Uncletopia | Los Angeles | 3 | All Maps","name_short":"lax-3","host":"lax-1.us.uncletopia.com","port":27035,"enabled":true,"region":"us-west","cc":"us","latitude":33.94279,"longitude":-118.41004,"reserved":0,"last_update":"0001-01-01T00:00:00Z","name_a2s":"Uncletopia | Los Angeles | 3 | All Maps","protocol":17,"map":"pl_frontier_final","folder":"tf","game":"Team Fortress","app_id":440,"player_count":3,"max_players":24,"Bots":0,"server_type":"Dedicated","server_os":"Linux","password":true,"vac":true,"version":"7961495","steam_id":85568392924510198,"keywords":["nocrits","nodmgspread","payload","uncletopia"],"game_id":440,"stv_port":27036,"stv_name":"Uncletopia | Los Angeles | 3 | All Maps | STV","players":[{"user_id":4,"name":"Fishmonger","steam_id":76561198372237027,"connected_time":1601000000000,"state":"active","ping":63},{"user_id":7,"name":"Abbreviated","steam_id":76561198088423054,"connected_time":1146000000000,"state":"active","ping":96},{"user_id":6,"name":"StudioMania (#SAVETF2)","steam_id":76561198211315795,"connected_time":1336000000000,"state":"active","ping":106}]},{"server_id":25,"name":"Uncletopia | Los Angeles | 4 | Stopwatch","name_short":"lax-4","host":"lax-1.us.uncletopia.com","port":27045,"enabled":true,"region":"us-west","cc":"us","latitude":33.94279,"longitude":-118.41004,"reserved":0,"last_update":"0001-01-01T00:00:00Z","name_a2s":"Uncletopia | Los Angeles | 4 | Stopwatch","protocol":17,"map":"pl_barnblitz","folder":"tf","game":"Team Fortress","app_id":440,"player_count":0,"max_players":24,"Bots":0,"server_type":"Dedicated","server_os":"Linux","password":true,"vac":true,"version":"7961495","steam_id":85568392924510199,"keywords":["nocrits","nodmgspread","payload","uncletopia"],"game_id":440,"stv_port":27046,"stv_name":"Uncletopia | Los Angeles | 4 | Stopwatch | STV","players":null},{"server_id":11,"name":"Uncletopia | London | 1 | All Maps","name_short":"lon-1","host":"lon-1.uk.uncletopia.com","port":27015,"enabled":true,"region":"eu","cc":"gb","latitude":51.509865,"longitude":-0.118092,"reserved":0,"last_update":"0001-01-01T00:00:00Z","name_a2s":"Uncletopia | London | 1 | All Maps","protocol":17,"map":"pl_badwater","folder":"tf","game":"Team Fortress","app_id":440,"player_count":24,"max_players":24,"Bots":0,"server_type":"Dedicated","server_os":"Linux","password":true,"vac":true,"version":"7961495","steam_id":85568392924367362,"keywords":["nocrits","nodmgspread","payload","uncletopia"],"game_id":440,"stv_port":27016,"stv_name":"Uncletopia | London | 1 | All Maps | STV","players":[{"user_id":277,"name":"congo","steam_id":76561198236836866,"connected_time":601000000000,"state":"active","ping":80},{"user_id":283,"name":"yup that extream78711","steam_id":76561198106049954,"connected_time":182000000000,"state":"active","ping":148},{"user_id":198,"name":"Sunshine","steam_id":76561198885528098,"connected_time":5664000000000,"state":"active","ping":121},{"user_id":276,"name":"dunduu","steam_id":76561198875240717,"connected_time":741000000000,"state":"active","ping":82},{"user_id":217,"name":"krayy (bl√•haj enjoyer)","steam_id":76561198035037830,"connected_time":4725000000000,"state":"active","ping":47},{"user_id":278,"name":"Slifer the Acorn","steam_id":76561198062255803,"connected_time":600000000000,"state":"active","ping":73},{"user_id":247,"name":"john fortress","steam_id":76561198013237629,"connected_time":2861000000000,"state":"active","ping":91},{"user_id":280,"name":"ein","steam_id":76561198152162834,"connected_time":476000000000,"state":"active","ping":101},{"user_id":267,"name":"VEH-DEH-VEH","steam_id":76561198010978989,"connected_time":1483000000000,"state":"active","ping":66},{"user_id":178,"name":"God's Silliest Little Jester","steam_id":76561197987168654,"connected_time":7112000000000,"state":"active","ping":61},{"user_id":284,"name":"Jamba Sparabo","steam_id":76561198131647600,"connected_time":172000000000,"state":"active","ping":65},{"user_id":271,"name":"Neo Kojiro","steam_id":76561198000967076,"connected_time":859000000000,"state":"active","ping":137},{"user_id":265,"name":"jimmy bob","steam_id":76561198319583692,"connected_time":1527000000000,"state":"active","ping":60},{"user_id":261,"name":"mq","steam_id":76561198091888948,"connected_time":2154000000000,"state":"active","ping":45},{"user_id":223,"name":"Brandonazz","steam_id":76561197994366351,"connected_time":4333000000000,"state":"active","ping":125},{"user_id":285,"name":"impossible whopper eater","steam_id":76561198058641805,"connected_time":10000000000,"state":"spawning","ping":45},{"user_id":230,"name":"AWildTamim","steam_id":76561198048060652,"connected_time":4104000000000,"state":"active","ping":45},{"user_id":282,"name":"face beautiful lies","steam_id":76561198079277466,"connected_time":468000000000,"state":"active","ping":63},{"user_id":195,"name":"Ch4bby","steam_id":76561198058792875,"connected_time":5994000000000,"state":"active","ping":55},{"user_id":262,"name":"rummy","steam_id":76561197997573379,"connected_time":2150000000000,"state":"active","ping":45},{"user_id":263,"name":"MisterGQ","steam_id":76561198018415918,"connected_time":2149000000000,"state":"active","ping":62},{"user_id":251,"name":"CuJIA_TPAHCJIuTA","steam_id":76561198149654361,"connected_time":2736000000000,"state":"active","ping":74},{"user_id":252,"name":"Quiet Kid","steam_id":76561199134800446,"connected_time":2717000000000,"state":"active","ping":107},{"user_id":244,"name":"Citamin V","steam_id":76561198036032168,"connected_time":2996000000000,"state":"active","ping":120}]},{"server_id":114,"name":"Uncletopia | London | 2 | All Maps","name_short":"lon-2","host":"lon-1.uk.uncletopia.com","port":27025,"enabled":true,"region":"eu","cc":"gb","latitude":51.509865,"longitude":-0.118092,"reserved":0,"last_update":"0001-01-01T00:00:00Z","name_a2s":"Uncletopia | London | 2 | All Maps","protocol":17,"map":"cp_dustbowl","folder":"tf","game":"Team Fortress","app_id":440,"player_count":24,"max_players":24,"Bots":0,"server_type":"Dedicated","server_os":"Linux","password":true,"vac":true,"version":"7961495","steam_id":85568392924470941,"keywords":["cp","nocrits","nodmgspread","uncletopia"],"game_id":440,"stv_port":27026,"stv_name":"Uncletopia | London | 2 | All Maps | STV","players":[{"user_id":186,"name":"Plep","steam_id":76561198840259819,"connected_time":295000000000,"state":"active","ping":56},{"user_id":161,"name":"DaLuigi","steam_id":76561198054486188,"connected_time":2639000000000,"state":"active","ping":53},{"user_id":182,"name":"Ballsack","steam_id":76561198973232202,"connected_time":655000000000,"state":"active","ping":100},{"user_id":153,"name":"throne","steam_id":76561198059723960,"connected_time":3058000000000,"state":"active","ping":55},{"user_id":185,"name":"nky!","steam_id":76561198086229832,"connected_time":536000000000,"state":"active","ping":60},{"user_id":159,"name":"spy among us","steam_id":76561198392537090,"connected_time":2754000000000,"state":"active","ping":67},{"user_id":190,"name":"Peanut","steam_id":76561198064585972,"connected_time":154000000000,"state":"active","ping":76},{"user_id":191,"name":"Starly","steam_id":76561198055771921,"connected_time":150000000000,"state":"active","ping":55},{"user_id":179,"name":"ender45","steam_id":76561198840955715,"connected_time":1050000000000,"state":"active","ping":40},{"user_id":192,"name":"After8","steam_id":76561198090750865,"connected_time":150000000000,"state":"active","ping":71},{"user_id":133,"name":"Gears","steam_id":76561198872485939,"connected_time":3990000000000,"state":"active","ping":157},{"user_id":183,"name":"D0kai","steam_id":76561198389271720,"connected_time":640000000000,"state":"active","ping":51},{"user_id":188,"name":"Hoodley","steam_id":76561198066974902,"connected_time":171000000000,"state":"active","ping":105},{"user_id":180,"name":"silicon based life form","steam_id":76561199127121346,"connected_time":856000000000,"state":"active","ping":55},{"user_id":151,"name":"Arthur","steam_id":76561198066109166,"connected_time":3242000000000,"state":"active","ping":90},{"user_id":175,"name":"Nomic","steam_id":76561198209168943,"connected_time":1319000000000,"state":"active","ping":92},{"user_id":169,"name":"ÓÅ≠ Sir-Ignyr ÓÅÆ","steam_id":76561198043828572,"connected_time":1787000000000,"state":"active","ping":40},{"user_id":187,"name":"xelph","steam_id":76561198443008847,"connected_time":239000000000,"state":"active","ping":176},{"user_id":189,"name":"Hitotsume","steam_id":76561198129157178,"connected_time":166000000000,"state":"active","ping":80},{"user_id":163,"name":"GMsU | Rebikas","steam_id":76561198077053764,"connected_time":2630000000000,"state":"active","ping":53},{"user_id":193,"name":"Jew","steam_id":76561198332383755,"connected_time":144000000000,"state":"active","ping":91},{"user_id":194,"name":"Finem Belli","steam_id":76561198227177976,"connected_time":143000000000,"state":"active","ping":47},{"user_id":195,"name":"Koti \u003c3","steam_id":76561198370063864,"connected_time":137000000000,"state":"active","ping":76},{"user_id":196,"name":"Ludwig","steam_id":76561198438861026,"connected_time":111000000000,"state":"active","ping":65}]},{"server_id":320,"name":"Uncletopia | London | 3 | All Maps","name_short":"lon-3","host":"lon-1.uk.uncletopia.com","port":27035,"enabled":true,"region":"eu","cc":"gb","latitude":51.509865,"longitude":-0.118092,"reserved":0,"last_update":"0001-01-01T00:00:00Z","name_a2s":"Uncletopia | London | 3 | All Maps","protocol":17,"map":"pl_borneo","folder":"tf","game":"Team Fortress","app_id":440,"player_count":22,"max_players":24,"Bots":0,"server_type":"Dedicated","server_os":"Linux","password":true,"vac":true,"version":"7961495","steam_id":85568392924510192,"keywords":["nocrits","nodmgspread","payload","uncletopia"],"game_id":440,"stv_port":27036,"stv_name":"Uncletopia | London | 3 | All Maps | STV","players":[{"user_id":100,"name":"Parmenides","steam_id":76561198079849761,"connected_time":1465000000000,"state":"active","ping":47},{"user_id":78,"name":"oxidius","steam_id":76561198261730746,"connected_time":2699000000000,"state":"active","ping":53},{"user_id":116,"name":"negativeinteger","steam_id":76561199496776658,"connected_time":998000000000,"state":"active","ping":51},{"user_id":123,"name":"Sonofawesker","steam_id":76561198149753537,"connected_time":307000000000,"state":"active","ping":54},{"user_id":125,"name":"Proud Jojo Fan #TF2SP","steam_id":76561198847327216,"connected_time":193000000000,"state":"active","ping":71},{"user_id":126,"name":"quickfast","steam_id":76561199438900919,"connected_time":143000000000,"state":"active","ping":37},{"user_id":117,"name":"Wolf","steam_id":76561198111988462,"connected_time":855000000000,"state":"active","ping":87},{"user_id":129,"name":"Weeb exterminator","steam_id":76561198078964973,"connected_time":47000000000,"state":"active","ping":72},{"user_id":102,"name":"Jeryx","steam_id":76561197995602803,"connected_time":1416000000000,"state":"active","ping":61},{"user_id":128,"name":"MaypulSoyrup","steam_id":76561199213966821,"connected_time":81000000000,"state":"active","ping":70},{"user_id":130,"name":"flr","steam_id":76561198249327786,"connected_time":28000000000,"state":"active","ping":61},{"user_id":131,"name":"lunaire","steam_id":76561198163344452,"connected_time":9000000000,"state":"active","ping":94},{"user_id":132,"name":"Smilez","steam_id":76561197999353870,"connected_time":5000000000,"state":"spawning","ping":109},{"user_id":111,"name":"Toxic_Cicity","steam_id":76561198165753440,"connected_time":1075000000000,"state":"active","ping":100},{"user_id":86,"name":"doctwoeight","steam_id":76561198153488940,"connected_time":2492000000000,"state":"active","ping":76},{"user_id":133,"name":"heal","steam_id":76561198046754534,"connected_time":2000000000,"state":"spawning","ping":82},{"user_id":120,"name":"szmen","steam_id":76561198072569764,"connected_time":768000000000,"state":"active","ping":84},{"user_id":90,"name":"Itai","steam_id":76561198804555329,"connected_time":2289000000000,"state":"active","ping":100},{"user_id":99,"name":"Skyminer1372","steam_id":76561198161924388,"connected_time":1528000000000,"state":"active","ping":69},{"user_id":91,"name":"Meo","steam_id":76561198184899182,"connected_time":2258000000000,"state":"active","ping":60},{"user_id":134,"name":"Defanovv","steam_id":76561199100867345,"connected_time":0,"state":"spawning","ping":11},{"user_id":53,"name":"Mono","steam_id":76561198114569493,"connected_time":5180000000000,"state":"active","ping":45}]},{"server_id":321,"name":"Uncletopia | London | 4 | All Maps","name_short":"lon-4","host":"lon-1.uk.uncletopia.com","port":27045,"enabled":true,"region":"eu","cc":"gb","latitude":51.509865,"longitude":-0.118092,"reserved":0,"last_update":"0001-01-01T00:00:00Z","name_a2s":"Uncletopia | London | 4 | All Maps","protocol":17,"map":"koth_suijin","folder":"tf","game":"Team Fortress","app_id":440,"player_count":0,"max_players":24,"Bots":0,"server_type":"Dedicated","server_os":"Linux","password":true,"vac":true,"version":"7961495","steam_id":85568392924510193,"keywords":["cp","nocrits","nodmgspread","uncletopia"],"game_id":440,"stv_port":27046,"stv_name":"Uncletopia | London | 4 | All Maps | STV","players":null},{"server_id":21,"name":"Uncletopia | London | 5 | All Maps","name_short":"lon-5","host":"lon-1.uk.uncletopia.com","port":27055,"enabled":true,"region":"eu","cc":"gb","latitude":51.509865,"longitude":-0.118092,"reserved":0,"last_update":"0001-01-01T00:00:00Z","name_a2s":"Uncletopia | London | 5 | All Maps","protocol":17,"map":"pl_upward","folder":"tf","game":"Team Fortress","app_id":440,"player_count":24,"max_players":24,"Bots":0,"server_type":"Dedicated","server_os":"Linux","password":true,"vac":true,"version":"7961495","steam_id":85568392924742829,"keywords":["nocrits","nodmgspread","payload","uncletopia"],"game_id":440,"stv_port":27056,"stv_name":"Uncletopia | London | 5 | All Maps | STV","players":[{"user_id":518,"name":"kryhu","steam_id":76561198293327713,"connected_time":199000000000,"state":"active","ping":75},{"user_id":461,"name":"Locke","steam_id":76561198339408300,"connected_time":2857000000000,"state":"active","ping":60},{"user_id":502,"name":"Captain Puddleboat","steam_id":76561198053913970,"connected_time":773000000000,"state":"active","ping":64},{"user_id":477,"name":"Big Bubu","steam_id":76561197980783678,"connected_time":2051000000000,"state":"active","ping":84},{"user_id":506,"name":"FROYO cosmetical_hl_god","steam_id":76561198444036574,"connected_time":688000000000,"state":"active","ping":60},{"user_id":475,"name":"Silverguy","steam_id":76561198261509394,"connected_time":2121000000000,"state":"active","ping":149},{"user_id":516,"name":"minecraft steve","steam_id":76561198368688348,"connected_time":329000000000,"state":"active","ping":45},{"user_id":479,"name":"H√©rosFunk","steam_id":76561198053110916,"connected_time":1979000000000,"state":"active","ping":48},{"user_id":496,"name":"TheEventGuy","steam_id":76561197972797744,"connected_time":977000000000,"state":"active","ping":83},{"user_id":510,"name":"ambarasodor","steam_id":76561198799029492,"connected_time":615000000000,"state":"active","ping":73},{"user_id":469,"name":"Cosmic Gamer","steam_id":76561198027357981,"connected_time":2310000000000,"state":"active","ping":100},{"user_id":517,"name":"Void","steam_id":76561199186496740,"connected_time":305000000000,"state":"active","ping":158},{"user_id":416,"name":"shr1mple","steam_id":76561198173537027,"connected_time":5984000000000,"state":"active","ping":54},{"user_id":413,"name":"Qwertuss","steam_id":76561198026305366,"connected_time":6175000000000,"state":"active","ping":64},{"user_id":507,"name":"Fred","steam_id":76561199013600767,"connected_time":687000000000,"state":"active","ping":59},{"user_id":489,"name":"_Monteiro_","steam_id":76561199033423134,"connected_time":1681000000000,"state":"active","ping":75},{"user_id":508,"name":"submackeen","steam_id":76561198799855913,"connected_time":680000000000,"state":"active","ping":154},{"user_id":509,"name":"wyro","steam_id":76561199176835169,"connected_time":677000000000,"state":"active","ping":52},{"user_id":488,"name":"I.AM.THE.BOOP.WHICH.IS.APROACHI","steam_id":76561198049342507,"connected_time":1743000000000,"state":"active","ping":91},{"user_id":490,"name":"Ultir","steam_id":76561198880096224,"connected_time":1670000000000,"state":"active","ping":75},{"user_id":482,"name":"epic party rat","steam_id":76561199100632053,"connected_time":1938000000000,"state":"active","ping":50},{"user_id":483,"name":"Storm's Foreshadow","steam_id":76561198098462526,"connected_time":1936000000000,"state":"active","ping":74},{"user_id":497,"name":"kallerannar","steam_id":76561199095701143,"connected_time":975000000000,"state":"active","ping":113},{"user_id":491,"name":"Geoff the Oracle","steam_id":76561198053759965,"connected_time":1666000000000,"state":"active","ping":58}]},{"server_id":22,"name":"Uncletopia | London | 6 | All Maps","name_short":"lon-6","host":"lon-1.uk.uncletopia.com","port":27065,"enabled":true,"region":"eu","cc":"gb","latitude":51.509865,"longitude":-0.118092,"reserved":0,"last_update":"0001-01-01T00:00:00Z","name_a2s":"Uncletopia | London | 6 | All Maps","protocol":17,"map":"cp_powerhouse","folder":"tf","game":"Team Fortress","app_id":440,"player_count":17,"max_players":24,"Bots":0,"server_type":"Dedicated","server_os":"Linux","password":true,"vac":true,"version":"7961495","steam_id":85568392924742830,"keywords":["cp","nocrits","nodmgspread","uncletopia"],"game_id":440,"stv_port":27066,"stv_name":"Uncletopia | London | 6 | All Maps | STV","players":[{"user_id":300,"name":"gamersans","steam_id":76561199265596497,"connected_time":143000000000,"state":"active","ping":145},{"user_id":302,"name":"H1DD3 gaming","steam_id":76561198855897385,"connected_time":1000000000,"state":"spawning","ping":26},{"user_id":268,"name":"mixxxa_french","steam_id":76561198085098243,"connected_time":2744000000000,"state":"active","ping":123},{"user_id":297,"name":"Hidden_Slime225","steam_id":76561199089440679,"connected_time":222000000000,"state":"active","ping":128},{"user_id":295,"name":"FilipeLuk","steam_id":76561198150675438,"connected_time":310000000000,"state":"active","ping":60},{"user_id":271,"name":"„ÅÇ„Å™„Åü„ÅÆÂèãÈÅî","steam_id":76561198248239796,"connected_time":2602000000000,"state":"active","ping":61},{"user_id":294,"name":"ghostmike","steam_id":76561198344139050,"connected_time":514000000000,"state":"active","ping":147},{"user_id":278,"name":"Heavy TF2 in irl?!","steam_id":76561198082502910,"connected_time":2229000000000,"state":"active","ping":58},{"user_id":301,"name":"Captian Wobbs","steam_id":76561198142884936,"connected_time":78000000000,"state":"active","ping":159},{"user_id":234,"name":"Dry","steam_id":76561198027164095,"connected_time":5875000000000,"state":"active","ping":151},{"user_id":289,"name":"your_local_penguin","steam_id":76561199224954346,"connected_time":1235000000000,"state":"active","ping":96},{"user_id":290,"name":"Cantorna","steam_id":76561199492511143,"connected_time":795000000000,"state":"active","ping":97},{"user_id":291,"name":"Braixen","steam_id":76561198354314389,"connected_time":742000000000,"state":"active","ping":140},{"user_id":280,"name":"Sicmendor ...","steam_id":76561197962107049,"connected_time":2117000000000,"state":"active","ping":68},{"user_id":292,"name":"Aku+","steam_id":76561198813782795,"connected_time":722000000000,"state":"active","ping":89},{"user_id":285,"name":"Bob Sacamano","steam_id":76561198085610701,"connected_time":1861000000000,"state":"active","ping":101},{"user_id":293,"name":"name me pls","steam_id":76561199273576072,"connected_time":654000000000,"state":"active","ping":55}]},{"server_id":40,"name":"Uncletopia | London | 7 | Stopwatch","name_short":"lon-7","host":"lon-1.uk.uncletopia.com","port":27075,"enabled":true,"region":"eu","cc":"gb","latitude":51.509865,"longitude":-0.118092,"reserved":0,"last_update":"0001-01-01T00:00:00Z","name_a2s":"Uncletopia | London | 7 | Stopwatch","protocol":17,"map":"workshop/pl_badwater_pro_v12.ugc2142942074","folder":"tf","game":"Team Fortress","app_id":440,"player_count":19,"max_players":24,"Bots":0,"server_type":"Dedicated","server_os":"Linux","password":true,"vac":true,"version":"7961495","steam_id":85568392924964314,"keywords":["nocrits","nodmgspread","payload","uncletopia"],"game_id":440,"stv_port":27076,"stv_name":"Uncletopia | London | 7 | Stopwatch | STV","players":[{"user_id":62,"name":"Ferrariracer5f1","steam_id":76561199229815098,"connected_time":363000000000,"state":"active","ping":55},{"user_id":38,"name":"Wario","steam_id":76561198356089255,"connected_time":1410000000000,"state":"active","ping":67},{"user_id":36,"name":"The‚òÜCops","steam_id":76561198146358073,"connected_time":1735000000000,"state":"active","ping":101},{"user_id":55,"name":"Migus","steam_id":76561198333037251,"connected_time":576000000000,"state":"active","ping":137},{"user_id":70,"name":"Jahusi!*","steam_id":76561197992445165,"connected_time":62000000000,"state":"active","ping":61},{"user_id":71,"name":"joachym","steam_id":76561198428579761,"connected_time":40000000000,"state":"active","ping":72},{"user_id":72,"name":"xiiski","steam_id":76561198152387747,"connected_time":36000000000,"state":"active","ping":103},{"user_id":20,"name":"Zagger","steam_id":76561198361832957,"connected_time":3422000000000,"state":"active","ping":81},{"user_id":21,"name":"capela","steam_id":76561198200888385,"connected_time":3412000000000,"state":"active","ping":69},{"user_id":22,"name":"Sanic the Hegehoge","steam_id":76561198208073317,"connected_time":3382000000000,"state":"active","ping":82},{"user_id":39,"name":"dob:cob","steam_id":76561198253323044,"connected_time":1367000000000,"state":"active","ping":78},{"user_id":43,"name":"A 2008 Laptop.","steam_id":76561198860068961,"connected_time":1194000000000,"state":"active","ping":106},{"user_id":49,"name":"HilldogGaming‚ôõ","steam_id":76561198082209322,"connected_time":953000000000,"state":"active","ping":67},{"user_id":52,"name":"Bombilla","steam_id":76561198084281798,"connected_time":721000000000,"state":"active","ping":69},{"user_id":54,"name":"Muda Mystico","steam_id":76561199074542996,"connected_time":648000000000,"state":"active","ping":75},{"user_id":56,"name":"fiddlesticks","steam_id":76561198155229347,"connected_time":570000000000,"state":"active","ping":32},{"user_id":59,"name":"rabbit | trade.tf","steam_id":76561198378990855,"connected_time":447000000000,"state":"active","ping":82},{"user_id":60,"name":"nayte","steam_id":76561198450220009,"connected_time":441000000000,"state":"active","ping":121},{"user_id":68,"name":"the nothing","steam_id":76561198132948383,"connected_time":205000000000,"state":"active","ping":93}]},{"server_id":41,"name":"Uncletopia | London | 8 | Community","name_short":"lon-8","host":"lon-1.uk.uncletopia.com","port":27085,"enabled":true,"region":"eu","cc":"gb","latitude":51.509865,"longitude":-0.118092,"reserved":0,"last_update":"0001-01-01T00:00:00Z","name_a2s":"Uncletopia | London | 8 | Community","protocol":17,"map":"cp_snakewater_final1","folder":"tf","game":"Team Fortress","app_id":440,"player_count":0,"max_players":24,"Bots":0,"server_type":"Dedicated","server_os":"Linux","password":true,"vac":true,"version":"7961495","steam_id":85568392924964315,"keywords":["cp","nocrits","nodmgspread","uncletopia"],"game_id":440,"stv_port":27086,"stv_name":"Uncletopia | London | 8 | Community | STV","players":null},{"server_id":300,"name":"Uncletopia | Montr√©al | 1 | All Maps","name_short":"mtl-1","host":"mtl-1.ca.uncletopia.com","port":27015,"enabled":true,"region":"us-east","cc":"ca","latitude":45.50889,"longitude":-73.56167,"reserved":0,"last_update":"0001-01-01T00:00:00Z","name_a2s":"","protocol":0,"map":"","folder":"","game":"","app_id":0,"player_count":0,"max_players":0,"Bots":0,"server_type":"","server_os":"","password":false,"vac":false,"version":"","steam_id":0,"keywords":null,"game_id":0,"stv_port":0,"stv_name":"","players":null},{"server_id":301,"name":"Uncletopia | Montr√©al | 2 | ???","name_short":"mtl-2","host":"mtl-1.ca.uncletopia.com","port":27025,"enabled":true,"region":"us-east","cc":"ca","latitude":45.50889,"longitude":-73.56167,"reserved":0,"last_update":"0001-01-01T00:00:00Z","name_a2s":"","protocol":0,"map":"","folder":"","game":"","app_id":0,"player_count":0,"max_players":0,"Bots":0,"server_type":"","server_os":"","password":false,"vac":false,"version":"","steam_id":0,"keywords":null,"game_id":0,"stv_port":0,"stv_name":"","players":null},{"server_id":13,"name":"Uncletopia | New York City | 1 | All Maps","name_short":"nyc-1","host":"nyc-1.us.uncletopia.com","port":27015,"enabled":true,"region":"us-east","cc":"us","latitude":40.73061,"longitude":-73.93524,"reserved":0,"last_update":"0001-01-01T00:00:00Z","name_a2s":"Uncletopia | New York City | 1 | All Maps","protocol":17,"map":"cp_mountainlab","folder":"tf","game":"Team Fortress","app_id":440,"player_count":1,"max_players":24,"Bots":0,"server_type":"Dedicated","server_os":"Linux","password":true,"vac":true,"version":"7961495","steam_id":85568392924469993,"keywords":["cp","nocrits","nodmgspread","uncletopia"],"game_id":440,"stv_port":27016,"stv_name":"Uncletopia | New York City | 1 | All Maps | STV","players":[{"user_id":12,"name":"GummybearKillr","steam_id":76561198031235750,"connected_time":641000000000,"state":"active","ping":46}]},{"server_id":14,"name":"Uncletopia | New York City | 2 | All Maps","name_short":"nyc-2","host":"nyc-1.us.uncletopia.com","port":27025,"enabled":true,"region":"us-east","cc":"us","latitude":40.73061,"longitude":-73.93524,"reserved":0,"last_update":"0001-01-01T00:00:00Z","name_a2s":"Uncletopia | New York City | 2 | All Maps","protocol":17,"map":"pl_snowycoast","folder":"tf","game":"Team Fortress","app_id":440,"player_count":0,"max_players":24,"Bots":0,"server_type":"Dedicated","server_os":"Linux","password":true,"vac":true,"version":"7961495","steam_id":85568392924469994,"keywords":["nocrits","nodmgspread","payload","uncletopia"],"game_id":440,"stv_port":27026,"stv_name":"Uncletopia | New York City | 2 | All Maps | STV","players":null},{"server_id":15,"name":"Uncletopia | New York City | 3 | Stopwatch","name_short":"nyc-3","host":"nyc-1.us.uncletopia.com","port":27035,"enabled":true,"region":"us-east","cc":"us","latitude":40.73061,"longitude":-73.93524,"reserved":0,"last_update":"0001-01-01T00:00:00Z","name_a2s":"Uncletopia | New York City | 3 | Stopwatch","protocol":17,"map":"pl_snowycoast","folder":"tf","game":"Team Fortress","app_id":440,"player_count":0,"max_players":24,"Bots":0,"server_type":"Dedicated","server_os":"Linux","password":true,"vac":true,"version":"7961495","steam_id":85568392924742820,"keywords":["nocrits","nodmgspread","payload","uncletopia"],"game_id":440,"stv_port":27036,"stv_name":"Uncletopia | New York City | 3 | Stopwatch | STV","players":null},{"server_id":16,"name":"Uncletopia | New York City | 4 | Community","name_short":"nyc-4","host":"nyc-1.us.uncletopia.com","port":27045,"enabled":true,"region":"us-east","cc":"us","latitude":40.73061,"longitude":-73.93524,"reserved":0,"last_update":"0001-01-01T00:00:00Z","name_a2s":"Uncletopia | New York City | 4 | Community","protocol":17,"map":"cp_altitude","folder":"tf","game":"Team Fortress","app_id":440,"player_count":0,"max_players":24,"Bots":0,"server_type":"Dedicated","server_os":"Linux","password":true,"vac":true,"version":"7961495","steam_id":85568392924742821,"keywords":["cp","nocrits","nodmgspread","uncletopia"],"game_id":440,"stv_port":27046,"stv_name":"Uncletopia | New York City | 4 | Community | STV","players":null},{"server_id":142,"name":"Uncletopia | S√£o Paulo | 1 | All Maps","name_short":"sao-1","host":"sao-1.br.uncletopia.com","port":27015,"enabled":true,"region":"sa","cc":"br","latitude":-23.533773,"longitude":-46.62529,"reserved":0,"last_update":"0001-01-01T00:00:00Z","name_a2s":"Uncletopia | S√£o Paulo | 1 | All Maps","protocol":17,"map":"cp_mountainlab","folder":"tf","game":"Team Fortress","app_id":440,"player_count":0,"max_players":24,"Bots":0,"server_type":"Dedicated","server_os":"Linux","password":true,"vac":true,"version":"7961495","steam_id":85568392924469996,"keywords":["cp","nocrits","nodmgspread","uncletopia"],"game_id":440,"stv_port":27016,"stv_name":"Uncletopia | S√£o Paulo | 1 | All Maps | STV","players":null},{"server_id":143,"name":"Uncletopia | S√£o Paulo | 2 | Community","name_short":"sao-2","host":"sao-2.br.uncletopia.com","port":27015,"enabled":true,"region":"sa","cc":"br","latitude":-23.533773,"longitude":-46.62529,"reserved":0,"last_update":"0001-01-01T00:00:00Z","name_a2s":"Uncletopia | S√£o Paulo | 2 | Community","protocol":17,"map":"workshop/koth_synthetic_rc6a.ugc1549817316","folder":"tf","game":"Team Fortress","app_id":440,"player_count":0,"max_players":24,"Bots":0,"server_type":"Dedicated","server_os":"Linux","password":true,"vac":true,"version":"7961495","steam_id":85568392924485349,"keywords":["cp","nocrits","nodmgspread","uncletopia"],"game_id":440,"stv_port":27016,"stv_name":"Uncletopia | S√£o Paulo | 2 | Community | STV","players":null},{"server_id":7,"name":"Uncletopia | Seattle | 1 | All Maps","name_short":"sea-1","host":"sea-1.us.uncletopia.com","port":27015,"enabled":true,"region":"us-west","cc":"us","latitude":47.608013,"longitude":-122.33517,"reserved":0,"last_update":"0001-01-01T00:00:00Z","name_a2s":"Uncletopia | Seattle | 1 | All Maps","protocol":17,"map":"koth_viaduct","folder":"tf","game":"Team Fortress","app_id":440,"player_count":0,"max_players":24,"Bots":0,"server_type":"Dedicated","server_os":"Linux","password":true,"vac":true,"version":"7961495","steam_id":85568392924469997,"keywords":["cp","nocrits","nodmgspread","uncletopia"],"game_id":440,"stv_port":27016,"stv_name":"Uncletopia | Seattle | 1 | All Maps | STV","players":null},{"server_id":119,"name":"Uncletopia | Seattle | 2 | All Maps","name_short":"sea-2","host":"sea-1.us.uncletopia.com","port":27025,"enabled":true,"region":"us-west","cc":"us","latitude":47.608013,"longitude":-122.33517,"reserved":0,"last_update":"0001-01-01T00:00:00Z","name_a2s":"Uncletopia | Seattle | 2 | All Maps","protocol":17,"map":"koth_lakeside_final","folder":"tf","game":"Team Fortress","app_id":440,"player_count":0,"max_players":24,"Bots":0,"server_type":"Dedicated","server_os":"Linux","password":true,"vac":true,"version":"7961495","steam_id":85568392924469998,"keywords":["cp","nocrits","nodmgspread","uncletopia"],"game_id":440,"stv_port":27026,"stv_name":"Uncletopia | Seattle | 2 | All Maps | STV","players":null},{"server_id":406,"name":"Uncletopia | Seattle | 3 | Stopwatch","name_short":"sea-3","host":"sea-1.us.uncletopia.com","port":27035,"enabled":true,"region":"us-west","cc":"us","latitude":47.608013,"longitude":-122.33517,"reserved":0,"last_update":"0001-01-01T00:00:00Z","name_a2s":"Uncletopia | Seattle | 3 | Stopwatch","protocol":17,"map":"cp_snakewater_final1","folder":"tf","game":"Team Fortress","app_id":440,"player_count":0,"max_players":24,"Bots":0,"server_type":"Dedicated","server_os":"Linux","password":true,"vac":true,"version":"7961495","steam_id":85568392924515217,"keywords":["cp","nocrits","nodmgspread","uncletopia"],"game_id":440,"stv_port":27036,"stv_name":"Uncletopia | Seattle | 3 | Stopwatch | STV","players":null},{"server_id":17,"name":"Uncletopia | San Francisco | 1 | All Maps","name_short":"sfo-1","host":"sfo-1.us.uncletopia.com","port":27015,"enabled":true,"region":"us-west","cc":"us","latitude":37.77397,"longitude":-122.4313,"reserved":0,"last_update":"0001-01-01T00:00:00Z","name_a2s":"Uncletopia | San Francisco | 1 | All Maps","protocol":17,"map":"koth_cascade","folder":"tf","game":"Team Fortress","app_id":440,"player_count":0,"max_players":24,"Bots":0,"server_type":"Dedicated","server_os":"Linux","password":true,"vac":true,"version":"7961495","steam_id":85568392924469999,"keywords":["cp","nocrits","nodmgspread","uncletopia"],"game_id":440,"stv_port":27016,"stv_name":"Uncletopia | San Francisco | 1 | All Maps | STV","players":null},{"server_id":18,"name":"Uncletopia | San Francisco | 2 | All Maps","name_short":"sfo-2","host":"sfo-1.us.uncletopia.com","port":27025,"enabled":true,"region":"us-west","cc":"us","latitude":37.77397,"longitude":-122.4313,"reserved":0,"last_update":"0001-01-01T00:00:00Z","name_a2s":"Uncletopia | San Francisco | 2 | All Maps","protocol":17,"map":"pl_frontier_final","folder":"tf","game":"Team Fortress","app_id":440,"player_count":0,"max_players":24,"Bots":0,"server_type":"Dedicated","server_os":"Linux","password":true,"vac":true,"version":"7961495","steam_id":85568392924470000,"keywords":["nocrits","nodmgspread","payload","uncletopia"],"game_id":440,"stv_port":27026,"stv_name":"Uncletopia | San Francisco | 2 | All Maps | STV","players":null},{"server_id":19,"name":"Uncletopia | San Francisco | 3 | Stopwatch","name_short":"sfo-3","host":"sfo-1.us.uncletopia.com","port":27035,"enabled":true,"region":"us-west","cc":"us","latitude":37.77397,"longitude":-122.4313,"reserved":0,"last_update":"0001-01-01T00:00:00Z","name_a2s":"Uncletopia | San Francisco | 3 | Stopwatch","protocol":17,"map":"pl_pier","folder":"tf","game":"Team Fortress","app_id":440,"player_count":0,"max_players":24,"Bots":0,"server_type":"Dedicated","server_os":"Linux","password":true,"vac":true,"version":"7961495","steam_id":85568392924742824,"keywords":["nocrits","nodmgspread","payload","uncletopia"],"game_id":440,"stv_port":27036,"stv_name":"Uncletopia | San Francisco | 3 | Stopwatch | STV","players":null},{"server_id":20,"name":"Uncletopia | San Francisco | 4 | Community","name_short":"sfo-4","host":"sfo-1.us.uncletopia.com","port":27045,"enabled":true,"region":"us-west","cc":"us","latitude":37.77397,"longitude":-122.4313,"reserved":0,"last_update":"0001-01-01T00:00:00Z","name_a2s":"Uncletopia | San Francisco | 4 | Community","protocol":17,"map":"pl_pier","folder":"tf","game":"Team Fortress","app_id":440,"player_count":0,"max_players":24,"Bots":0,"server_type":"Dedicated","server_os":"Linux","password":true,"vac":true,"version":"7961495","steam_id":85568392924742826,"keywords":["nocrits","nodmgspread","payload","uncletopia"],"game_id":440,"stv_port":27046,"stv_name":"Uncletopia | San Francisco | 4 | Community | STV","players":null},{"server_id":141,"name":"Uncletopia | Sydney | 1 | All Maps","name_short":"syd-1","host":"syd-1.au.uncletopia.com","port":27015,"enabled":true,"region":"au","cc":"au","latitude":-33.865143,"longitude":151.2099,"reserved":0,"last_update":"0001-01-01T00:00:00Z","name_a2s":"Uncletopia | Sydney | 1 | All Maps","protocol":17,"map":"pl_badwater","folder":"tf","game":"Team Fortress","app_id":440,"player_count":24,"max_players":24,"Bots":0,"server_type":"Dedicated","server_os":"Linux","password":true,"vac":true,"version":"7961495","steam_id":85568392924470001,"keywords":["nocrits","nodmgspread","payload","uncletopia"],"game_id":440,"stv_port":27016,"stv_name":"Uncletopia | Sydney | 1 | All Maps | STV","players":[{"user_id":763,"name":"LightningBlock","steam_id":76561198289997742,"connected_time":3244000000000,"state":"active","ping":30},{"user_id":754,"name":"hired goon","steam_id":76561198048064049,"connected_time":4176000000000,"state":"active","ping":76},{"user_id":787,"name":"Bubbles","steam_id":76561198042025746,"connected_time":748000000000,"state":"active","ping":60},{"user_id":770,"name":"Majima","steam_id":76561198288970258,"connected_time":2378000000000,"state":"active","ping":55},{"user_id":755,"name":"shadowisaac100","steam_id":76561199405682594,"connected_time":3930000000000,"state":"active","ping":135},{"user_id":733,"name":"Beans","steam_id":76561198137664191,"connected_time":4982000000000,"state":"active","ping":39},{"user_id":788,"name":"The Return of Wolfie","steam_id":76561198264237939,"connected_time":722000000000,"state":"active","ping":142},{"user_id":721,"name":"Ben is mightier than the sword","steam_id":76561198301282416,"connected_time":5657000000000,"state":"active","ping":53},{"user_id":723,"name":"Delief_","steam_id":76561198028535226,"connected_time":5602000000000,"state":"active","ping":82},{"user_id":768,"name":"boneshaver","steam_id":76561198025099660,"connected_time":2704000000000,"state":"active","ping":37},{"user_id":774,"name":"bago","steam_id":76561199057193204,"connected_time":2103000000000,"state":"active","ping":45},{"user_id":789,"name":"Merkatroid","steam_id":76561197993439694,"connected_time":716000000000,"state":"active","ping":59},{"user_id":785,"name":"Finger Bun Fun","steam_id":76561198118383219,"connected_time":1035000000000,"state":"active","ping":49},{"user_id":790,"name":"Wonky","steam_id":76561198035794087,"connected_time":715000000000,"state":"active","ping":63},{"user_id":756,"name":"JohnnoDwarf","steam_id":76561199069897590,"connected_time":3859000000000,"state":"active","ping":88},{"user_id":778,"name":"jax_hs (live on twitch)","steam_id":76561199125097180,"connected_time":1721000000000,"state":"active","ping":80},{"user_id":779,"name":"sean","steam_id":76561198048192738,"connected_time":1684000000000,"state":"active","ping":38},{"user_id":741,"name":"incomprehensible maze","steam_id":76561198031293430,"connected_time":4812000000000,"state":"active","ping":90},{"user_id":780,"name":"Bing Soy","steam_id":76561198057093383,"connected_time":1589000000000,"state":"active","ping":57},{"user_id":744,"name":"Overlold","steam_id":76561197978635495,"connected_time":4659000000000,"state":"active","ping":82},{"user_id":781,"name":"Willby_","steam_id":76561198424512829,"connected_time":1531000000000,"state":"active","ping":58},{"user_id":793,"name":"Thedoor","steam_id":76561199055256998,"connected_time":133000000000,"state":"active","ping":179},{"user_id":791,"name":"durcy","steam_id":76561198049037327,"connected_time":690000000000,"state":"active","ping":104}]},{"server_id":123,"name":"Uncletopia | Sydney | 2 | All Maps","name_short":"syd-2","host":"syd-1.au.uncletopia.com","port":27025,"enabled":true,"region":"au","cc":"au","latitude":-33.865143,"longitude":151.2099,"reserved":0,"last_update":"0001-01-01T00:00:00Z","name_a2s":"Uncletopia | Sydney | 2 | All Maps","protocol":17,"map":"pl_upward","folder":"tf","game":"Team Fortress","app_id":440,"player_count":0,"max_players":24,"Bots":0,"server_type":"Dedicated","server_os":"Linux","password":true,"vac":true,"version":"7961495","steam_id":85568392924470002,"keywords":["nocrits","nodmgspread","payload","uncletopia"],"game_id":440,"stv_port":27026,"stv_name":"Uncletopia | Sydney | 2 | All Maps | STV","players":null},{"server_id":395,"name":"Uncletopia | Sydney | 3 | All Maps","name_short":"syd-3","host":"syd-1.au.uncletopia.com","port":27035,"enabled":true,"region":"au","cc":"au","latitude":-33.865143,"longitude":151.2099,"reserved":0,"last_update":"0001-01-01T00:00:00Z","name_a2s":"Uncletopia | Sydney | 3 | All Maps","protocol":17,"map":"pl_barnblitz","folder":"tf","game":"Team Fortress","app_id":440,"player_count":0,"max_players":24,"Bots":0,"server_type":"Dedicated","server_os":"Linux","password":true,"vac":true,"version":"7961495","steam_id":85568392925194467,"keywords":["nocrits","nodmgspread","payload","uncletopia"],"game_id":440,"stv_port":27036,"stv_name":"Uncletopia | Sydney | 3 | All Maps | STV","players":null},{"server_id":396,"name":"Uncletopia | Sydney | 4 | All Maps","name_short":"syd-4","host":"syd-1.au.uncletopia.com","port":27045,"enabled":true,"region":"au","cc":"au","latitude":-33.865143,"longitude":151.2099,"reserved":0,"last_update":"0001-01-01T00:00:00Z","name_a2s":"Uncletopia | Sydney | 4 | All Maps","protocol":17,"map":"koth_highpass","folder":"tf","game":"Team Fortress","app_id":440,"player_count":0,"max_players":24,"Bots":0,"server_type":"Dedicated","server_os":"Linux","password":true,"vac":true,"version":"7961495","steam_id":85568392925397958,"keywords":["cp","nocrits","nodmgspread","uncletopia"],"game_id":440,"stv_port":27046,"stv_name":"Uncletopia | Sydney | 4 | All Maps | STV","players":null},{"server_id":58,"name":"Uncletopia | Sydney | 5 | Stopwatch","name_short":"syd-5","host":"syd-1.au.uncletopia.com","port":27055,"enabled":true,"region":"au","cc":"au","latitude":-33.865143,"longitude":151.2099,"reserved":0,"last_update":"0001-01-01T00:00:00Z","name_a2s":"Uncletopia | Sydney | 5 | Stopwatch","protocol":17,"map":"cp_sunshine","folder":"tf","game":"Team Fortress","app_id":440,"player_count":0,"max_players":24,"Bots":0,"server_type":"Dedicated","server_os":"Linux","password":true,"vac":true,"version":"7961495","steam_id":85568392925397959,"keywords":["cp","nocrits","nodmgspread","uncletopia"],"game_id":440,"stv_port":27056,"stv_name":"Uncletopia | Sydney | 5 | Stopwatch | STV","players":null},{"server_id":59,"name":"Uncletopia | Sydney | 6 | Community","name_short":"syd-6","host":"syd-1.au.uncletopia.com","port":27065,"enabled":true,"region":"au","cc":"au","latitude":-33.865143,"longitude":151.2099,"reserved":0,"last_update":"0001-01-01T00:00:00Z","name_a2s":"Uncletopia | Sydney | 6 | Community","protocol":17,"map":"workshop/koth_trenchfoot_b1a.ugc731436616","folder":"tf","game":"Team Fortress","app_id":440,"player_count":0,"max_players":24,"Bots":0,"server_type":"Dedicated","server_os":"Linux","password":true,"vac":true,"version":"7961495","steam_id":85568392925397960,"keywords":["cp","nocrits","nodmgspread","uncletopia"],"game_id":440,"stv_port":27066,"stv_name":"Uncletopia | Sydney | 6 | Community | STV","players":null},{"server_id":49,"name":"Uncletopia | Warsaw | 1 | All Maps","name_short":"waw-1","host":"waw-1.pl.uncletopia.com","port":27015,"enabled":true,"region":"eu","cc":"pl","latitude":52.2297,"longitude":21.017532,"reserved":0,"last_update":"0001-01-01T00:00:00Z","name_a2s":"Uncletopia | Warsaw | 1 | All Maps","protocol":17,"map":"koth_lakeside_final","folder":"tf","game":"Team Fortress","app_id":440,"player_count":4,"max_players":24,"Bots":0,"server_type":"Dedicated","server_os":"Linux","password":true,"vac":true,"version":"7961495","steam_id":85568392925397850,"keywords":["cp","nocrits","nodmgspread","uncletopia"],"game_id":440,"stv_port":27016,"stv_name":"Uncletopia | Warsaw | 1 | All Maps | STV","players":[{"user_id":9,"name":"Vaderek561","steam_id":76561198425934688,"connected_time":3623000000000,"state":"active","ping":85},{"user_id":13,"name":"KUBAE","steam_id":76561198392011796,"connected_time":1226000000000,"state":"active","ping":74},{"user_id":11,"name":"Jakbson","steam_id":76561199158083207,"connected_time":3562000000000,"state":"active","ping":71},{"user_id":14,"name":"turknaskooyun","steam_id":76561199222306117,"connected_time":43000000000,"state":"active","ping":119}]},{"server_id":50,"name":"Uncletopia | Warsaw | 2 | All Maps","name_short":"waw-2","host":"waw-1.pl.uncletopia.com","port":27025,"enabled":true,"region":"eu","cc":"pl","latitude":52.2297,"longitude":21.017532,"reserved":0,"last_update":"0001-01-01T00:00:00Z","name_a2s":"Uncletopia | Warsaw | 2 | All Maps","protocol":17,"map":"pl_upward","folder":"tf","game":"Team Fortress","app_id":440,"player_count":4,"max_players":24,"Bots":0,"server_type":"Dedicated","server_os":"Linux","password":true,"vac":true,"version":"7961495","steam_id":85568392925397851,"keywords":["nocrits","nodmgspread","payload","uncletopia"],"game_id":440,"stv_port":27026,"stv_name":"Uncletopia | Warsaw | 2 | All Maps | STV","players":[{"user_id":8,"name":"mighty t. real","steam_id":76561199121332325,"connected_time":1454000000000,"state":"active","ping":84},{"user_id":9,"name":"Ikthius119","steam_id":76561198136660478,"connected_time":1382000000000,"state":"active","ping":195},{"user_id":10,"name":"Nicco","steam_id":76561199471411794,"connected_time":933000000000,"state":"active","ping":87},{"user_id":12,"name":"White People","steam_id":76561199135279307,"connected_time":191000000000,"state":"active","ping":80}]},{"server_id":51,"name":"Uncletopia | Warsaw | 3 | All Maps","name_short":"waw-3","host":"waw-1.pl.uncletopia.com","port":27035,"enabled":true,"region":"eu","cc":"pl","latitude":52.2297,"longitude":21.017532,"reserved":0,"last_update":"0001-01-01T00:00:00Z","name_a2s":"Uncletopia | Warsaw | 3 | All Maps","protocol":17,"map":"koth_lakeside_final","folder":"tf","game":"Team Fortress","app_id":440,"player_count":0,"max_players":24,"Bots":0,"server_type":"Dedicated","server_os":"Linux","password":true,"vac":true,"version":"7961495","steam_id":85568392925397852,"keywords":["cp","nocrits","nodmgspread","uncletopia"],"game_id":440,"stv_port":27036,"stv_name":"Uncletopia | Warsaw | 3 | All Maps | STV","players":null},{"server_id":52,"name":"Uncletopia | Warsaw | 4 | All Maps","name_short":"waw-4","host":"waw-1.pl.uncletopia.com","port":27045,"enabled":true,"region":"eu","cc":"pl","latitude":52.2297,"longitude":21.017532,"reserved":0,"last_update":"0001-01-01T00:00:00Z","name_a2s":"Uncletopia | Warsaw | 4 | All Maps","protocol":17,"map":"pl_snowycoast","folder":"tf","game":"Team Fortress","app_id":440,"player_count":0,"max_players":24,"Bots":0,"server_type":"Dedicated","server_os":"Linux","password":true,"vac":true,"version":"7961495","steam_id":85568392925397853,"keywords":["nocrits","nodmgspread","payload","uncletopia"],"game_id":440,"stv_port":27046,"stv_name":"Uncletopia | Warsaw | 4 | All Maps | STV","players":null},{"server_id":53,"name":"Uncletopia | Warsaw | 5 | Stopwatch","name_short":"waw-5","host":"waw-1.pl.uncletopia.com","port":27055,"enabled":true,"region":"eu","cc":"pl","latitude":52.2297,"longitude":21.017532,"reserved":0,"last_update":"0001-01-01T00:00:00Z","name_a2s":"Uncletopia | Warsaw | 5 | Stopwatch","protocol":17,"map":"pl_borneo","folder":"tf","game":"Team Fortress","app_id":440,"player_count":0,"max_players":24,"Bots":0,"server_type":"Dedicated","server_os":"Linux","password":true,"vac":true,"version":"7961495","steam_id":85568392925397854,"keywords":["nocrits","nodmgspread","payload","uncletopia"],"game_id":440,"stv_port":27056,"stv_name":"Uncletopia | Warsaw | 5 | Stopwatch | STV","players":null},{"server_id":54,"name":"Uncletopia | Warsaw | 6 | Community","name_short":"waw-6","host":"waw-1.pl.uncletopia.com","port":27065,"enabled":true,"region":"eu","cc":"pl","latitude":52.2297,"longitude":21.017532,"reserved":0,"last_update":"0001-01-01T00:00:00Z","name_a2s":"Uncletopia | Warsaw | 6 | Community","protocol":17,"map":"workshop/koth_kemptown_rc1.ugc767410655","folder":"tf","game":"Team Fortress","app_id":440,"player_count":0,"max_players":24,"Bots":0,"server_type":"Dedicated","server_os":"Linux","password":true,"vac":true,"version":"7961495","steam_id":85568392925397856,"keywords":["cp","nocrits","nodmgspread","uncletopia"],"game_id":440,"stv_port":27066,"stv_name":"Uncletopia | Warsaw | 6 | Community | STV","players":null}]}