{"status":true,"message":"","result":[{"server_id":9,"name":"Uncletopia | Atlanta | 1 | All Maps","name_short":"atl-1","host":"atl-1.us.uncletopia.com","port":27015,"enabled":true,"region":"us-east","cc":"us","latitude":33.753746,"longitude":-84.38633,"reserved":0,"last_update":"0001-01-01T00:00:00Z","name_a2s":"Uncletopia | Atlanta | 1 | All Maps","protocol":17,"map":"pl_frontier_final","folder":"tf","game":"Team Fortress","app_id":440,"player_count":24,"max_players":24,"Bots":0,"server_type":"Dedicated","server_os":"Linux","password":true,"vac":true,"version":"7708610","steam_id":85568392924469982,"keywords":["nocrits","nodmgspread","payload","uncletopia"],"game_id":440,"stv_port":27016,"stv_name":"Uncletopia | Atlanta | 1 | All Maps | STV","players":[{"user_id":333,"name":"ATL1 | Kramer","steam_id":76561198083595936,"connected_time":1003000000000,"state":"active","ping":81},{"user_id":332,"name":"stink","steam_id":76561198099318923,"connected_time":1070000000000,"state":"active","ping":85},{"user_id":227,"name":"SuperJagops","steam_id":76561198034689716,"connected_time":10247000000000,"state":"active","ping":71},{"user_id":198,"name":"ATL1 | on my hunting trip","steam_id":76561198315341646,"connected_time":12088000000000,"state":"active","ping":69},{"user_id":287,"name":"--_Cook_--","steam_id":76561198080855748,"connected_time":4455000000000,"state":"active","ping":47},{"user_id":331,"name":"ATL0 Dedi Le4n!!!","steam_id":76561198045522596,"connected_time":1086000000000,"state":"active","ping":60},{"user_id":337,"name":"DragonBreath104","steam_id":76561198801811786,"connected_time":231000000000,"state":"active","ping":65},{"user_id":317,"name":"Jin Gulilo","steam_id":76561198065151242,"connected_time":2098000000000,"state":"active","ping":71},{"user_id":312,"name":"remedu","steam_id":76561198005152587,"connected_time":2985000000000,"state":"active","ping":64},{"user_id":315,"name":"Jevil","steam_id":76561199061086990,"connected_time":2274000000000,"state":"active","ping":158},{"user_id":338,"name":"nhbiker","steam_id":76561198081277675,"connected_time":184000000000,"state":"active","ping":62},{"user_id":339,"name":"shaderoses","steam_id":76561198070800500,"connected_time":176000000000,"state":"active","ping":61},{"user_id":334,"name":"V!CT!M","steam_id":76561198962721502,"connected_time":600000000000,"state":"active","ping":84},{"user_id":322,"name":"Smoky","steam_id":76561198418262145,"connected_time":2009000000000,"state":"active","ping":112},{"user_id":298,"name":"Temina","steam_id":76561198978778718,"connected_time":3829000000000,"state":"active","ping":139},{"user_id":335,"name":"jpuck","steam_id":76561198025018960,"connected_time":456000000000,"state":"active","ping":55},{"user_id":340,"name":"Firerise9402","steam_id":76561199158500661,"connected_time":167000000000,"state":"active","ping":63},{"user_id":274,"name":"Lord Vile the Impaler","steam_id":76561198040425096,"connected_time":5993000000000,"state":"active","ping":58},{"user_id":341,"name":"Red Physical","steam_id":76561198151864382,"connected_time":131000000000,"state":"active","ping":125},{"user_id":325,"name":"ppoosk","steam_id":76561198055743341,"connected_time":1916000000000,"state":"active","ping":102},{"user_id":343,"name":"Slug Warrior","steam_id":76561197996052704,"connected_time":46000000000,"state":"active","ping":73},{"user_id":305,"name":"jacix3 [gay wolfgirl]{she/it}","steam_id":76561198205004165,"connected_time":3449000000000,"state":"active","ping":124},{"user_id":314,"name":"SnowStorm","steam_id":76561198095817025,"connected_time":2346000000000,"state":"active","ping":42},{"user_id":330,"name":"Don Piccolo","steam_id":76561198118539302,"connected_time":1275000000000,"state":"active","ping":73}]},{"server_id":400,"name":"Uncletopia | Atlanta | 3 | All Maps","name_short":"atl-3","host":"atl-1.us.uncletopia.com","port":27035,"enabled":true,"region":"us-east","cc":"us","latitude":33.753746,"longitude":-84.38633,"reserved":0,"last_update":"0001-01-01T00:00:00Z","name_a2s":"Uncletopia | Atlanta | 3 | All Maps","protocol":17,"map":"pl_borneo","folder":"tf","game":"Team Fortress","app_id":440,"player_count":23,"max_players":24,"Bots":0,"server_type":"Dedicated","server_os":"Linux","password":true,"vac":true,"version":"7708610","steam_id":85568392924515187,"keywords":["nocrits","nodmgspread","payload","uncletopia"],"game_id":440,"stv_port":27036,"stv_name":"Uncletopia | Atlanta | 3 | All Maps | STV","players":[{"user_id":159,"name":"gnome \"kooky ass mf\" fan","steam_id":76561198148199120,"connected_time":848000000000,"state":"active","ping":73},{"user_id":160,"name":"Lemony Lilly (She/Her)","steam_id":76561198042479066,"connected_time":603000000000,"state":"active","ping":61},{"user_id":161,"name":"Quansen","steam_id":76561198151594550,"connected_time":554000000000,"state":"active","ping":75},{"user_id":157,"name":"KORF","steam_id":76561197981904410,"connected_time":1155000000000,"state":"active","ping":75},{"user_id":162,"name":"tis but a jest","steam_id":76561198072095399,"connected_time":534000000000,"state":"active","ping":48},{"user_id":138,"name":"hippo mode","steam_id":76561198073455521,"connected_time":3310000000000,"state":"active","ping":46},{"user_id":163,"name":"tf2s worst player","steam_id":76561199108820058,"connected_time":522000000000,"state":"active","ping":68},{"user_id":176,"name":"yesoko","steam_id":76561198072917024,"connected_time":181000000000,"state":"active","ping":74},{"user_id":147,"name":"sevanial","steam_id":76561198071532126,"connected_time":2098000000000,"state":"active","ping":70},{"user_id":174,"name":"Shmiel","steam_id":76561198175734166,"connected_time":281000000000,"state":"active","ping":50},{"user_id":175,"name":"LordCasuel6173","steam_id":76561199389029201,"connected_time":253000000000,"state":"active","ping":97},{"user_id":167,"name":"fudge lord","steam_id":76561198118318422,"connected_time":431000000000,"state":"active","ping":65},{"user_id":168,"name":"The unsung hero","steam_id":76561199198863237,"connected_time":373000000000,"state":"active","ping":68},{"user_id":170,"name":"Sp0n","steam_id":76561198115075419,"connected_time":359000000000,"state":"active","ping":101},{"user_id":171,"name":"Inevitable","steam_id":76561198210050169,"connected_time":349000000000,"state":"active","ping":75},{"user_id":172,"name":"what the deuce","steam_id":76561198254503343,"connected_time":331000000000,"state":"active","ping":64},{"user_id":151,"name":"Razz","steam_id":76561198119698950,"connected_time":1490000000000,"state":"active","ping":119},{"user_id":177,"name":"peace, love \u0026 tranquilizers","steam_id":76561198078721142,"connected_time":113000000000,"state":"active","ping":66},{"user_id":178,"name":"dry","steam_id":76561198008899411,"connected_time":107000000000,"state":"active","ping":75},{"user_id":123,"name":"The Figgler","steam_id":76561198168295944,"connected_time":4698000000000,"state":"active","ping":85},{"user_id":181,"name":"TheBigJabroni™","steam_id":76561198066208423,"connected_time":23000000000,"state":"active","ping":110},{"user_id":180,"name":"Biggest Charms","steam_id":76561198075134882,"connected_time":62000000000,"state":"active","ping":337},{"user_id":148,"name":"John Darksoul","steam_id":76561198999712284,"connected_time":1795000000000,"state":"active","ping":95}]},{"server_id":401,"name":"Uncletopia | Atlanta | 4 | No Payload","name_short":"atl-4","host":"atl-1.us.uncletopia.com","port":27045,"enabled":true,"region":"us-east","cc":"us","latitude":33.753746,"longitude":-84.38633,"reserved":0,"last_update":"0001-01-01T00:00:00Z","name_a2s":"Uncletopia | Atlanta | 4 | No Payload","protocol":17,"map":"cp_foundry","folder":"tf","game":"Team Fortress","app_id":440,"player_count":0,"max_players":24,"Bots":0,"server_type":"Dedicated","server_os":"Linux","password":true,"vac":true,"version":"7708610","steam_id":85568392924515188,"keywords":["cp","nocrits","nodmgspread","uncletopia"],"game_id":440,"stv_port":27046,"stv_name":"Uncletopia | Atlanta | 4 | No Payload | STV","players":null},{"server_id":2,"name":"Uncletopia | Chicago | 1 | All Maps","name_short":"chi-1","host":"chi-1.us.uncletopia.com","port":27015,"enabled":true,"region":"us-central","cc":"us","latitude":41.881832,"longitude":-87.62318,"reserved":0,"last_update":"0001-01-01T00:00:00Z","name_a2s":"Uncletopia | Chicago | 1 | All Maps","protocol":17,"map":"pl_snowycoast","folder":"tf","game":"Team Fortress","app_id":440,"player_count":24,"max_players":24,"Bots":0,"server_type":"Dedicated","server_os":"Linux","password":true,"vac":true,"version":"7708610","steam_id":85568392924469984,"keywords":["nocrits","nodmgspread","payload","uncletopia"],"game_id":440,"stv_port":27016,"stv_name":"Uncletopia | Chicago | 1 | All Maps | STV","players":[{"user_id":432,"name":"SuperCeleste❤️Trans Rights","steam_id":76561198167207053,"connected_time":112000000000,"state":"active","ping":65},{"user_id":424,"name":"i'll have what you're having","steam_id":76561198035337657,"connected_time":742000000000,"state":"active","ping":61},{"user_id":411,"name":"Enderneer","steam_id":76561198012136653,"connected_time":1409000000000,"state":"active","ping":61},{"user_id":426,"name":"Riske","steam_id":76561198115840568,"connected_time":680000000000,"state":"active","ping":68},{"user_id":429,"name":"David De Bergerac","steam_id":76561198010306294,"connected_time":212000000000,"state":"active","ping":72},{"user_id":380,"name":"Chode Mode","steam_id":76561198353840477,"connected_time":3638000000000,"state":"active","ping":54},{"user_id":386,"name":"ultrax.extremex","steam_id":76561199201770653,"connected_time":3085000000000,"state":"active","ping":78},{"user_id":406,"name":"emctwo","steam_id":76561198095082517,"connected_time":1689000000000,"state":"active","ping":63},{"user_id":415,"name":"harry","steam_id":76561198263271697,"connected_time":1165000000000,"state":"active","ping":44},{"user_id":393,"name":"jeff","steam_id":76561198059450566,"connected_time":2417000000000,"state":"active","ping":58},{"user_id":419,"name":"Bomb Squirtle™","steam_id":76561197998931145,"connected_time":1112000000000,"state":"active","ping":89},{"user_id":407,"name":"SHADOW","steam_id":76561198207768148,"connected_time":1684000000000,"state":"active","ping":104},{"user_id":392,"name":"women fish me","steam_id":76561198153245906,"connected_time":2438000000000,"state":"active","ping":57},{"user_id":405,"name":"John Darksoul","steam_id":76561198031675881,"connected_time":1718000000000,"state":"active","ping":57},{"user_id":397,"name":"Pan Wizard","steam_id":76561198031939694,"connected_time":2282000000000,"state":"active","ping":79},{"user_id":413,"name":"Pathara44","steam_id":76561198048238620,"connected_time":1366000000000,"state":"active","ping":54},{"user_id":428,"name":"Sully","steam_id":76561198310784589,"connected_time":629000000000,"state":"active","ping":62},{"user_id":417,"name":"joe_lemmons","steam_id":76561198441246401,"connected_time":1141000000000,"state":"active","ping":53},{"user_id":430,"name":"Neil Degrassy","steam_id":76561198132980934,"connected_time":190000000000,"state":"active","ping":53},{"user_id":435,"name":"ChickenManPhil","steam_id":76561199139508332,"connected_time":9000000000,"state":"spawning","ping":224},{"user_id":423,"name":"Bootstrap","steam_id":76561199110353614,"connected_time":822000000000,"state":"active","ping":81},{"user_id":373,"name":"早上好，现在我有冰淇","steam_id":76561198315509912,"connected_time":3837000000000,"state":"active","ping":50},{"user_id":422,"name":"BIG LION","steam_id":76561199229169396,"connected_time":921000000000,"state":"active","ping":68},{"user_id":420,"name":"squid game","steam_id":76561199248960166,"connected_time":1103000000000,"state":"active","ping":99}]},{"server_id":106,"name":"Uncletopia | Chicago | 2 | All Maps","name_short":"chi-2","host":"chi-1.us.uncletopia.com","port":27025,"enabled":true,"region":"us-central","cc":"us","latitude":41.881832,"longitude":-87.62318,"reserved":0,"last_update":"0001-01-01T00:00:00Z","name_a2s":"Uncletopia | Chicago | 2 | All Maps","protocol":17,"map":"pl_upward","folder":"tf","game":"Team Fortress","app_id":440,"player_count":24,"max_players":24,"Bots":0,"server_type":"Dedicated","server_os":"Linux","password":true,"vac":true,"version":"7708610","steam_id":85568392924469985,"keywords":["nocrits","nodmgspread","payload","uncletopia"],"game_id":440,"stv_port":27026,"stv_name":"Uncletopia | Chicago | 2 | All Maps | STV","players":[{"user_id":265,"name":"Muffin","steam_id":76561199156302434,"connected_time":970000000000,"state":"active","ping":50},{"user_id":283,"name":"Sheppy","steam_id":76561198295126940,"connected_time":269000000000,"state":"active","ping":49},{"user_id":262,"name":"faxxy","steam_id":76561198079621240,"connected_time":1072000000000,"state":"active","ping":60},{"user_id":263,"name":"hedahman","steam_id":76561198052398134,"connected_time":1060000000000,"state":"active","ping":100},{"user_id":279,"name":"Maxx","steam_id":76561198045405304,"connected_time":451000000000,"state":"active","ping":84},{"user_id":266,"name":"albert_gamer","steam_id":76561198980666751,"connected_time":919000000000,"state":"active","ping":72},{"user_id":267,"name":"DC19","steam_id":76561199161705225,"connected_time":898000000000,"state":"active","ping":61},{"user_id":281,"name":"Dark Lord","steam_id":76561198044199150,"connected_time":338000000000,"state":"active","ping":74},{"user_id":269,"name":"robbed","steam_id":76561198856183212,"connected_time":849000000000,"state":"active","ping":55},{"user_id":232,"name":"Dude Named Bob","steam_id":76561198310448093,"connected_time":4182000000000,"state":"active","ping":45},{"user_id":274,"name":"taconuva","steam_id":76561198068105824,"connected_time":688000000000,"state":"active","ping":95},{"user_id":268,"name":"Devcronz","steam_id":76561198392905391,"connected_time":873000000000,"state":"active","ping":70},{"user_id":199,"name":"ChillSasquatch","steam_id":76561198068408798,"connected_time":6287000000000,"state":"active","ping":61},{"user_id":258,"name":"DiHMO","steam_id":76561198030130169,"connected_time":1776000000000,"state":"active","ping":47},{"user_id":216,"name":"Samrizo el Chorizo","steam_id":76561198009838162,"connected_time":5124000000000,"state":"active","ping":57},{"user_id":270,"name":"Fudgely","steam_id":76561198039425862,"connected_time":798000000000,"state":"active","ping":72},{"user_id":252,"name":"TheGhostThatWas","steam_id":76561198055836483,"connected_time":2248000000000,"state":"active","ping":60},{"user_id":275,"name":"A tree","steam_id":76561198309065247,"connected_time":663000000000,"state":"active","ping":62},{"user_id":272,"name":"Totouri","steam_id":76561198004229789,"connected_time":730000000000,"state":"active","ping":59},{"user_id":245,"name":"Pennis the Menace","steam_id":76561198254878037,"connected_time":2615000000000,"state":"active","ping":70},{"user_id":282,"name":"DeathwingTheDestroyer","steam_id":76561199147322448,"connected_time":323000000000,"state":"active","ping":49},{"user_id":246,"name":"ball crusher :}","steam_id":76561198141198352,"connected_time":2607000000000,"state":"active","ping":45},{"user_id":278,"name":"football.king.scotland.official","steam_id":76561198075510786,"connected_time":609000000000,"state":"active","ping":70},{"user_id":223,"name":"Kevin Y.","steam_id":76561198364331423,"connected_time":4317000000000,"state":"active","ping":83}]},{"server_id":402,"name":"Uncletopia | Chicago | 3 | All Maps","name_short":"chi-3","host":"chi-1.us.uncletopia.com","port":27035,"enabled":true,"region":"us-central","cc":"us","latitude":41.881832,"longitude":-87.62318,"reserved":0,"last_update":"0001-01-01T00:00:00Z","name_a2s":"Uncletopia | Chicago | 3 | All Maps","protocol":17,"map":"cp_altitude","folder":"tf","game":"Team Fortress","app_id":440,"player_count":0,"max_players":24,"Bots":0,"server_type":"Dedicated","server_os":"Linux","password":true,"vac":true,"version":"7708610","steam_id":85568392924515191,"keywords":["cp","nocrits","nodmgspread","uncletopia"],"game_id":440,"stv_port":27036,"stv_name":"Uncletopia | Chicago | 3 | All Maps | STV","players":null},{"server_id":403,"name":"Uncletopia | Chicago | 4 | All Maps","name_short":"chi-4","host":"chi-1.us.uncletopia.com","port":27045,"enabled":true,"region":"us-central","cc":"us","latitude":41.881832,"longitude":-87.62318,"reserved":0,"last_update":"0001-01-01T00:00:00Z","name_a2s":"Uncletopia | Chicago | 4 | All Maps","protocol":17,"map":"pl_upward","folder":"tf","game":"Team Fortress","app_id":440,"player_count":0,"max_players":24,"Bots":0,"server_type":"Dedicated","server_os":"Linux","password":true,"vac":true,"version":"7708610","steam_id":85568392924515193,"keywords":["nocrits","nodmgspread","payload","uncletopia"],"game_id":440,"stv_port":27046,"stv_name":"Uncletopia | Chicago | 4 | All Maps | STV","players":null},{"server_id":36,"name":"Uncletopia | Chicago | 5 | All Maps","name_short":"chi-5","host":"chi-2.us.uncletopia.com","port":27015,"enabled":true,"region":"us-central","cc":"us","latitude":41.881832,"longitude":-87.62318,"reserved":0,"last_update":"0001-01-01T00:00:00Z","name_a2s":"Uncletopia | Chicago | 5 | All Maps","protocol":17,"map":"pl_frontier_final","folder":"tf","game":"Team Fortress","app_id":440,"player_count":14,"max_players":24,"Bots":0,"server_type":"Dedicated","server_os":"Linux","password":true,"vac":true,"version":"7708610","steam_id":85568392924866362,"keywords":["nocrits","nodmgspread","payload","uncletopia"],"game_id":440,"stv_port":27016,"stv_name":"Uncletopia | Chicago | 5 | All Maps | STV","players":[{"user_id":201,"name":"Waffle Wannabe","steam_id":76561198064510650,"connected_time":1149000000000,"state":"active","ping":53},{"user_id":209,"name":"XxhollowninjaxX","steam_id":76561199054048217,"connected_time":740000000000,"state":"active","ping":85},{"user_id":145,"name":"blob","steam_id":76561198122375328,"connected_time":5200000000000,"state":"active","ping":58},{"user_id":189,"name":"asfd","steam_id":76561198012566405,"connected_time":1536000000000,"state":"active","ping":67},{"user_id":211,"name":"normal box","steam_id":76561198296507235,"connected_time":591000000000,"state":"active","ping":65},{"user_id":212,"name":"Tresthebest360","steam_id":76561198965347175,"connected_time":532000000000,"state":"active","ping":62},{"user_id":213,"name":"snideink287","steam_id":76561198166055131,"connected_time":525000000000,"state":"active","ping":47},{"user_id":214,"name":"snow worm","steam_id":76561198328256922,"connected_time":497000000000,"state":"active","ping":45},{"user_id":215,"name":"Lovedaddy","steam_id":76561198006569710,"connected_time":484000000000,"state":"active","ping":74},{"user_id":216,"name":"Eliza","steam_id":76561198108938752,"connected_time":462000000000,"state":"active","ping":62},{"user_id":217,"name":"ToddGold","steam_id":76561198186920331,"connected_time":238000000000,"state":"active","ping":38},{"user_id":206,"name":"nezzy","steam_id":76561198127115509,"connected_time":1092000000000,"state":"active","ping":73},{"user_id":219,"name":"Loneie","steam_id":76561198270957843,"connected_time":71000000000,"state":"active","ping":50},{"user_id":168,"name":"Danny Fentanyl","steam_id":76561197970791798,"connected_time":3166000000000,"state":"active","ping":87}]},{"server_id":37,"name":"Uncletopia | Chicago | 6 | All Maps","name_short":"chi-6","host":"chi-2.us.uncletopia.com","port":27025,"enabled":true,"region":"us-central","cc":"us","latitude":41.881832,"longitude":-87.62318,"reserved":0,"last_update":"0001-01-01T00:00:00Z","name_a2s":"Uncletopia | Chicago | 6 | All Maps","protocol":17,"map":"koth_cascade","folder":"tf","game":"Team Fortress","app_id":440,"player_count":0,"max_players":24,"Bots":0,"server_type":"Dedicated","server_os":"Linux","password":true,"vac":true,"version":"7708610","steam_id":85568392924866363,"keywords":["cp","nocrits","nodmgspread","uncletopia"],"game_id":440,"stv_port":0,"stv_name":"","players":null},{"server_id":38,"name":"Uncletopia | Chicago | 7 | No Payload","name_short":"chi-7","host":"chi-2.us.uncletopia.com","port":27035,"enabled":true,"region":"us-central","cc":"us","latitude":41.881832,"longitude":-87.62318,"reserved":0,"last_update":"0001-01-01T00:00:00Z","name_a2s":"Uncletopia | Chicago | 7 | No Payload","protocol":17,"map":"koth_viaduct","folder":"tf","game":"Team Fortress","app_id":440,"player_count":0,"max_players":24,"Bots":0,"server_type":"Dedicated","server_os":"Linux","password":true,"vac":true,"version":"7708610","steam_id":85568392924866364,"keywords":["cp","nocrits","nodmgspread","uncletopia"],"game_id":440,"stv_port":0,"stv_name":"","players":null},{"server_id":39,"name":"Uncletopia | Chicago | 8 | Community","name_short":"chi-8","host":"chi-2.us.uncletopia.com","port":27045,"enabled":true,"region":"us-central","cc":"us","latitude":41.881832,"longitude":-87.62318,"reserved":0,"last_update":"0001-01-01T00:00:00Z","name_a2s":"Uncletopia | Chicago | 8 | Community","protocol":17,"map":"pl_pier","folder":"tf","game":"Team Fortress","app_id":440,"player_count":0,"max_players":24,"Bots":0,"server_type":"Dedicated","server_os":"Linux","password":true,"vac":true,"version":"7708610","steam_id":85568392924866365,"keywords":["nocrits","nodmgspread","payload","uncletopia"],"game_id":440,"stv_port":0,"stv_name":"","players":null},{"server_id":8,"name":"Uncletopia | Dallas | 1 | All Maps","name_short":"dal-1","host":"dal-1.us.uncletopia.com","port":27015,"enabled":true,"region":"us-central","cc":"us","latitude":32.779167,"longitude":-96.80889,"reserved":0,"last_update":"0001-01-01T00:00:00Z","name_a2s":"Uncletopia | Dallas | 1 | All Maps","protocol":17,"map":"cp_sunshine","folder":"tf","game":"Team Fortress","app_id":440,"player_count":0,"max_players":24,"Bots":0,"server_type":"Dedicated","server_os":"Linux","password":true,"vac":true,"version":"7708610","steam_id":85568392924469986,"keywords":["cp","nocrits","nodmgspread","uncletopia"],"game_id":440,"stv_port":27016,"stv_name":"Uncletopia | Dallas | 1 | All Maps | STV","players":null},{"server_id":108,"name":"Uncletopia | Dallas | 2 | All Maps","name_short":"dal-2","host":"dal-1.us.uncletopia.com","port":27025,"enabled":true,"region":"us-central","cc":"us","latitude":32.779167,"longitude":-96.80889,"reserved":0,"last_update":"0001-01-01T00:00:00Z","name_a2s":"Uncletopia | Dallas | 2 | All Maps","protocol":17,"map":"cp_snakewater_final1","folder":"tf","game":"Team Fortress","app_id":440,"player_count":24,"max_players":24,"Bots":0,"server_type":"Dedicated","server_os":"Linux","password":true,"vac":true,"version":"7708610","steam_id":85568392924469988,"keywords":["cp","nocrits","nodmgspread","uncletopia"],"game_id":440,"stv_port":27026,"stv_name":"Uncletopia | Dallas | 2 | All Maps | STV","players":[{"user_id":7,"name":"the dai li","steam_id":76561198274010187,"connected_time":3485000000000,"state":"active","ping":74},{"user_id":15,"name":"totoro","steam_id":76561198210420871,"connected_time":2944000000000,"state":"active","ping":72},{"user_id":61,"name":"Goofball","steam_id":76561198074189084,"connected_time":172000000000,"state":"active","ping":75},{"user_id":54,"name":"Omar.Martinez.2005","steam_id":76561199436342861,"connected_time":668000000000,"state":"active","ping":74},{"user_id":58,"name":"local","steam_id":76561198069537437,"connected_time":360000000000,"state":"active","ping":81},{"user_id":27,"name":"Plant","steam_id":76561198025420549,"connected_time":2806000000000,"state":"active","ping":82},{"user_id":38,"name":"happer","steam_id":76561198018252253,"connected_time":2536000000000,"state":"active","ping":84},{"user_id":40,"name":"flu walrus","steam_id":76561198207940136,"connected_time":2023000000000,"state":"active","ping":55},{"user_id":56,"name":"Eightyy  Fourr","steam_id":76561197960374225,"connected_time":434000000000,"state":"active","ping":48},{"user_id":21,"name":"Just_Gas","steam_id":76561198123082220,"connected_time":2888000000000,"state":"active","ping":53},{"user_id":59,"name":"Timbs!!","steam_id":76561198156215344,"connected_time":353000000000,"state":"active","ping":46},{"user_id":55,"name":"Satori Komeiji","steam_id":76561198158211423,"connected_time":648000000000,"state":"active","ping":65},{"user_id":43,"name":"Dr. Bonair","steam_id":76561198129237487,"connected_time":1557000000000,"state":"active","ping":60},{"user_id":62,"name":"friend","steam_id":76561198814659857,"connected_time":26000000000,"state":"active","ping":88},{"user_id":51,"name":"airbudenjoyer2012","steam_id":76561198150428763,"connected_time":893000000000,"state":"active","ping":61},{"user_id":53,"name":"Fatcat.win(false) ;","steam_id":76561198069007806,"connected_time":768000000000,"state":"active","ping":45},{"user_id":29,"name":"Ipseiit","steam_id":76561198294670312,"connected_time":2795000000000,"state":"active","ping":87},{"user_id":50,"name":"MR. DUBBZ","steam_id":76561198043769960,"connected_time":956000000000,"state":"active","ping":83},{"user_id":57,"name":"neet","steam_id":76561197968115168,"connected_time":425000000000,"state":"active","ping":76},{"user_id":39,"name":"Marc G","steam_id":76561198062650363,"connected_time":2076000000000,"state":"active","ping":43},{"user_id":49,"name":"mexfrag.4 life","steam_id":76561198175961598,"connected_time":1011000000000,"state":"active","ping":103},{"user_id":42,"name":"radical larry","steam_id":76561198172246829,"connected_time":1903000000000,"state":"active","ping":73},{"user_id":37,"name":"Jaypelt","steam_id":76561198053906849,"connected_time":2633000000000,"state":"active","ping":89},{"user_id":44,"name":"RysN Yeen ♥","steam_id":76561198105359319,"connected_time":1557000000000,"state":"active","ping":75}]},{"server_id":5,"name":"Uncletopia | Frankfurt | 1 | All Maps","name_short":"frk-1","host":"frk-1.de.uncletopia.com","port":27015,"enabled":true,"region":"eu","cc":"de","latitude":50.110924,"longitude":8.682127,"reserved":0,"last_update":"0001-01-01T00:00:00Z","name_a2s":"Uncletopia | Frankfurt | 1 | All Maps","protocol":17,"map":"pl_chilly","folder":"tf","game":"Team Fortress","app_id":440,"player_count":24,"max_players":24,"Bots":0,"server_type":"Dedicated","server_os":"Linux","password":true,"vac":true,"version":"7708610","steam_id":85568392924469989,"keywords":["nocrits","nodmgspread","payload","uncletopia"],"game_id":440,"stv_port":27016,"stv_name":"Uncletopia | Frankfurt | 1 | All Maps | STV","players":[{"user_id":549,"name":"Boobs rater","steam_id":76561198066977580,"connected_time":2977000000000,"state":"active","ping":82},{"user_id":553,"name":"LarsInABox","steam_id":76561198028329262,"connected_time":2967000000000,"state":"active","ping":67},{"user_id":486,"name":"√(-Wolf)","steam_id":76561198024769704,"connected_time":7831000000000,"state":"active","ping":85},{"user_id":568,"name":"Viperense","steam_id":76561198036206811,"connected_time":942000000000,"state":"active","ping":85},{"user_id":547,"name":"Festdoktor","steam_id":76561198058159271,"connected_time":2999000000000,"state":"active","ping":50},{"user_id":567,"name":"XxSuperPenisxX","steam_id":76561199089532056,"connected_time":974000000000,"state":"active","ping":49},{"user_id":557,"name":"Luo Lang","steam_id":76561197988802856,"connected_time":2843000000000,"state":"active","ping":55},{"user_id":545,"name":"MAKENTAKEN","steam_id":76561199127359587,"connected_time":3588000000000,"state":"active","ping":90},{"user_id":481,"name":"Pico","steam_id":76561198063552545,"connected_time":8022000000000,"state":"active","ping":99},{"user_id":498,"name":"ruby (ribbit)","steam_id":76561198040870467,"connected_time":7401000000000,"state":"active","ping":64},{"user_id":563,"name":"lowdash","steam_id":76561198327827635,"connected_time":1297000000000,"state":"active","ping":68},{"user_id":519,"name":"=OKB= P4NTH3R","steam_id":76561197999204603,"connected_time":4833000000000,"state":"active","ping":49},{"user_id":558,"name":"LordTrap.exe","steam_id":76561198318089716,"connected_time":2808000000000,"state":"active","ping":60},{"user_id":529,"name":"[P-roc] Cmm Bert","steam_id":76561198016658674,"connected_time":4397000000000,"state":"active","ping":62},{"user_id":573,"name":"Bones","steam_id":76561198065081225,"connected_time":354000000000,"state":"active","ping":55},{"user_id":569,"name":"snowii","steam_id":76561198836246326,"connected_time":941000000000,"state":"active","ping":70},{"user_id":565,"name":"Clitorina","steam_id":76561198077570815,"connected_time":1137000000000,"state":"active","ping":50},{"user_id":559,"name":"OREO","steam_id":76561198017080006,"connected_time":2775000000000,"state":"active","ping":103},{"user_id":570,"name":"LOBZIK","steam_id":76561198114830120,"connected_time":792000000000,"state":"active","ping":80},{"user_id":561,"name":"Transgender E-girl","steam_id":76561198168589809,"connected_time":2079000000000,"state":"active","ping":65},{"user_id":555,"name":"she strogan me off til i beef","steam_id":76561198166555207,"connected_time":2950000000000,"state":"active","ping":63},{"user_id":572,"name":"Sabour","steam_id":76561197963965445,"connected_time":474000000000,"state":"active","ping":55},{"user_id":518,"name":"Serton♝","steam_id":76561198011061126,"connected_time":4869000000000,"state":"active","ping":97},{"user_id":575,"name":"Brob Isn't Real","steam_id":76561199105529860,"connected_time":8000000000,"state":"spawning","ping":78}]},{"server_id":110,"name":"Uncletopia | Frankfurt | 2 | All Maps","name_short":"frk-2","host":"frk-1.de.uncletopia.com","port":27025,"enabled":true,"region":"eu","cc":"de","latitude":50.110924,"longitude":8.682127,"reserved":0,"last_update":"0001-01-01T00:00:00Z","name_a2s":"Uncletopia | Frankfurt | 2 | All Maps","protocol":17,"map":"pl_frontier_final","folder":"tf","game":"Team Fortress","app_id":440,"player_count":15,"max_players":24,"Bots":0,"server_type":"Dedicated","server_os":"Linux","password":true,"vac":true,"version":"7708610","steam_id":85568392924469990,"keywords":["nocrits","nodmgspread","payload","uncletopia"],"game_id":440,"stv_port":27026,"stv_name":"Uncletopia | Frankfurt | 2 | All Maps | STV","players":[{"user_id":530,"name":"ćirno","steam_id":76561199010825303,"connected_time":2260000000000,"state":"active","ping":74},{"user_id":548,"name":"ɘƚɒ⅃ɘƚɒ⅃ /./ =)(= \\.\\","steam_id":76561198053339372,"connected_time":548000000000,"state":"active","ping":72},{"user_id":551,"name":"Klonky","steam_id":76561199068329886,"connected_time":459000000000,"state":"active","ping":71},{"user_id":552,"name":"banrab","steam_id":76561198083615367,"connected_time":387000000000,"state":"active","ping":48},{"user_id":516,"name":"rosepinkyfuzz","steam_id":76561198018546334,"connected_time":3378000000000,"state":"active","ping":73},{"user_id":553,"name":"i am not famous anymore","steam_id":76561197994300335,"connected_time":366000000000,"state":"active","ping":90},{"user_id":524,"name":"Caskye","steam_id":76561198165430888,"connected_time":3157000000000,"state":"active","ping":70},{"user_id":554,"name":"ultralex","steam_id":76561198024910383,"connected_time":324000000000,"state":"active","ping":60},{"user_id":555,"name":"zeta307","steam_id":76561198010891875,"connected_time":316000000000,"state":"active","ping":62},{"user_id":531,"name":"gfjhsdf","steam_id":76561198136736426,"connected_time":1773000000000,"state":"active","ping":57},{"user_id":556,"name":"Gruel","steam_id":76561198045408509,"connected_time":275000000000,"state":"active","ping":56},{"user_id":559,"name":"Dr.Livesey","steam_id":76561198423099559,"connected_time":144000000000,"state":"active","ping":66},{"user_id":558,"name":"ashley","steam_id":76561198448551449,"connected_time":269000000000,"state":"active","ping":51},{"user_id":560,"name":"Pax","steam_id":76561198047797964,"connected_time":104000000000,"state":"active","ping":64},{"user_id":561,"name":"Alibi","steam_id":76561198061845595,"connected_time":100000000000,"state":"active","ping":61}]},{"server_id":308,"name":"Uncletopia | Frankfurt | 3 | All Maps","name_short":"frk-3","host":"frk-1.de.uncletopia.com","port":27035,"enabled":true,"region":"eu","cc":"de","latitude":50.110924,"longitude":8.682127,"reserved":0,"last_update":"0001-01-01T00:00:00Z","name_a2s":"Uncletopia | Frankfurt | 3 | All Maps","protocol":17,"map":"pl_snowycoast","folder":"tf","game":"Team Fortress","app_id":440,"player_count":0,"max_players":24,"Bots":0,"server_type":"Dedicated","server_os":"Linux","password":true,"vac":true,"version":"7708610","steam_id":85568392924504274,"keywords":["nocrits","nodmgspread","payload","uncletopia"],"game_id":440,"stv_port":27036,"stv_name":"Uncletopia | Frankfurt | 3 | All Maps | STV","players":null},{"server_id":309,"name":"Uncletopia | Frankfurt | 4 | All Maps","name_short":"frk-4","host":"frk-1.de.uncletopia.com","port":27045,"enabled":true,"region":"eu","cc":"de","latitude":50.110924,"longitude":8.682127,"reserved":0,"last_update":"0001-01-01T00:00:00Z","name_a2s":"Uncletopia | Frankfurt | 4 | All Maps","protocol":17,"map":"pl_pier","folder":"tf","game":"Team Fortress","app_id":440,"player_count":24,"max_players":24,"Bots":0,"server_type":"Dedicated","server_os":"Linux","password":true,"vac":true,"version":"7708610","steam_id":85568392924504275,"keywords":["nocrits","nodmgspread","payload","uncletopia"],"game_id":440,"stv_port":27046,"stv_name":"Uncletopia | Frankfurt | 4 | All Maps | STV","players":[{"user_id":594,"name":"Milk","steam_id":76561198219146857,"connected_time":9747000000000,"state":"active","ping":80},{"user_id":703,"name":"some edgy nickname","steam_id":76561198040241299,"connected_time":1927000000000,"state":"active","ping":61},{"user_id":691,"name":"Utvar","steam_id":76561198131838460,"connected_time":2820000000000,"state":"active","ping":56},{"user_id":725,"name":"_Starlight_","steam_id":76561197993885738,"connected_time":392000000000,"state":"active","ping":71},{"user_id":665,"name":"\"sniper\"","steam_id":76561198405291408,"connected_time":4313000000000,"state":"active","ping":62},{"user_id":704,"name":"Mr. Huntsman","steam_id":76561197981910397,"connected_time":1847000000000,"state":"active","ping":66},{"user_id":722,"name":"worry about it","steam_id":76561199414716848,"connected_time":929000000000,"state":"active","ping":86},{"user_id":723,"name":"Knoxx","steam_id":76561198260692541,"connected_time":743000000000,"state":"active","ping":66},{"user_id":721,"name":"peruna","steam_id":76561198000721196,"connected_time":986000000000,"state":"active","ping":89},{"user_id":714,"name":"X45Y","steam_id":76561198112534025,"connected_time":1339000000000,"state":"active","ping":45},{"user_id":706,"name":"Čika Kure","steam_id":76561199002244505,"connected_time":1817000000000,"state":"active","ping":55},{"user_id":639,"name":"LovableLeaf","steam_id":76561198854720925,"connected_time":6026000000000,"state":"active","ping":81},{"user_id":727,"name":"Graceium","steam_id":76561198271802336,"connected_time":375000000000,"state":"active","ping":77},{"user_id":712,"name":"Труп Володя","steam_id":76561198035718457,"connected_time":1581000000000,"state":"active","ping":90},{"user_id":680,"name":"sigma female","steam_id":76561198298576765,"connected_time":3865000000000,"state":"active","ping":76},{"user_id":713,"name":"Saint","steam_id":76561198003296382,"connected_time":1382000000000,"state":"active","ping":63},{"user_id":718,"name":"Capitan Boba","steam_id":76561198058624532,"connected_time":1075000000000,"state":"active","ping":62},{"user_id":707,"name":"i3","steam_id":76561198212702751,"connected_time":1745000000000,"state":"active","ping":92},{"user_id":719,"name":"Mari_Kross","steam_id":76561198130863086,"connected_time":1070000000000,"state":"active","ping":79},{"user_id":715,"name":"Xayir","steam_id":76561198079566786,"connected_time":1260000000000,"state":"active","ping":66},{"user_id":709,"name":"BarrackOmaha","steam_id":76561198027922724,"connected_time":1729000000000,"state":"active","ping":75},{"user_id":726,"name":"Troodon","steam_id":76561198223648788,"connected_time":389000000000,"state":"active","ping":96},{"user_id":637,"name":"christmas eve","steam_id":76561197973182789,"connected_time":6135000000000,"state":"active","ping":75},{"user_id":659,"name":"heisenburger","steam_id":76561198284589853,"connected_time":5277000000000,"state":"active","ping":84}]},{"server_id":310,"name":"Uncletopia | Frankfurt | 5 | All Maps","name_short":"frk-5","host":"frk-1.de.uncletopia.com","port":27055,"enabled":true,"region":"eu","cc":"de","latitude":50.110924,"longitude":8.682127,"reserved":0,"last_update":"0001-01-01T00:00:00Z","name_a2s":"Uncletopia | Frankfurt | 5 | All Maps","protocol":17,"map":"pl_thundermountain","folder":"tf","game":"Team Fortress","app_id":440,"player_count":24,"max_players":24,"Bots":0,"server_type":"Dedicated","server_os":"Linux","password":true,"vac":true,"version":"7708610","steam_id":85568392924504277,"keywords":["nocrits","nodmgspread","payload","uncletopia"],"game_id":440,"stv_port":27056,"stv_name":"Uncletopia | Frankfurt | 5 | All Maps | STV","players":[{"user_id":295,"name":"Dewotter","steam_id":76561198007653168,"connected_time":3376000000000,"state":"active","ping":72},{"user_id":294,"name":"jzxc","steam_id":76561199003530902,"connected_time":3459000000000,"state":"active","ping":96},{"user_id":336,"name":"i heal gay people","steam_id":76561198032167311,"connected_time":745000000000,"state":"active","ping":88},{"user_id":344,"name":"CAS","steam_id":76561198197465693,"connected_time":65000000000,"state":"active","ping":82},{"user_id":293,"name":"Polaris","steam_id":76561198007076931,"connected_time":3508000000000,"state":"active","ping":65},{"user_id":322,"name":"Ged","steam_id":76561198079288943,"connected_time":2002000000000,"state":"active","ping":133},{"user_id":302,"name":"bubblojoe","steam_id":76561198044534119,"connected_time":2897000000000,"state":"active","ping":69},{"user_id":323,"name":"Flex Finster","steam_id":76561198061632224,"connected_time":1989000000000,"state":"active","ping":51},{"user_id":341,"name":"breedable","steam_id":76561198010300032,"connected_time":195000000000,"state":"active","ping":75},{"user_id":342,"name":"vuggie","steam_id":76561198042227249,"connected_time":194000000000,"state":"active","ping":51},{"user_id":334,"name":"Møjæstic |","steam_id":76561198086787066,"connected_time":869000000000,"state":"active","ping":63},{"user_id":316,"name":"galaxy","steam_id":76561198164819022,"connected_time":2270000000000,"state":"active","ping":59},{"user_id":325,"name":"Joejee","steam_id":76561199122423976,"connected_time":1711000000000,"state":"active","ping":73},{"user_id":331,"name":"Bonca","steam_id":76561198137503531,"connected_time":1475000000000,"state":"active","ping":81},{"user_id":327,"name":"Toe Pics","steam_id":76561198991800880,"connected_time":1657000000000,"state":"active","ping":151},{"user_id":337,"name":"RIFT","steam_id":76561198991622379,"connected_time":731000000000,"state":"active","ping":62},{"user_id":340,"name":"Pingy030799","steam_id":76561198070567860,"connected_time":441000000000,"state":"active","ping":93},{"user_id":339,"name":"jt7","steam_id":76561198073655162,"connected_time":686000000000,"state":"active","ping":69},{"user_id":319,"name":"Marti7142","steam_id":76561199216336046,"connected_time":2220000000000,"state":"active","ping":80},{"user_id":345,"name":"Tweehoek","steam_id":76561197993796913,"connected_time":18000000000,"state":"spawning","ping":71},{"user_id":314,"name":"Diana Ball","steam_id":76561198382533813,"connected_time":2337000000000,"state":"active","ping":61},{"user_id":240,"name":"Charmedelf","steam_id":76561197993611881,"connected_time":6560000000000,"state":"active","ping":65},{"user_id":304,"name":"omnibombulator","steam_id":76561198025858897,"connected_time":2842000000000,"state":"active","ping":63},{"user_id":338,"name":"Cahl","steam_id":76561198980863125,"connected_time":725000000000,"state":"active","ping":60}]},{"server_id":311,"name":"Uncletopia | Frankfurt | 6 | All Maps","name_short":"frk-6","host":"frk-1.de.uncletopia.com","port":27065,"enabled":true,"region":"eu","cc":"de","latitude":50.110924,"longitude":8.682127,"reserved":0,"last_update":"0001-01-01T00:00:00Z","name_a2s":"Uncletopia | Frankfurt | 6 | All Maps","protocol":17,"map":"pl_thundermountain","folder":"tf","game":"Team Fortress","app_id":440,"player_count":24,"max_players":24,"Bots":0,"server_type":"Dedicated","server_os":"Linux","password":true,"vac":true,"version":"7708610","steam_id":85568392924504278,"keywords":["nocrits","nodmgspread","payload","uncletopia"],"game_id":440,"stv_port":27066,"stv_name":"Uncletopia | Frankfurt | 6 | All Maps | STV","players":[{"user_id":352,"name":"ArekanPL","steam_id":76561198306811916,"connected_time":2424000000000,"state":"active","ping":75},{"user_id":367,"name":"Ton Jravolta","steam_id":76561198049312442,"connected_time":1773000000000,"state":"active","ping":60},{"user_id":381,"name":"Bob Salami","steam_id":76561198150681340,"connected_time":472000000000,"state":"active","ping":85},{"user_id":368,"name":"Redmailbox","steam_id":76561198042930322,"connected_time":1764000000000,"state":"active","ping":74},{"user_id":347,"name":"Gyr0s","steam_id":76561198319915568,"connected_time":2650000000000,"state":"active","ping":88},{"user_id":374,"name":"Stam","steam_id":76561199233979726,"connected_time":850000000000,"state":"active","ping":85},{"user_id":285,"name":"Laxslow","steam_id":76561198065361846,"connected_time":5678000000000,"state":"active","ping":55},{"user_id":375,"name":"ff:ff:ff:ff:ff:ff","steam_id":76561198072122983,"connected_time":842000000000,"state":"active","ping":61},{"user_id":385,"name":"vekk","steam_id":76561198214848887,"connected_time":187000000000,"state":"active","ping":65},{"user_id":340,"name":"jordaaan","steam_id":76561198060619306,"connected_time":2909000000000,"state":"active","ping":52},{"user_id":376,"name":"AzureFool","steam_id":76561199365880579,"connected_time":745000000000,"state":"active","ping":103},{"user_id":350,"name":"aph","steam_id":76561198057722639,"connected_time":2471000000000,"state":"active","ping":73},{"user_id":296,"name":"Lux","steam_id":76561198060417740,"connected_time":5475000000000,"state":"active","ping":56},{"user_id":304,"name":"Fran","steam_id":76561199070516960,"connected_time":5232000000000,"state":"active","ping":63},{"user_id":373,"name":"Cirox","steam_id":76561198383142404,"connected_time":937000000000,"state":"active","ping":83},{"user_id":383,"name":"neal","steam_id":76561198400511652,"connected_time":214000000000,"state":"active","ping":92},{"user_id":378,"name":"DIP-44 IC","steam_id":76561199360189459,"connected_time":700000000000,"state":"active","ping":87},{"user_id":360,"name":"El Gato Volador","steam_id":76561198021296882,"connected_time":2335000000000,"state":"active","ping":69},{"user_id":372,"name":"dat mann","steam_id":76561198260496395,"connected_time":1069000000000,"state":"active","ping":202},{"user_id":384,"name":"Apox","steam_id":76561198008005377,"connected_time":199000000000,"state":"active","ping":61},{"user_id":358,"name":"csnipery","steam_id":76561199435280050,"connected_time":2393000000000,"state":"active","ping":61},{"user_id":366,"name":"Mancomb Seepgood","steam_id":76561197974116369,"connected_time":1994000000000,"state":"active","ping":69},{"user_id":379,"name":".pandemiC","steam_id":76561198015941460,"connected_time":699000000000,"state":"active","ping":107},{"user_id":292,"name":"JohnyReaper","steam_id":76561198061794800,"connected_time":5594000000000,"state":"active","ping":79}]},{"server_id":23,"name":"Uncletopia | Frankfurt | 7 | No Payload","name_short":"frk-7","host":"frk-1.de.uncletopia.com","port":27075,"enabled":true,"region":"eu","cc":"de","latitude":50.110924,"longitude":8.682127,"reserved":0,"last_update":"0001-01-01T00:00:00Z","name_a2s":"Uncletopia | Frankfurt | 7 | No Payload","protocol":17,"map":"koth_suijin","folder":"tf","game":"Team Fortress","app_id":440,"player_count":24,"max_players":24,"Bots":0,"server_type":"Dedicated","server_os":"Linux","password":true,"vac":true,"version":"7708610","steam_id":85568392924742827,"keywords":["cp","nocrits","nodmgspread","uncletopia"],"game_id":440,"stv_port":27076,"stv_name":"Uncletopia | Frankfurt | 7 | No Payload | STV","players":[{"user_id":194,"name":"Pan W","steam_id":76561198384111099,"connected_time":2046000000000,"state":"active","ping":49},{"user_id":213,"name":"The cum goblin","steam_id":76561198241529554,"connected_time":1056000000000,"state":"active","ping":104},{"user_id":214,"name":"saint-grume","steam_id":76561199050108821,"connected_time":1055000000000,"state":"active","ping":54},{"user_id":199,"name":"BBòÓ NiceGuy","steam_id":76561198008074156,"connected_time":1913000000000,"state":"active","ping":54},{"user_id":219,"name":"Snowmotion","steam_id":76561198075022454,"connected_time":156000000000,"state":"active","ping":49},{"user_id":185,"name":"YellowSwitchLine","steam_id":76561198808209786,"connected_time":2533000000000,"state":"active","ping":79},{"user_id":205,"name":"foolproof","steam_id":76561198115801132,"connected_time":1449000000000,"state":"active","ping":50},{"user_id":218,"name":"dwi","steam_id":76561198032014667,"connected_time":345000000000,"state":"active","ping":48},{"user_id":220,"name":"Mike Ehrmantraut","steam_id":76561198082446459,"connected_time":136000000000,"state":"active","ping":63},{"user_id":221,"name":"Saint Az","steam_id":76561198156801417,"connected_time":131000000000,"state":"active","ping":44},{"user_id":222,"name":"Darky","steam_id":76561198004733239,"connected_time":127000000000,"state":"active","ping":39},{"user_id":223,"name":"egaruK","steam_id":76561197999314913,"connected_time":124000000000,"state":"active","ping":54},{"user_id":209,"name":"Fortezza","steam_id":76561198972539903,"connected_time":1314000000000,"state":"active","ping":46},{"user_id":170,"name":"H2Orange","steam_id":76561198082128552,"connected_time":3362000000000,"state":"active","ping":75},{"user_id":197,"name":"Ork","steam_id":76561197968575924,"connected_time":1992000000000,"state":"active","ping":73},{"user_id":202,"name":"KeeperOfDreams","steam_id":76561198081965556,"connected_time":1794000000000,"state":"active","ping":58},{"user_id":224,"name":"Dolphin2011","steam_id":76561197997323419,"connected_time":107000000000,"state":"active","ping":90},{"user_id":225,"name":"cafè","steam_id":76561198037938833,"connected_time":74000000000,"state":"active","ping":60},{"user_id":177,"name":"Infinitzium","steam_id":76561198844582093,"connected_time":3045000000000,"state":"active","ping":70},{"user_id":169,"name":"Leighpoh","steam_id":76561198088577922,"connected_time":3393000000000,"state":"active","ping":61},{"user_id":212,"name":"Spr","steam_id":76561198314316664,"connected_time":1180000000000,"state":"active","ping":140},{"user_id":198,"name":"CloutyiliaS","steam_id":76561198868490066,"connected_time":1992000000000,"state":"active","ping":73},{"user_id":215,"name":"solveig","steam_id":76561198271713106,"connected_time":994000000000,"state":"active","ping":147},{"user_id":155,"name":"Duarte™","steam_id":76561198131456324,"connected_time":4367000000000,"state":"active","ping":88}]},{"server_id":24,"name":"Uncletopia | Frankfurt | 8 | Community","name_short":"frk-8","host":"frk-1.de.uncletopia.com","port":27085,"enabled":true,"region":"eu","cc":"de","latitude":50.110924,"longitude":8.682127,"reserved":0,"last_update":"0001-01-01T00:00:00Z","name_a2s":"Uncletopia | Frankfurt | 8 | Community","protocol":17,"map":"workshop/koth_ramjam_v2_b2.ugc2865676487","folder":"tf","game":"Team Fortress","app_id":440,"player_count":0,"max_players":24,"Bots":0,"server_type":"Dedicated","server_os":"Linux","password":true,"vac":true,"version":"7708610","steam_id":85568392924742828,"keywords":["cp","nocrits","nodmgspread","uncletopia"],"game_id":440,"stv_port":27086,"stv_name":"Uncletopia | Frankfurt | 8 | Community | STV","players":null},{"server_id":202,"name":"Uncletopia | Hong Kong | 1 | All Maps","name_short":"hgk-1","host":"hgk-1.hk.uncletopia.com","port":27015,"enabled":true,"region":"asia","cc":"hk","latitude":22.302711,"longitude":114.177216,"reserved":0,"last_update":"0001-01-01T00:00:00Z","name_a2s":"Uncletopia | Hong Kong | 1 | All Maps","protocol":17,"map":"pl_upward","folder":"tf","game":"Team Fortress","app_id":440,"player_count":0,"max_players":24,"Bots":0,"server_type":"Dedicated","server_os":"Linux","password":true,"vac":true,"version":"7708610","steam_id":85568392924494504,"keywords":["nocrits","nodmgspread","payload","uncletopia"],"game_id":440,"stv_port":0,"stv_name":"","players":null},{"server_id":1,"name":"Uncletopia | Los Angeles | 1 | All Maps","name_short":"lax-1","host":"lax-1.us.uncletopia.com","port":27015,"enabled":true,"region":"us-west","cc":"us","latitude":33.94279,"longitude":-118.41004,"reserved":0,"last_update":"0001-01-01T00:00:00Z","name_a2s":"Uncletopia | Los Angeles | 1 | All Maps","protocol":17,"map":"koth_viaduct","folder":"tf","game":"Team Fortress","app_id":440,"player_count":1,"max_players":24,"Bots":0,"server_type":"Dedicated","server_os":"Linux","password":true,"vac":true,"version":"7708610","steam_id":85568392924469991,"keywords":["cp","nocrits","nodmgspread","uncletopia"],"game_id":440,"stv_port":27016,"stv_name":"Uncletopia | Los Angeles | 1 | All Maps | STV","players":[{"user_id":4,"name":"xerro","steam_id":76561198323340524,"connected_time":145000000000,"state":"active","ping":91}]},{"server_id":112,"name":"Uncletopia | Los Angeles | 2 | All Maps","name_short":"lax-2","host":"lax-1.us.uncletopia.com","port":27025,"enabled":true,"region":"us-west","cc":"us","latitude":33.94279,"longitude":-118.41004,"reserved":0,"last_update":"0001-01-01T00:00:00Z","name_a2s":"Uncletopia | Los Angeles | 2 | All Maps","protocol":17,"map":"cp_altitude","folder":"tf","game":"Team Fortress","app_id":440,"player_count":0,"max_players":24,"Bots":0,"server_type":"Dedicated","server_os":"Linux","password":true,"vac":true,"version":"7708610","steam_id":85568392924469992,"keywords":["cp","nocrits","nodmgspread","uncletopia"],"game_id":440,"stv_port":0,"stv_name":"","players":null},{"server_id":324,"name":"Uncletopia | Los Angeles | 3 | All Maps","name_short":"lax-3","host":"lax-1.us.uncletopia.com","port":27035,"enabled":true,"region":"us-west","cc":"us","latitude":33.94279,"longitude":-118.41004,"reserved":0,"last_update":"0001-01-01T00:00:00Z","name_a2s":"Uncletopia | Los Angeles | 3 | All Maps","protocol":17,"map":"cp_sunshine","folder":"tf","game":"Team Fortress","app_id":440,"player_count":0,"max_players":24,"Bots":0,"server_type":"Dedicated","server_os":"Linux","password":true,"vac":true,"version":"7708610","steam_id":85568392924510198,"keywords":["cp","nocrits","nodmgspread","uncletopia"],"game_id":440,"stv_port":27036,"stv_name":"Uncletopia | Los Angeles | 3 | All Maps | STV","players":null},{"server_id":25,"name":"Uncletopia | Los Angeles | 4 | No Payload","name_short":"lax-4","host":"lax-1.us.uncletopia.com","port":27045,"enabled":true,"region":"us-west","cc":"us","latitude":33.94279,"longitude":-118.41004,"reserved":0,"last_update":"0001-01-01T00:00:00Z","name_a2s":"Uncletopia | Los Angeles | 4 | No Payload","protocol":17,"map":"koth_lazarus","folder":"tf","game":"Team Fortress","app_id":440,"player_count":0,"max_players":24,"Bots":0,"server_type":"Dedicated","server_os":"Linux","password":true,"vac":true,"version":"7708610","steam_id":85568392924510199,"keywords":["cp","nocrits","nodmgspread","uncletopia"],"game_id":440,"stv_port":27046,"stv_name":"Uncletopia | Los Angeles | 4 | No Payload | STV","players":null},{"server_id":11,"name":"Uncletopia | London | 1 | All Maps","name_short":"lon-1","host":"lon-1.uk.uncletopia.com","port":27015,"enabled":true,"region":"eu","cc":"gb","latitude":51.509865,"longitude":-0.118092,"reserved":0,"last_update":"0001-01-01T00:00:00Z","name_a2s":"Uncletopia | London | 1 | All Maps","protocol":17,"map":"cp_dustbowl","folder":"tf","game":"Team Fortress","app_id":440,"player_count":24,"max_players":24,"Bots":0,"server_type":"Dedicated","server_os":"Linux","password":true,"vac":true,"version":"7708610","steam_id":85568392924367362,"keywords":["cp","nocrits","nodmgspread","uncletopia"],"game_id":440,"stv_port":27016,"stv_name":"Uncletopia | London | 1 | All Maps | STV","players":[{"user_id":513,"name":"BreadBaubbles","steam_id":76561198174332826,"connected_time":2696000000000,"state":"active","ping":56},{"user_id":520,"name":"stroyo","steam_id":76561198409592046,"connected_time":2020000000000,"state":"active","ping":57},{"user_id":497,"name":"witxes","steam_id":76561199442579490,"connected_time":3903000000000,"state":"active","ping":60},{"user_id":535,"name":"Senator Armstrong","steam_id":76561198984346408,"connected_time":662000000000,"state":"active","ping":76},{"user_id":338,"name":"✪ J","steam_id":76561198094911581,"connected_time":17213000000000,"state":"active","ping":52},{"user_id":524,"name":"F1-M","steam_id":76561198198409875,"connected_time":1905000000000,"state":"active","ping":125},{"user_id":491,"name":"ULTIMATE_GORDON","steam_id":76561198044470038,"connected_time":4136000000000,"state":"active","ping":34},{"user_id":532,"name":"Matt Isaacs","steam_id":76561197962014443,"connected_time":1276000000000,"state":"active","ping":53},{"user_id":389,"name":"Mango","steam_id":76561198139555709,"connected_time":13510000000000,"state":"active","ping":59},{"user_id":512,"name":"ball sniffa","steam_id":76561199022705805,"connected_time":2779000000000,"state":"active","ping":45},{"user_id":542,"name":"nalapl3","steam_id":76561198197607383,"connected_time":31000000000,"state":"spawning","ping":80},{"user_id":534,"name":"SOPHIIEE","steam_id":76561198443798981,"connected_time":816000000000,"state":"active","ping":47},{"user_id":538,"name":"fr3fou","steam_id":76561198070932683,"connected_time":634000000000,"state":"active","ping":60},{"user_id":275,"name":"festive jones","steam_id":76561198073975078,"connected_time":20097000000000,"state":"active","ping":45},{"user_id":499,"name":"SynthBox3","steam_id":76561199094075745,"connected_time":3837000000000,"state":"active","ping":92},{"user_id":516,"name":"Cum-pkin ❤","steam_id":76561199273774208,"connected_time":2462000000000,"state":"active","ping":75},{"user_id":539,"name":"Joomig","steam_id":76561198798066767,"connected_time":626000000000,"state":"active","ping":58},{"user_id":525,"name":"Cosmonaut","steam_id":76561198239514504,"connected_time":1904000000000,"state":"active","ping":73},{"user_id":530,"name":"Lods of Emone","steam_id":76561198188642265,"connected_time":1684000000000,"state":"active","ping":49},{"user_id":531,"name":"whimsmas.","steam_id":76561198878171763,"connected_time":1372000000000,"state":"active","ping":48},{"user_id":488,"name":"chrissymas","steam_id":76561198096547662,"connected_time":4735000000000,"state":"active","ping":59},{"user_id":528,"name":"Ecy","steam_id":76561198110756682,"connected_time":1793000000000,"state":"active","ping":52},{"user_id":518,"name":"SuperBob103","steam_id":76561199175360012,"connected_time":2431000000000,"state":"active","ping":50},{"user_id":541,"name":"Mac","steam_id":76561198799155931,"connected_time":275000000000,"state":"active","ping":51}]},{"server_id":114,"name":"Uncletopia | London | 2 | All Maps","name_short":"lon-2","host":"lon-1.uk.uncletopia.com","port":27025,"enabled":true,"region":"eu","cc":"gb","latitude":51.509865,"longitude":-0.118092,"reserved":0,"last_update":"0001-01-01T00:00:00Z","name_a2s":"Uncletopia | London | 2 | All Maps","protocol":17,"map":"cp_egypt_final","folder":"tf","game":"Team Fortress","app_id":440,"player_count":24,"max_players":24,"Bots":0,"server_type":"Dedicated","server_os":"Linux","password":true,"vac":true,"version":"7708610","steam_id":85568392924470941,"keywords":["cp","nocrits","nodmgspread","uncletopia"],"game_id":440,"stv_port":27026,"stv_name":"Uncletopia | London | 2 | All Maps | STV","players":[{"user_id":549,"name":"round object","steam_id":76561198136239861,"connected_time":1750000000000,"state":"active","ping":45},{"user_id":500,"name":"Hasamnas","steam_id":76561199125038537,"connected_time":4074000000000,"state":"active","ping":60},{"user_id":527,"name":"finger","steam_id":76561198032101031,"connected_time":2314000000000,"state":"active","ping":116},{"user_id":553,"name":"Gurgula","steam_id":76561198021253678,"connected_time":1138000000000,"state":"active","ping":73},{"user_id":543,"name":"roygbiv","steam_id":76561198344281978,"connected_time":1867000000000,"state":"active","ping":53},{"user_id":496,"name":"cantsniff","steam_id":76561198259668029,"connected_time":4662000000000,"state":"active","ping":51},{"user_id":542,"name":"Wyvern786","steam_id":76561199137770636,"connected_time":1935000000000,"state":"active","ping":52},{"user_id":554,"name":"President013","steam_id":76561198107233527,"connected_time":1119000000000,"state":"active","ping":70},{"user_id":561,"name":"GoofBaller","steam_id":76561198997885594,"connected_time":96000000000,"state":"active","ping":41},{"user_id":520,"name":"Kylul_","steam_id":76561198042981061,"connected_time":2695000000000,"state":"active","ping":32},{"user_id":562,"name":"Davus of Europium","steam_id":76561198079615126,"connected_time":31000000000,"state":"active","ping":83},{"user_id":552,"name":"jaMie","steam_id":76561198170148783,"connected_time":1274000000000,"state":"active","ping":33},{"user_id":540,"name":"Grim the lemon","steam_id":76561199083433988,"connected_time":1995000000000,"state":"active","ping":57},{"user_id":555,"name":"Kili","steam_id":76561198138456346,"connected_time":1091000000000,"state":"active","ping":68},{"user_id":491,"name":"Vershal Smershal","steam_id":76561198116223995,"connected_time":4804000000000,"state":"active","ping":50},{"user_id":551,"name":"pryate","steam_id":76561198135960359,"connected_time":1587000000000,"state":"active","ping":46},{"user_id":563,"name":"Jamba Sparabo","steam_id":76561198131647600,"connected_time":11000000000,"state":"spawning","ping":59},{"user_id":558,"name":"crafteen","steam_id":76561198362185755,"connected_time":716000000000,"state":"active","ping":45},{"user_id":559,"name":"scout gaming","steam_id":76561199380974466,"connected_time":359000000000,"state":"active","ping":86},{"user_id":484,"name":"outin","steam_id":76561198137734730,"connected_time":5070000000000,"state":"active","ping":63},{"user_id":476,"name":"Tj0ckis","steam_id":76561198108854226,"connected_time":5441000000000,"state":"active","ping":62},{"user_id":525,"name":"☃☃☃ARSEQUEEF☃☃☃","steam_id":76561198914610283,"connected_time":2427000000000,"state":"active","ping":80},{"user_id":524,"name":"squib","steam_id":76561198049170360,"connected_time":2480000000000,"state":"active","ping":32},{"user_id":541,"name":"Cleffy","steam_id":76561198019508679,"connected_time":1978000000000,"state":"active","ping":70}]},{"server_id":320,"name":"Uncletopia | London | 3 | All Maps","name_short":"lon-3","host":"lon-1.uk.uncletopia.com","port":27035,"enabled":true,"region":"eu","cc":"gb","latitude":51.509865,"longitude":-0.118092,"reserved":0,"last_update":"0001-01-01T00:00:00Z","name_a2s":"Uncletopia | London | 3 | All Maps","protocol":17,"map":"cp_process_final","folder":"tf","game":"Team Fortress","app_id":440,"player_count":24,"max_players":24,"Bots":0,"server_type":"Dedicated","server_os":"Linux","password":true,"vac":true,"version":"7708610","steam_id":85568392924510192,"keywords":["cp","nocrits","nodmgspread","uncletopia"],"game_id":440,"stv_port":27036,"stv_name":"Uncletopia | London | 3 | All Maps | STV","players":[{"user_id":353,"name":"nedilya","steam_id":76561198039692077,"connected_time":3843000000000,"state":"active","ping":59},{"user_id":342,"name":"fénix","steam_id":76561198083199151,"connected_time":4609000000000,"state":"active","ping":54},{"user_id":372,"name":"Revettah","steam_id":76561198040442214,"connected_time":2461000000000,"state":"active","ping":29},{"user_id":391,"name":"Lukas","steam_id":76561198009118452,"connected_time":1518000000000,"state":"active","ping":55},{"user_id":355,"name":"player","steam_id":76561198054474684,"connected_time":3581000000000,"state":"active","ping":81},{"user_id":357,"name":"[1stBdC]SARG Quintal","steam_id":76561198171396362,"connected_time":3503000000000,"state":"active","ping":91},{"user_id":351,"name":"Bottomest","steam_id":76561198091734693,"connected_time":4083000000000,"state":"active","ping":72},{"user_id":206,"name":"Fat Pigeon","steam_id":76561198817940142,"connected_time":13859000000000,"state":"active","ping":54},{"user_id":407,"name":"arx","steam_id":76561199150850597,"connected_time":122000000000,"state":"active","ping":46},{"user_id":405,"name":"DEMURE","steam_id":76561198263299590,"connected_time":745000000000,"state":"active","ping":72},{"user_id":386,"name":"Jar","steam_id":76561198156384007,"connected_time":1723000000000,"state":"active","ping":31},{"user_id":387,"name":"Sykens","steam_id":76561198098493344,"connected_time":1669000000000,"state":"active","ping":45},{"user_id":292,"name":"Proto-arc","steam_id":76561198012776747,"connected_time":8986000000000,"state":"active","ping":59},{"user_id":361,"name":"Will Toledo's No. 1 fan","steam_id":76561198397024973,"connected_time":3324000000000,"state":"active","ping":33},{"user_id":388,"name":"red square","steam_id":76561198295305088,"connected_time":1666000000000,"state":"active","ping":60},{"user_id":392,"name":"Ollovo","steam_id":76561198396833610,"connected_time":1481000000000,"state":"active","ping":77},{"user_id":401,"name":"Zigguski","steam_id":76561198022990016,"connected_time":1212000000000,"state":"active","ping":51},{"user_id":328,"name":"Udinese Dion","steam_id":76561198067931573,"connected_time":5836000000000,"state":"active","ping":62},{"user_id":399,"name":"Tarixxiv","steam_id":76561198084365415,"connected_time":1260000000000,"state":"active","ping":92},{"user_id":396,"name":"Grim","steam_id":76561198143005652,"connected_time":1344000000000,"state":"active","ping":105},{"user_id":398,"name":"Marp.","steam_id":76561198073827052,"connected_time":1296000000000,"state":"active","ping":60},{"user_id":352,"name":"SPONGE","steam_id":76561198040933472,"connected_time":4081000000000,"state":"active","ping":69},{"user_id":400,"name":"WaffletimeCat","steam_id":76561198128946420,"connected_time":1259000000000,"state":"active","ping":135},{"user_id":403,"name":"glyph","steam_id":76561197980736364,"connected_time":985000000000,"state":"active","ping":90}]},{"server_id":321,"name":"Uncletopia | London | 4 | All Maps","name_short":"lon-4","host":"lon-1.uk.uncletopia.com","port":27045,"enabled":true,"region":"eu","cc":"gb","latitude":51.509865,"longitude":-0.118092,"reserved":0,"last_update":"0001-01-01T00:00:00Z","name_a2s":"Uncletopia | London | 4 | All Maps","protocol":17,"map":"cp_sunshine","folder":"tf","game":"Team Fortress","app_id":440,"player_count":0,"max_players":24,"Bots":0,"server_type":"Dedicated","server_os":"Linux","password":true,"vac":true,"version":"7708610","steam_id":85568392924510193,"keywords":["cp","nocrits","nodmgspread","uncletopia"],"game_id":440,"stv_port":27046,"stv_name":"Uncletopia | London | 4 | All Maps | STV","players":null},{"server_id":21,"name":"Uncletopia | London | 5 | All Maps","name_short":"lon-5","host":"lon-1.uk.uncletopia.com","port":27055,"enabled":true,"region":"eu","cc":"gb","latitude":51.509865,"longitude":-0.118092,"reserved":0,"last_update":"0001-01-01T00:00:00Z","name_a2s":"Uncletopia | London | 5 | All Maps","protocol":17,"map":"koth_lakeside_final","folder":"tf","game":"Team Fortress","app_id":440,"player_count":0,"max_players":24,"Bots":0,"server_type":"Dedicated","server_os":"Linux","password":true,"vac":true,"version":"7708610","steam_id":85568392924742829,"keywords":["cp","nocrits","nodmgspread","uncletopia"],"game_id":440,"stv_port":0,"stv_name":"","players":null},{"server_id":22,"name":"Uncletopia | London | 6 | All Maps","name_short":"lon-6","host":"lon-1.uk.uncletopia.com","port":27065,"enabled":true,"region":"eu","cc":"gb","latitude":51.509865,"longitude":-0.118092,"reserved":0,"last_update":"0001-01-01T00:00:00Z","name_a2s":"Uncletopia | London | 6 | All Maps","protocol":17,"map":"pl_borneo","folder":"tf","game":"Team Fortress","app_id":440,"player_count":0,"max_players":24,"Bots":0,"server_type":"Dedicated","server_os":"Linux","password":true,"vac":true,"version":"7708610","steam_id":85568392924742830,"keywords":["nocrits","nodmgspread","payload","uncletopia"],"game_id":440,"stv_port":27066,"stv_name":"Uncletopia | London | 6 | All Maps | STV","players":null},{"server_id":40,"name":"Uncletopia | London | 7 | No Payload","name_short":"lon-7","host":"lon-1.uk.uncletopia.com","port":27075,"enabled":true,"region":"eu","cc":"gb","latitude":51.509865,"longitude":-0.118092,"reserved":0,"last_update":"0001-01-01T00:00:00Z","name_a2s":"Uncletopia | London | 7 | No Payload","protocol":17,"map":"plr_hightower","folder":"tf","game":"Team Fortress","app_id":440,"player_count":2,"max_players":24,"Bots":0,"server_type":"Dedicated","server_os":"Linux","password":true,"vac":true,"version":"7708610","steam_id":85568392924964314,"keywords":["nocrits","nodmgspread","payload","uncletopia"],"game_id":440,"stv_port":27076,"stv_name":"Uncletopia | London | 7 | No Payload | STV","players":[{"user_id":17,"name":"titicost2200","steam_id":76561198826858059,"connected_time":1218000000000,"state":"active","ping":84},{"user_id":18,"name":"Jotapê","steam_id":76561198325543532,"connected_time":1215000000000,"state":"active","ping":84}]},{"server_id":41,"name":"Uncletopia | London | 8 | Community","name_short":"lon-8","host":"lon-1.uk.uncletopia.com","port":27085,"enabled":true,"region":"eu","cc":"gb","latitude":51.509865,"longitude":-0.118092,"reserved":0,"last_update":"0001-01-01T00:00:00Z","name_a2s":"Uncletopia | London | 8 | Community","protocol":17,"map":"workshop/koth_product_final.ugc454272353","folder":"tf","game":"Team Fortress","app_id":440,"player_count":0,"max_players":24,"Bots":0,"server_type":"Dedicated","server_os":"Linux","password":true,"vac":true,"version":"7708610","steam_id":85568392924964315,"keywords":["cp","nocrits","nodmgspread","uncletopia"],"game_id":440,"stv_port":27086,"stv_name":"Uncletopia | London | 8 | Community | STV","players":null},{"server_id":300,"name":"Uncletopia | Montréal | 1 | All Maps","name_short":"mtl-1","host":"mtl-1.ca.uncletopia.com","port":27015,"enabled":true,"region":"us-east","cc":"ca","latitude":45.50889,"longitude":-73.56167,"reserved":0,"last_update":"0001-01-01T00:00:00Z","name_a2s":"Uncletopia | Montréal | 1 | All Maps","protocol":17,"map":"pl_upward","folder":"tf","game":"Team Fortress","app_id":440,"player_count":0,"max_players":24,"Bots":0,"server_type":"Dedicated","server_os":"Linux","password":true,"vac":true,"version":"7708610","steam_id":85568392924500087,"keywords":["nocrits","nodmgspread","payload","uncletopia"],"game_id":440,"stv_port":27016,"stv_name":"Uncletopia | Montréal | 1 | All Maps | STV","players":null},{"server_id":301,"name":"Uncletopia | Montréal | 2 | All Maps","name_short":"mtl-2","host":"mtl-1.ca.uncletopia.com","port":27025,"enabled":true,"region":"us-east","cc":"ca","latitude":45.50889,"longitude":-73.56167,"reserved":0,"last_update":"0001-01-01T00:00:00Z","name_a2s":"Uncletopia | Montréal | 2 | All Maps","protocol":17,"map":"cp_process_final","folder":"tf","game":"Team Fortress","app_id":440,"player_count":0,"max_players":24,"Bots":0,"server_type":"Dedicated","server_os":"Linux","password":true,"vac":true,"version":"7708610","steam_id":85568392924500088,"keywords":["cp","nocrits","nodmgspread","uncletopia"],"game_id":440,"stv_port":27026,"stv_name":"Uncletopia | Montréal | 2 | All Maps | STV","players":null},{"server_id":302,"name":"Uncletopia | Montréal | 3 | All Maps","name_short":"mtl-3","host":"mtl-1.ca.uncletopia.com","port":27035,"enabled":true,"region":"us-east","cc":"ca","latitude":45.50889,"longitude":-73.56167,"reserved":0,"last_update":"0001-01-01T00:00:00Z","name_a2s":"Uncletopia | Montréal | 3 | All Maps","protocol":17,"map":"koth_highpass","folder":"tf","game":"Team Fortress","app_id":440,"player_count":0,"max_players":24,"Bots":0,"server_type":"Dedicated","server_os":"Linux","password":true,"vac":true,"version":"7708610","steam_id":85568392924500089,"keywords":["cp","nocrits","nodmgspread","uncletopia"],"game_id":440,"stv_port":27036,"stv_name":"Uncletopia | Montréal | 3 | All Maps | STV","players":null},{"server_id":303,"name":"Uncletopia | Montréal | 4 | No Payload","name_short":"mtl-4","host":"mtl-1.ca.uncletopia.com","port":27045,"enabled":true,"region":"us-east","cc":"ca","latitude":45.50889,"longitude":-73.56167,"reserved":0,"last_update":"0001-01-01T00:00:00Z","name_a2s":"Uncletopia | Montréal | 4 | No Payload","protocol":17,"map":"ctf_sawmill","folder":"tf","game":"Team Fortress","app_id":440,"player_count":0,"max_players":24,"Bots":0,"server_type":"Dedicated","server_os":"Linux","password":true,"vac":true,"version":"7708610","steam_id":85568392924500090,"keywords":["ctf","nocrits","nodmgspread","uncletopia"],"game_id":440,"stv_port":27046,"stv_name":"Uncletopia | Montréal | 4 | No Payload | STV","players":null},{"server_id":13,"name":"Uncletopia | New York City | 1 | All Maps","name_short":"nyc-1","host":"nyc-1.us.uncletopia.com","port":27015,"enabled":true,"region":"us-east","cc":"us","latitude":40.73061,"longitude":-73.93524,"reserved":0,"last_update":"0001-01-01T00:00:00Z","name_a2s":"Uncletopia | New York City | 1 | All Maps","protocol":17,"map":"koth_lakeside_final","folder":"tf","game":"Team Fortress","app_id":440,"player_count":0,"max_players":24,"Bots":0,"server_type":"Dedicated","server_os":"Linux","password":true,"vac":true,"version":"7708610","steam_id":85568392924469993,"keywords":["cp","nocrits","nodmgspread","uncletopia"],"game_id":440,"stv_port":27016,"stv_name":"Uncletopia | New York City | 1 | All Maps | STV","players":null},{"server_id":14,"name":"Uncletopia | New York City | 2 | All Maps","name_short":"nyc-2","host":"nyc-1.us.uncletopia.com","port":27025,"enabled":true,"region":"us-east","cc":"us","latitude":40.73061,"longitude":-73.93524,"reserved":0,"last_update":"0001-01-01T00:00:00Z","name_a2s":"Uncletopia | New York City | 2 | All Maps","protocol":17,"map":"pl_badwater","folder":"tf","game":"Team Fortress","app_id":440,"player_count":24,"max_players":24,"Bots":0,"server_type":"Dedicated","server_os":"Linux","password":true,"vac":true,"version":"7708610","steam_id":85568392924469994,"keywords":["nocrits","nodmgspread","payload","uncletopia"],"game_id":440,"stv_port":27026,"stv_name":"Uncletopia | New York City | 2 | All Maps | STV","players":[{"user_id":112,"name":"Rock Kickass","steam_id":76561198450510841,"connected_time":363000000000,"state":"active","ping":119},{"user_id":117,"name":"kimin","steam_id":76561198263393063,"connected_time":149000000000,"state":"active","ping":121},{"user_id":119,"name":"amazing dispenser","steam_id":76561199191568391,"connected_time":69000000000,"state":"active","ping":56},{"user_id":80,"name":"TheAshenDerp","steam_id":76561198848585450,"connected_time":3113000000000,"state":"active","ping":35},{"user_id":110,"name":"Young-OG","steam_id":76561198058800479,"connected_time":385000000000,"state":"active","ping":80},{"user_id":120,"name":"Candy Mann From Brooklyn","steam_id":76561198251655918,"connected_time":66000000000,"state":"active","ping":52},{"user_id":91,"name":"eeveethecomic66","steam_id":76561199013856854,"connected_time":1922000000000,"state":"active","ping":65},{"user_id":105,"name":"BeerPowder","steam_id":76561198058129400,"connected_time":863000000000,"state":"active","ping":49},{"user_id":79,"name":"on?jamal","steam_id":76561198020736672,"connected_time":3399000000000,"state":"active","ping":51},{"user_id":108,"name":"baby man?","steam_id":76561198101640057,"connected_time":487000000000,"state":"active","ping":63},{"user_id":111,"name":"SLiPpeRyJoe.nosound","steam_id":76561197977206359,"connected_time":375000000000,"state":"active","ping":79},{"user_id":68,"name":"Raincool","steam_id":76561198042953645,"connected_time":3668000000000,"state":"active","ping":52},{"user_id":116,"name":"trilobita","steam_id":76561198428215606,"connected_time":199000000000,"state":"active","ping":56},{"user_id":114,"name":"Hugh G Rection","steam_id":76561198117404218,"connected_time":307000000000,"state":"active","ping":72},{"user_id":113,"name":"erogator","steam_id":76561199119674387,"connected_time":350000000000,"state":"active","ping":67},{"user_id":121,"name":"holymoly1645 TWITCH","steam_id":76561198079009899,"connected_time":63000000000,"state":"active","ping":89},{"user_id":115,"name":"Valoxi","steam_id":76561197995042938,"connected_time":264000000000,"state":"active","ping":129},{"user_id":122,"name":"sketti","steam_id":76561199060710804,"connected_time":52000000000,"state":"active","ping":151},{"user_id":35,"name":"Grimaud","steam_id":76561197975272734,"connected_time":6593000000000,"state":"active","ping":92},{"user_id":97,"name":"Mikeyyy","steam_id":76561198132865260,"connected_time":1710000000000,"state":"active","ping":72},{"user_id":123,"name":"Universe Man","steam_id":76561197997710655,"connected_time":52000000000,"state":"active","ping":93},{"user_id":124,"name":"substance","steam_id":76561198050103868,"connected_time":23000000000,"state":"active","ping":182},{"user_id":109,"name":"comet sooicidy","steam_id":76561198025173479,"connected_time":472000000000,"state":"active","ping":83},{"user_id":125,"name":"Shuual","steam_id":76561198004395256,"connected_time":17000000000,"state":"active","ping":72}]},{"server_id":15,"name":"Uncletopia | New York City | 3 | All Maps","name_short":"nyc-3","host":"nyc-1.us.uncletopia.com","port":27035,"enabled":true,"region":"us-east","cc":"us","latitude":40.73061,"longitude":-73.93524,"reserved":0,"last_update":"0001-01-01T00:00:00Z","name_a2s":"Uncletopia | New York City | 3 | All Maps","protocol":17,"map":"pl_pier","folder":"tf","game":"Team Fortress","app_id":440,"player_count":23,"max_players":24,"Bots":0,"server_type":"Dedicated","server_os":"Linux","password":true,"vac":true,"version":"7708610","steam_id":85568392924742820,"keywords":["nocrits","nodmgspread","payload","uncletopia"],"game_id":440,"stv_port":27036,"stv_name":"Uncletopia | New York City | 3 | All Maps | STV","players":[{"user_id":91,"name":"surrender to the void","steam_id":76561198055494039,"connected_time":5000000000000,"state":"active","ping":60},{"user_id":85,"name":"Frost ♥","steam_id":76561198168870617,"connected_time":6217000000000,"state":"active","ping":50},{"user_id":141,"name":"ShinyOrion (She/Her)","steam_id":76561198408378321,"connected_time":2313000000000,"state":"active","ping":56},{"user_id":161,"name":"PrinceGrotle","steam_id":76561198206131603,"connected_time":0,"state":"spawning","ping":25},{"user_id":148,"name":"thepokeyen","steam_id":76561198236847572,"connected_time":1611000000000,"state":"active","ping":79},{"user_id":143,"name":"randomperson88","steam_id":76561199228822173,"connected_time":1891000000000,"state":"active","ping":63},{"user_id":150,"name":"Tyco","steam_id":76561197978414167,"connected_time":1252000000000,"state":"active","ping":76},{"user_id":74,"name":"rlty","steam_id":76561198009395055,"connected_time":6989000000000,"state":"active","ping":48},{"user_id":155,"name":"Taco","steam_id":76561198158621392,"connected_time":1051000000000,"state":"active","ping":69},{"user_id":123,"name":"Pancreas Enjoyer","steam_id":76561199438598904,"connected_time":3561000000000,"state":"active","ping":96},{"user_id":158,"name":"a_person_159","steam_id":76561199024416326,"connected_time":447000000000,"state":"active","ping":62},{"user_id":157,"name":"Toasterduds","steam_id":76561198163477584,"connected_time":783000000000,"state":"active","ping":156},{"user_id":159,"name":"reis","steam_id":76561199232952016,"connected_time":371000000000,"state":"active","ping":167},{"user_id":137,"name":"Nibelsnarf","steam_id":76561198137642054,"connected_time":3223000000000,"state":"active","ping":59},{"user_id":35,"name":"ToeSniffer1992","steam_id":76561199134895220,"connected_time":8841000000000,"state":"active","ping":48},{"user_id":136,"name":"BIGGEST MAC","steam_id":76561198847517098,"connected_time":3312000000000,"state":"active","ping":80},{"user_id":144,"name":"Le","steam_id":76561198817754233,"connected_time":1876000000000,"state":"active","ping":63},{"user_id":130,"name":"AmirKhaan","steam_id":76561198992403254,"connected_time":3433000000000,"state":"active","ping":61},{"user_id":149,"name":"Challenger Charles","steam_id":76561198005576553,"connected_time":1533000000000,"state":"active","ping":66},{"user_id":100,"name":"PinkLemonade","steam_id":76561198799286228,"connected_time":4626000000000,"state":"active","ping":57},{"user_id":112,"name":"Draconic Ballad","steam_id":76561198027191515,"connected_time":3949000000000,"state":"active","ping":60},{"user_id":117,"name":"chad","steam_id":76561198216109017,"connected_time":3835000000000,"state":"active","ping":53},{"user_id":154,"name":"G","steam_id":76561198960346683,"connected_time":1064000000000,"state":"active","ping":66}]},{"server_id":16,"name":"Uncletopia | New York City | 4 | Community","name_short":"nyc-4","host":"nyc-1.us.uncletopia.com","port":27045,"enabled":true,"region":"us-east","cc":"us","latitude":40.73061,"longitude":-73.93524,"reserved":0,"last_update":"0001-01-01T00:00:00Z","name_a2s":"Uncletopia | New York City | 4 | Community","protocol":17,"map":"workshop/koth_ramjam_v2_b2.ugc2865676487","folder":"tf","game":"Team Fortress","app_id":440,"player_count":0,"max_players":24,"Bots":0,"server_type":"Dedicated","server_os":"Linux","password":true,"vac":true,"version":"7708610","steam_id":85568392924742821,"keywords":["cp","nocrits","nodmgspread","uncletopia"],"game_id":440,"stv_port":27046,"stv_name":"Uncletopia | New York City | 4 | Community | STV","players":null},{"server_id":142,"name":"Uncletopia | São Paulo | 1 | All Maps","name_short":"sao-1","host":"sao-1.br.uncletopia.com","port":27015,"enabled":true,"region":"sa","cc":"br","latitude":-23.533773,"longitude":-46.62529,"reserved":0,"last_update":"0001-01-01T00:00:00Z","name_a2s":"Uncletopia | São Paulo | 1 | All Maps","protocol":17,"map":"pl_borneo","folder":"tf","game":"Team Fortress","app_id":440,"player_count":17,"max_players":24,"Bots":0,"server_type":"Dedicated","server_os":"Linux","password":true,"vac":true,"version":"7708610","steam_id":85568392924469996,"keywords":["nocrits","nodmgspread","payload","uncletopia"],"game_id":440,"stv_port":27016,"stv_name":"Uncletopia | São Paulo | 1 | All Maps | STV","players":[{"user_id":298,"name":"アイザック","steam_id":76561199262736574,"connected_time":1931000000000,"state":"active","ping":36},{"user_id":320,"name":"mvfm™","steam_id":76561198126068677,"connected_time":60000000000,"state":"active","ping":59},{"user_id":246,"name":"Pathetic","steam_id":76561198051056987,"connected_time":4621000000000,"state":"active","ping":55},{"user_id":311,"name":"pertemech","steam_id":76561198334052490,"connected_time":368000000000,"state":"active","ping":44},{"user_id":312,"name":"Liniker","steam_id":76561198948736406,"connected_time":285000000000,"state":"active","ping":50},{"user_id":313,"name":"ddddavi","steam_id":76561198004606025,"connected_time":174000000000,"state":"active","ping":47},{"user_id":301,"name":"Sky","steam_id":76561198846581356,"connected_time":1720000000000,"state":"active","ping":34},{"user_id":305,"name":"Mikael_01","steam_id":76561199080253129,"connected_time":1121000000000,"state":"active","ping":45},{"user_id":317,"name":"Stranger","steam_id":76561198065572546,"connected_time":135000000000,"state":"active","ping":54},{"user_id":309,"name":"asdadsadasdasda","steam_id":76561198415484497,"connected_time":712000000000,"state":"active","ping":60},{"user_id":314,"name":"Casas Bahia","steam_id":76561198144739151,"connected_time":173000000000,"state":"active","ping":44},{"user_id":315,"name":"gibo gabo","steam_id":76561198348787458,"connected_time":169000000000,"state":"active","ping":51},{"user_id":318,"name":"Stanley","steam_id":76561198314548765,"connected_time":133000000000,"state":"active","ping":61},{"user_id":319,"name":"⸸ Cruz ⸸","steam_id":76561199000786065,"connected_time":129000000000,"state":"active","ping":61},{"user_id":267,"name":"leoextremo","steam_id":76561198867928520,"connected_time":3971000000000,"state":"active","ping":59},{"user_id":268,"name":"Zoom!","steam_id":76561198289562649,"connected_time":3954000000000,"state":"active","ping":45},{"user_id":286,"name":"diego","steam_id":76561199217154329,"connected_time":2640000000000,"state":"active","ping":68}]},{"server_id":143,"name":"Uncletopia | São Paulo | 2 | All Maps","name_short":"sao-2","host":"sao-2.br.uncletopia.com","port":27015,"enabled":true,"region":"sa","cc":"br","latitude":-23.533773,"longitude":-46.62529,"reserved":0,"last_update":"0001-01-01T00:00:00Z","name_a2s":"Uncletopia | São Paulo | 2 | All Maps","protocol":17,"map":"koth_highpass","folder":"tf","game":"Team Fortress","app_id":440,"player_count":0,"max_players":24,"Bots":0,"server_type":"Dedicated","server_os":"Linux","password":true,"vac":true,"version":"7708610","steam_id":85568392924485349,"keywords":["cp","nocrits","nodmgspread","uncletopia"],"game_id":440,"stv_port":27016,"stv_name":"Uncletopia | São Paulo | 2 | All Maps | STV","players":null},{"server_id":7,"name":"Uncletopia | Seattle | 1 | All Maps","name_short":"sea-1","host":"sea-1.us.uncletopia.com","port":27015,"enabled":true,"region":"us-west","cc":"us","latitude":47.608013,"longitude":-122.33517,"reserved":0,"last_update":"0001-01-01T00:00:00Z","name_a2s":"Uncletopia | Seattle | 1 | All Maps","protocol":17,"map":"pl_borneo","folder":"tf","game":"Team Fortress","app_id":440,"player_count":24,"max_players":24,"Bots":0,"server_type":"Dedicated","server_os":"Linux","password":true,"vac":true,"version":"7708610","steam_id":85568392924469997,"keywords":["nocrits","nodmgspread","payload","uncletopia"],"game_id":440,"stv_port":27016,"stv_name":"Uncletopia | Seattle | 1 | All Maps | STV","players":[{"user_id":19,"name":"reiidaya","steam_id":76561198325306660,"connected_time":2065000000000,"state":"active","ping":49},{"user_id":20,"name":"Gary Sinfeld","steam_id":76561198042274074,"connected_time":1823000000000,"state":"active","ping":47},{"user_id":22,"name":"tayzik","steam_id":76561199391478575,"connected_time":1680000000000,"state":"active","ping":60},{"user_id":23,"name":"laggy mcstab","steam_id":76561198106379962,"connected_time":1576000000000,"state":"active","ping":54},{"user_id":24,"name":"dodecadron","steam_id":76561198027397222,"connected_time":1457000000000,"state":"active","ping":60},{"user_id":25,"name":"wings_","steam_id":76561198136627222,"connected_time":1242000000000,"state":"active","ping":41},{"user_id":49,"name":"Kappa Albarn","steam_id":76561198093163204,"connected_time":478000000000,"state":"active","ping":67},{"user_id":35,"name":"Saint Laurent Don","steam_id":76561198116820706,"connected_time":1070000000000,"state":"active","ping":70},{"user_id":28,"name":"LT-Kitosans","steam_id":76561198063209082,"connected_time":1187000000000,"state":"active","ping":115},{"user_id":51,"name":"xbox record that","steam_id":76561198150117455,"connected_time":226000000000,"state":"active","ping":85},{"user_id":30,"name":"dougrocks421","steam_id":76561198165063918,"connected_time":1161000000000,"state":"active","ping":41},{"user_id":53,"name":"4Real","steam_id":76561199051709367,"connected_time":200000000000,"state":"active","ping":67},{"user_id":34,"name":"mega","steam_id":76561198089520959,"connected_time":1089000000000,"state":"active","ping":99},{"user_id":50,"name":"High Cotton","steam_id":76561197998894854,"connected_time":334000000000,"state":"active","ping":134},{"user_id":52,"name":"Lily Thorn","steam_id":76561198305488625,"connected_time":223000000000,"state":"active","ping":63},{"user_id":39,"name":"oil","steam_id":76561198099980149,"connected_time":960000000000,"state":"active","ping":74},{"user_id":40,"name":"jennco","steam_id":76561198212421513,"connected_time":953000000000,"state":"active","ping":80},{"user_id":54,"name":"Raian","steam_id":76561199138048671,"connected_time":153000000000,"state":"active","ping":67},{"user_id":58,"name":"Sinyeon","steam_id":76561198125363469,"connected_time":15000000000,"state":"spawning","ping":153},{"user_id":44,"name":"Mimi","steam_id":76561198069220874,"connected_time":904000000000,"state":"active","ping":87},{"user_id":55,"name":"Honeybunch","steam_id":76561198014850580,"connected_time":146000000000,"state":"active","ping":41},{"user_id":47,"name":"charm quark","steam_id":76561198098770777,"connected_time":640000000000,"state":"active","ping":60},{"user_id":48,"name":"krootonitron","steam_id":76561198114113037,"connected_time":611000000000,"state":"active","ping":59},{"user_id":57,"name":"sleepy","steam_id":76561198288663776,"connected_time":72000000000,"state":"active","ping":180}]},{"server_id":119,"name":"Uncletopia | Seattle | 2 | All Maps","name_short":"sea-2","host":"sea-1.us.uncletopia.com","port":27025,"enabled":true,"region":"us-west","cc":"us","latitude":47.608013,"longitude":-122.33517,"reserved":0,"last_update":"0001-01-01T00:00:00Z","name_a2s":"Uncletopia | Seattle | 2 | All Maps","protocol":17,"map":"koth_lakeside_final","folder":"tf","game":"Team Fortress","app_id":440,"player_count":0,"max_players":24,"Bots":0,"server_type":"Dedicated","server_os":"Linux","password":true,"vac":true,"version":"7708610","steam_id":85568392924469998,"keywords":["cp","nocrits","nodmgspread","uncletopia"],"game_id":440,"stv_port":27026,"stv_name":"Uncletopia | Seattle | 2 | All Maps | STV","players":null},{"server_id":17,"name":"Uncletopia | San Francisco | 1 | All Maps","name_short":"sfo-1","host":"sfo-1.us.uncletopia.com","port":27015,"enabled":true,"region":"us-west","cc":"us","latitude":37.77397,"longitude":-122.4313,"reserved":0,"last_update":"0001-01-01T00:00:00Z","name_a2s":"Uncletopia | San Francisco | 1 | All Maps","protocol":17,"map":"koth_highpass","folder":"tf","game":"Team Fortress","app_id":440,"player_count":0,"max_players":24,"Bots":0,"server_type":"Dedicated","server_os":"Linux","password":true,"vac":true,"version":"7708610","steam_id":85568392924469999,"keywords":["cp","nocrits","nodmgspread","uncletopia"],"game_id":440,"stv_port":27016,"stv_name":"Uncletopia | San Francisco | 1 | All Maps | STV","players":null},{"server_id":18,"name":"Uncletopia | San Francisco | 2 | All Maps","name_short":"sfo-2","host":"sfo-1.us.uncletopia.com","port":27025,"enabled":true,"region":"us-west","cc":"us","latitude":37.77397,"longitude":-122.4313,"reserved":0,"last_update":"0001-01-01T00:00:00Z","name_a2s":"Uncletopia | San Francisco | 2 | All Maps","protocol":17,"map":"koth_cascade","folder":"tf","game":"Team Fortress","app_id":440,"player_count":0,"max_players":24,"Bots":0,"server_type":"Dedicated","server_os":"Linux","password":true,"vac":true,"version":"7708610","steam_id":85568392924470000,"keywords":["cp","nocrits","nodmgspread","uncletopia"],"game_id":440,"stv_port":0,"stv_name":"","players":null},{"server_id":19,"name":"Uncletopia | San Francisco | 3 | No Payload","name_short":"sfo-3","host":"sfo-1.us.uncletopia.com","port":27035,"enabled":true,"region":"us-west","cc":"us","latitude":37.77397,"longitude":-122.4313,"reserved":0,"last_update":"0001-01-01T00:00:00Z","name_a2s":"Uncletopia | San Francisco | 3 | No Payload","protocol":17,"map":"koth_harvest_final","folder":"tf","game":"Team Fortress","app_id":440,"player_count":0,"max_players":24,"Bots":0,"server_type":"Dedicated","server_os":"Linux","password":true,"vac":true,"version":"7708610","steam_id":85568392924742824,"keywords":["cp","nocrits","nodmgspread","uncletopia"],"game_id":440,"stv_port":27036,"stv_name":"Uncletopia | San Francisco | 3 | No Payload | STV","players":null},{"server_id":20,"name":"Uncletopia | San Francisco | 4 | Community","name_short":"sfo-4","host":"sfo-1.us.uncletopia.com","port":27045,"enabled":true,"region":"us-west","cc":"us","latitude":37.77397,"longitude":-122.4313,"reserved":0,"last_update":"0001-01-01T00:00:00Z","name_a2s":"Uncletopia | San Francisco | 4 | Community","protocol":17,"map":"workshop/cp_sulfur_rc2.ugc619869471","folder":"tf","game":"Team Fortress","app_id":440,"player_count":0,"max_players":24,"Bots":0,"server_type":"Dedicated","server_os":"Linux","password":true,"vac":true,"version":"7708610","steam_id":85568392924742826,"keywords":["cp","nocrits","nodmgspread","uncletopia"],"game_id":440,"stv_port":27046,"stv_name":"Uncletopia | San Francisco | 4 | Community | STV","players":null},{"server_id":141,"name":"Uncletopia | Sydney | 1 | All Maps","name_short":"syd-1","host":"syd-1.au.uncletopia.com","port":27015,"enabled":true,"region":"au","cc":"au","latitude":-33.865143,"longitude":151.2099,"reserved":0,"last_update":"0001-01-01T00:00:00Z","name_a2s":"Uncletopia | Sydney | 1 | All Maps","protocol":17,"map":"pl_pier","folder":"tf","game":"Team Fortress","app_id":440,"player_count":0,"max_players":24,"Bots":0,"server_type":"Dedicated","server_os":"Linux","password":true,"vac":true,"version":"7708610","steam_id":85568392924470001,"keywords":["nocrits","nodmgspread","payload","uncletopia"],"game_id":440,"stv_port":0,"stv_name":"","players":null},{"server_id":123,"name":"Uncletopia | Sydney | 2 | All Maps","name_short":"syd-2","host":"syd-1.au.uncletopia.com","port":27025,"enabled":true,"region":"au","cc":"au","latitude":-33.865143,"longitude":151.2099,"reserved":0,"last_update":"0001-01-01T00:00:00Z","name_a2s":"Uncletopia | Sydney | 2 | All Maps","protocol":17,"map":"cp_process_final","folder":"tf","game":"Team Fortress","app_id":440,"player_count":0,"max_players":24,"Bots":0,"server_type":"Dedicated","server_os":"Linux","password":true,"vac":true,"version":"7708610","steam_id":85568392924470002,"keywords":["cp","nocrits","nodmgspread","uncletopia"],"game_id":440,"stv_port":27026,"stv_name":"Uncletopia | Sydney | 2 | All Maps | STV","players":null},{"server_id":395,"name":"Uncletopia | Sydney | 3 | All Maps","name_short":"syd-3","host":"syd-1.au.uncletopia.com","port":27035,"enabled":true,"region":"au","cc":"au","latitude":-33.865143,"longitude":151.2099,"reserved":0,"last_update":"0001-01-01T00:00:00Z","name_a2s":"Uncletopia | Sydney | 3 | All Maps","protocol":17,"map":"pl_pier","folder":"tf","game":"Team Fortress","app_id":440,"player_count":0,"max_players":24,"Bots":0,"server_type":"Dedicated","server_os":"Linux","password":true,"vac":true,"version":"7708610","steam_id":85568392925194467,"keywords":["nocrits","nodmgspread","payload","uncletopia"],"game_id":440,"stv_port":27036,"stv_name":"Uncletopia | Sydney | 3 | All Maps | STV","players":null},{"server_id":396,"name":"Uncletopia | Sydney | 4 | All Maps","name_short":"syd-4","host":"syd-1.au.uncletopia.com","port":27045,"enabled":true,"region":"au","cc":"au","latitude":-33.865143,"longitude":151.2099,"reserved":0,"last_update":"0001-01-01T00:00:00Z","name_a2s":"Uncletopia | Sydney | 4 | All Maps","protocol":17,"map":"koth_lakeside_final","folder":"tf","game":"Team Fortress","app_id":440,"player_count":0,"max_players":24,"Bots":0,"server_type":"Dedicated","server_os":"Linux","password":true,"vac":true,"version":"7708610","steam_id":85568392925397958,"keywords":["cp","nocrits","nodmgspread","uncletopia"],"game_id":440,"stv_port":0,"stv_name":"","players":null},{"server_id":58,"name":"Uncletopia | Sydney | 5 | No Payload","name_short":"syd-5","host":"syd-1.au.uncletopia.com","port":27055,"enabled":true,"region":"au","cc":"au","latitude":-33.865143,"longitude":151.2099,"reserved":0,"last_update":"0001-01-01T00:00:00Z","name_a2s":"Uncletopia | Sydney | 5 | No Payload","protocol":17,"map":"koth_cascade","folder":"tf","game":"Team Fortress","app_id":440,"player_count":0,"max_players":24,"Bots":0,"server_type":"Dedicated","server_os":"Linux","password":true,"vac":true,"version":"7708610","steam_id":85568392925397959,"keywords":["cp","nocrits","nodmgspread","uncletopia"],"game_id":440,"stv_port":0,"stv_name":"","players":null},{"server_id":59,"name":"Uncletopia | Sydney | 6 | Community","name_short":"syd-6","host":"syd-1.au.uncletopia.com","port":27065,"enabled":true,"region":"au","cc":"au","latitude":-33.865143,"longitude":151.2099,"reserved":0,"last_update":"0001-01-01T00:00:00Z","name_a2s":"Uncletopia | Sydney | 6 | Community","protocol":17,"map":"pl_borneo","folder":"tf","game":"Team Fortress","app_id":440,"player_count":0,"max_players":24,"Bots":0,"server_type":"Dedicated","server_os":"Linux","password":true,"vac":true,"version":"7708610","steam_id":85568392925397960,"keywords":["nocrits","nodmgspread","payload","uncletopia"],"game_id":440,"stv_port":0,"stv_name":"","players":null},{"server_id":49,"name":"Uncletopia | Warsaw | 1 | All Maps","name_short":"waw-1","host":"waw-1.pl.uncletopia.com","port":27015,"enabled":true,"region":"eu","cc":"pl","latitude":52.2297,"longitude":21.017532,"reserved":0,"last_update":"0001-01-01T00:00:00Z","name_a2s":"Uncletopia | Warsaw | 1 | All Maps","protocol":17,"map":"pl_pier","folder":"tf","game":"Team Fortress","app_id":440,"player_count":0,"max_players":24,"Bots":0,"server_type":"Dedicated","server_os":"Linux","password":true,"vac":true,"version":"7708610","steam_id":85568392925397850,"keywords":["nocrits","nodmgspread","payload","uncletopia"],"game_id":440,"stv_port":27016,"stv_name":"Uncletopia | Warsaw | 1 | All Maps | STV","players":null},{"server_id":50,"name":"Uncletopia | Warsaw | 2 | All Maps","name_short":"waw-2","host":"waw-1.pl.uncletopia.com","port":27025,"enabled":true,"region":"eu","cc":"pl","latitude":52.2297,"longitude":21.017532,"reserved":0,"last_update":"0001-01-01T00:00:00Z","name_a2s":"Uncletopia | Warsaw | 2 | All Maps","protocol":17,"map":"cp_mountainlab","folder":"tf","game":"Team Fortress","app_id":440,"player_count":0,"max_players":24,"Bots":0,"server_type":"Dedicated","server_os":"Linux","password":true,"vac":true,"version":"7708610","steam_id":85568392925397851,"keywords":["cp","nocrits","nodmgspread","uncletopia"],"game_id":440,"stv_port":27026,"stv_name":"Uncletopia | Warsaw | 2 | All Maps | STV","players":null},{"server_id":51,"name":"Uncletopia | Warsaw | 3 | All Maps","name_short":"waw-3","host":"waw-1.pl.uncletopia.com","port":27035,"enabled":true,"region":"eu","cc":"pl","latitude":52.2297,"longitude":21.017532,"reserved":0,"last_update":"0001-01-01T00:00:00Z","name_a2s":"Uncletopia | Warsaw | 3 | All Maps","protocol":17,"map":"koth_cascade","folder":"tf","game":"Team Fortress","app_id":440,"player_count":0,"max_players":24,"Bots":0,"server_type":"Dedicated","server_os":"Linux","password":true,"vac":true,"version":"7708610","steam_id":85568392925397852,"keywords":["cp","nocrits","nodmgspread","uncletopia"],"game_id":440,"stv_port":0,"stv_name":"","players":null},{"server_id":52,"name":"Uncletopia | Warsaw | 4 | All Maps","name_short":"waw-4","host":"waw-1.pl.uncletopia.com","port":27045,"enabled":true,"region":"eu","cc":"pl","latitude":52.2297,"longitude":21.017532,"reserved":0,"last_update":"0001-01-01T00:00:00Z","name_a2s":"Uncletopia | Warsaw | 4 | All Maps","protocol":17,"map":"pl_badwater","folder":"tf","game":"Team Fortress","app_id":440,"player_count":0,"max_players":24,"Bots":0,"server_type":"Dedicated","server_os":"Linux","password":true,"vac":true,"version":"7708610","steam_id":85568392925397853,"keywords":["nocrits","nodmgspread","payload","uncletopia"],"game_id":440,"stv_port":27046,"stv_name":"Uncletopia | Warsaw | 4 | All Maps | STV","players":null},{"server_id":53,"name":"Uncletopia | Warsaw | 5 | No Payload","name_short":"waw-5","host":"waw-1.pl.uncletopia.com","port":27055,"enabled":true,"region":"eu","cc":"pl","latitude":52.2297,"longitude":21.017532,"reserved":0,"last_update":"0001-01-01T00:00:00Z","name_a2s":"Uncletopia | Warsaw | 5 | No Payload","protocol":17,"map":"cp_dustbowl","folder":"tf","game":"Team Fortress","app_id":440,"player_count":0,"max_players":24,"Bots":0,"server_type":"Dedicated","server_os":"Linux","password":true,"vac":true,"version":"7708610","steam_id":85568392925397854,"keywords":["cp","nocrits","nodmgspread","uncletopia"],"game_id":440,"stv_port":0,"stv_name":"","players":null},{"server_id":54,"name":"Uncletopia | Warsaw | 6 | Community","name_short":"waw-6","host":"waw-1.pl.uncletopia.com","port":27065,"enabled":true,"region":"eu","cc":"pl","latitude":52.2297,"longitude":21.017532,"reserved":0,"last_update":"0001-01-01T00:00:00Z","name_a2s":"Uncletopia | Warsaw | 6 | Community","protocol":17,"map":"koth_highpass","folder":"tf","game":"Team Fortress","app_id":440,"player_count":0,"max_players":24,"Bots":0,"server_type":"Dedicated","server_os":"Linux","password":true,"vac":true,"version":"7708610","steam_id":85568392925397856,"keywords":["cp","nocrits","nodmgspread","uncletopia"],"game_id":440,"stv_port":0,"stv_name":"","players":null}]}