{"status":true,"message":"","result":[{"server_id":9,"name":"Uncletopia | Atlanta | 1 | All Maps","name_short":"atl-1","host":"atl-1.us.uncletopia.com","port":27015,"enabled":true,"region":"us-east","cc":"us","latitude":33.753746,"longitude":-84.38633,"reserved":0,"last_update":"0001-01-01T00:00:00Z","name_a2s":"Uncletopia | Atlanta | 1 | All Maps","protocol":17,"map":"pl_badwater","folder":"tf","game":"Team Fortress","app_id":440,"player_count":24,"max_players":24,"Bots":0,"server_type":"Dedicated","server_os":"Linux","password":true,"vac":true,"version":"7742253","steam_id":85568392924469982,"keywords":["nocrits","nodmgspread","payload","uncletopia"],"game_id":440,"stv_port":27016,"stv_name":"Uncletopia | Atlanta | 1 | All Maps | STV","players":[{"user_id":168,"name":"Pennis the Menace","steam_id":76561198254878037,"connected_time":578000000000,"state":"active","ping":86},{"user_id":169,"name":"bee gamer","steam_id":76561198092135570,"connected_time":559000000000,"state":"active","ping":61},{"user_id":174,"name":"lint roller","steam_id":76561199009318836,"connected_time":308000000000,"state":"active","ping":58},{"user_id":159,"name":"rainingmudkips","steam_id":76561198018010854,"connected_time":1312000000000,"state":"active","ping":90},{"user_id":104,"name":"yomokha lft","steam_id":76561198063175935,"connected_time":7965000000000,"state":"active","ping":59},{"user_id":157,"name":"Warlock","steam_id":76561198801747883,"connected_time":1321000000000,"state":"active","ping":102},{"user_id":161,"name":"ATL1 | SparkStorm","steam_id":76561198095817025,"connected_time":1262000000000,"state":"active","ping":28},{"user_id":158,"name":"Lost (15)","steam_id":76561198093713427,"connected_time":1318000000000,"state":"active","ping":83},{"user_id":156,"name":"the-willy12","steam_id":76561199145029672,"connected_time":1848000000000,"state":"active","ping":88},{"user_id":116,"name":"Silm Shady","steam_id":76561198820288056,"connected_time":5779000000000,"state":"active","ping":74},{"user_id":98,"name":"Gromble","steam_id":76561198148876897,"connected_time":8695000000000,"state":"active","ping":83},{"user_id":171,"name":"Female Gamer","steam_id":76561199366482682,"connected_time":541000000000,"state":"active","ping":112},{"user_id":176,"name":"ATL1 | Pango","steam_id":76561198069811545,"connected_time":136000000000,"state":"active","ping":45},{"user_id":172,"name":"Uung","steam_id":76561198183956731,"connected_time":384000000000,"state":"active","ping":76},{"user_id":150,"name":"jumping.sprite","steam_id":76561198957748099,"connected_time":2216000000000,"state":"active","ping":120},{"user_id":142,"name":"‚òÖ‚òÖ‚òÜ‚òÜ‚òÜ","steam_id":76561198198984282,"connected_time":3795000000000,"state":"active","ping":77},{"user_id":144,"name":"hi","steam_id":76561199441787165,"connected_time":2858000000000,"state":"active","ping":78},{"user_id":173,"name":"Alkivo","steam_id":76561198315999766,"connected_time":345000000000,"state":"active","ping":76},{"user_id":167,"name":"Mania13","steam_id":76561198334886955,"connected_time":669000000000,"state":"active","ping":90},{"user_id":124,"name":"boobies.","steam_id":76561198197058638,"connected_time":4981000000000,"state":"active","ping":64},{"user_id":140,"name":"‚ô•Ranman‚ô•Femboy‚ô•","steam_id":76561198042144492,"connected_time":3998000000000,"state":"active","ping":51},{"user_id":146,"name":"SnakeEyes505","steam_id":76561198267634428,"connected_time":2280000000000,"state":"active","ping":91},{"user_id":113,"name":"new year new personality","steam_id":76561198016121536,"connected_time":6437000000000,"state":"active","ping":81},{"user_id":165,"name":"srv","steam_id":76561198026589960,"connected_time":975000000000,"state":"active","ping":75}]},{"server_id":400,"name":"Uncletopia | Atlanta | 3 | Stopwatch Beta","name_short":"atl-3","host":"atl-1.us.uncletopia.com","port":27035,"enabled":true,"region":"us-east","cc":"us","latitude":33.753746,"longitude":-84.38633,"reserved":0,"last_update":"0001-01-01T00:00:00Z","name_a2s":"Uncletopia | Atlanta | 3 | Stopwatch Beta","protocol":17,"map":"workshop/pl_badwater_pro_v12.ugc2142942074","folder":"tf","game":"Team Fortress","app_id":440,"player_count":0,"max_players":24,"Bots":0,"server_type":"Dedicated","server_os":"Linux","password":true,"vac":true,"version":"7742253","steam_id":85568392924515187,"keywords":["nocrits","nodmgspread","payload","uncletopia"],"game_id":440,"stv_port":27036,"stv_name":"Uncletopia | Atlanta | 3 | Stopwatch Beta | STV","players":null},{"server_id":401,"name":"Uncletopia | Atlanta | 4 | No Payload","name_short":"atl-4","host":"atl-1.us.uncletopia.com","port":27045,"enabled":true,"region":"us-east","cc":"us","latitude":33.753746,"longitude":-84.38633,"reserved":0,"last_update":"0001-01-01T00:00:00Z","name_a2s":"Uncletopia | Atlanta | 4 | No Payload","protocol":17,"map":"pl_pier","folder":"tf","game":"Team Fortress","app_id":440,"player_count":0,"max_players":24,"Bots":0,"server_type":"Dedicated","server_os":"Linux","password":true,"vac":true,"version":"7723704","steam_id":85568392924515188,"keywords":["nocrits","nodmgspread","payload","uncletopia"],"game_id":440,"stv_port":27046,"stv_name":"Uncletopia | Atlanta | 4 | No Payload | STV","players":null},{"server_id":2,"name":"Uncletopia | Chicago | 1 | All Maps","name_short":"chi-1","host":"chi-1.us.uncletopia.com","port":27015,"enabled":true,"region":"us-central","cc":"us","latitude":41.881832,"longitude":-87.62318,"reserved":0,"last_update":"0001-01-01T00:00:00Z","name_a2s":"Uncletopia | Chicago | 1 | All Maps","protocol":17,"map":"pl_swiftwater_final1","folder":"tf","game":"Team Fortress","app_id":440,"player_count":23,"max_players":24,"Bots":0,"server_type":"Dedicated","server_os":"Linux","password":true,"vac":true,"version":"7742253","steam_id":85568392924469984,"keywords":["nocrits","nodmgspread","payload","uncletopia"],"game_id":440,"stv_port":27016,"stv_name":"Uncletopia | Chicago | 1 | All Maps | STV","players":[{"user_id":230,"name":"Dude Named Bob","steam_id":76561198310448093,"connected_time":6630000000000,"state":"active","ping":56},{"user_id":298,"name":"notmanhattan","steam_id":76561198143117561,"connected_time":934000000000,"state":"active","ping":43},{"user_id":239,"name":"boofgall319","steam_id":76561199122095813,"connected_time":6147000000000,"state":"active","ping":67},{"user_id":305,"name":"Barnasaurus","steam_id":76561199211707794,"connected_time":542000000000,"state":"active","ping":64},{"user_id":289,"name":"102","steam_id":76561198051928674,"connected_time":1517000000000,"state":"active","ping":54},{"user_id":299,"name":"Yonn","steam_id":76561198274242643,"connected_time":819000000000,"state":"active","ping":66},{"user_id":165,"name":"SuperJagops","steam_id":76561198034689716,"connected_time":12956000000000,"state":"active","ping":61},{"user_id":308,"name":"Sentry Gun (Festive American)","steam_id":76561198313770809,"connected_time":454000000000,"state":"active","ping":56},{"user_id":284,"name":"‚òº friendo","steam_id":76561198074180953,"connected_time":1763000000000,"state":"active","ping":64},{"user_id":300,"name":"Hashmere","steam_id":76561198002797253,"connected_time":789000000000,"state":"active","ping":76},{"user_id":307,"name":"TheEmeraldElias","steam_id":76561199117460238,"connected_time":474000000000,"state":"active","ping":68},{"user_id":291,"name":"Owl Pacino","steam_id":76561197979970666,"connected_time":1455000000000,"state":"active","ping":56},{"user_id":303,"name":"SomeCozyKid","steam_id":76561198086113234,"connected_time":586000000000,"state":"active","ping":64},{"user_id":112,"name":"James Bondage","steam_id":76561198077647318,"connected_time":16956000000000,"state":"active","ping":67},{"user_id":309,"name":"Rukks","steam_id":76561197993918954,"connected_time":166000000000,"state":"active","ping":68},{"user_id":293,"name":"Andrew","steam_id":76561198070615190,"connected_time":1437000000000,"state":"active","ping":60},{"user_id":296,"name":"wahooka","steam_id":76561197981211922,"connected_time":1149000000000,"state":"active","ping":66},{"user_id":304,"name":"Enderneer","steam_id":76561198012136653,"connected_time":586000000000,"state":"active","ping":50},{"user_id":295,"name":"Terium","steam_id":76561198331234327,"connected_time":1319000000000,"state":"active","ping":58},{"user_id":253,"name":"dr peppah chug!","steam_id":76561198068835693,"connected_time":4932000000000,"state":"active","ping":86},{"user_id":260,"name":"indi","steam_id":76561198045917538,"connected_time":4238000000000,"state":"active","ping":50},{"user_id":297,"name":"Merchants of Misery","steam_id":76561199188142396,"connected_time":1046000000000,"state":"active","ping":93},{"user_id":302,"name":"The Doc K","steam_id":76561198035695029,"connected_time":753000000000,"state":"active","ping":81}]},{"server_id":106,"name":"Uncletopia | Chicago | 2 | All Maps","name_short":"chi-2","host":"chi-1.us.uncletopia.com","port":27025,"enabled":true,"region":"us-central","cc":"us","latitude":41.881832,"longitude":-87.62318,"reserved":0,"last_update":"0001-01-01T00:00:00Z","name_a2s":"Uncletopia | Chicago | 2 | All Maps","protocol":17,"map":"koth_harvest_final","folder":"tf","game":"Team Fortress","app_id":440,"player_count":24,"max_players":24,"Bots":0,"server_type":"Dedicated","server_os":"Linux","password":true,"vac":true,"version":"7742253","steam_id":85568392924469985,"keywords":["cp","nocrits","nodmgspread","uncletopia"],"game_id":440,"stv_port":27026,"stv_name":"Uncletopia | Chicago | 2 | All Maps | STV","players":[{"user_id":59,"name":"Bobato Chaps","steam_id":76561198065103552,"connected_time":13035000000000,"state":"active","ping":51},{"user_id":172,"name":"A Successful Businessman","steam_id":76561198031611806,"connected_time":3276000000000,"state":"active","ping":60},{"user_id":197,"name":"ee err","steam_id":76561197986847586,"connected_time":1434000000000,"state":"active","ping":59},{"user_id":174,"name":"WhippedHook","steam_id":76561198069581138,"connected_time":3228000000000,"state":"active","ping":74},{"user_id":210,"name":"Snow‚òÜ","steam_id":76561198031290573,"connected_time":459000000000,"state":"active","ping":58},{"user_id":180,"name":"NautilusShell","steam_id":76561198061289498,"connected_time":2945000000000,"state":"active","ping":71},{"user_id":219,"name":"Tele Co","steam_id":76561198041909269,"connected_time":125000000000,"state":"active","ping":89},{"user_id":182,"name":"bad dragon Lube","steam_id":76561199068636836,"connected_time":2869000000000,"state":"active","ping":64},{"user_id":218,"name":"Rappitor","steam_id":76561198105613110,"connected_time":150000000000,"state":"active","ping":45},{"user_id":200,"name":"Patrick Basement","steam_id":76561198194562230,"connected_time":1300000000000,"state":"active","ping":174},{"user_id":186,"name":"Koishi","steam_id":76561198054541054,"connected_time":2164000000000,"state":"active","ping":54},{"user_id":191,"name":"Rex","steam_id":76561198138365053,"connected_time":2064000000000,"state":"active","ping":126},{"user_id":145,"name":"Furry Saul Goodman","steam_id":76561198069580305,"connected_time":4925000000000,"state":"active","ping":46},{"user_id":215,"name":"Eternyty","steam_id":76561199213127917,"connected_time":258000000000,"state":"active","ping":73},{"user_id":202,"name":"Ronin Grinch","steam_id":76561198041439581,"connected_time":962000000000,"state":"active","ping":72},{"user_id":155,"name":"Chimpish","steam_id":76561199263493270,"connected_time":3859000000000,"state":"active","ping":87},{"user_id":221,"name":"SewerNinja","steam_id":76561198015268145,"connected_time":5000000000,"state":"spawning","ping":90},{"user_id":195,"name":"ÔºîÔºê Ôº¶Ôº∞Ôº≥","steam_id":76561198272394965,"connected_time":1492000000000,"state":"active","ping":142},{"user_id":206,"name":"Drilly22","steam_id":76561198068838338,"connected_time":512000000000,"state":"active","ping":92},{"user_id":213,"name":"mari_","steam_id":76561198137855741,"connected_time":384000000000,"state":"active","ping":46},{"user_id":198,"name":"catboy phroliax","steam_id":76561198207075529,"connected_time":1408000000000,"state":"active","ping":93},{"user_id":167,"name":"Ether","steam_id":76561198054806528,"connected_time":3670000000000,"state":"active","ping":65},{"user_id":217,"name":"jstn","steam_id":76561198845283665,"connected_time":195000000000,"state":"active","ping":74},{"user_id":209,"name":"the gun spy master","steam_id":76561199151014787,"connected_time":495000000000,"state":"active","ping":135}]},{"server_id":402,"name":"Uncletopia | Chicago | 3 | All Maps","name_short":"chi-3","host":"chi-1.us.uncletopia.com","port":27035,"enabled":true,"region":"us-central","cc":"us","latitude":41.881832,"longitude":-87.62318,"reserved":0,"last_update":"0001-01-01T00:00:00Z","name_a2s":"Uncletopia | Chicago | 3 | All Maps","protocol":17,"map":"pl_badwater","folder":"tf","game":"Team Fortress","app_id":440,"player_count":24,"max_players":24,"Bots":0,"server_type":"Dedicated","server_os":"Linux","password":true,"vac":true,"version":"7742253","steam_id":85568392924515191,"keywords":["nocrits","nodmgspread","payload","uncletopia"],"game_id":440,"stv_port":27036,"stv_name":"Uncletopia | Chicago | 3 | All Maps | STV","players":[{"user_id":132,"name":"kametro4","steam_id":76561198835430429,"connected_time":454000000000,"state":"active","ping":75},{"user_id":111,"name":"Gravee","steam_id":76561197999283582,"connected_time":1332000000000,"state":"active","ping":48},{"user_id":127,"name":"Xavibite","steam_id":76561198209380493,"connected_time":806000000000,"state":"active","ping":61},{"user_id":116,"name":"Quietsharp","steam_id":76561198277968438,"connected_time":1117000000000,"state":"active","ping":103},{"user_id":113,"name":"NoBoreGaming","steam_id":76561198044244547,"connected_time":1261000000000,"state":"active","ping":75},{"user_id":130,"name":"D00M_Bringer","steam_id":76561198432211186,"connected_time":553000000000,"state":"active","ping":76},{"user_id":112,"name":"Jrodmpeg","steam_id":76561198046574236,"connected_time":1328000000000,"state":"active","ping":65},{"user_id":123,"name":"Hogan's Castle","steam_id":76561199158397833,"connected_time":1040000000000,"state":"active","ping":76},{"user_id":120,"name":"KingSteve42","steam_id":76561198409455888,"connected_time":1073000000000,"state":"active","ping":98},{"user_id":58,"name":"Assilio","steam_id":76561198371102414,"connected_time":6583000000000,"state":"active","ping":73},{"user_id":33,"name":"C0SMIC PLAGU3","steam_id":76561198051958643,"connected_time":7296000000000,"state":"active","ping":75},{"user_id":136,"name":"big guy","steam_id":76561198357713517,"connected_time":17000000000,"state":"active","ping":78},{"user_id":135,"name":"Antifa Alligator","steam_id":76561197988170816,"connected_time":55000000000,"state":"active","ping":56},{"user_id":75,"name":"Horus","steam_id":76561198166215370,"connected_time":4002000000000,"state":"active","ping":98},{"user_id":128,"name":"duBstep","steam_id":76561198353928965,"connected_time":615000000000,"state":"active","ping":53},{"user_id":134,"name":"Heroofchaos","steam_id":76561199106660090,"connected_time":418000000000,"state":"active","ping":77},{"user_id":101,"name":"Rin \"Hindwing\" Redtail","steam_id":76561199074865638,"connected_time":2655000000000,"state":"active","ping":74},{"user_id":60,"name":"trasho","steam_id":76561198066867150,"connected_time":6312000000000,"state":"active","ping":66},{"user_id":62,"name":"years","steam_id":76561197994098627,"connected_time":5488000000000,"state":"active","ping":110},{"user_id":86,"name":"LerN","steam_id":76561198083463877,"connected_time":3583000000000,"state":"active","ping":57},{"user_id":115,"name":"no wtf not that","steam_id":76561198461518382,"connected_time":1219000000000,"state":"active","ping":84},{"user_id":110,"name":"coffeeghost","steam_id":76561198155142385,"connected_time":1380000000000,"state":"active","ping":96},{"user_id":88,"name":"no","steam_id":76561198248853140,"connected_time":3562000000000,"state":"active","ping":50},{"user_id":131,"name":"DeadErebus","steam_id":76561198286117045,"connected_time":549000000000,"state":"active","ping":41}]},{"server_id":403,"name":"Uncletopia | Chicago | 4 | All Maps","name_short":"chi-4","host":"chi-1.us.uncletopia.com","port":27045,"enabled":true,"region":"us-central","cc":"us","latitude":41.881832,"longitude":-87.62318,"reserved":0,"last_update":"0001-01-01T00:00:00Z","name_a2s":"Uncletopia | Chicago | 4 | All Maps","protocol":17,"map":"koth_lakeside_final","folder":"tf","game":"Team Fortress","app_id":440,"player_count":0,"max_players":24,"Bots":0,"server_type":"Dedicated","server_os":"Linux","password":true,"vac":true,"version":"7742253","steam_id":85568392924515193,"keywords":["cp","nocrits","nodmgspread","uncletopia"],"game_id":440,"stv_port":27046,"stv_name":"Uncletopia | Chicago | 4 | All Maps | STV","players":null},{"server_id":36,"name":"Uncletopia | Chicago | 5 | All Maps","name_short":"chi-5","host":"chi-2.us.uncletopia.com","port":27015,"enabled":true,"region":"us-central","cc":"us","latitude":41.881832,"longitude":-87.62318,"reserved":0,"last_update":"0001-01-01T00:00:00Z","name_a2s":"Uncletopia | Chicago | 5 | All Maps","protocol":17,"map":"koth_highpass","folder":"tf","game":"Team Fortress","app_id":440,"player_count":0,"max_players":24,"Bots":0,"server_type":"Dedicated","server_os":"Linux","password":true,"vac":true,"version":"7742253","steam_id":85568392924866362,"keywords":["cp","nocrits","nodmgspread","uncletopia"],"game_id":440,"stv_port":27016,"stv_name":"Uncletopia | Chicago | 5 | All Maps | STV","players":null},{"server_id":37,"name":"Uncletopia | Chicago | 6 | All Maps","name_short":"chi-6","host":"chi-2.us.uncletopia.com","port":27025,"enabled":true,"region":"us-central","cc":"us","latitude":41.881832,"longitude":-87.62318,"reserved":0,"last_update":"0001-01-01T00:00:00Z","name_a2s":"Uncletopia | Chicago | 6 | All Maps","protocol":17,"map":"pl_upward","folder":"tf","game":"Team Fortress","app_id":440,"player_count":24,"max_players":24,"Bots":0,"server_type":"Dedicated","server_os":"Linux","password":true,"vac":true,"version":"7742253","steam_id":85568392924866363,"keywords":["nocrits","nodmgspread","payload","uncletopia"],"game_id":440,"stv_port":27026,"stv_name":"Uncletopia | Chicago | 6 | All Maps | STV","players":[{"user_id":32,"name":"Friend","steam_id":76561198156746320,"connected_time":1781000000000,"state":"active","ping":45},{"user_id":14,"name":"Goku‚Ñ¢ From Disney¬©","steam_id":76561198015327152,"connected_time":2253000000000,"state":"active","ping":60},{"user_id":19,"name":"GW4D","steam_id":76561198268791283,"connected_time":2030000000000,"state":"active","ping":106},{"user_id":13,"name":"Zin","steam_id":76561198079763004,"connected_time":2311000000000,"state":"active","ping":72},{"user_id":15,"name":"Weshmek","steam_id":76561198009950743,"connected_time":2198000000000,"state":"active","ping":54},{"user_id":16,"name":"AmirKhaan","steam_id":76561198992403254,"connected_time":2169000000000,"state":"active","ping":63},{"user_id":17,"name":"catgirl giantess in heat","steam_id":76561198439042583,"connected_time":2092000000000,"state":"active","ping":85},{"user_id":18,"name":"Kinbo2487","steam_id":76561198184714198,"connected_time":2066000000000,"state":"active","ping":77},{"user_id":20,"name":"Sticky","steam_id":76561198031581547,"connected_time":1929000000000,"state":"active","ping":96},{"user_id":40,"name":"malkshake, flattener","steam_id":76561198031977478,"connected_time":1403000000000,"state":"active","ping":57},{"user_id":48,"name":"caption cool","steam_id":76561197990612056,"connected_time":506000000000,"state":"active","ping":57},{"user_id":23,"name":"glorpious maximous","steam_id":76561198182710758,"connected_time":1901000000000,"state":"active","ping":61},{"user_id":44,"name":"Spazzls","steam_id":76561198075224361,"connected_time":1027000000000,"state":"active","ping":68},{"user_id":41,"name":"lucas","steam_id":76561198251798684,"connected_time":1351000000000,"state":"active","ping":104},{"user_id":39,"name":"blink_137","steam_id":76561198375970016,"connected_time":1502000000000,"state":"active","ping":93},{"user_id":49,"name":"Kyot","steam_id":76561198059297868,"connected_time":438000000000,"state":"active","ping":61},{"user_id":28,"name":"moodi catgirl","steam_id":76561198124028045,"connected_time":1837000000000,"state":"active","ping":60},{"user_id":29,"name":"dwwojcik","steam_id":76561198084403136,"connected_time":1821000000000,"state":"active","ping":46},{"user_id":46,"name":"Cap N' Crunch","steam_id":76561198917309036,"connected_time":686000000000,"state":"active","ping":65},{"user_id":50,"name":"MR.meeseeks","steam_id":76561198294943420,"connected_time":347000000000,"state":"active","ping":76},{"user_id":33,"name":"manbearswineflu","steam_id":76561198083945137,"connected_time":1754000000000,"state":"active","ping":63},{"user_id":45,"name":"stealywave","steam_id":76561198379754391,"connected_time":771000000000,"state":"active","ping":75},{"user_id":37,"name":"Gordon Freemason","steam_id":76561199249733628,"connected_time":1661000000000,"state":"active","ping":87}]},{"server_id":38,"name":"Uncletopia | Chicago | 7 | Stopwatch Beta","name_short":"chi-7","host":"chi-2.us.uncletopia.com","port":27035,"enabled":true,"region":"us-central","cc":"us","latitude":41.881832,"longitude":-87.62318,"reserved":0,"last_update":"0001-01-01T00:00:00Z","name_a2s":"Uncletopia | Chicago | 7 | Stopwatch Beta","protocol":17,"map":"workshop/koth_ashville_final.ugc2130459942","folder":"tf","game":"Team Fortress","app_id":440,"player_count":1,"max_players":24,"Bots":0,"server_type":"Dedicated","server_os":"Linux","password":true,"vac":true,"version":"7742253","steam_id":85568392924866364,"keywords":["cp","nocrits","nodmgspread","uncletopia"],"game_id":440,"stv_port":27036,"stv_name":"Uncletopia | Chicago | 7 | Stopwatch Beta | STV","players":[{"user_id":4,"name":"–Ø–≠Z0–ò","steam_id":76561199205671171,"connected_time":419000000000,"state":"active","ping":68}]},{"server_id":39,"name":"Uncletopia | Chicago | 8 | Community","name_short":"chi-8","host":"chi-2.us.uncletopia.com","port":27045,"enabled":true,"region":"us-central","cc":"us","latitude":41.881832,"longitude":-87.62318,"reserved":0,"last_update":"0001-01-01T00:00:00Z","name_a2s":"Uncletopia | Chicago | 8 | Community","protocol":17,"map":"koth_lakeside_final","folder":"tf","game":"Team Fortress","app_id":440,"player_count":4,"max_players":24,"Bots":0,"server_type":"Dedicated","server_os":"Linux","password":true,"vac":true,"version":"7742253","steam_id":85568392924866365,"keywords":["cp","nocrits","nodmgspread","uncletopia"],"game_id":440,"stv_port":27046,"stv_name":"Uncletopia | Chicago | 8 | Community | STV","players":[{"user_id":9,"name":"Missing Minus","steam_id":76561198120822928,"connected_time":116000000000,"state":"active","ping":59},{"user_id":6,"name":"Mirari","steam_id":76561198126889358,"connected_time":503000000000,"state":"active","ping":67},{"user_id":7,"name":"mintongryphon","steam_id":76561199427146067,"connected_time":484000000000,"state":"active","ping":64},{"user_id":10,"name":"AB24","steam_id":76561199080017254,"connected_time":53000000000,"state":"active","ping":75}]},{"server_id":8,"name":"Uncletopia | Dallas | 1 | All Maps","name_short":"dal-1","host":"dal-1.us.uncletopia.com","port":27015,"enabled":true,"region":"us-central","cc":"us","latitude":32.779167,"longitude":-96.80889,"reserved":0,"last_update":"0001-01-01T00:00:00Z","name_a2s":"Uncletopia | Dallas | 1 | All Maps","protocol":17,"map":"pl_thundermountain","folder":"tf","game":"Team Fortress","app_id":440,"player_count":25,"max_players":24,"Bots":0,"server_type":"Dedicated","server_os":"Linux","password":true,"vac":true,"version":"7742253","steam_id":85568392924469986,"keywords":["nocrits","nodmgspread","payload","uncletopia"],"game_id":440,"stv_port":27016,"stv_name":"Uncletopia | Dallas | 1 | All Maps | STV","players":[{"user_id":134,"name":"vitasovic","steam_id":76561198093696721,"connected_time":2690000000000,"state":"active","ping":183},{"user_id":162,"name":"The Prankster‚Ñ¢","steam_id":76561199123285878,"connected_time":1050000000000,"state":"active","ping":87},{"user_id":165,"name":"Furious George","steam_id":76561198405111646,"connected_time":745000000000,"state":"active","ping":77},{"user_id":121,"name":"ZetaKai1219 #SaveTF2","steam_id":76561198065844559,"connected_time":3073000000000,"state":"active","ping":76},{"user_id":163,"name":"Faust main","steam_id":76561198971799149,"connected_time":754000000000,"state":"active","ping":68},{"user_id":156,"name":"Wolf with a flashlight","steam_id":76561197999816472,"connected_time":1497000000000,"state":"active","ping":66},{"user_id":170,"name":"Sofedor","steam_id":76561198133715994,"connected_time":65000000000,"state":"active","ping":87},{"user_id":168,"name":"Mad Cow‚Äª","steam_id":76561198132498594,"connected_time":105000000000,"state":"active","ping":75},{"user_id":146,"name":"SoapKnight","steam_id":76561198993730843,"connected_time":2099000000000,"state":"active","ping":99},{"user_id":157,"name":"Void","steam_id":76561198308290211,"connected_time":1367000000000,"state":"active","ping":91},{"user_id":139,"name":"the first brood in a trenchcoat","steam_id":76561198028396095,"connected_time":2313000000000,"state":"active","ping":41},{"user_id":159,"name":"cave full of snakes","steam_id":76561199084459911,"connected_time":1251000000000,"state":"active","ping":98},{"user_id":166,"name":"Goretron","steam_id":76561198001320198,"connected_time":733000000000,"state":"active","ping":127},{"user_id":153,"name":"cdoy","steam_id":76561198847749278,"connected_time":1876000000000,"state":"active","ping":45},{"user_id":161,"name":"non_ai","steam_id":76561198270951938,"connected_time":1164000000000,"state":"active","ping":82},{"user_id":167,"name":"Hattara","steam_id":76561198268710858,"connected_time":168000000000,"state":"active","ping":58},{"user_id":171,"name":"Mike Ehrmantraut","steam_id":76561198082446459,"connected_time":53000000000,"state":"active","ping":88},{"user_id":169,"name":"G. Howard Dee","steam_id":76561198058382812,"connected_time":94000000000,"state":"active","ping":68},{"user_id":172,"name":"Polpetta777","steam_id":76561198044331477,"connected_time":47000000000,"state":"active","ping":83},{"user_id":173,"name":"moonmistt","steam_id":76561198160308874,"connected_time":40000000000,"state":"active","ping":179},{"user_id":155,"name":"The Krinkler","steam_id":76561198020308956,"connected_time":1573000000000,"state":"active","ping":62},{"user_id":160,"name":"Eldritch Curio.üëÅ","steam_id":76561198044669027,"connected_time":1251000000000,"state":"active","ping":123},{"user_id":115,"name":"Mcfighter2","steam_id":76561198168073956,"connected_time":3534000000000,"state":"active","ping":81},{"user_id":174,"name":"FunneGal","steam_id":76561198274006925,"connected_time":15000000000,"state":"spawning","ping":88},{"user_id":55,"name":"Greg Boberton 2012","steam_id":76561198983566026,"connected_time":7087000000000,"state":"active","ping":80}]},{"server_id":108,"name":"Uncletopia | Dallas | 2 | All Maps","name_short":"dal-2","host":"dal-1.us.uncletopia.com","port":27025,"enabled":true,"region":"us-central","cc":"us","latitude":32.779167,"longitude":-96.80889,"reserved":0,"last_update":"0001-01-01T00:00:00Z","name_a2s":"Uncletopia | Dallas | 2 | All Maps","protocol":17,"map":"pl_barnblitz","folder":"tf","game":"Team Fortress","app_id":440,"player_count":24,"max_players":24,"Bots":0,"server_type":"Dedicated","server_os":"Linux","password":true,"vac":true,"version":"7742253","steam_id":85568392924469988,"keywords":["nocrits","nodmgspread","payload","uncletopia"],"game_id":440,"stv_port":27026,"stv_name":"Uncletopia | Dallas | 2 | All Maps | STV","players":[{"user_id":108,"name":"Derply","steam_id":76561198871211642,"connected_time":957000000000,"state":"active","ping":79},{"user_id":117,"name":"Death Grips","steam_id":76561198306155040,"connected_time":480000000000,"state":"active","ping":88},{"user_id":139,"name":"Frost","steam_id":76561198272014381,"connected_time":18000000000,"state":"spawning","ping":271},{"user_id":128,"name":"Harufloofer","steam_id":76561199084506827,"connected_time":315000000000,"state":"active","ping":42},{"user_id":127,"name":"barbara","steam_id":76561198072417792,"connected_time":356000000000,"state":"active","ping":62},{"user_id":99,"name":"SLiPpeRyJoe.nosound","steam_id":76561197977206359,"connected_time":1416000000000,"state":"active","ping":88},{"user_id":120,"name":"Uncle","steam_id":76561197988647705,"connected_time":397000000000,"state":"active","ping":76},{"user_id":118,"name":"Mr.blonde","steam_id":76561198876922914,"connected_time":453000000000,"state":"active","ping":159},{"user_id":126,"name":"Walrus","steam_id":76561198001799905,"connected_time":370000000000,"state":"active","ping":79},{"user_id":129,"name":"The Bloody Blue Knight","steam_id":76561198037646881,"connected_time":306000000000,"state":"active","ping":45},{"user_id":92,"name":"They could be starlings","steam_id":76561198441020995,"connected_time":2129000000000,"state":"active","ping":107},{"user_id":115,"name":"StarLy","steam_id":76561198174428289,"connected_time":591000000000,"state":"active","ping":91},{"user_id":94,"name":"jcghost2468","steam_id":76561199028055615,"connected_time":1687000000000,"state":"active","ping":82},{"user_id":136,"name":"Bali","steam_id":76561198038693845,"connected_time":167000000000,"state":"active","ping":119},{"user_id":130,"name":"rrrrrroel","steam_id":76561198320799755,"connected_time":295000000000,"state":"active","ping":46},{"user_id":86,"name":"The Punk","steam_id":76561198079451856,"connected_time":2738000000000,"state":"active","ping":62},{"user_id":98,"name":"Robomandude","steam_id":76561198043909566,"connected_time":1562000000000,"state":"active","ping":56},{"user_id":131,"name":"Unwavering Flavor","steam_id":76561198053306065,"connected_time":280000000000,"state":"active","ping":52},{"user_id":132,"name":"dustsers","steam_id":76561199388921861,"connected_time":261000000000,"state":"active","ping":93},{"user_id":125,"name":"plot4a_plan","steam_id":76561199165158814,"connected_time":387000000000,"state":"active","ping":57},{"user_id":107,"name":"plastiquemonk","steam_id":76561198126035719,"connected_time":979000000000,"state":"active","ping":88},{"user_id":93,"name":"Riff","steam_id":76561198066921423,"connected_time":2093000000000,"state":"active","ping":61},{"user_id":134,"name":"Matt","steam_id":76561198008108521,"connected_time":243000000000,"state":"active","ping":105},{"user_id":138,"name":"Zek","steam_id":76561198014574925,"connected_time":117000000000,"state":"active","ping":98}]},{"server_id":5,"name":"Uncletopia | Frankfurt | 1 | All Maps","name_short":"frk-1","host":"frk-1.de.uncletopia.com","port":27015,"enabled":true,"region":"eu","cc":"de","latitude":50.110924,"longitude":8.682127,"reserved":0,"last_update":"0001-01-01T00:00:00Z","name_a2s":"Uncletopia | Frankfurt | 1 | All Maps","protocol":17,"map":"cp_process_final","folder":"tf","game":"Team Fortress","app_id":440,"player_count":24,"max_players":24,"Bots":0,"server_type":"Dedicated","server_os":"Linux","password":true,"vac":true,"version":"7742253","steam_id":85568392924469989,"keywords":["cp","nocrits","nodmgspread","uncletopia"],"game_id":440,"stv_port":27016,"stv_name":"Uncletopia | Frankfurt | 1 | All Maps | STV","players":[{"user_id":466,"name":"TheShadowScribe","steam_id":76561199037525945,"connected_time":3413000000000,"state":"active","ping":86},{"user_id":512,"name":"Despair","steam_id":76561198259487481,"connected_time":1861000000000,"state":"active","ping":66},{"user_id":529,"name":"beeb","steam_id":76561198033460021,"connected_time":478000000000,"state":"active","ping":94},{"user_id":530,"name":"The Fish","steam_id":76561198303615348,"connected_time":474000000000,"state":"active","ping":96},{"user_id":510,"name":"TaKuni","steam_id":76561198013410331,"connected_time":1936000000000,"state":"active","ping":62},{"user_id":517,"name":"Heavy like a Brinks truck","steam_id":76561198197304886,"connected_time":1352000000000,"state":"active","ping":107},{"user_id":535,"name":"eggslut","steam_id":76561198010752241,"connected_time":294000000000,"state":"active","ping":69},{"user_id":496,"name":"Gandalf","steam_id":76561199072668363,"connected_time":2222000000000,"state":"active","ping":67},{"user_id":531,"name":"mt","steam_id":76561197961319303,"connected_time":470000000000,"state":"active","ping":44},{"user_id":533,"name":"LordTrap.exe","steam_id":76561198318089716,"connected_time":413000000000,"state":"active","ping":57},{"user_id":526,"name":"man","steam_id":76561198180795281,"connected_time":776000000000,"state":"active","ping":56},{"user_id":506,"name":"gio","steam_id":76561198219185620,"connected_time":2017000000000,"state":"active","ping":98},{"user_id":491,"name":"FJADL","steam_id":76561198237008214,"connected_time":2359000000000,"state":"active","ping":59},{"user_id":499,"name":"Babwin","steam_id":76561197985860528,"connected_time":2171000000000,"state":"active","ping":64},{"user_id":485,"name":"!raven","steam_id":76561198320336543,"connected_time":2659000000000,"state":"active","ping":92},{"user_id":518,"name":"Landsknecht","steam_id":76561199293036742,"connected_time":1338000000000,"state":"active","ping":53},{"user_id":538,"name":"Pfenny'S","steam_id":76561198069943092,"connected_time":265000000000,"state":"active","ping":41},{"user_id":480,"name":"paguro","steam_id":76561198119560871,"connected_time":2946000000000,"state":"active","ping":68},{"user_id":442,"name":"Keelan","steam_id":76561198013665543,"connected_time":6576000000000,"state":"active","ping":74},{"user_id":514,"name":"Carol Olston","steam_id":76561198080257273,"connected_time":1794000000000,"state":"active","ping":59},{"user_id":515,"name":"_Yanushi_","steam_id":76561198431418662,"connected_time":1791000000000,"state":"active","ping":78},{"user_id":528,"name":"balanced diet","steam_id":76561198240320806,"connected_time":669000000000,"state":"active","ping":71},{"user_id":516,"name":"Totally Something","steam_id":76561198916824935,"connected_time":1786000000000,"state":"active","ping":65},{"user_id":509,"name":"Mr.Fosty","steam_id":76561198045212783,"connected_time":1976000000000,"state":"active","ping":80}]},{"server_id":110,"name":"Uncletopia | Frankfurt | 2 | All Maps","name_short":"frk-2","host":"frk-1.de.uncletopia.com","port":27025,"enabled":true,"region":"eu","cc":"de","latitude":50.110924,"longitude":8.682127,"reserved":0,"last_update":"0001-01-01T00:00:00Z","name_a2s":"Uncletopia | Frankfurt | 2 | All Maps","protocol":17,"map":"pl_upward","folder":"tf","game":"Team Fortress","app_id":440,"player_count":24,"max_players":24,"Bots":0,"server_type":"Dedicated","server_os":"Linux","password":true,"vac":true,"version":"7742253","steam_id":85568392924469990,"keywords":["nocrits","nodmgspread","payload","uncletopia"],"game_id":440,"stv_port":27026,"stv_name":"Uncletopia | Frankfurt | 2 | All Maps | STV","players":[{"user_id":445,"name":"Mayor Wank from Wanker Town","steam_id":76561197998253588,"connected_time":552000000000,"state":"active","ping":46},{"user_id":348,"name":"frying pan (real)","steam_id":76561198875409640,"connected_time":8181000000000,"state":"active","ping":63},{"user_id":420,"name":"chair 2.0","steam_id":76561199233470150,"connected_time":2641000000000,"state":"active","ping":52},{"user_id":439,"name":"Gyt","steam_id":76561198014431968,"connected_time":629000000000,"state":"active","ping":77},{"user_id":431,"name":"Alin","steam_id":76561198059679991,"connected_time":1793000000000,"state":"active","ping":93},{"user_id":380,"name":"triangle","steam_id":76561198046838168,"connected_time":5770000000000,"state":"active","ping":50},{"user_id":438,"name":"Windows Vista Cruiser","steam_id":76561198064102233,"connected_time":645000000000,"state":"active","ping":63},{"user_id":434,"name":"Okonell[HUN]","steam_id":76561198032216617,"connected_time":1712000000000,"state":"active","ping":78},{"user_id":406,"name":"Clitorina","steam_id":76561198077570815,"connected_time":4078000000000,"state":"active","ping":55},{"user_id":435,"name":"Taskyy","steam_id":76561198134901175,"connected_time":1382000000000,"state":"active","ping":77},{"user_id":442,"name":"Kqnes","steam_id":76561198815268030,"connected_time":561000000000,"state":"active","ping":61},{"user_id":432,"name":"wewli","steam_id":76561199005742648,"connected_time":1786000000000,"state":"active","ping":79},{"user_id":395,"name":"Gordon Birdman","steam_id":76561198013382324,"connected_time":5279000000000,"state":"active","ping":75},{"user_id":419,"name":"thoMaS","steam_id":76561198153493306,"connected_time":2880000000000,"state":"active","ping":65},{"user_id":400,"name":"dansci","steam_id":76561198269530717,"connected_time":4498000000000,"state":"active","ping":157},{"user_id":440,"name":"radu","steam_id":76561199232442508,"connected_time":607000000000,"state":"active","ping":76},{"user_id":443,"name":"MrBeast Official","steam_id":76561198081369150,"connected_time":560000000000,"state":"active","ping":87},{"user_id":417,"name":"Mathieu.","steam_id":76561198039268163,"connected_time":3195000000000,"state":"active","ping":66},{"user_id":383,"name":"‚úß Luigi Time ‚úß","steam_id":76561198026903673,"connected_time":5670000000000,"state":"active","ping":60},{"user_id":444,"name":"ok","steam_id":76561198044451693,"connected_time":555000000000,"state":"active","ping":103},{"user_id":446,"name":"jovi_","steam_id":76561198449280552,"connected_time":528000000000,"state":"active","ping":66},{"user_id":328,"name":"ÍßÅ‡ºíXenon‡ºíÍßÇ","steam_id":76561198120502313,"connected_time":9872000000000,"state":"active","ping":74},{"user_id":436,"name":"Uselss Joe","steam_id":76561198275853629,"connected_time":786000000000,"state":"active","ping":59},{"user_id":448,"name":"NiKoRo","steam_id":76561197963686614,"connected_time":520000000000,"state":"active","ping":85}]},{"server_id":308,"name":"Uncletopia | Frankfurt | 3 | All Maps","name_short":"frk-3","host":"frk-1.de.uncletopia.com","port":27035,"enabled":true,"region":"eu","cc":"de","latitude":50.110924,"longitude":8.682127,"reserved":0,"last_update":"0001-01-01T00:00:00Z","name_a2s":"Uncletopia | Frankfurt | 3 | All Maps","protocol":17,"map":"pl_upward","folder":"tf","game":"Team Fortress","app_id":440,"player_count":25,"max_players":24,"Bots":0,"server_type":"Dedicated","server_os":"Linux","password":true,"vac":true,"version":"7742253","steam_id":85568392924504274,"keywords":["nocrits","nodmgspread","payload","uncletopia"],"game_id":440,"stv_port":27036,"stv_name":"Uncletopia | Frankfurt | 3 | All Maps | STV","players":[{"user_id":194,"name":"Mario3ghj","steam_id":76561198069804561,"connected_time":2378000000000,"state":"active","ping":94},{"user_id":193,"name":"Arturias","steam_id":76561198188720263,"connected_time":2383000000000,"state":"active","ping":47},{"user_id":216,"name":"manliest tf2 player","steam_id":76561198209360887,"connected_time":1002000000000,"state":"active","ping":61},{"user_id":174,"name":"Kaz","steam_id":76561198044844041,"connected_time":3314000000000,"state":"active","ping":78},{"user_id":220,"name":"risco1bolota","steam_id":76561198323074603,"connected_time":685000000000,"state":"active","ping":112},{"user_id":183,"name":"Allmathaur","steam_id":76561199405602290,"connected_time":3137000000000,"state":"active","ping":95},{"user_id":182,"name":"Gempooh","steam_id":76561198098463950,"connected_time":3164000000000,"state":"active","ping":90},{"user_id":211,"name":"Zateske","steam_id":76561198047446276,"connected_time":1605000000000,"state":"active","ping":62},{"user_id":209,"name":"Mongoose","steam_id":76561199125198593,"connected_time":1869000000000,"state":"active","ping":65},{"user_id":224,"name":"Mathias","steam_id":76561198148921851,"connected_time":3000000000,"state":"spawning","ping":88},{"user_id":199,"name":"Cake","steam_id":76561199092422645,"connected_time":2289000000000,"state":"active","ping":126},{"user_id":167,"name":"CiVillain","steam_id":76561198059617732,"connected_time":3649000000000,"state":"active","ping":74},{"user_id":218,"name":"PieTer","steam_id":76561198001999422,"connected_time":909000000000,"state":"active","ping":75},{"user_id":179,"name":"FaceShackle","steam_id":76561198038371397,"connected_time":3182000000000,"state":"active","ping":49},{"user_id":221,"name":"spy gaming","steam_id":76561198410955546,"connected_time":503000000000,"state":"active","ping":93},{"user_id":205,"name":"Antimation","steam_id":76561198125649544,"connected_time":2220000000000,"state":"active","ping":71},{"user_id":219,"name":"etc","steam_id":76561197998394797,"connected_time":747000000000,"state":"active","ping":60},{"user_id":171,"name":"telecaster cowboy","steam_id":76561198030155915,"connected_time":3597000000000,"state":"active","ping":76},{"user_id":204,"name":"Matafas","steam_id":76561198071687855,"connected_time":2229000000000,"state":"active","ping":77},{"user_id":214,"name":"WinsomeYapper9","steam_id":76561199275285546,"connected_time":1582000000000,"state":"active","ping":100},{"user_id":206,"name":"Tumppi","steam_id":76561198101197482,"connected_time":2201000000000,"state":"active","ping":74},{"user_id":207,"name":"Benpl","steam_id":76561198084890757,"connected_time":2200000000000,"state":"active","ping":62},{"user_id":191,"name":"Oceanic | tuesday maybe","steam_id":76561197979741827,"connected_time":2436000000000,"state":"active","ping":61},{"user_id":225,"name":"R8N - Obismal","steam_id":76561198007482714,"connected_time":2000000000,"state":"spawning","ping":61},{"user_id":170,"name":"DigyB","steam_id":76561198014442345,"connected_time":3608000000000,"state":"active","ping":63}]},{"server_id":309,"name":"Uncletopia | Frankfurt | 4 | All Maps","name_short":"frk-4","host":"frk-1.de.uncletopia.com","port":27045,"enabled":true,"region":"eu","cc":"de","latitude":50.110924,"longitude":8.682127,"reserved":0,"last_update":"0001-01-01T00:00:00Z","name_a2s":"Uncletopia | Frankfurt | 4 | All Maps","protocol":17,"map":"ctf_2fort","folder":"tf","game":"Team Fortress","app_id":440,"player_count":23,"max_players":24,"Bots":0,"server_type":"Dedicated","server_os":"Linux","password":true,"vac":true,"version":"7742253","steam_id":85568392924504275,"keywords":["ctf","nocrits","nodmgspread","uncletopia"],"game_id":440,"stv_port":27046,"stv_name":"Uncletopia | Frankfurt | 4 | All Maps | STV","players":[{"user_id":289,"name":"Gnax2","steam_id":76561198218250339,"connected_time":165000000000,"state":"active","ping":88},{"user_id":220,"name":"the guy from spy kids 3-d","steam_id":76561198860559249,"connected_time":4087000000000,"state":"active","ping":103},{"user_id":283,"name":"Vidrox #savetf2","steam_id":76561199217854983,"connected_time":370000000000,"state":"active","ping":81},{"user_id":253,"name":"hulluheppu1","steam_id":76561198093458326,"connected_time":1318000000000,"state":"active","ping":61},{"user_id":287,"name":"Sreak","steam_id":76561198209131656,"connected_time":175000000000,"state":"active","ping":45},{"user_id":261,"name":"TMDBLV","steam_id":76561198352246218,"connected_time":1155000000000,"state":"active","ping":147},{"user_id":270,"name":"sigma female","steam_id":76561198298576765,"connected_time":937000000000,"state":"active","ping":80},{"user_id":134,"name":"/HartBeet/","steam_id":76561198321785662,"connected_time":9904000000000,"state":"active","ping":82},{"user_id":160,"name":"FruityCrits","steam_id":76561198373779833,"connected_time":7909000000000,"state":"active","ping":44},{"user_id":248,"name":"thisisthewhat","steam_id":76561199407448443,"connected_time":2127000000000,"state":"active","ping":63},{"user_id":187,"name":"chicanery","steam_id":76561198130794936,"connected_time":6837000000000,"state":"active","ping":78},{"user_id":295,"name":"R0X","steam_id":76561198047876624,"connected_time":38000000000,"state":"spawning","ping":97},{"user_id":193,"name":"SkippityScopity","steam_id":76561198801187351,"connected_time":5562000000000,"state":"active","ping":64},{"user_id":276,"name":"citronous","steam_id":76561198093290934,"connected_time":775000000000,"state":"active","ping":58},{"user_id":272,"name":"Speisman","steam_id":76561198370983426,"connected_time":922000000000,"state":"active","ping":63},{"user_id":274,"name":"Yiffware :3","steam_id":76561198198461837,"connected_time":915000000000,"state":"active","ping":71},{"user_id":200,"name":"MSPaintbrush","steam_id":76561198119987705,"connected_time":5304000000000,"state":"active","ping":56},{"user_id":226,"name":"Nope","steam_id":76561198069066522,"connected_time":3872000000000,"state":"active","ping":77},{"user_id":256,"name":"H A P P Y","steam_id":76561198310047963,"connected_time":1273000000000,"state":"active","ping":58},{"user_id":292,"name":"manKe","steam_id":76561198008564860,"connected_time":130000000000,"state":"active","ping":50},{"user_id":258,"name":"‚òÉ Kkasper ‚òÉ","steam_id":76561199121845047,"connected_time":1251000000000,"state":"active","ping":66},{"user_id":293,"name":"Zach #SaveTF2","steam_id":76561198336885684,"connected_time":89000000000,"state":"active","ping":73},{"user_id":290,"name":"Cippo95","steam_id":76561198255311582,"connected_time":159000000000,"state":"active","ping":66}]},{"server_id":310,"name":"Uncletopia | Frankfurt | 5 | All Maps","name_short":"frk-5","host":"frk-1.de.uncletopia.com","port":27055,"enabled":true,"region":"eu","cc":"de","latitude":50.110924,"longitude":8.682127,"reserved":0,"last_update":"0001-01-01T00:00:00Z","name_a2s":"Uncletopia | Frankfurt | 5 | All Maps","protocol":17,"map":"pl_upward","folder":"tf","game":"Team Fortress","app_id":440,"player_count":24,"max_players":24,"Bots":0,"server_type":"Dedicated","server_os":"Linux","password":true,"vac":true,"version":"7742253","steam_id":85568392924504277,"keywords":["nocrits","nodmgspread","payload","uncletopia"],"game_id":440,"stv_port":27056,"stv_name":"Uncletopia | Frankfurt | 5 | All Maps | STV","players":[{"user_id":400,"name":"Nex","steam_id":76561199223747483,"connected_time":872000000000,"state":"active","ping":68},{"user_id":392,"name":"Monke","steam_id":76561198066994468,"connected_time":1579000000000,"state":"active","ping":51},{"user_id":375,"name":"the joy of recycling","steam_id":76561198415564349,"connected_time":2670000000000,"state":"active","ping":64},{"user_id":396,"name":"bkktrans","steam_id":76561198264393359,"connected_time":1356000000000,"state":"active","ping":50},{"user_id":388,"name":"nobody","steam_id":76561198180637374,"connected_time":1942000000000,"state":"active","ping":86},{"user_id":357,"name":"Hey, I¬¥m Andy!","steam_id":76561198060337777,"connected_time":3355000000000,"state":"active","ping":65},{"user_id":379,"name":"Sigmar's Weakest Soldier","steam_id":76561198320506848,"connected_time":2213000000000,"state":"active","ping":45},{"user_id":381,"name":"Doriian","steam_id":76561198071438810,"connected_time":2162000000000,"state":"active","ping":75},{"user_id":376,"name":"bubblojoe","steam_id":76561198044534119,"connected_time":2270000000000,"state":"active","ping":64},{"user_id":353,"name":"Arcticpyro","steam_id":76561198010708923,"connected_time":3775000000000,"state":"active","ping":58},{"user_id":402,"name":"Veve25","steam_id":76561198070755176,"connected_time":394000000000,"state":"active","ping":55},{"user_id":384,"name":"Walter Griffin","steam_id":76561199415989636,"connected_time":1971000000000,"state":"active","ping":105},{"user_id":399,"name":"lowcostfish.co.uk","steam_id":76561198126022039,"connected_time":1014000000000,"state":"active","ping":57},{"user_id":344,"name":".quickfast.","steam_id":76561199438900919,"connected_time":4990000000000,"state":"active","ping":61},{"user_id":328,"name":"A Succulent Chinese Meal","steam_id":76561198069472440,"connected_time":5565000000000,"state":"active","ping":89},{"user_id":360,"name":"Kotlet schabowy","steam_id":76561198048983509,"connected_time":3277000000000,"state":"active","ping":76},{"user_id":390,"name":"panakid","steam_id":76561198364121077,"connected_time":1918000000000,"state":"active","ping":98},{"user_id":372,"name":"Zelmor","steam_id":76561197997708311,"connected_time":2775000000000,"state":"active","ping":45},{"user_id":393,"name":"Per√§miehen√§","steam_id":76561197968945306,"connected_time":1538000000000,"state":"active","ping":74},{"user_id":366,"name":"pepper","steam_id":76561198059782462,"connected_time":2856000000000,"state":"active","ping":53},{"user_id":367,"name":"Jedi Knight","steam_id":76561198039030709,"connected_time":2854000000000,"state":"active","ping":51},{"user_id":397,"name":"Œª Overwatch Elite Œª","steam_id":76561197985317035,"connected_time":1343000000000,"state":"active","ping":51},{"user_id":401,"name":"RIFT","steam_id":76561198991622379,"connected_time":532000000000,"state":"active","ping":53},{"user_id":389,"name":"Leviopterix","steam_id":76561198172397734,"connected_time":1941000000000,"state":"active","ping":56}]},{"server_id":311,"name":"Uncletopia | Frankfurt | 6 | All Maps","name_short":"frk-6","host":"frk-1.de.uncletopia.com","port":27065,"enabled":true,"region":"eu","cc":"de","latitude":50.110924,"longitude":8.682127,"reserved":0,"last_update":"0001-01-01T00:00:00Z","name_a2s":"Uncletopia | Frankfurt | 6 | All Maps","protocol":17,"map":"cp_yukon_final","folder":"tf","game":"Team Fortress","app_id":440,"player_count":24,"max_players":24,"Bots":0,"server_type":"Dedicated","server_os":"Linux","password":true,"vac":true,"version":"7742253","steam_id":85568392924504278,"keywords":["cp","nocrits","nodmgspread","uncletopia"],"game_id":440,"stv_port":27066,"stv_name":"Uncletopia | Frankfurt | 6 | All Maps | STV","players":[{"user_id":155,"name":"Hexagon","steam_id":76561198151205758,"connected_time":10346000000000,"state":"active","ping":53},{"user_id":299,"name":"RenderedBrake19","steam_id":76561198800027071,"connected_time":553000000000,"state":"active","ping":180},{"user_id":300,"name":"R3inis","steam_id":76561199030393569,"connected_time":521000000000,"state":"active","ping":75},{"user_id":267,"name":"Toasty5050","steam_id":76561198073540881,"connected_time":2440000000000,"state":"active","ping":47},{"user_id":280,"name":"foo","steam_id":76561198042000263,"connected_time":1824000000000,"state":"active","ping":73},{"user_id":298,"name":"Mr.MemeMaker |HM|","steam_id":76561198909088766,"connected_time":675000000000,"state":"active","ping":54},{"user_id":268,"name":"s a i","steam_id":76561197970379754,"connected_time":2428000000000,"state":"active","ping":57},{"user_id":244,"name":"Mr. Mundy","steam_id":76561198132008918,"connected_time":4124000000000,"state":"active","ping":71},{"user_id":288,"name":"Uriri","steam_id":76561198085588686,"connected_time":1527000000000,"state":"active","ping":67},{"user_id":305,"name":"\u003e:D","steam_id":76561198064212334,"connected_time":144000000000,"state":"active","ping":67},{"user_id":278,"name":"SirNeeco \u003c3","steam_id":76561198103014203,"connected_time":1916000000000,"state":"active","ping":62},{"user_id":301,"name":"Thebluetotodile","steam_id":76561198377832877,"connected_time":512000000000,"state":"active","ping":62},{"user_id":271,"name":"Rimx","steam_id":76561198053034840,"connected_time":2356000000000,"state":"active","ping":90},{"user_id":275,"name":"Himbeermilch","steam_id":76561198303198090,"connected_time":2041000000000,"state":"active","ping":50},{"user_id":302,"name":"Poodle","steam_id":76561198015483504,"connected_time":497000000000,"state":"active","ping":70},{"user_id":290,"name":"Wraith","steam_id":76561198186007794,"connected_time":981000000000,"state":"active","ping":62},{"user_id":306,"name":"blurst of times","steam_id":76561197972325640,"connected_time":124000000000,"state":"active","ping":57},{"user_id":180,"name":"doubletwist","steam_id":76561198062571317,"connected_time":8868000000000,"state":"active","ping":88},{"user_id":294,"name":"W√ºstenfuchs","steam_id":76561198453885708,"connected_time":915000000000,"state":"active","ping":67},{"user_id":291,"name":"Saul Goodsex","steam_id":76561198173218318,"connected_time":937000000000,"state":"active","ping":47},{"user_id":303,"name":"Deadsh0t","steam_id":76561198062030451,"connected_time":489000000000,"state":"active","ping":57},{"user_id":229,"name":"QuestionMark","steam_id":76561199020079040,"connected_time":5248000000000,"state":"active","ping":120},{"user_id":307,"name":"silenk","steam_id":76561198367689055,"connected_time":95000000000,"state":"active","ping":67},{"user_id":218,"name":"Nick","steam_id":76561198036109469,"connected_time":5521000000000,"state":"active","ping":95}]},{"server_id":23,"name":"Uncletopia | Frankfurt | 7 | Stopwatch Beta","name_short":"frk-7","host":"frk-1.de.uncletopia.com","port":27075,"enabled":true,"region":"eu","cc":"de","latitude":50.110924,"longitude":8.682127,"reserved":0,"last_update":"0001-01-01T00:00:00Z","name_a2s":"Uncletopia | Frankfurt | 7 | Stopwatch Beta","protocol":17,"map":"workshop/koth_ramjam_rc1.ugc459778887","folder":"tf","game":"Team Fortress","app_id":440,"player_count":2,"max_players":24,"Bots":0,"server_type":"Dedicated","server_os":"Linux","password":true,"vac":true,"version":"7742253","steam_id":85568392924742827,"keywords":["cp","nocrits","nodmgspread","uncletopia"],"game_id":440,"stv_port":27076,"stv_name":"Uncletopia | Frankfurt | 7 | Stopwatch Beta | STV","players":[{"user_id":253,"name":"ISoftiDemonI","steam_id":76561199251435587,"connected_time":312000000000,"state":"active","ping":191},{"user_id":254,"name":"imperia400","steam_id":76561199036095993,"connected_time":136000000000,"state":"active","ping":72}]},{"server_id":24,"name":"Uncletopia | Frankfurt | 8 | Community","name_short":"frk-8","host":"frk-1.de.uncletopia.com","port":27085,"enabled":true,"region":"eu","cc":"de","latitude":50.110924,"longitude":8.682127,"reserved":0,"last_update":"0001-01-01T00:00:00Z","name_a2s":"Uncletopia | Frankfurt | 8 | Community","protocol":17,"map":"workshop/koth_bagel_rc5.ugc2514036946","folder":"tf","game":"Team Fortress","app_id":440,"player_count":24,"max_players":24,"Bots":0,"server_type":"Dedicated","server_os":"Linux","password":true,"vac":true,"version":"7742253","steam_id":85568392924742828,"keywords":["cp","nocrits","nodmgspread","uncletopia"],"game_id":440,"stv_port":27086,"stv_name":"Uncletopia | Frankfurt | 8 | Community | STV","players":[{"user_id":153,"name":"Vel0city","steam_id":76561198049687798,"connected_time":3886000000000,"state":"active","ping":57},{"user_id":218,"name":"78","steam_id":76561198208328357,"connected_time":278000000000,"state":"active","ping":89},{"user_id":172,"name":"Fat Pigeon","steam_id":76561198817940142,"connected_time":2424000000000,"state":"active","ping":49},{"user_id":214,"name":"aaaaa aa aaa","steam_id":76561198377289568,"connected_time":505000000000,"state":"active","ping":55},{"user_id":217,"name":"frosty","steam_id":76561198094560834,"connected_time":374000000000,"state":"active","ping":61},{"user_id":224,"name":"ming dynasty cat","steam_id":76561198036758640,"connected_time":110000000000,"state":"active","ping":66},{"user_id":223,"name":"Dedu","steam_id":76561198132191324,"connected_time":129000000000,"state":"active","ping":54},{"user_id":228,"name":"htraB","steam_id":76561198043122677,"connected_time":57000000000,"state":"active","ping":61},{"user_id":194,"name":"wz50racer","steam_id":76561198076388927,"connected_time":1654000000000,"state":"active","ping":64},{"user_id":197,"name":"ENGY","steam_id":76561198018158428,"connected_time":1601000000000,"state":"active","ping":80},{"user_id":175,"name":"LasagnaLarry22","steam_id":76561198089478290,"connected_time":2347000000000,"state":"active","ping":59},{"user_id":207,"name":"L√∏bbeh","steam_id":76561198071861251,"connected_time":876000000000,"state":"active","ping":68},{"user_id":229,"name":"Avoonix","steam_id":76561198186954897,"connected_time":36000000000,"state":"active","ping":59},{"user_id":225,"name":"Gebagemid","steam_id":76561198003684717,"connected_time":86000000000,"state":"active","ping":65},{"user_id":226,"name":"bob0rutin","steam_id":76561198010760312,"connected_time":75000000000,"state":"spawning","ping":176},{"user_id":208,"name":"the joy of recycling","steam_id":76561198138509827,"connected_time":816000000000,"state":"active","ping":84},{"user_id":155,"name":"Commander Boreale","steam_id":76561198118938257,"connected_time":3800000000000,"state":"active","ping":90},{"user_id":200,"name":"„ÉÜ„Ç§„É´„Çπ","steam_id":76561198022403271,"connected_time":1554000000000,"state":"active","ping":45},{"user_id":213,"name":"the rizzler","steam_id":76561198070664114,"connected_time":531000000000,"state":"active","ping":62},{"user_id":227,"name":"Mad_Doge","steam_id":76561198055373907,"connected_time":67000000000,"state":"spawning","ping":1053},{"user_id":230,"name":"Preyzen","steam_id":76561199043448824,"connected_time":22000000000,"state":"spawning","ping":130},{"user_id":156,"name":"BROOMSTER","steam_id":76561198344833818,"connected_time":3684000000000,"state":"active","ping":81},{"user_id":222,"name":"doomcoomer","steam_id":76561199440029970,"connected_time":243000000000,"state":"connecting","ping":244}]},{"server_id":202,"name":"Uncletopia | Hong Kong | 1 | All Maps","name_short":"hgk-1","host":"hgk-1.hk.uncletopia.com","port":27015,"enabled":true,"region":"asia","cc":"hk","latitude":22.302711,"longitude":114.177216,"reserved":0,"last_update":"0001-01-01T00:00:00Z","name_a2s":"Uncletopia | Hong Kong | 1 | All Maps","protocol":17,"map":"plr_hightower","folder":"tf","game":"Team Fortress","app_id":440,"player_count":0,"max_players":24,"Bots":0,"server_type":"Dedicated","server_os":"Linux","password":true,"vac":true,"version":"7742253","steam_id":85568392924494504,"keywords":["nocrits","nodmgspread","payload","uncletopia"],"game_id":440,"stv_port":27016,"stv_name":"Uncletopia | Hong Kong | 1 | All Maps | STV","players":null},{"server_id":1,"name":"Uncletopia | Los Angeles | 1 | All Maps","name_short":"lax-1","host":"lax-1.us.uncletopia.com","port":27015,"enabled":true,"region":"us-west","cc":"us","latitude":33.94279,"longitude":-118.41004,"reserved":0,"last_update":"0001-01-01T00:00:00Z","name_a2s":"Uncletopia | Los Angeles | 1 | All Maps","protocol":17,"map":"pl_snowycoast","folder":"tf","game":"Team Fortress","app_id":440,"player_count":0,"max_players":24,"Bots":0,"server_type":"Dedicated","server_os":"Linux","password":true,"vac":true,"version":"7742253","steam_id":85568392924469991,"keywords":["nocrits","nodmgspread","payload","uncletopia"],"game_id":440,"stv_port":27016,"stv_name":"Uncletopia | Los Angeles | 1 | All Maps | STV","players":null},{"server_id":112,"name":"Uncletopia | Los Angeles | 2 | All Maps","name_short":"lax-2","host":"lax-1.us.uncletopia.com","port":27025,"enabled":true,"region":"us-west","cc":"us","latitude":33.94279,"longitude":-118.41004,"reserved":0,"last_update":"0001-01-01T00:00:00Z","name_a2s":"Uncletopia | Los Angeles | 2 | All Maps","protocol":17,"map":"pl_snowycoast","folder":"tf","game":"Team Fortress","app_id":440,"player_count":0,"max_players":24,"Bots":0,"server_type":"Dedicated","server_os":"Linux","password":true,"vac":true,"version":"7742253","steam_id":85568392924469992,"keywords":["nocrits","nodmgspread","payload","uncletopia"],"game_id":440,"stv_port":27026,"stv_name":"Uncletopia | Los Angeles | 2 | All Maps | STV","players":null},{"server_id":324,"name":"Uncletopia | Los Angeles | 3 | All Maps","name_short":"lax-3","host":"lax-1.us.uncletopia.com","port":27035,"enabled":true,"region":"us-west","cc":"us","latitude":33.94279,"longitude":-118.41004,"reserved":0,"last_update":"0001-01-01T00:00:00Z","name_a2s":"Uncletopia | Los Angeles | 3 | All Maps","protocol":17,"map":"cp_snakewater_final1","folder":"tf","game":"Team Fortress","app_id":440,"player_count":0,"max_players":24,"Bots":0,"server_type":"Dedicated","server_os":"Linux","password":true,"vac":true,"version":"7742253","steam_id":85568392924510198,"keywords":["cp","nocrits","nodmgspread","uncletopia"],"game_id":440,"stv_port":27036,"stv_name":"Uncletopia | Los Angeles | 3 | All Maps | STV","players":null},{"server_id":25,"name":"Uncletopia | Los Angeles | 4 | Stopwatch Beta","name_short":"lax-4","host":"lax-1.us.uncletopia.com","port":27045,"enabled":true,"region":"us-west","cc":"us","latitude":33.94279,"longitude":-118.41004,"reserved":0,"last_update":"0001-01-01T00:00:00Z","name_a2s":"Uncletopia | Los Angeles | 4 | Stopwatch Beta","protocol":17,"map":"workshop/koth_product_final.ugc454272353","folder":"tf","game":"Team Fortress","app_id":440,"player_count":0,"max_players":24,"Bots":0,"server_type":"Dedicated","server_os":"Linux","password":true,"vac":true,"version":"7742253","steam_id":85568392924510199,"keywords":["cp","nocrits","nodmgspread","uncletopia"],"game_id":440,"stv_port":27046,"stv_name":"Uncletopia | Los Angeles | 4 | Stopwatch Beta | STV","players":null},{"server_id":11,"name":"Uncletopia | London | 1 | All Maps","name_short":"lon-1","host":"lon-1.uk.uncletopia.com","port":27015,"enabled":true,"region":"eu","cc":"gb","latitude":51.509865,"longitude":-0.118092,"reserved":0,"last_update":"0001-01-01T00:00:00Z","name_a2s":"Uncletopia | London | 1 | All Maps","protocol":17,"map":"pl_badwater","folder":"tf","game":"Team Fortress","app_id":440,"player_count":24,"max_players":24,"Bots":0,"server_type":"Dedicated","server_os":"Linux","password":true,"vac":true,"version":"7742253","steam_id":85568392924367362,"keywords":["nocrits","nodmgspread","payload","uncletopia"],"game_id":440,"stv_port":27016,"stv_name":"Uncletopia | London | 1 | All Maps | STV","players":[{"user_id":562,"name":"MarioThePlumber","steam_id":76561198314229530,"connected_time":825000000000,"state":"active","ping":82},{"user_id":568,"name":"Caruzon - Obismal","steam_id":76561198036211170,"connected_time":704000000000,"state":"active","ping":74},{"user_id":561,"name":"Dr. Allamatt","steam_id":76561198118058482,"connected_time":1412000000000,"state":"active","ping":70},{"user_id":545,"name":"Talonair","steam_id":76561198043630003,"connected_time":2436000000000,"state":"active","ping":55},{"user_id":567,"name":"MrXtr","steam_id":76561198966247397,"connected_time":734000000000,"state":"active","ping":66},{"user_id":520,"name":"[Insert Oneshot refrence here]","steam_id":76561198951206047,"connected_time":4213000000000,"state":"active","ping":94},{"user_id":514,"name":"Kosher Twink","steam_id":76561198397024973,"connected_time":4379000000000,"state":"active","ping":29},{"user_id":432,"name":"Katie","steam_id":76561198056193753,"connected_time":10483000000000,"state":"active","ping":49},{"user_id":552,"name":"DropShot","steam_id":76561198042476724,"connected_time":2013000000000,"state":"active","ping":85},{"user_id":570,"name":"Farmer Maggots Crop","steam_id":76561198838856746,"connected_time":309000000000,"state":"active","ping":39},{"user_id":533,"name":"homeinvasion$","steam_id":76561199111905021,"connected_time":3511000000000,"state":"active","ping":103},{"user_id":555,"name":"Hermitcrack","steam_id":76561198149216441,"connected_time":1689000000000,"state":"active","ping":75},{"user_id":569,"name":"chachiply","steam_id":76561198316355509,"connected_time":523000000000,"state":"active","ping":71},{"user_id":547,"name":"Sushi_Rumor","steam_id":76561198219891817,"connected_time":2224000000000,"state":"active","ping":75},{"user_id":508,"name":"Hydro","steam_id":76561199081791855,"connected_time":4901000000000,"state":"active","ping":55},{"user_id":571,"name":"Man of absolute sex","steam_id":76561199436238409,"connected_time":25000000000,"state":"active","ping":91},{"user_id":556,"name":"Morgulan","steam_id":76561198046564543,"connected_time":1668000000000,"state":"active","ping":62},{"user_id":558,"name":"Bumblebee","steam_id":76561198033551105,"connected_time":1597000000000,"state":"active","ping":65},{"user_id":530,"name":"nudjura","steam_id":76561198281986139,"connected_time":3696000000000,"state":"active","ping":46},{"user_id":497,"name":"glyph","steam_id":76561197980736364,"connected_time":5872000000000,"state":"active","ping":91},{"user_id":522,"name":"Fluffy","steam_id":76561198084447725,"connected_time":4208000000000,"state":"active","ping":43},{"user_id":563,"name":"InsectKing","steam_id":76561199013519071,"connected_time":780000000000,"state":"active","ping":44},{"user_id":544,"name":"Tafrum","steam_id":76561198053868147,"connected_time":2498000000000,"state":"active","ping":86},{"user_id":513,"name":"Jakearooney","steam_id":76561198137205424,"connected_time":4469000000000,"state":"active","ping":63}]},{"server_id":114,"name":"Uncletopia | London | 2 | All Maps","name_short":"lon-2","host":"lon-1.uk.uncletopia.com","port":27025,"enabled":true,"region":"eu","cc":"gb","latitude":51.509865,"longitude":-0.118092,"reserved":0,"last_update":"0001-01-01T00:00:00Z","name_a2s":"Uncletopia | London | 2 | All Maps","protocol":17,"map":"pl_badwater","folder":"tf","game":"Team Fortress","app_id":440,"player_count":24,"max_players":24,"Bots":0,"server_type":"Dedicated","server_os":"Linux","password":true,"vac":true,"version":"7742253","steam_id":85568392924470941,"keywords":["nocrits","nodmgspread","payload","uncletopia"],"game_id":440,"stv_port":27026,"stv_name":"Uncletopia | London | 2 | All Maps | STV","players":[{"user_id":351,"name":"galad.game","steam_id":76561198336324159,"connected_time":620000000000,"state":"active","ping":58},{"user_id":281,"name":"Pinroe","steam_id":76561198968160899,"connected_time":6306000000000,"state":"active","ping":57},{"user_id":248,"name":"Barry","steam_id":76561198351154533,"connected_time":8768000000000,"state":"active","ping":55},{"user_id":348,"name":"Dr. Cox","steam_id":76561198246629218,"connected_time":919000000000,"state":"active","ping":99},{"user_id":355,"name":"SirKaelan","steam_id":76561198123193384,"connected_time":51000000000,"state":"active","ping":78},{"user_id":329,"name":"Mr_Pulse_","steam_id":76561198095001602,"connected_time":3356000000000,"state":"active","ping":105},{"user_id":336,"name":"U F Onion","steam_id":76561198843305350,"connected_time":2477000000000,"state":"active","ping":93},{"user_id":331,"name":"PWizard","steam_id":76561198026458489,"connected_time":2854000000000,"state":"active","ping":86},{"user_id":296,"name":"Mono","steam_id":76561198114569493,"connected_time":5775000000000,"state":"active","ping":40},{"user_id":316,"name":"Bounter","steam_id":76561198072614188,"connected_time":4573000000000,"state":"active","ping":76},{"user_id":332,"name":"Dominus.","steam_id":76561199065917088,"connected_time":2846000000000,"state":"active","ping":60},{"user_id":307,"name":"Noob_with_source","steam_id":76561198870362103,"connected_time":4803000000000,"state":"active","ping":60},{"user_id":346,"name":"el pro74638882","steam_id":76561198203486600,"connected_time":1586000000000,"state":"active","ping":66},{"user_id":318,"name":"dogwater69","steam_id":76561198058366676,"connected_time":4523000000000,"state":"active","ping":84},{"user_id":322,"name":"I want my dog back","steam_id":76561198318748304,"connected_time":4265000000000,"state":"active","ping":127},{"user_id":347,"name":"kotamine","steam_id":76561198068907991,"connected_time":933000000000,"state":"active","ping":73},{"user_id":291,"name":"Polaris","steam_id":76561198007076931,"connected_time":6016000000000,"state":"active","ping":60},{"user_id":264,"name":"rat performance","steam_id":76561198065854668,"connected_time":8257000000000,"state":"active","ping":46},{"user_id":301,"name":"Matth3wksy","steam_id":76561199028063968,"connected_time":5535000000000,"state":"active","ping":41},{"user_id":354,"name":"Fridge","steam_id":76561198071665589,"connected_time":91000000000,"state":"active","ping":109},{"user_id":353,"name":"Mr.O #deletesniper","steam_id":76561198039567498,"connected_time":266000000000,"state":"active","ping":62},{"user_id":288,"name":"Great recession of 2008","steam_id":76561198881151562,"connected_time":6076000000000,"state":"active","ping":79},{"user_id":326,"name":"Combat Wombat","steam_id":76561197994720068,"connected_time":3970000000000,"state":"active","ping":50},{"user_id":314,"name":"jorogumo","steam_id":76561198838277022,"connected_time":4635000000000,"state":"active","ping":75}]},{"server_id":320,"name":"Uncletopia | London | 3 | All Maps","name_short":"lon-3","host":"lon-1.uk.uncletopia.com","port":27035,"enabled":true,"region":"eu","cc":"gb","latitude":51.509865,"longitude":-0.118092,"reserved":0,"last_update":"0001-01-01T00:00:00Z","name_a2s":"Uncletopia | London | 3 | All Maps","protocol":17,"map":"pl_upward","folder":"tf","game":"Team Fortress","app_id":440,"player_count":24,"max_players":24,"Bots":0,"server_type":"Dedicated","server_os":"Linux","password":true,"vac":true,"version":"7742253","steam_id":85568392924510192,"keywords":["nocrits","nodmgspread","payload","uncletopia"],"game_id":440,"stv_port":27036,"stv_name":"Uncletopia | London | 3 | All Maps | STV","players":[{"user_id":390,"name":"lyra","steam_id":76561198043601838,"connected_time":9936000000000,"state":"active","ping":61},{"user_id":479,"name":"„Åô LightFlight „Åó","steam_id":76561198079007530,"connected_time":3863000000000,"state":"active","ping":50},{"user_id":392,"name":"breakfast","steam_id":76561198106049954,"connected_time":9879000000000,"state":"active","ping":74},{"user_id":498,"name":"=flashpoint=","steam_id":76561197976774456,"connected_time":2142000000000,"state":"active","ping":43},{"user_id":491,"name":"big hoops","steam_id":76561198004703799,"connected_time":2861000000000,"state":"active","ping":45},{"user_id":499,"name":"StabbyKnife","steam_id":76561198094010004,"connected_time":1909000000000,"state":"active","ping":91},{"user_id":508,"name":"Tickleshits","steam_id":76561198159197241,"connected_time":1460000000000,"state":"active","ping":161},{"user_id":505,"name":"rolling_tim","steam_id":76561198373668332,"connected_time":1493000000000,"state":"active","ping":62},{"user_id":515,"name":"renken","steam_id":76561198050277272,"connected_time":601000000000,"state":"active","ping":44},{"user_id":490,"name":"Daoloth, Render of the Veils","steam_id":76561198115106008,"connected_time":2885000000000,"state":"active","ping":55},{"user_id":466,"name":"Joel!","steam_id":76561198155422742,"connected_time":4588000000000,"state":"active","ping":40},{"user_id":471,"name":"ECS","steam_id":76561198058910121,"connected_time":4312000000000,"state":"active","ping":46},{"user_id":512,"name":"End","steam_id":76561198332429328,"connected_time":1270000000000,"state":"active","ping":33},{"user_id":497,"name":"G6 sherlock","steam_id":76561198802967796,"connected_time":2444000000000,"state":"active","ping":115},{"user_id":423,"name":"John Daly","steam_id":76561197993849325,"connected_time":8184000000000,"state":"active","ping":65},{"user_id":506,"name":"disposablesuperbread","steam_id":76561199074703607,"connected_time":1486000000000,"state":"active","ping":104},{"user_id":500,"name":"Lunar","steam_id":76561199077495290,"connected_time":1876000000000,"state":"active","ping":70},{"user_id":495,"name":"Toon","steam_id":76561198065421595,"connected_time":2622000000000,"state":"active","ping":66},{"user_id":517,"name":"Catnip Smoker","steam_id":76561198284519569,"connected_time":58000000000,"state":"active","ping":80},{"user_id":516,"name":"neb","steam_id":76561198812042085,"connected_time":159000000000,"state":"active","ping":51},{"user_id":503,"name":"TheBeardedM1G","steam_id":76561198040208946,"connected_time":1540000000000,"state":"active","ping":45},{"user_id":496,"name":"SimplePig","steam_id":76561198071862153,"connected_time":2469000000000,"state":"active","ping":110},{"user_id":510,"name":"BobTheBox","steam_id":76561198080894136,"connected_time":1425000000000,"state":"active","ping":62},{"user_id":511,"name":"crafteen","steam_id":76561198362185755,"connected_time":1423000000000,"state":"active","ping":46}]},{"server_id":321,"name":"Uncletopia | London | 4 | All Maps","name_short":"lon-4","host":"lon-1.uk.uncletopia.com","port":27045,"enabled":true,"region":"eu","cc":"gb","latitude":51.509865,"longitude":-0.118092,"reserved":0,"last_update":"0001-01-01T00:00:00Z","name_a2s":"Uncletopia | London | 4 | All Maps","protocol":17,"map":"pl_borneo","folder":"tf","game":"Team Fortress","app_id":440,"player_count":22,"max_players":24,"Bots":0,"server_type":"Dedicated","server_os":"Linux","password":true,"vac":true,"version":"7742253","steam_id":85568392924510193,"keywords":["nocrits","nodmgspread","payload","uncletopia"],"game_id":440,"stv_port":27046,"stv_name":"Uncletopia | London | 4 | All Maps | STV","players":[{"user_id":320,"name":"Clickin","steam_id":76561198096006599,"connected_time":1459000000000,"state":"active","ping":105},{"user_id":318,"name":"–∏–≤–∞–Ω","steam_id":76561198072730591,"connected_time":1954000000000,"state":"active","ping":65},{"user_id":321,"name":"Festive Benn","steam_id":76561199024168373,"connected_time":1040000000000,"state":"active","ping":62},{"user_id":315,"name":"Joshwa04","steam_id":76561198218516103,"connected_time":2290000000000,"state":"active","ping":56},{"user_id":328,"name":"Steven Universe ‚ô¶","steam_id":76561198162858633,"connected_time":829000000000,"state":"active","ping":77},{"user_id":285,"name":"Bia≈Çy","steam_id":76561197996016988,"connected_time":3593000000000,"state":"active","ping":68},{"user_id":332,"name":"randompixel","steam_id":76561198003941207,"connected_time":351000000000,"state":"active","ping":49},{"user_id":334,"name":"p","steam_id":76561198059174917,"connected_time":319000000000,"state":"active","ping":86},{"user_id":324,"name":"geese","steam_id":76561198944578383,"connected_time":1034000000000,"state":"active","ping":80},{"user_id":336,"name":"Skoll","steam_id":76561198022805106,"connected_time":172000000000,"state":"active","ping":57},{"user_id":317,"name":"Koda","steam_id":76561198142696299,"connected_time":2026000000000,"state":"active","ping":45},{"user_id":325,"name":"Wheatley","steam_id":76561199059006203,"connected_time":1026000000000,"state":"active","ping":153},{"user_id":309,"name":"Vezage","steam_id":76561198064916164,"connected_time":2627000000000,"state":"active","ping":76},{"user_id":310,"name":"–ò–Ω—Å–ø–µ–∫—Ç–æ—Ä –ê—Ç–∞—Å","steam_id":76561199175688390,"connected_time":2583000000000,"state":"active","ping":90},{"user_id":335,"name":"Lozamundoskin","steam_id":76561198282753005,"connected_time":213000000000,"state":"active","ping":47},{"user_id":302,"name":"Biscuitbox","steam_id":76561198448396620,"connected_time":2948000000000,"state":"active","ping":43},{"user_id":265,"name":"HudRud","steam_id":76561198048378956,"connected_time":4890000000000,"state":"active","ping":79},{"user_id":290,"name":"average f2p","steam_id":76561199136308055,"connected_time":3420000000000,"state":"active","ping":33},{"user_id":304,"name":"Lessoz","steam_id":76561199211572036,"connected_time":2659000000000,"state":"active","ping":90},{"user_id":326,"name":"‚âß‚ó†·¥•‚ó†‚â¶","steam_id":76561198054386822,"connected_time":1019000000000,"state":"active","ping":100},{"user_id":327,"name":"benvescovi08","steam_id":76561199199040387,"connected_time":1005000000000,"state":"active","ping":63},{"user_id":331,"name":"PGAndy","steam_id":76561199218070297,"connected_time":771000000000,"state":"active","ping":94}]},{"server_id":21,"name":"Uncletopia | London | 5 | All Maps","name_short":"lon-5","host":"lon-1.uk.uncletopia.com","port":27055,"enabled":true,"region":"eu","cc":"gb","latitude":51.509865,"longitude":-0.118092,"reserved":0,"last_update":"0001-01-01T00:00:00Z","name_a2s":"Uncletopia | London | 5 | All Maps","protocol":17,"map":"cp_mountainlab","folder":"tf","game":"Team Fortress","app_id":440,"player_count":22,"max_players":24,"Bots":0,"server_type":"Dedicated","server_os":"Linux","password":true,"vac":true,"version":"7742253","steam_id":85568392924742829,"keywords":["cp","nocrits","nodmgspread","uncletopia"],"game_id":440,"stv_port":27056,"stv_name":"Uncletopia | London | 5 | All Maps | STV","players":[{"user_id":43,"name":"Marioalexsan","steam_id":76561198125512367,"connected_time":571000000000,"state":"active","ping":102},{"user_id":56,"name":"Saucy Jack","steam_id":76561198894525288,"connected_time":31000000000,"state":"active","ping":42},{"user_id":17,"name":"jovan","steam_id":76561199122101910,"connected_time":835000000000,"state":"active","ping":64},{"user_id":53,"name":"Lalo Salamanca","steam_id":76561199116882319,"connected_time":143000000000,"state":"active","ping":39},{"user_id":13,"name":"nop 21","steam_id":76561198331641220,"connected_time":1149000000000,"state":"active","ping":46},{"user_id":45,"name":"British Disapproval","steam_id":76561198001375260,"connected_time":393000000000,"state":"active","ping":49},{"user_id":46,"name":"JohkupohkuXD","steam_id":76561198391108762,"connected_time":382000000000,"state":"active","ping":91},{"user_id":55,"name":"Naginacz","steam_id":76561199099232534,"connected_time":62000000000,"state":"active","ping":73},{"user_id":21,"name":"Cpt. Cardigan","steam_id":76561198073541287,"connected_time":747000000000,"state":"active","ping":90},{"user_id":36,"name":"michael","steam_id":76561198030911232,"connected_time":633000000000,"state":"active","ping":95},{"user_id":31,"name":"moser23","steam_id":76561197960543171,"connected_time":666000000000,"state":"active","ping":52},{"user_id":48,"name":"Crafty Kobold","steam_id":76561197970546264,"connected_time":333000000000,"state":"active","ping":49},{"user_id":42,"name":"Jesus","steam_id":76561198119288049,"connected_time":586000000000,"state":"active","ping":49},{"user_id":38,"name":"–®–ù–ò–ü –®–ù–ê–ü –®–ù–ê–ü–ü–ò","steam_id":76561198351944750,"connected_time":623000000000,"state":"active","ping":131},{"user_id":49,"name":"Scarlet","steam_id":76561198075966579,"connected_time":329000000000,"state":"active","ping":42},{"user_id":30,"name":"***** ***","steam_id":76561198048037379,"connected_time":670000000000,"state":"active","ping":86},{"user_id":32,"name":"GrzMik","steam_id":76561198061951968,"connected_time":660000000000,"state":"active","ping":91},{"user_id":33,"name":"Tal","steam_id":76561198342547469,"connected_time":656000000000,"state":"active","ping":91},{"user_id":34,"name":"Sweetcheesus","steam_id":76561198022299033,"connected_time":642000000000,"state":"active","ping":54},{"user_id":39,"name":".bRdyyy","steam_id":76561198057256978,"connected_time":617000000000,"state":"active","ping":60},{"user_id":40,"name":"Peaced.old","steam_id":76561197993682469,"connected_time":615000000000,"state":"active","ping":44},{"user_id":50,"name":"KFC Enjoyer","steam_id":76561198840259819,"connected_time":315000000000,"state":"active","ping":55}]},{"server_id":22,"name":"Uncletopia | London | 6 | All Maps","name_short":"lon-6","host":"lon-1.uk.uncletopia.com","port":27065,"enabled":true,"region":"eu","cc":"gb","latitude":51.509865,"longitude":-0.118092,"reserved":0,"last_update":"0001-01-01T00:00:00Z","name_a2s":"Uncletopia | London | 6 | All Maps","protocol":17,"map":"koth_lakeside_final","folder":"tf","game":"Team Fortress","app_id":440,"player_count":0,"max_players":24,"Bots":0,"server_type":"Dedicated","server_os":"Linux","password":true,"vac":true,"version":"7742253","steam_id":85568392924742830,"keywords":["cp","nocrits","nodmgspread","uncletopia"],"game_id":440,"stv_port":27066,"stv_name":"Uncletopia | London | 6 | All Maps | STV","players":null},{"server_id":40,"name":"Uncletopia | London | 7 | No Payload","name_short":"lon-7","host":"lon-1.uk.uncletopia.com","port":27075,"enabled":true,"region":"eu","cc":"gb","latitude":51.509865,"longitude":-0.118092,"reserved":0,"last_update":"0001-01-01T00:00:00Z","name_a2s":"Uncletopia | London | 7 | No Payload","protocol":17,"map":"koth_badlands","folder":"tf","game":"Team Fortress","app_id":440,"player_count":0,"max_players":24,"Bots":0,"server_type":"Dedicated","server_os":"Linux","password":true,"vac":true,"version":"7742253","steam_id":85568392924964314,"keywords":["cp","nocrits","nodmgspread","uncletopia"],"game_id":440,"stv_port":27076,"stv_name":"Uncletopia | London | 7 | No Payload | STV","players":null},{"server_id":41,"name":"Uncletopia | London | 8 | Community","name_short":"lon-8","host":"lon-1.uk.uncletopia.com","port":27085,"enabled":true,"region":"eu","cc":"gb","latitude":51.509865,"longitude":-0.118092,"reserved":0,"last_update":"0001-01-01T00:00:00Z","name_a2s":"Uncletopia | London | 8 | Community","protocol":17,"map":"workshop/pl_vigil_rc9.ugc1266210012","folder":"tf","game":"Team Fortress","app_id":440,"player_count":0,"max_players":24,"Bots":0,"server_type":"Dedicated","server_os":"Linux","password":true,"vac":true,"version":"7742253","steam_id":85568392924964315,"keywords":["nocrits","nodmgspread","payload","uncletopia"],"game_id":440,"stv_port":27086,"stv_name":"Uncletopia | London | 8 | Community | STV","players":null},{"server_id":300,"name":"Uncletopia | Montr√©al | 1 | All Maps","name_short":"mtl-1","host":"mtl-1.ca.uncletopia.com","port":27015,"enabled":true,"region":"us-east","cc":"ca","latitude":45.50889,"longitude":-73.56167,"reserved":0,"last_update":"0001-01-01T00:00:00Z","name_a2s":"Uncletopia | Montr√©al | 1 | All Maps","protocol":17,"map":"pl_snowycoast","folder":"tf","game":"Team Fortress","app_id":440,"player_count":2,"max_players":24,"Bots":0,"server_type":"Dedicated","server_os":"Linux","password":true,"vac":true,"version":"7742253","steam_id":85568392924500087,"keywords":["nocrits","nodmgspread","payload","uncletopia"],"game_id":440,"stv_port":27016,"stv_name":"Uncletopia | Montr√©al | 1 | All Maps | STV","players":[{"user_id":8,"name":"FrostSnail","steam_id":76561197989859175,"connected_time":294000000000,"state":"active","ping":133},{"user_id":9,"name":"Lasse Kron√©r","steam_id":76561198001491292,"connected_time":219000000000,"state":"active","ping":138}]},{"server_id":301,"name":"Uncletopia | Montr√©al | 2 | All Maps","name_short":"mtl-2","host":"mtl-1.ca.uncletopia.com","port":27025,"enabled":true,"region":"us-east","cc":"ca","latitude":45.50889,"longitude":-73.56167,"reserved":0,"last_update":"0001-01-01T00:00:00Z","name_a2s":"Uncletopia | Montr√©al | 2 | All Maps","protocol":17,"map":"koth_highpass","folder":"tf","game":"Team Fortress","app_id":440,"player_count":0,"max_players":24,"Bots":0,"server_type":"Dedicated","server_os":"Linux","password":true,"vac":true,"version":"7742253","steam_id":85568392924500088,"keywords":["cp","nocrits","nodmgspread","uncletopia"],"game_id":440,"stv_port":27026,"stv_name":"Uncletopia | Montr√©al | 2 | All Maps | STV","players":null},{"server_id":302,"name":"Uncletopia | Montr√©al | 3 | All Maps","name_short":"mtl-3","host":"mtl-1.ca.uncletopia.com","port":27035,"enabled":true,"region":"us-east","cc":"ca","latitude":45.50889,"longitude":-73.56167,"reserved":0,"last_update":"0001-01-01T00:00:00Z","name_a2s":"Uncletopia | Montr√©al | 3 | All Maps","protocol":17,"map":"cp_mountainlab","folder":"tf","game":"Team Fortress","app_id":440,"player_count":0,"max_players":24,"Bots":0,"server_type":"Dedicated","server_os":"Linux","password":true,"vac":true,"version":"7742253","steam_id":85568392924500089,"keywords":["cp","nocrits","nodmgspread","uncletopia"],"game_id":440,"stv_port":27036,"stv_name":"Uncletopia | Montr√©al | 3 | All Maps | STV","players":null},{"server_id":303,"name":"Uncletopia | Montr√©al | 4 | No Payload","name_short":"mtl-4","host":"mtl-1.ca.uncletopia.com","port":27045,"enabled":true,"region":"us-east","cc":"ca","latitude":45.50889,"longitude":-73.56167,"reserved":0,"last_update":"0001-01-01T00:00:00Z","name_a2s":"Uncletopia | Montr√©al | 4 | No Payload","protocol":17,"map":"cp_snakewater_final1","folder":"tf","game":"Team Fortress","app_id":440,"player_count":0,"max_players":24,"Bots":0,"server_type":"Dedicated","server_os":"Linux","password":true,"vac":true,"version":"7742253","steam_id":85568392924500090,"keywords":["cp","nocrits","nodmgspread","uncletopia"],"game_id":440,"stv_port":27046,"stv_name":"Uncletopia | Montr√©al | 4 | No Payload | STV","players":null},{"server_id":13,"name":"Uncletopia | New York City | 1 | All Maps","name_short":"nyc-1","host":"nyc-1.us.uncletopia.com","port":27015,"enabled":true,"region":"us-east","cc":"us","latitude":40.73061,"longitude":-73.93524,"reserved":0,"last_update":"0001-01-01T00:00:00Z","name_a2s":"Uncletopia | New York City | 1 | All Maps","protocol":17,"map":"pl_upward","folder":"tf","game":"Team Fortress","app_id":440,"player_count":24,"max_players":24,"Bots":0,"server_type":"Dedicated","server_os":"Linux","password":true,"vac":true,"version":"7742253","steam_id":85568392924469993,"keywords":["nocrits","nodmgspread","payload","uncletopia"],"game_id":440,"stv_port":27016,"stv_name":"Uncletopia | New York City | 1 | All Maps | STV","players":[{"user_id":7,"name":"Gitgudgame","steam_id":76561198354761942,"connected_time":13206000000000,"state":"active","ping":62},{"user_id":158,"name":"F0rest","steam_id":76561199112458876,"connected_time":1043000000000,"state":"active","ping":37},{"user_id":148,"name":"Weird","steam_id":76561199082362722,"connected_time":1518000000000,"state":"active","ping":94},{"user_id":167,"name":"Gaming on a 14 year old Mac","steam_id":76561198019476636,"connected_time":349000000000,"state":"active","ping":55},{"user_id":163,"name":"Dr. Game and Watch","steam_id":76561197999615565,"connected_time":599000000000,"state":"active","ping":47},{"user_id":141,"name":"PzVIIIMaus","steam_id":76561198346559365,"connected_time":1649000000000,"state":"active","ping":70},{"user_id":166,"name":"toxic coccyx","steam_id":76561198042801618,"connected_time":355000000000,"state":"active","ping":44},{"user_id":171,"name":"Repo Clam","steam_id":76561198198217573,"connected_time":96000000000,"state":"active","ping":56},{"user_id":168,"name":"Vaultin' Veluza!","steam_id":76561198155872356,"connected_time":336000000000,"state":"active","ping":40},{"user_id":142,"name":"jnv1013","steam_id":76561198965549228,"connected_time":1648000000000,"state":"active","ping":48},{"user_id":152,"name":"VixianUwU","steam_id":76561198948815060,"connected_time":1375000000000,"state":"active","ping":94},{"user_id":136,"name":"vortexgamer","steam_id":76561197999435527,"connected_time":2104000000000,"state":"active","ping":88},{"user_id":110,"name":"beli-ben","steam_id":76561199230045254,"connected_time":6016000000000,"state":"active","ping":130},{"user_id":164,"name":"dakota__","steam_id":76561198076596506,"connected_time":419000000000,"state":"active","ping":85},{"user_id":143,"name":"straws","steam_id":76561199035698543,"connected_time":1641000000000,"state":"active","ping":96},{"user_id":155,"name":"Toygar","steam_id":76561198023679830,"connected_time":1310000000000,"state":"active","ping":68},{"user_id":140,"name":"B. Comet","steam_id":76561198058235498,"connected_time":1740000000000,"state":"active","ping":160},{"user_id":127,"name":"Syrix","steam_id":76561198017328672,"connected_time":3399000000000,"state":"active","ping":95},{"user_id":151,"name":"Samus","steam_id":76561198121933439,"connected_time":1487000000000,"state":"active","ping":56},{"user_id":172,"name":"Gibus Enjoyer","steam_id":76561199158508890,"connected_time":85000000000,"state":"active","ping":40},{"user_id":131,"name":"PizzaPasta","steam_id":76561199125109082,"connected_time":2531000000000,"state":"active","ping":58},{"user_id":169,"name":"e","steam_id":76561198131245396,"connected_time":336000000000,"state":"active","ping":76},{"user_id":160,"name":"Swift","steam_id":76561198143805924,"connected_time":905000000000,"state":"active","ping":75},{"user_id":170,"name":"amnyak","steam_id":76561198165831950,"connected_time":234000000000,"state":"active","ping":69}]},{"server_id":14,"name":"Uncletopia | New York City | 2 | All Maps","name_short":"nyc-2","host":"nyc-1.us.uncletopia.com","port":27025,"enabled":true,"region":"us-east","cc":"us","latitude":40.73061,"longitude":-73.93524,"reserved":0,"last_update":"0001-01-01T00:00:00Z","name_a2s":"Uncletopia | New York City | 2 | All Maps","protocol":17,"map":"cp_process_final","folder":"tf","game":"Team Fortress","app_id":440,"player_count":24,"max_players":24,"Bots":0,"server_type":"Dedicated","server_os":"Linux","password":true,"vac":true,"version":"7742253","steam_id":85568392924469994,"keywords":["cp","nocrits","nodmgspread","uncletopia"],"game_id":440,"stv_port":27026,"stv_name":"Uncletopia | New York City | 2 | All Maps | STV","players":[{"user_id":93,"name":"FATHER","steam_id":76561198041308977,"connected_time":837000000000,"state":"active","ping":74},{"user_id":97,"name":"Nuts","steam_id":76561198066494938,"connected_time":833000000000,"state":"active","ping":46},{"user_id":46,"name":"Sleepy Billy","steam_id":76561198083798918,"connected_time":4097000000000,"state":"active","ping":57},{"user_id":92,"name":"09robcraft2","steam_id":76561199073189184,"connected_time":855000000000,"state":"active","ping":75},{"user_id":20,"name":"cremeoner","steam_id":76561198372332251,"connected_time":5321000000000,"state":"active","ping":32},{"user_id":84,"name":"Monsterjessy","steam_id":76561198035630985,"connected_time":1455000000000,"state":"active","ping":68},{"user_id":113,"name":"Inevitable","steam_id":76561198210050169,"connected_time":361000000000,"state":"active","ping":45},{"user_id":23,"name":"crunchy and spicy wasp snack","steam_id":76561199322728703,"connected_time":5271000000000,"state":"active","ping":54},{"user_id":110,"name":"WX-78","steam_id":76561199117263527,"connected_time":543000000000,"state":"active","ping":58},{"user_id":99,"name":"Ranch Style Beans","steam_id":76561198126791566,"connected_time":821000000000,"state":"active","ping":81},{"user_id":48,"name":"BrotherGrowly","steam_id":76561198086663043,"connected_time":4013000000000,"state":"active","ping":85},{"user_id":100,"name":"LalitoTV","steam_id":76561198334302951,"connected_time":815000000000,"state":"active","ping":121},{"user_id":49,"name":"Soup Dumpling","steam_id":76561197971352904,"connected_time":3991000000000,"state":"active","ping":44},{"user_id":111,"name":"Magik","steam_id":76561198200169706,"connected_time":526000000000,"state":"active","ping":49},{"user_id":76,"name":"balls itch","steam_id":76561198337692867,"connected_time":1718000000000,"state":"active","ping":75},{"user_id":115,"name":"CuSO4","steam_id":76561199278147589,"connected_time":157000000000,"state":"active","ping":50},{"user_id":114,"name":"Spirit","steam_id":76561199069322627,"connected_time":173000000000,"state":"active","ping":58},{"user_id":69,"name":"Sean","steam_id":76561198011422340,"connected_time":2765000000000,"state":"active","ping":90},{"user_id":51,"name":"TheWallaby","steam_id":76561198948037546,"connected_time":3936000000000,"state":"active","ping":55},{"user_id":102,"name":"ToastBag","steam_id":76561199221849528,"connected_time":805000000000,"state":"active","ping":128},{"user_id":106,"name":"Pink haired slut enjoyer","steam_id":76561198080775103,"connected_time":691000000000,"state":"active","ping":85},{"user_id":53,"name":"NotAChanceLmao","steam_id":76561199466717297,"connected_time":3760000000000,"state":"active","ping":79},{"user_id":91,"name":"ttv/ghadilli LFT :)","steam_id":76561198045838834,"connected_time":867000000000,"state":"active","ping":86},{"user_id":112,"name":"Snake Handler","steam_id":76561198027198306,"connected_time":397000000000,"state":"active","ping":73}]},{"server_id":15,"name":"Uncletopia | New York City | 3 | Stopwatch Beta","name_short":"nyc-3","host":"nyc-1.us.uncletopia.com","port":27035,"enabled":true,"region":"us-east","cc":"us","latitude":40.73061,"longitude":-73.93524,"reserved":0,"last_update":"0001-01-01T00:00:00Z","name_a2s":"Uncletopia | New York City | 3 | Stopwatch Beta","protocol":17,"map":"pl_pier","folder":"tf","game":"Team Fortress","app_id":440,"player_count":0,"max_players":24,"Bots":0,"server_type":"Dedicated","server_os":"Linux","password":true,"vac":true,"version":"7742253","steam_id":85568392924742820,"keywords":["nocrits","nodmgspread","payload","uncletopia"],"game_id":440,"stv_port":27036,"stv_name":"Uncletopia | New York City | 3 | Stopwatch Beta | STV","players":null},{"server_id":16,"name":"Uncletopia | New York City | 4 | Community","name_short":"nyc-4","host":"nyc-1.us.uncletopia.com","port":27045,"enabled":true,"region":"us-east","cc":"us","latitude":40.73061,"longitude":-73.93524,"reserved":0,"last_update":"0001-01-01T00:00:00Z","name_a2s":"Uncletopia | New York City | 4 | Community","protocol":17,"map":"workshop/koth_ashville_final.ugc2130459942","folder":"tf","game":"Team Fortress","app_id":440,"player_count":0,"max_players":24,"Bots":0,"server_type":"Dedicated","server_os":"Linux","password":true,"vac":true,"version":"7742253","steam_id":85568392924742821,"keywords":["cp","nocrits","nodmgspread","uncletopia"],"game_id":440,"stv_port":27046,"stv_name":"Uncletopia | New York City | 4 | Community | STV","players":null},{"server_id":142,"name":"Uncletopia | S√£o Paulo | 1 | All Maps","name_short":"sao-1","host":"sao-1.br.uncletopia.com","port":27015,"enabled":true,"region":"sa","cc":"br","latitude":-23.533773,"longitude":-46.62529,"reserved":0,"last_update":"0001-01-01T00:00:00Z","name_a2s":"Uncletopia | S√£o Paulo | 1 | All Maps","protocol":17,"map":"koth_viaduct","folder":"tf","game":"Team Fortress","app_id":440,"player_count":0,"max_players":24,"Bots":0,"server_type":"Dedicated","server_os":"Linux","password":true,"vac":true,"version":"7742253","steam_id":85568392924469996,"keywords":["cp","nocrits","nodmgspread","uncletopia"],"game_id":440,"stv_port":27016,"stv_name":"Uncletopia | S√£o Paulo | 1 | All Maps | STV","players":null},{"server_id":143,"name":"Uncletopia | S√£o Paulo | 2 | All Maps","name_short":"sao-2","host":"sao-2.br.uncletopia.com","port":27015,"enabled":true,"region":"sa","cc":"br","latitude":-23.533773,"longitude":-46.62529,"reserved":0,"last_update":"0001-01-01T00:00:00Z","name_a2s":"Uncletopia | S√£o Paulo | 2 | All Maps","protocol":17,"map":"koth_viaduct","folder":"tf","game":"Team Fortress","app_id":440,"player_count":0,"max_players":24,"Bots":0,"server_type":"Dedicated","server_os":"Linux","password":true,"vac":true,"version":"7742253","steam_id":85568392924485349,"keywords":["cp","nocrits","nodmgspread","uncletopia"],"game_id":440,"stv_port":27016,"stv_name":"Uncletopia | S√£o Paulo | 2 | All Maps | STV","players":null},{"server_id":7,"name":"Uncletopia | Seattle | 1 | All Maps","name_short":"sea-1","host":"sea-1.us.uncletopia.com","port":27015,"enabled":true,"region":"us-west","cc":"us","latitude":47.608013,"longitude":-122.33517,"reserved":0,"last_update":"0001-01-01T00:00:00Z","name_a2s":"Uncletopia | Seattle | 1 | All Maps","protocol":17,"map":"pl_borneo","folder":"tf","game":"Team Fortress","app_id":440,"player_count":24,"max_players":24,"Bots":0,"server_type":"Dedicated","server_os":"Linux","password":true,"vac":true,"version":"7742253","steam_id":85568392924469997,"keywords":["nocrits","nodmgspread","payload","uncletopia"],"game_id":440,"stv_port":27016,"stv_name":"Uncletopia | Seattle | 1 | All Maps | STV","players":[{"user_id":140,"name":"DIGGY","steam_id":76561198991238982,"connected_time":130000000000,"state":"active","ping":62},{"user_id":99,"name":"p9 thunderous prophet","steam_id":76561198131166135,"connected_time":2614000000000,"state":"active","ping":33},{"user_id":138,"name":"Smile","steam_id":76561198110008786,"connected_time":462000000000,"state":"active","ping":54},{"user_id":141,"name":"no vc no c","steam_id":76561197989503095,"connected_time":90000000000,"state":"active","ping":165},{"user_id":23,"name":"hoOmIN","steam_id":76561198334947079,"connected_time":7340000000000,"state":"active","ping":75},{"user_id":102,"name":"MFIN HOG CRANKER","steam_id":76561198046073848,"connected_time":2518000000000,"state":"active","ping":49},{"user_id":113,"name":"Dr. Harold coomer Phd","steam_id":76561197999158580,"connected_time":1915000000000,"state":"active","ping":58},{"user_id":92,"name":"The Caretaker","steam_id":76561198125241411,"connected_time":3100000000000,"state":"active","ping":149},{"user_id":131,"name":"Bowl of Soup","steam_id":76561198114255273,"connected_time":1116000000000,"state":"active","ping":56},{"user_id":139,"name":"Bartholomew DingleNut","steam_id":76561198011238088,"connected_time":260000000000,"state":"active","ping":95},{"user_id":122,"name":"Tracker","steam_id":76561197993664307,"connected_time":1469000000000,"state":"active","ping":97},{"user_id":120,"name":"alice's adventures in pyroland","steam_id":76561198325306660,"connected_time":1580000000000,"state":"active","ping":56},{"user_id":133,"name":"ORANGE","steam_id":76561198000401769,"connected_time":516000000000,"state":"active","ping":47},{"user_id":86,"name":"sammy","steam_id":76561199001307670,"connected_time":3361000000000,"state":"active","ping":59},{"user_id":124,"name":"Crake","steam_id":76561198001959071,"connected_time":1390000000000,"state":"active","ping":55},{"user_id":125,"name":"mozzie","steam_id":76561198233647680,"connected_time":1376000000000,"state":"active","ping":74},{"user_id":126,"name":"aphexgwen","steam_id":76561198061497429,"connected_time":1363000000000,"state":"active","ping":89},{"user_id":128,"name":"sara","steam_id":76561198283462369,"connected_time":1281000000000,"state":"active","ping":77},{"user_id":132,"name":"dougrocks421","steam_id":76561198165063918,"connected_time":895000000000,"state":"active","ping":40},{"user_id":112,"name":"self sufficient kitten","steam_id":76561197960592612,"connected_time":1971000000000,"state":"active","ping":45},{"user_id":116,"name":"Dimple","steam_id":76561198980324190,"connected_time":1800000000000,"state":"active","ping":61},{"user_id":135,"name":"Florist","steam_id":76561198009121060,"connected_time":501000000000,"state":"active","ping":46},{"user_id":91,"name":"General Fisticuffs","steam_id":76561198255721392,"connected_time":3208000000000,"state":"active","ping":108},{"user_id":143,"name":"as1","steam_id":76561199409264244,"connected_time":80000000000,"state":"active","ping":121}]},{"server_id":119,"name":"Uncletopia | Seattle | 2 | All Maps","name_short":"sea-2","host":"sea-1.us.uncletopia.com","port":27025,"enabled":true,"region":"us-west","cc":"us","latitude":47.608013,"longitude":-122.33517,"reserved":0,"last_update":"0001-01-01T00:00:00Z","name_a2s":"Uncletopia | Seattle | 2 | All Maps","protocol":17,"map":"koth_cascade","folder":"tf","game":"Team Fortress","app_id":440,"player_count":2,"max_players":24,"Bots":0,"server_type":"Dedicated","server_os":"Linux","password":true,"vac":true,"version":"7742253","steam_id":85568392924469998,"keywords":["cp","nocrits","nodmgspread","uncletopia"],"game_id":440,"stv_port":27026,"stv_name":"Uncletopia | Seattle | 2 | All Maps | STV","players":[{"user_id":8,"name":"Loki‚ù§","steam_id":76561198280150602,"connected_time":206000000000,"state":"active","ping":48},{"user_id":9,"name":"ShidFard|RayWilliamJohnsonGamin","steam_id":76561198207800784,"connected_time":201000000000,"state":"active","ping":41}]},{"server_id":406,"name":"Uncletopia | Seattle | 3 | Stopwatch Beta","name_short":"sea-3","host":"sea-1.us.uncletopia.com","port":27035,"enabled":true,"region":"us-west","cc":"us","latitude":47.608013,"longitude":-122.33517,"reserved":0,"last_update":"0001-01-01T00:00:00Z","name_a2s":"Uncletopia | Seattle | 3 | Stopwatch Beta","protocol":17,"map":"workshop/koth_ramjam_rc1.ugc459778887","folder":"tf","game":"Team Fortress","app_id":440,"player_count":0,"max_players":24,"Bots":0,"server_type":"Dedicated","server_os":"Linux","password":true,"vac":true,"version":"7742253","steam_id":85568392924515217,"keywords":["cp","nocrits","nodmgspread","uncletopia"],"game_id":440,"stv_port":27036,"stv_name":"Uncletopia | Seattle | 3 | Stopwatch Beta | STV","players":null},{"server_id":17,"name":"Uncletopia | San Francisco | 1 | All Maps","name_short":"sfo-1","host":"sfo-1.us.uncletopia.com","port":27015,"enabled":true,"region":"us-west","cc":"us","latitude":37.77397,"longitude":-122.4313,"reserved":0,"last_update":"0001-01-01T00:00:00Z","name_a2s":"Uncletopia | San Francisco | 1 | All Maps","protocol":17,"map":"pl_snowycoast","folder":"tf","game":"Team Fortress","app_id":440,"player_count":0,"max_players":24,"Bots":0,"server_type":"Dedicated","server_os":"Linux","password":true,"vac":true,"version":"7742253","steam_id":85568392924469999,"keywords":["nocrits","nodmgspread","payload","uncletopia"],"game_id":440,"stv_port":27016,"stv_name":"Uncletopia | San Francisco | 1 | All Maps | STV","players":null},{"server_id":18,"name":"Uncletopia | San Francisco | 2 | All Maps","name_short":"sfo-2","host":"sfo-1.us.uncletopia.com","port":27025,"enabled":true,"region":"us-west","cc":"us","latitude":37.77397,"longitude":-122.4313,"reserved":0,"last_update":"0001-01-01T00:00:00Z","name_a2s":"Uncletopia | San Francisco | 2 | All Maps","protocol":17,"map":"pl_borneo","folder":"tf","game":"Team Fortress","app_id":440,"player_count":0,"max_players":24,"Bots":0,"server_type":"Dedicated","server_os":"Linux","password":true,"vac":true,"version":"7742253","steam_id":85568392924470000,"keywords":["nocrits","nodmgspread","payload","uncletopia"],"game_id":440,"stv_port":27026,"stv_name":"Uncletopia | San Francisco | 2 | All Maps | STV","players":null},{"server_id":19,"name":"Uncletopia | San Francisco | 3 | Stopwatch Beta","name_short":"sfo-3","host":"sfo-1.us.uncletopia.com","port":27035,"enabled":true,"region":"us-west","cc":"us","latitude":37.77397,"longitude":-122.4313,"reserved":0,"last_update":"0001-01-01T00:00:00Z","name_a2s":"Uncletopia | San Francisco | 3 | Stopwatch Beta","protocol":17,"map":"cp_snakewater_final1","folder":"tf","game":"Team Fortress","app_id":440,"player_count":0,"max_players":24,"Bots":0,"server_type":"Dedicated","server_os":"Linux","password":true,"vac":true,"version":"7742253","steam_id":85568392924742824,"keywords":["cp","nocrits","nodmgspread","uncletopia"],"game_id":440,"stv_port":27036,"stv_name":"Uncletopia | San Francisco | 3 | Stopwatch Beta | STV","players":null},{"server_id":20,"name":"Uncletopia | San Francisco | 4 | Community","name_short":"sfo-4","host":"sfo-1.us.uncletopia.com","port":27045,"enabled":true,"region":"us-west","cc":"us","latitude":37.77397,"longitude":-122.4313,"reserved":0,"last_update":"0001-01-01T00:00:00Z","name_a2s":"Uncletopia | San Francisco | 4 | Community","protocol":17,"map":"workshop/koth_bagel_rc5.ugc2514036946","folder":"tf","game":"Team Fortress","app_id":440,"player_count":0,"max_players":24,"Bots":0,"server_type":"Dedicated","server_os":"Linux","password":true,"vac":true,"version":"7742253","steam_id":85568392924742826,"keywords":["cp","nocrits","nodmgspread","uncletopia"],"game_id":440,"stv_port":27046,"stv_name":"Uncletopia | San Francisco | 4 | Community | STV","players":null},{"server_id":141,"name":"Uncletopia | Sydney | 1 | All Maps","name_short":"syd-1","host":"syd-1.au.uncletopia.com","port":27015,"enabled":true,"region":"au","cc":"au","latitude":-33.865143,"longitude":151.2099,"reserved":0,"last_update":"0001-01-01T00:00:00Z","name_a2s":"Uncletopia | Sydney | 1 | All Maps","protocol":17,"map":"koth_lakeside_final","folder":"tf","game":"Team Fortress","app_id":440,"player_count":0,"max_players":24,"Bots":0,"server_type":"Dedicated","server_os":"Linux","password":true,"vac":true,"version":"7742253","steam_id":85568392924470001,"keywords":["cp","nocrits","nodmgspread","uncletopia"],"game_id":440,"stv_port":27016,"stv_name":"Uncletopia | Sydney | 1 | All Maps | STV","players":null},{"server_id":123,"name":"Uncletopia | Sydney | 2 | All Maps","name_short":"syd-2","host":"syd-1.au.uncletopia.com","port":27025,"enabled":true,"region":"au","cc":"au","latitude":-33.865143,"longitude":151.2099,"reserved":0,"last_update":"0001-01-01T00:00:00Z","name_a2s":"Uncletopia | Sydney | 2 | All Maps","protocol":17,"map":"pl_badwater","folder":"tf","game":"Team Fortress","app_id":440,"player_count":0,"max_players":24,"Bots":0,"server_type":"Dedicated","server_os":"Linux","password":true,"vac":true,"version":"7742253","steam_id":85568392924470002,"keywords":["nocrits","nodmgspread","payload","uncletopia"],"game_id":440,"stv_port":27026,"stv_name":"Uncletopia | Sydney | 2 | All Maps | STV","players":null},{"server_id":395,"name":"Uncletopia | Sydney | 3 | All Maps","name_short":"syd-3","host":"syd-1.au.uncletopia.com","port":27035,"enabled":true,"region":"au","cc":"au","latitude":-33.865143,"longitude":151.2099,"reserved":0,"last_update":"0001-01-01T00:00:00Z","name_a2s":"Uncletopia | Sydney | 3 | All Maps","protocol":17,"map":"koth_viaduct","folder":"tf","game":"Team Fortress","app_id":440,"player_count":0,"max_players":24,"Bots":0,"server_type":"Dedicated","server_os":"Linux","password":true,"vac":true,"version":"7742253","steam_id":85568392925194467,"keywords":["cp","nocrits","nodmgspread","uncletopia"],"game_id":440,"stv_port":27036,"stv_name":"Uncletopia | Sydney | 3 | All Maps | STV","players":null},{"server_id":396,"name":"Uncletopia | Sydney | 4 | All Maps","name_short":"syd-4","host":"syd-1.au.uncletopia.com","port":27045,"enabled":true,"region":"au","cc":"au","latitude":-33.865143,"longitude":151.2099,"reserved":0,"last_update":"0001-01-01T00:00:00Z","name_a2s":"Uncletopia | Sydney | 4 | All Maps","protocol":17,"map":"pl_frontier_final","folder":"tf","game":"Team Fortress","app_id":440,"player_count":0,"max_players":24,"Bots":0,"server_type":"Dedicated","server_os":"Linux","password":true,"vac":true,"version":"7742253","steam_id":85568392925397958,"keywords":["nocrits","nodmgspread","payload","uncletopia"],"game_id":440,"stv_port":27046,"stv_name":"Uncletopia | Sydney | 4 | All Maps | STV","players":null},{"server_id":58,"name":"Uncletopia | Sydney | 5 | Stopwatch Beta","name_short":"syd-5","host":"syd-1.au.uncletopia.com","port":27055,"enabled":true,"region":"au","cc":"au","latitude":-33.865143,"longitude":151.2099,"reserved":0,"last_update":"0001-01-01T00:00:00Z","name_a2s":"Uncletopia | Sydney | 5 | Stopwatch Beta","protocol":17,"map":"cp_sunshine","folder":"tf","game":"Team Fortress","app_id":440,"player_count":0,"max_players":24,"Bots":0,"server_type":"Dedicated","server_os":"Linux","password":true,"vac":true,"version":"7742253","steam_id":85568392925397959,"keywords":["cp","nocrits","nodmgspread","uncletopia"],"game_id":440,"stv_port":27056,"stv_name":"Uncletopia | Sydney | 5 | Stopwatch Beta | STV","players":null},{"server_id":59,"name":"Uncletopia | Sydney | 6 | Community","name_short":"syd-6","host":"syd-1.au.uncletopia.com","port":27065,"enabled":true,"region":"au","cc":"au","latitude":-33.865143,"longitude":151.2099,"reserved":0,"last_update":"0001-01-01T00:00:00Z","name_a2s":"Uncletopia | Sydney | 6 | Community","protocol":17,"map":"cp_dustbowl","folder":"tf","game":"Team Fortress","app_id":440,"player_count":0,"max_players":24,"Bots":0,"server_type":"Dedicated","server_os":"Linux","password":true,"vac":true,"version":"7742253","steam_id":85568392925397960,"keywords":["cp","nocrits","nodmgspread","uncletopia"],"game_id":440,"stv_port":27066,"stv_name":"Uncletopia | Sydney | 6 | Community | STV","players":null},{"server_id":49,"name":"Uncletopia | Warsaw | 1 | All Maps","name_short":"waw-1","host":"waw-1.pl.uncletopia.com","port":27015,"enabled":true,"region":"eu","cc":"pl","latitude":52.2297,"longitude":21.017532,"reserved":0,"last_update":"0001-01-01T00:00:00Z","name_a2s":"","protocol":0,"map":"","folder":"","game":"","app_id":0,"player_count":0,"max_players":0,"Bots":0,"server_type":"","server_os":"","password":false,"vac":false,"version":"","steam_id":0,"keywords":null,"game_id":0,"stv_port":0,"stv_name":"","players":null},{"server_id":50,"name":"Uncletopia | Warsaw | 2 | All Maps","name_short":"waw-2","host":"waw-1.pl.uncletopia.com","port":27025,"enabled":true,"region":"eu","cc":"pl","latitude":52.2297,"longitude":21.017532,"reserved":0,"last_update":"0001-01-01T00:00:00Z","name_a2s":"Uncletopia | Warsaw | 2 | All Maps","protocol":17,"map":"koth_lakeside_final","folder":"tf","game":"Team Fortress","app_id":440,"player_count":0,"max_players":24,"Bots":0,"server_type":"Dedicated","server_os":"Linux","password":true,"vac":true,"version":"7742253","steam_id":85568392925397851,"keywords":["cp","nocrits","nodmgspread","uncletopia"],"game_id":440,"stv_port":27026,"stv_name":"Uncletopia | Warsaw | 2 | All Maps | STV","players":null},{"server_id":51,"name":"Uncletopia | Warsaw | 3 | All Maps","name_short":"waw-3","host":"waw-1.pl.uncletopia.com","port":27035,"enabled":true,"region":"eu","cc":"pl","latitude":52.2297,"longitude":21.017532,"reserved":0,"last_update":"0001-01-01T00:00:00Z","name_a2s":"Uncletopia | Warsaw | 3 | All Maps","protocol":17,"map":"koth_lakeside_final","folder":"tf","game":"Team Fortress","app_id":440,"player_count":0,"max_players":24,"Bots":0,"server_type":"Dedicated","server_os":"Linux","password":true,"vac":true,"version":"7742253","steam_id":85568392925397852,"keywords":["cp","nocrits","nodmgspread","uncletopia"],"game_id":440,"stv_port":27036,"stv_name":"Uncletopia | Warsaw | 3 | All Maps | STV","players":null},{"server_id":52,"name":"Uncletopia | Warsaw | 4 | All Maps","name_short":"waw-4","host":"waw-1.pl.uncletopia.com","port":27045,"enabled":true,"region":"eu","cc":"pl","latitude":52.2297,"longitude":21.017532,"reserved":0,"last_update":"0001-01-01T00:00:00Z","name_a2s":"Uncletopia | Warsaw | 4 | All Maps","protocol":17,"map":"pl_swiftwater_final1","folder":"tf","game":"Team Fortress","app_id":440,"player_count":23,"max_players":24,"Bots":0,"server_type":"Dedicated","server_os":"Linux","password":true,"vac":true,"version":"7742253","steam_id":85568392925397853,"keywords":["nocrits","nodmgspread","payload","uncletopia"],"game_id":440,"stv_port":27046,"stv_name":"Uncletopia | Warsaw | 4 | All Maps | STV","players":[{"user_id":143,"name":"_zipfile","steam_id":76561198066133808,"connected_time":1740000000000,"state":"active","ping":88},{"user_id":106,"name":"result","steam_id":76561198269200388,"connected_time":4800000000000,"state":"active","ping":52},{"user_id":153,"name":"clouds","steam_id":76561198111134021,"connected_time":392000000000,"state":"active","ping":128},{"user_id":105,"name":"sucha dupa(the calm one)","steam_id":76561198329452971,"connected_time":4911000000000,"state":"active","ping":54},{"user_id":82,"name":"lagzer","steam_id":76561198029295449,"connected_time":6213000000000,"state":"active","ping":55},{"user_id":115,"name":"Monsteh","steam_id":76561198325898181,"connected_time":4152000000000,"state":"active","ping":82},{"user_id":121,"name":"Silent Person","steam_id":76561198107763537,"connected_time":3877000000000,"state":"active","ping":59},{"user_id":132,"name":"iQ-ksa9","steam_id":76561199379159771,"connected_time":2778000000000,"state":"active","ping":166},{"user_id":130,"name":"tom","steam_id":76561198202442602,"connected_time":3263000000000,"state":"active","ping":88},{"user_id":147,"name":"makema","steam_id":76561198066919135,"connected_time":689000000000,"state":"active","ping":90},{"user_id":156,"name":"monikka","steam_id":76561198297003397,"connected_time":204000000000,"state":"active","ping":90},{"user_id":136,"name":"engie?","steam_id":76561198331852832,"connected_time":2377000000000,"state":"active","ping":104},{"user_id":131,"name":"Yessirskiii","steam_id":76561198179324075,"connected_time":3229000000000,"state":"active","ping":90},{"user_id":124,"name":"L1RG0","steam_id":76561198329274068,"connected_time":3814000000000,"state":"active","ping":49},{"user_id":72,"name":"Abel","steam_id":76561198857940653,"connected_time":6565000000000,"state":"active","ping":43},{"user_id":73,"name":"Nana(anger issues)","steam_id":76561198315144211,"connected_time":6559000000000,"state":"active","ping":42},{"user_id":140,"name":"EGirlGang","steam_id":76561198257435792,"connected_time":2090000000000,"state":"active","ping":46},{"user_id":150,"name":"Sleepycoffyn","steam_id":76561199278648379,"connected_time":579000000000,"state":"active","ping":65},{"user_id":152,"name":"AproX","steam_id":76561198880652045,"connected_time":449000000000,"state":"active","ping":98},{"user_id":154,"name":"SilentStorm27","steam_id":76561199037242199,"connected_time":327000000000,"state":"active","ping":139},{"user_id":125,"name":"CyberBuddha [RU/EN]","steam_id":76561198075853329,"connected_time":3813000000000,"state":"active","ping":111},{"user_id":155,"name":"Fbafroguy","steam_id":76561199113010473,"connected_time":245000000000,"state":"active","ping":80},{"user_id":128,"name":"Demoman flying at fast speed tf","steam_id":76561198356626387,"connected_time":3375000000000,"state":"active","ping":58}]},{"server_id":53,"name":"Uncletopia | Warsaw | 5 | Stopwatch Beta","name_short":"waw-5","host":"waw-1.pl.uncletopia.com","port":27055,"enabled":true,"region":"eu","cc":"pl","latitude":52.2297,"longitude":21.017532,"reserved":0,"last_update":"0001-01-01T00:00:00Z","name_a2s":"Uncletopia | Warsaw | 5 | Stopwatch Beta","protocol":17,"map":"pl_swiftwater_final1","folder":"tf","game":"Team Fortress","app_id":440,"player_count":0,"max_players":24,"Bots":0,"server_type":"Dedicated","server_os":"Linux","password":true,"vac":true,"version":"7742253","steam_id":85568392925397854,"keywords":["nocrits","nodmgspread","payload","uncletopia"],"game_id":440,"stv_port":27056,"stv_name":"Uncletopia | Warsaw | 5 | Stopwatch Beta | STV","players":null},{"server_id":54,"name":"Uncletopia | Warsaw | 6 | Community","name_short":"waw-6","host":"waw-1.pl.uncletopia.com","port":27065,"enabled":true,"region":"eu","cc":"pl","latitude":52.2297,"longitude":21.017532,"reserved":0,"last_update":"0001-01-01T00:00:00Z","name_a2s":"Uncletopia | Warsaw | 6 | Community","protocol":17,"map":"workshop/koth_slaughter_rc1.ugc1712845210","folder":"tf","game":"Team Fortress","app_id":440,"player_count":0,"max_players":24,"Bots":0,"server_type":"Dedicated","server_os":"Linux","password":true,"vac":true,"version":"7742253","steam_id":85568392925397856,"keywords":["cp","nocrits","nodmgspread","uncletopia"],"game_id":440,"stv_port":27066,"stv_name":"Uncletopia | Warsaw | 6 | Community | STV","players":null}]}