{"status":true,"message":"","result":[{"server_id":9,"name":"Uncletopia | Atlanta | 1 | All Maps","name_short":"atl-1","host":"atl-1.us.uncletopia.com","port":27015,"enabled":true,"region":"us-east","cc":"us","latitude":33.753746,"longitude":-84.38633,"reserved":0,"last_update":"0001-01-01T00:00:00Z","name_a2s":"Uncletopia | Atlanta | 1 | All Maps","protocol":17,"map":"cp_mountainlab","folder":"tf","game":"Team Fortress","app_id":440,"player_count":0,"max_players":24,"Bots":0,"server_type":"Dedicated","server_os":"Linux","password":true,"vac":true,"version":"7961495","steam_id":85568392924469982,"keywords":["cp","nocrits","nodmgspread","uncletopia"],"game_id":440,"stv_port":27016,"stv_name":"Uncletopia | Atlanta | 1 | All Maps | STV","players":null},{"server_id":104,"name":"Uncletopia | Atlanta | 2 | All Maps","name_short":"atl-2","host":"atl-1.us.uncletopia.com","port":27025,"enabled":true,"region":"us-east","cc":"us","latitude":33.753746,"longitude":-84.38633,"reserved":0,"last_update":"0001-01-01T00:00:00Z","name_a2s":"Uncletopia | Atlanta | 2 | All Maps","protocol":17,"map":"koth_cascade","folder":"tf","game":"Team Fortress","app_id":440,"player_count":0,"max_players":24,"Bots":0,"server_type":"Dedicated","server_os":"Linux","password":true,"vac":true,"version":"7961495","steam_id":85568392924469983,"keywords":["cp","nocrits","nodmgspread","uncletopia"],"game_id":440,"stv_port":27026,"stv_name":"Uncletopia | Atlanta | 2 | All Maps | STV","players":null},{"server_id":400,"name":"Uncletopia | Atlanta | 3 | Stopwatch","name_short":"atl-3","host":"atl-1.us.uncletopia.com","port":27035,"enabled":true,"region":"us-east","cc":"us","latitude":33.753746,"longitude":-84.38633,"reserved":0,"last_update":"0001-01-01T00:00:00Z","name_a2s":"Uncletopia | Atlanta | 3 | Stopwatch","protocol":17,"map":"cp_granary","folder":"tf","game":"Team Fortress","app_id":440,"player_count":0,"max_players":24,"Bots":0,"server_type":"Dedicated","server_os":"Linux","password":true,"vac":true,"version":"7961495","steam_id":85568392924515187,"keywords":["cp","nocrits","nodmgspread","uncletopia"],"game_id":440,"stv_port":27036,"stv_name":"Uncletopia | Atlanta | 3 | Stopwatch | STV","players":null},{"server_id":401,"name":"Uncletopia | Atlanta | 4 | Community","name_short":"atl-4","host":"atl-1.us.uncletopia.com","port":27045,"enabled":true,"region":"us-east","cc":"us","latitude":33.753746,"longitude":-84.38633,"reserved":0,"last_update":"0001-01-01T00:00:00Z","name_a2s":"Uncletopia | Atlanta | 4 | Community","protocol":17,"map":"pl_badwater_pro_v12","folder":"tf","game":"Team Fortress","app_id":440,"player_count":0,"max_players":24,"Bots":0,"server_type":"Dedicated","server_os":"Linux","password":true,"vac":true,"version":"7961495","steam_id":85568392924515188,"keywords":["nocrits","nodmgspread","payload","uncletopia"],"game_id":440,"stv_port":27046,"stv_name":"Uncletopia | Atlanta | 4 | Community | STV","players":null},{"server_id":2,"name":"Uncletopia | Chicago | 1 | All Maps","name_short":"chi-1","host":"chi-1.us.uncletopia.com","port":27015,"enabled":true,"region":"us-central","cc":"us","latitude":41.881832,"longitude":-87.62318,"reserved":0,"last_update":"0001-01-01T00:00:00Z","name_a2s":"Uncletopia | Chicago | 1 | All Maps","protocol":17,"map":"cp_steel","folder":"tf","game":"Team Fortress","app_id":440,"player_count":24,"max_players":24,"Bots":0,"server_type":"Dedicated","server_os":"Linux","password":true,"vac":true,"version":"7961495","steam_id":85568392924469984,"keywords":["cp","nocrits","nodmgspread","uncletopia"],"game_id":440,"stv_port":27016,"stv_name":"Uncletopia | Chicago | 1 | All Maps | STV","players":[{"user_id":67,"name":"Urbanzpinapple","steam_id":76561198115426938,"connected_time":4250000000000,"state":"active","ping":169},{"user_id":129,"name":"dirty disgusting troll","steam_id":76561198882404753,"connected_time":583000000000,"state":"active","ping":77},{"user_id":105,"name":"pallas angel","steam_id":76561198016826789,"connected_time":1769000000000,"state":"active","ping":55},{"user_id":133,"name":"1998 Subaru Forester","steam_id":76561198350491491,"connected_time":108000000000,"state":"active","ping":113},{"user_id":118,"name":"YourFriendJessie","steam_id":76561198176883097,"connected_time":782000000000,"state":"active","ping":60},{"user_id":103,"name":"Hyperactivedimwit","steam_id":76561198134221704,"connected_time":1843000000000,"state":"active","ping":49},{"user_id":132,"name":"William Wallace","steam_id":76561199343316814,"connected_time":149000000000,"state":"active","ping":73},{"user_id":121,"name":"Candy Sparkles","steam_id":76561198126871264,"connected_time":754000000000,"state":"active","ping":83},{"user_id":123,"name":"Mango","steam_id":76561198156746320,"connected_time":702000000000,"state":"active","ping":45},{"user_id":74,"name":"katryna","steam_id":76561198023440304,"connected_time":3983000000000,"state":"active","ping":62},{"user_id":63,"name":"Shaunt","steam_id":76561198171551057,"connected_time":4554000000000,"state":"active","ping":53},{"user_id":124,"name":"Psychobells","steam_id":76561197995620232,"connected_time":676000000000,"state":"active","ping":58},{"user_id":128,"name":"gnome zone","steam_id":76561198883349445,"connected_time":630000000000,"state":"active","ping":104},{"user_id":95,"name":"Mr.Kevin120","steam_id":76561199186919096,"connected_time":2140000000000,"state":"active","ping":85},{"user_id":90,"name":"Evolution","steam_id":76561198144767370,"connected_time":2276000000000,"state":"active","ping":50},{"user_id":109,"name":"Niamhvnl","steam_id":76561198268957674,"connected_time":1665000000000,"state":"active","ping":60},{"user_id":130,"name":"moneymobile","steam_id":76561198066730780,"connected_time":309000000000,"state":"active","ping":114},{"user_id":119,"name":"Rornir","steam_id":76561198081829615,"connected_time":771000000000,"state":"active","ping":35},{"user_id":113,"name":"battle clown","steam_id":76561198045788371,"connected_time":896000000000,"state":"active","ping":66},{"user_id":64,"name":"BatMatt","steam_id":76561198045910433,"connected_time":4537000000000,"state":"active","ping":77},{"user_id":131,"name":"Aristotle Voulton","steam_id":76561198100174923,"connected_time":292000000000,"state":"active","ping":83},{"user_id":126,"name":"unmitigated success","steam_id":76561197988234127,"connected_time":669000000000,"state":"active","ping":70},{"user_id":127,"name":"GuyGoom","steam_id":76561198254522178,"connected_time":669000000000,"state":"active","ping":63},{"user_id":102,"name":"funny","steam_id":76561198034502018,"connected_time":1862000000000,"state":"active","ping":86}]},{"server_id":106,"name":"Uncletopia | Chicago | 2 | All Maps","name_short":"chi-2","host":"chi-1.us.uncletopia.com","port":27025,"enabled":true,"region":"us-central","cc":"us","latitude":41.881832,"longitude":-87.62318,"reserved":0,"last_update":"0001-01-01T00:00:00Z","name_a2s":"Uncletopia | Chicago | 2 | All Maps","protocol":17,"map":"koth_viaduct","folder":"tf","game":"Team Fortress","app_id":440,"player_count":23,"max_players":24,"Bots":0,"server_type":"Dedicated","server_os":"Linux","password":true,"vac":true,"version":"7961495","steam_id":85568392924469985,"keywords":["cp","nocrits","nodmgspread","uncletopia"],"game_id":440,"stv_port":27026,"stv_name":"Uncletopia | Chicago | 2 | All Maps | STV","players":[{"user_id":13,"name":"kreeper700","steam_id":76561199495556056,"connected_time":973000000000,"state":"active","ping":112},{"user_id":28,"name":"uhooter","steam_id":76561198007829078,"connected_time":235000000000,"state":"active","ping":52},{"user_id":35,"name":"LevelRaisin","steam_id":76561198082924440,"connected_time":103000000000,"state":"active","ping":49},{"user_id":10,"name":"HOODOO_LOVER_2007","steam_id":76561199087691214,"connected_time":1097000000000,"state":"active","ping":85},{"user_id":17,"name":"HollyBlocky","steam_id":76561198030156100,"connected_time":774000000000,"state":"active","ping":75},{"user_id":31,"name":"Alabit","steam_id":76561198065578560,"connected_time":177000000000,"state":"active","ping":76},{"user_id":18,"name":"Herb","steam_id":76561198330311949,"connected_time":568000000000,"state":"active","ping":62},{"user_id":20,"name":"MyTeamIsAzz","steam_id":76561198241921220,"connected_time":499000000000,"state":"active","ping":84},{"user_id":21,"name":"STRYKYR","steam_id":76561198100942212,"connected_time":445000000000,"state":"active","ping":75},{"user_id":22,"name":"Ⓑ⓪⓪ⓣⓨⓒⓐⓚⓔⓢ","steam_id":76561198088776421,"connected_time":381000000000,"state":"active","ping":63},{"user_id":23,"name":"MattJettskie","steam_id":76561199229493583,"connected_time":336000000000,"state":"active","ping":89},{"user_id":24,"name":"Bee_Pirate","steam_id":76561199000599111,"connected_time":320000000000,"state":"active","ping":46},{"user_id":25,"name":"Yam Jazzy Jim","steam_id":76561198000788950,"connected_time":306000000000,"state":"active","ping":72},{"user_id":27,"name":"elwin.gullvik","steam_id":76561199200036893,"connected_time":269000000000,"state":"active","ping":162},{"user_id":29,"name":"sloth (be nice im cringe)","steam_id":76561198047098172,"connected_time":232000000000,"state":"active","ping":72},{"user_id":30,"name":"shnowshner","steam_id":76561198066450438,"connected_time":211000000000,"state":"active","ping":288},{"user_id":40,"name":"Joshy","steam_id":76561198061405421,"connected_time":3000000000,"state":"spawning","ping":76},{"user_id":33,"name":"Don't Fuckle with Shuckle","steam_id":76561199020102367,"connected_time":139000000000,"state":"active","ping":79},{"user_id":34,"name":"Green Mario","steam_id":76561198094325997,"connected_time":137000000000,"state":"active","ping":74},{"user_id":36,"name":"a dubious little creeeeature","steam_id":76561198162041422,"connected_time":83000000000,"state":"active","ping":77},{"user_id":37,"name":"MemeLord","steam_id":76561198135115524,"connected_time":78000000000,"state":"active","ping":128},{"user_id":38,"name":"Psycho Crusher","steam_id":76561198987125856,"connected_time":40000000000,"state":"active","ping":84},{"user_id":39,"name":"SuperXtream500","steam_id":76561198082089858,"connected_time":37000000000,"state":"active","ping":45}]},{"server_id":402,"name":"Uncletopia | Chicago | 3 | All Maps","name_short":"chi-3","host":"chi-1.us.uncletopia.com","port":27035,"enabled":true,"region":"us-central","cc":"us","latitude":41.881832,"longitude":-87.62318,"reserved":0,"last_update":"0001-01-01T00:00:00Z","name_a2s":"Uncletopia | Chicago | 3 | All Maps","protocol":17,"map":"pl_frontier_final","folder":"tf","game":"Team Fortress","app_id":440,"player_count":0,"max_players":24,"Bots":0,"server_type":"Dedicated","server_os":"Linux","password":true,"vac":true,"version":"7961495","steam_id":85568392924515191,"keywords":["nocrits","nodmgspread","payload","uncletopia"],"game_id":440,"stv_port":27036,"stv_name":"Uncletopia | Chicago | 3 | All Maps | STV","players":null},{"server_id":403,"name":"Uncletopia | Chicago | 4 | All Maps","name_short":"chi-4","host":"chi-1.us.uncletopia.com","port":27045,"enabled":true,"region":"us-central","cc":"us","latitude":41.881832,"longitude":-87.62318,"reserved":0,"last_update":"0001-01-01T00:00:00Z","name_a2s":"Uncletopia | Chicago | 4 | All Maps","protocol":17,"map":"koth_cascade","folder":"tf","game":"Team Fortress","app_id":440,"player_count":0,"max_players":24,"Bots":0,"server_type":"Dedicated","server_os":"Linux","password":true,"vac":true,"version":"7961495","steam_id":85568392924515193,"keywords":["cp","nocrits","nodmgspread","uncletopia"],"game_id":440,"stv_port":27046,"stv_name":"Uncletopia | Chicago | 4 | All Maps | STV","players":null},{"server_id":36,"name":"Uncletopia | Chicago | 5 | All Maps","name_short":"chi-5","host":"chi-2.us.uncletopia.com","port":27015,"enabled":true,"region":"us-central","cc":"us","latitude":41.881832,"longitude":-87.62318,"reserved":0,"last_update":"0001-01-01T00:00:00Z","name_a2s":"Uncletopia | Chicago | 5 | All Maps","protocol":17,"map":"pl_swiftwater_final1","folder":"tf","game":"Team Fortress","app_id":440,"player_count":0,"max_players":24,"Bots":0,"server_type":"Dedicated","server_os":"Linux","password":true,"vac":true,"version":"7961495","steam_id":85568392924866362,"keywords":["nocrits","nodmgspread","payload","uncletopia"],"game_id":440,"stv_port":27016,"stv_name":"Uncletopia | Chicago | 5 | All Maps | STV","players":null},{"server_id":37,"name":"Uncletopia | Chicago | 6 | All Maps","name_short":"chi-6","host":"chi-2.us.uncletopia.com","port":27025,"enabled":true,"region":"us-central","cc":"us","latitude":41.881832,"longitude":-87.62318,"reserved":0,"last_update":"0001-01-01T00:00:00Z","name_a2s":"Uncletopia | Chicago | 6 | All Maps","protocol":17,"map":"pl_frontier_final","folder":"tf","game":"Team Fortress","app_id":440,"player_count":0,"max_players":24,"Bots":0,"server_type":"Dedicated","server_os":"Linux","password":true,"vac":true,"version":"7961495","steam_id":85568392924866363,"keywords":["nocrits","nodmgspread","payload","uncletopia"],"game_id":440,"stv_port":27026,"stv_name":"Uncletopia | Chicago | 6 | All Maps | STV","players":null},{"server_id":38,"name":"Uncletopia | Chicago | 7 | Stopwatch","name_short":"chi-7","host":"chi-2.us.uncletopia.com","port":27035,"enabled":true,"region":"us-central","cc":"us","latitude":41.881832,"longitude":-87.62318,"reserved":0,"last_update":"0001-01-01T00:00:00Z","name_a2s":"Uncletopia | Chicago | 7 | Stopwatch","protocol":17,"map":"pl_badwater","folder":"tf","game":"Team Fortress","app_id":440,"player_count":0,"max_players":24,"Bots":0,"server_type":"Dedicated","server_os":"Linux","password":true,"vac":true,"version":"7961495","steam_id":85568392924866364,"keywords":["nocrits","nodmgspread","payload","uncletopia"],"game_id":440,"stv_port":27036,"stv_name":"Uncletopia | Chicago | 7 | Stopwatch | STV","players":null},{"server_id":39,"name":"Uncletopia | Chicago | 8 | Community","name_short":"chi-8","host":"chi-2.us.uncletopia.com","port":27045,"enabled":true,"region":"us-central","cc":"us","latitude":41.881832,"longitude":-87.62318,"reserved":0,"last_update":"0001-01-01T00:00:00Z","name_a2s":"Uncletopia | Chicago | 8 | Community","protocol":17,"map":"workshop/cp_caldera_rc2.ugc2834196889","folder":"tf","game":"Team Fortress","app_id":440,"player_count":0,"max_players":24,"Bots":0,"server_type":"Dedicated","server_os":"Linux","password":true,"vac":true,"version":"7961495","steam_id":85568392924866365,"keywords":["cp","nocrits","nodmgspread","uncletopia"],"game_id":440,"stv_port":27046,"stv_name":"Uncletopia | Chicago | 8 | Community | STV","players":null},{"server_id":8,"name":"Uncletopia | Dallas | 1 | All Maps","name_short":"dal-1","host":"dal-1.us.uncletopia.com","port":27015,"enabled":true,"region":"us-central","cc":"us","latitude":32.779167,"longitude":-96.80889,"reserved":0,"last_update":"0001-01-01T00:00:00Z","name_a2s":"Uncletopia | Dallas | 1 | All Maps","protocol":17,"map":"pl_upward","folder":"tf","game":"Team Fortress","app_id":440,"player_count":23,"max_players":24,"Bots":0,"server_type":"Dedicated","server_os":"Linux","password":true,"vac":true,"version":"7961495","steam_id":85568392924469986,"keywords":["nocrits","nodmgspread","payload","uncletopia"],"game_id":440,"stv_port":27016,"stv_name":"Uncletopia | Dallas | 1 | All Maps | STV","players":[{"user_id":269,"name":"Chimpish","steam_id":76561199263493270,"connected_time":1836000000000,"state":"active","ping":97},{"user_id":281,"name":"Bliztank | RGL.gg","steam_id":76561198019252798,"connected_time":845000000000,"state":"active","ping":72},{"user_id":255,"name":"doydoydoydoydoy","steam_id":76561198037803087,"connected_time":2644000000000,"state":"active","ping":68},{"user_id":234,"name":"r0ck","steam_id":76561198395892272,"connected_time":3477000000000,"state":"active","ping":101},{"user_id":272,"name":"Nick Cipriani","steam_id":76561198347861817,"connected_time":1760000000000,"state":"active","ping":60},{"user_id":275,"name":"dailydiamond","steam_id":76561199123582502,"connected_time":1418000000000,"state":"active","ping":92},{"user_id":288,"name":"louise sneeze","steam_id":76561198062451648,"connected_time":249000000000,"state":"active","ping":39},{"user_id":256,"name":"Doctor Cockter","steam_id":76561198008193829,"connected_time":2555000000000,"state":"active","ping":75},{"user_id":283,"name":"HeadOfB.O.XNews","steam_id":76561198823322405,"connected_time":586000000000,"state":"active","ping":51},{"user_id":279,"name":"dave","steam_id":76561198135961731,"connected_time":991000000000,"state":"active","ping":64},{"user_id":258,"name":"Incredulous Dylan","steam_id":76561197979969143,"connected_time":2488000000000,"state":"active","ping":75},{"user_id":240,"name":"motherfucker 2.0","steam_id":76561198141189209,"connected_time":3237000000000,"state":"active","ping":40},{"user_id":277,"name":"ObsessedNerd505","steam_id":76561199045531456,"connected_time":1092000000000,"state":"active","ping":83},{"user_id":290,"name":"Major Woody","steam_id":76561198835541533,"connected_time":96000000000,"state":"active","ping":57},{"user_id":182,"name":"Bussy Bandit","steam_id":76561198034028769,"connected_time":8152000000000,"state":"active","ping":84},{"user_id":287,"name":"fish","steam_id":76561198090531755,"connected_time":345000000000,"state":"active","ping":47},{"user_id":198,"name":"dobby","steam_id":76561198012274834,"connected_time":6184000000000,"state":"active","ping":69},{"user_id":222,"name":"souVern","steam_id":76561198046940771,"connected_time":4573000000000,"state":"active","ping":73},{"user_id":291,"name":"chi-town hood classic","steam_id":76561198111259720,"connected_time":10000000000,"state":"active","ping":86},{"user_id":284,"name":"Jimbob","steam_id":76561198076581036,"connected_time":494000000000,"state":"active","ping":89},{"user_id":289,"name":"EOAW","steam_id":76561198310451639,"connected_time":230000000000,"state":"active","ping":83},{"user_id":273,"name":"Nut Commander","steam_id":76561198065989058,"connected_time":1756000000000,"state":"active","ping":80},{"user_id":210,"name":"Shaggy from Ghostbusters","steam_id":76561198062763756,"connected_time":5042000000000,"state":"active","ping":76}]},{"server_id":108,"name":"Uncletopia | Dallas | 2 | All Maps","name_short":"dal-2","host":"dal-1.us.uncletopia.com","port":27025,"enabled":true,"region":"us-central","cc":"us","latitude":32.779167,"longitude":-96.80889,"reserved":0,"last_update":"0001-01-01T00:00:00Z","name_a2s":"Uncletopia | Dallas | 2 | All Maps","protocol":17,"map":"koth_highpass","folder":"tf","game":"Team Fortress","app_id":440,"player_count":0,"max_players":24,"Bots":0,"server_type":"Dedicated","server_os":"Linux","password":true,"vac":true,"version":"7961495","steam_id":85568392924469988,"keywords":["cp","nocrits","nodmgspread","uncletopia"],"game_id":440,"stv_port":27026,"stv_name":"Uncletopia | Dallas | 2 | All Maps | STV","players":null},{"server_id":404,"name":"Uncletopia | Dallas | 3 | All Maps","name_short":"dal-3","host":"dal-1.us.uncletopia.com","port":27035,"enabled":true,"region":"us-central","cc":"us","latitude":32.779167,"longitude":-96.80889,"reserved":0,"last_update":"0001-01-01T00:00:00Z","name_a2s":"Uncletopia | Dallas | 3 | All Maps","protocol":17,"map":"pl_borneo","folder":"tf","game":"Team Fortress","app_id":440,"player_count":0,"max_players":24,"Bots":0,"server_type":"Dedicated","server_os":"Linux","password":true,"vac":true,"version":"7961495","steam_id":85568392924515219,"keywords":["nocrits","nodmgspread","payload","uncletopia"],"game_id":440,"stv_port":27036,"stv_name":"Uncletopia | Dallas | 3 | All Maps | STV","players":null},{"server_id":405,"name":"Uncletopia | Dallas | 4 | Community","name_short":"dal-4","host":"dal-1.us.uncletopia.com","port":27045,"enabled":true,"region":"us-central","cc":"us","latitude":32.779167,"longitude":-96.80889,"reserved":0,"last_update":"0001-01-01T00:00:00Z","name_a2s":"Uncletopia | Dallas | 4 | Community","protocol":17,"map":"pl_pier","folder":"tf","game":"Team Fortress","app_id":440,"player_count":0,"max_players":24,"Bots":0,"server_type":"Dedicated","server_os":"Linux","password":true,"vac":true,"version":"7961495","steam_id":85568392924515220,"keywords":["nocrits","nodmgspread","payload","uncletopia"],"game_id":440,"stv_port":27046,"stv_name":"Uncletopia | Dallas | 4 | Community | STV","players":null},{"server_id":5,"name":"Uncletopia | Frankfurt | 1 | All Maps","name_short":"frk-1","host":"frk-1.de.uncletopia.com","port":27015,"enabled":true,"region":"eu","cc":"de","latitude":50.110924,"longitude":8.682127,"reserved":0,"last_update":"0001-01-01T00:00:00Z","name_a2s":"Uncletopia | Frankfurt | 1 | All Maps","protocol":17,"map":"cp_powerhouse","folder":"tf","game":"Team Fortress","app_id":440,"player_count":24,"max_players":24,"Bots":0,"server_type":"Dedicated","server_os":"Linux","password":true,"vac":true,"version":"7961495","steam_id":85568392924469989,"keywords":["cp","nocrits","nodmgspread","uncletopia"],"game_id":440,"stv_port":27016,"stv_name":"Uncletopia | Frankfurt | 1 | All Maps | STV","players":[{"user_id":129,"name":"Bird On Your Window","steam_id":76561198081933130,"connected_time":429000000000,"state":"active","ping":72},{"user_id":99,"name":"Dot","steam_id":76561198047299145,"connected_time":2833000000000,"state":"active","ping":70},{"user_id":92,"name":"HelwiiHill","steam_id":76561198066730552,"connected_time":2969000000000,"state":"active","ping":93},{"user_id":122,"name":"powej","steam_id":76561198056381418,"connected_time":1172000000000,"state":"active","ping":51},{"user_id":84,"name":"Sign up to give bone marrow!","steam_id":76561198055363275,"connected_time":3268000000000,"state":"active","ping":51},{"user_id":95,"name":"Spheedermern","steam_id":76561198160898152,"connected_time":2879000000000,"state":"active","ping":63},{"user_id":94,"name":"Castellan","steam_id":76561197994861142,"connected_time":2896000000000,"state":"active","ping":62},{"user_id":21,"name":"Waffles","steam_id":76561199086942763,"connected_time":5830000000000,"state":"active","ping":83},{"user_id":126,"name":"SalCrabber deluxe","steam_id":76561198275942961,"connected_time":900000000000,"state":"active","ping":45},{"user_id":124,"name":"Sgreff","steam_id":76561198036304365,"connected_time":1088000000000,"state":"active","ping":60},{"user_id":125,"name":"TKN_Paps997","steam_id":76561198419868465,"connected_time":1086000000000,"state":"active","ping":85},{"user_id":71,"name":"dick cheese","steam_id":76561197996692535,"connected_time":4127000000000,"state":"active","ping":66},{"user_id":96,"name":"Isohel [Kiba]","steam_id":76561198129032662,"connected_time":2871000000000,"state":"active","ping":73},{"user_id":113,"name":"supercharger832","steam_id":76561198871408515,"connected_time":1939000000000,"state":"active","ping":66},{"user_id":134,"name":"Artificial.Ignorance","steam_id":76561198453090180,"connected_time":141000000000,"state":"active","ping":149},{"user_id":135,"name":"Righty","steam_id":76561199224705434,"connected_time":103000000000,"state":"active","ping":115},{"user_id":121,"name":"Eerie Virtues","steam_id":76561198048544833,"connected_time":1176000000000,"state":"active","ping":83},{"user_id":130,"name":"DerpyAlex","steam_id":76561198272907285,"connected_time":419000000000,"state":"active","ping":72},{"user_id":127,"name":"Jimmy","steam_id":76561198133680783,"connected_time":527000000000,"state":"active","ping":65},{"user_id":118,"name":"ultim8","steam_id":76561198201501691,"connected_time":1204000000000,"state":"active","ping":62},{"user_id":132,"name":"dumb dipshit asshole :3 \u003c3\u003c3\u003c3\u003c","steam_id":76561198311044984,"connected_time":349000000000,"state":"active","ping":67},{"user_id":117,"name":"aRtaRt","steam_id":76561199051316171,"connected_time":1806000000000,"state":"active","ping":72},{"user_id":128,"name":"Big Chad","steam_id":76561198015304658,"connected_time":452000000000,"state":"active","ping":149},{"user_id":46,"name":"Geedis Enjoyer","steam_id":76561198032359132,"connected_time":5395000000000,"state":"active","ping":56}]},{"server_id":110,"name":"Uncletopia | Frankfurt | 2 | All Maps","name_short":"frk-2","host":"frk-1.de.uncletopia.com","port":27025,"enabled":true,"region":"eu","cc":"de","latitude":50.110924,"longitude":8.682127,"reserved":0,"last_update":"0001-01-01T00:00:00Z","name_a2s":"Uncletopia | Frankfurt | 2 | All Maps","protocol":17,"map":"cp_snakewater_final1","folder":"tf","game":"Team Fortress","app_id":440,"player_count":24,"max_players":24,"Bots":0,"server_type":"Dedicated","server_os":"Linux","password":true,"vac":true,"version":"7961495","steam_id":85568392924469990,"keywords":["cp","nocrits","nodmgspread","uncletopia"],"game_id":440,"stv_port":27026,"stv_name":"Uncletopia | Frankfurt | 2 | All Maps | STV","players":[{"user_id":20,"name":"The Manager of Sex (Real)","steam_id":76561198385989487,"connected_time":2537000000000,"state":"active","ping":104},{"user_id":67,"name":"sphere","steam_id":76561197971059842,"connected_time":131000000000,"state":"active","ping":51},{"user_id":70,"name":"Real (Real)","steam_id":76561198323425034,"connected_time":99000000000,"state":"active","ping":70},{"user_id":45,"name":"Wata","steam_id":76561198098418814,"connected_time":1955000000000,"state":"active","ping":56},{"user_id":16,"name":"Klifton","steam_id":76561198803743443,"connected_time":2756000000000,"state":"active","ping":76},{"user_id":60,"name":"TaiFaitter","steam_id":76561198844647170,"connected_time":733000000000,"state":"active","ping":84},{"user_id":68,"name":"katten","steam_id":76561198163615254,"connected_time":131000000000,"state":"active","ping":49},{"user_id":50,"name":"Siegmeyer","steam_id":76561198328543549,"connected_time":1115000000000,"state":"active","ping":86},{"user_id":54,"name":"Henrik Solan","steam_id":76561198077850479,"connected_time":1050000000000,"state":"active","ping":59},{"user_id":24,"name":"Jesus Død","steam_id":76561199009554145,"connected_time":2309000000000,"state":"active","ping":115},{"user_id":47,"name":"VK2124 :D","steam_id":76561198111130688,"connected_time":1581000000000,"state":"active","ping":106},{"user_id":46,"name":"poo","steam_id":76561199368726811,"connected_time":1635000000000,"state":"active","ping":77},{"user_id":64,"name":"Banana","steam_id":76561197989859175,"connected_time":222000000000,"state":"active","ping":68},{"user_id":31,"name":"mr.resetti","steam_id":76561198974520642,"connected_time":2111000000000,"state":"active","ping":70},{"user_id":69,"name":"blåhaj","steam_id":76561198094268619,"connected_time":115000000000,"state":"active","ping":60},{"user_id":57,"name":"DraGOs512","steam_id":76561198438519964,"connected_time":959000000000,"state":"active","ping":74},{"user_id":65,"name":"jjkun786","steam_id":76561199438517484,"connected_time":220000000000,"state":"active","ping":45},{"user_id":61,"name":"-15 Social Credit","steam_id":76561199013107775,"connected_time":383000000000,"state":"active","ping":79},{"user_id":62,"name":"FilipeLuk","steam_id":76561198150675438,"connected_time":271000000000,"state":"active","ping":75},{"user_id":56,"name":"mar marketplace.tf","steam_id":76561198819753981,"connected_time":1030000000000,"state":"active","ping":59},{"user_id":40,"name":"failed poet","steam_id":76561198987041283,"connected_time":2001000000000,"state":"active","ping":82},{"user_id":41,"name":"Eddy","steam_id":76561199021686874,"connected_time":1991000000000,"state":"active","ping":45},{"user_id":43,"name":"TheMasterOfTheZaZa","steam_id":76561197994310420,"connected_time":1978000000000,"state":"active","ping":75},{"user_id":44,"name":"tobi ^︿^","steam_id":76561198023388785,"connected_time":1963000000000,"state":"active","ping":45}]},{"server_id":308,"name":"Uncletopia | Frankfurt | 3 | All Maps","name_short":"frk-3","host":"frk-1.de.uncletopia.com","port":27035,"enabled":true,"region":"eu","cc":"de","latitude":50.110924,"longitude":8.682127,"reserved":0,"last_update":"0001-01-01T00:00:00Z","name_a2s":"Uncletopia | Frankfurt | 3 | All Maps","protocol":17,"map":"pl_frontier_final","folder":"tf","game":"Team Fortress","app_id":440,"player_count":25,"max_players":24,"Bots":0,"server_type":"Dedicated","server_os":"Linux","password":true,"vac":true,"version":"7961495","steam_id":85568392924504274,"keywords":["nocrits","nodmgspread","payload","uncletopia"],"game_id":440,"stv_port":27036,"stv_name":"Uncletopia | Frankfurt | 3 | All Maps | STV","players":[{"user_id":461,"name":"smalldolmar","steam_id":76561198028041542,"connected_time":2244000000000,"state":"active","ping":66},{"user_id":500,"name":"HunterPwner","steam_id":76561198073443107,"connected_time":102000000000,"state":"active","ping":164},{"user_id":495,"name":"Racxes","steam_id":76561198019555603,"connected_time":312000000000,"state":"active","ping":68},{"user_id":491,"name":"Marabosha","steam_id":76561198137599173,"connected_time":784000000000,"state":"active","ping":98},{"user_id":473,"name":"Setiago","steam_id":76561198060770498,"connected_time":1545000000000,"state":"active","ping":66},{"user_id":496,"name":"LemonLeCitron","steam_id":76561198215545267,"connected_time":220000000000,"state":"active","ping":74},{"user_id":486,"name":"Keke","steam_id":76561198042032908,"connected_time":833000000000,"state":"active","ping":120},{"user_id":474,"name":"SovietZombie™","steam_id":76561198140093751,"connected_time":1526000000000,"state":"active","ping":53},{"user_id":475,"name":"Dzieciol","steam_id":76561198160237556,"connected_time":1473000000000,"state":"active","ping":62},{"user_id":487,"name":"markotrichko4238","steam_id":76561199125036759,"connected_time":830000000000,"state":"active","ping":80},{"user_id":464,"name":"Webber192","steam_id":76561198252039422,"connected_time":2157000000000,"state":"active","ping":76},{"user_id":477,"name":"tf2 snake","steam_id":76561198193971167,"connected_time":1463000000000,"state":"active","ping":58},{"user_id":485,"name":"juan","steam_id":76561198157581902,"connected_time":920000000000,"state":"active","ping":63},{"user_id":497,"name":"NerevarDZN","steam_id":76561198055037163,"connected_time":167000000000,"state":"active","ping":70},{"user_id":484,"name":"Piellino","steam_id":76561198156873276,"connected_time":1015000000000,"state":"active","ping":92},{"user_id":445,"name":"Archive","steam_id":76561198071255385,"connected_time":3682000000000,"state":"active","ping":80},{"user_id":410,"name":"ion luca caragiale","steam_id":76561198132025408,"connected_time":5931000000000,"state":"active","ping":55},{"user_id":505,"name":"_Alonso","steam_id":76561198041893314,"connected_time":48000000000,"state":"active","ping":48},{"user_id":434,"name":"Jeffrey Harpen","steam_id":76561199073314677,"connected_time":4398000000000,"state":"active","ping":69},{"user_id":439,"name":"dogs_drink_water","steam_id":76561198296630670,"connected_time":4272000000000,"state":"active","ping":77},{"user_id":479,"name":"Proto-arc","steam_id":76561198012776747,"connected_time":1437000000000,"state":"active","ping":60},{"user_id":503,"name":"Choruptian","steam_id":76561198017686366,"connected_time":84000000000,"state":"active","ping":61},{"user_id":489,"name":"socaramel","steam_id":76561197984480336,"connected_time":817000000000,"state":"active","ping":78},{"user_id":490,"name":"Cowspace","steam_id":76561198072733227,"connected_time":817000000000,"state":"active","ping":72},{"user_id":507,"name":"Marky","steam_id":76561199474556920,"connected_time":4000000000,"state":"spawning","ping":97}]},{"server_id":309,"name":"Uncletopia | Frankfurt | 4 | All Maps","name_short":"frk-4","host":"frk-1.de.uncletopia.com","port":27045,"enabled":true,"region":"eu","cc":"de","latitude":50.110924,"longitude":8.682127,"reserved":0,"last_update":"0001-01-01T00:00:00Z","name_a2s":"Uncletopia | Frankfurt | 4 | All Maps","protocol":17,"map":"pl_upward","folder":"tf","game":"Team Fortress","app_id":440,"player_count":24,"max_players":24,"Bots":0,"server_type":"Dedicated","server_os":"Linux","password":true,"vac":true,"version":"7961495","steam_id":85568392924504275,"keywords":["nocrits","nodmgspread","payload","uncletopia"],"game_id":440,"stv_port":27046,"stv_name":"Uncletopia | Frankfurt | 4 | All Maps | STV","players":[{"user_id":256,"name":"Family guy try not to laugh","steam_id":76561198031455800,"connected_time":1759000000000,"state":"active","ping":76},{"user_id":253,"name":"Armageddon","steam_id":76561198922492571,"connected_time":2312000000000,"state":"active","ping":81},{"user_id":266,"name":"luma","steam_id":76561198081649669,"connected_time":1262000000000,"state":"active","ping":62},{"user_id":195,"name":"Heinrich","steam_id":76561198063897745,"connected_time":6325000000000,"state":"active","ping":73},{"user_id":273,"name":"GGabe","steam_id":76561198117199068,"connected_time":676000000000,"state":"active","ping":76},{"user_id":238,"name":"baballe","steam_id":76561198302448192,"connected_time":3836000000000,"state":"active","ping":36},{"user_id":262,"name":"DarthPaul8181","steam_id":76561198373050455,"connected_time":1374000000000,"state":"active","ping":61},{"user_id":259,"name":"♥ Kentucky Fried Femboys ♥","steam_id":76561199202438796,"connected_time":1536000000000,"state":"active","ping":62},{"user_id":269,"name":"Gugu gaga","steam_id":76561198161822358,"connected_time":968000000000,"state":"active","ping":62},{"user_id":271,"name":"Thors","steam_id":76561197968739075,"connected_time":877000000000,"state":"active","ping":46},{"user_id":245,"name":"RainbowLlama","steam_id":76561198132079405,"connected_time":3080000000000,"state":"active","ping":59},{"user_id":234,"name":"Dolcelatte","steam_id":76561198038501770,"connected_time":3888000000000,"state":"active","ping":57},{"user_id":226,"name":"doctor sex","steam_id":76561198029044617,"connected_time":4196000000000,"state":"active","ping":61},{"user_id":274,"name":"Q pal","steam_id":76561198166903116,"connected_time":169000000000,"state":"active","ping":114},{"user_id":193,"name":"kgf","steam_id":76561198181442259,"connected_time":6711000000000,"state":"active","ping":48},{"user_id":221,"name":"Dirk.van.den.Broek 2008","steam_id":76561198124226614,"connected_time":4307000000000,"state":"active","ping":44},{"user_id":275,"name":"midlpsyzl47","steam_id":76561199475972637,"connected_time":164000000000,"state":"active","ping":68},{"user_id":264,"name":"Itai","steam_id":76561198804555329,"connected_time":1353000000000,"state":"active","ping":111},{"user_id":272,"name":"Radigan-Flanders::","steam_id":76561198100439744,"connected_time":752000000000,"state":"active","ping":46},{"user_id":270,"name":"Tywhip","steam_id":76561199207545191,"connected_time":924000000000,"state":"active","ping":60},{"user_id":265,"name":"Vanok","steam_id":76561198815463892,"connected_time":1342000000000,"state":"active","ping":108},{"user_id":252,"name":"Jannisxxl","steam_id":76561198048377916,"connected_time":2526000000000,"state":"active","ping":69},{"user_id":254,"name":"Axter","steam_id":76561198118747192,"connected_time":2233000000000,"state":"active","ping":84},{"user_id":260,"name":"marvi444","steam_id":76561198431534139,"connected_time":1502000000000,"state":"active","ping":43}]},{"server_id":310,"name":"Uncletopia | Frankfurt | 5 | All Maps","name_short":"frk-5","host":"frk-1.de.uncletopia.com","port":27055,"enabled":true,"region":"eu","cc":"de","latitude":50.110924,"longitude":8.682127,"reserved":0,"last_update":"0001-01-01T00:00:00Z","name_a2s":"Uncletopia | Frankfurt | 5 | All Maps","protocol":17,"map":"koth_viaduct","folder":"tf","game":"Team Fortress","app_id":440,"player_count":8,"max_players":24,"Bots":0,"server_type":"Dedicated","server_os":"Linux","password":true,"vac":true,"version":"7961495","steam_id":85568392924504277,"keywords":["cp","nocrits","nodmgspread","uncletopia"],"game_id":440,"stv_port":27056,"stv_name":"Uncletopia | Frankfurt | 5 | All Maps | STV","players":[{"user_id":13,"name":"He","steam_id":76561198091055713,"connected_time":712000000000,"state":"active","ping":74},{"user_id":14,"name":"Eki","steam_id":76561199056176547,"connected_time":668000000000,"state":"active","ping":74},{"user_id":15,"name":"vitut_deenpähkinät","steam_id":76561198371667850,"connected_time":655000000000,"state":"active","ping":79},{"user_id":26,"name":"Smilo","steam_id":76561198841481172,"connected_time":150000000000,"state":"active","ping":100},{"user_id":19,"name":"Big man","steam_id":76561199072419604,"connected_time":433000000000,"state":"active","ping":68},{"user_id":20,"name":"Sam04","steam_id":76561199004535941,"connected_time":334000000000,"state":"active","ping":101},{"user_id":21,"name":"610_senpaibaka","steam_id":76561199234049309,"connected_time":333000000000,"state":"active","ping":95},{"user_id":25,"name":"Dragon Slayer","steam_id":76561199145087585,"connected_time":217000000000,"state":"active","ping":53}]},{"server_id":311,"name":"Uncletopia | Frankfurt | 6 | All Maps","name_short":"frk-6","host":"frk-1.de.uncletopia.com","port":27065,"enabled":true,"region":"eu","cc":"de","latitude":50.110924,"longitude":8.682127,"reserved":0,"last_update":"0001-01-01T00:00:00Z","name_a2s":"Uncletopia | Frankfurt | 6 | All Maps","protocol":17,"map":"cp_altitude","folder":"tf","game":"Team Fortress","app_id":440,"player_count":1,"max_players":24,"Bots":0,"server_type":"Dedicated","server_os":"Linux","password":true,"vac":true,"version":"7961495","steam_id":85568392924504278,"keywords":["cp","nocrits","nodmgspread","uncletopia"],"game_id":440,"stv_port":27066,"stv_name":"Uncletopia | Frankfurt | 6 | All Maps | STV","players":[{"user_id":11,"name":"chair 2.0","steam_id":76561199233470150,"connected_time":141000000000,"state":"active","ping":47}]},{"server_id":23,"name":"Uncletopia | Frankfurt | 7 | Stopwatch","name_short":"frk-7","host":"frk-1.de.uncletopia.com","port":27075,"enabled":true,"region":"eu","cc":"de","latitude":50.110924,"longitude":8.682127,"reserved":0,"last_update":"0001-01-01T00:00:00Z","name_a2s":"Uncletopia | Frankfurt | 7 | Stopwatch","protocol":17,"map":"pl_frontier_final","folder":"tf","game":"Team Fortress","app_id":440,"player_count":0,"max_players":24,"Bots":0,"server_type":"Dedicated","server_os":"Linux","password":true,"vac":true,"version":"7961495","steam_id":85568392924742827,"keywords":["nocrits","nodmgspread","payload","uncletopia"],"game_id":440,"stv_port":27076,"stv_name":"Uncletopia | Frankfurt | 7 | Stopwatch | STV","players":null},{"server_id":24,"name":"Uncletopia | Frankfurt | 8 | Community","name_short":"frk-8","host":"frk-1.de.uncletopia.com","port":27085,"enabled":true,"region":"eu","cc":"de","latitude":50.110924,"longitude":8.682127,"reserved":0,"last_update":"0001-01-01T00:00:00Z","name_a2s":"Uncletopia | Frankfurt | 8 | Community","protocol":17,"map":"workshop/pl_barnblitz_pro7.ugc582280235","folder":"tf","game":"Team Fortress","app_id":440,"player_count":0,"max_players":24,"Bots":0,"server_type":"Dedicated","server_os":"Linux","password":true,"vac":true,"version":"7961495","steam_id":85568392924742828,"keywords":["nocrits","nodmgspread","payload","uncletopia"],"game_id":440,"stv_port":27086,"stv_name":"Uncletopia | Frankfurt | 8 | Community | STV","players":null},{"server_id":202,"name":"Uncletopia | Hong Kong | 1 | All Maps","name_short":"hgk-1","host":"hgk-1.hk.uncletopia.com","port":27015,"enabled":true,"region":"asia","cc":"hk","latitude":22.302711,"longitude":114.177216,"reserved":0,"last_update":"0001-01-01T00:00:00Z","name_a2s":"Uncletopia | Hong Kong | 1 | All Maps","protocol":17,"map":"cp_dustbowl","folder":"tf","game":"Team Fortress","app_id":440,"player_count":7,"max_players":24,"Bots":0,"server_type":"Dedicated","server_os":"Linux","password":true,"vac":true,"version":"7961495","steam_id":85568392924494504,"keywords":["cp","nocrits","nodmgspread","uncletopia"],"game_id":440,"stv_port":27016,"stv_name":"Uncletopia | Hong Kong | 1 | All Maps | STV","players":[{"user_id":372,"name":"Jaysong","steam_id":76561198828599078,"connected_time":1337000000000,"state":"active","ping":216},{"user_id":330,"name":"Wolf Bloodfury","steam_id":76561198104094674,"connected_time":4440000000000,"state":"spawning","ping":63},{"user_id":302,"name":"Vortex Swagger","steam_id":76561198833527091,"connected_time":6139000000000,"state":"active","ping":87},{"user_id":374,"name":"Banana Milk","steam_id":76561198005156257,"connected_time":652000000000,"state":"active","ping":130},{"user_id":377,"name":"walid","steam_id":76561198395530753,"connected_time":101000000000,"state":"active","ping":135},{"user_id":279,"name":"MANCO FETT","steam_id":76561198107128889,"connected_time":7427000000000,"state":"active","ping":80},{"user_id":322,"name":"lunstedtemila","steam_id":76561199000937599,"connected_time":4614000000000,"state":"active","ping":190}]},{"server_id":1,"name":"Uncletopia | Los Angeles | 1 | All Maps","name_short":"lax-1","host":"lax-1.us.uncletopia.com","port":27015,"enabled":true,"region":"us-west","cc":"us","latitude":33.94279,"longitude":-118.41004,"reserved":0,"last_update":"0001-01-01T00:00:00Z","name_a2s":"Uncletopia | Los Angeles | 1 | All Maps","protocol":17,"map":"pl_badwater","folder":"tf","game":"Team Fortress","app_id":440,"player_count":0,"max_players":24,"Bots":0,"server_type":"Dedicated","server_os":"Linux","password":true,"vac":true,"version":"7961495","steam_id":85568392924469991,"keywords":["nocrits","nodmgspread","payload","uncletopia"],"game_id":440,"stv_port":27016,"stv_name":"Uncletopia | Los Angeles | 1 | All Maps | STV","players":null},{"server_id":112,"name":"Uncletopia | Los Angeles | 2 | All Maps","name_short":"lax-2","host":"lax-1.us.uncletopia.com","port":27025,"enabled":true,"region":"us-west","cc":"us","latitude":33.94279,"longitude":-118.41004,"reserved":0,"last_update":"0001-01-01T00:00:00Z","name_a2s":"Uncletopia | Los Angeles | 2 | All Maps","protocol":17,"map":"cp_mountainlab","folder":"tf","game":"Team Fortress","app_id":440,"player_count":0,"max_players":24,"Bots":0,"server_type":"Dedicated","server_os":"Linux","password":true,"vac":true,"version":"7961495","steam_id":85568392924469992,"keywords":["cp","nocrits","nodmgspread","uncletopia"],"game_id":440,"stv_port":27026,"stv_name":"Uncletopia | Los Angeles | 2 | All Maps | STV","players":null},{"server_id":324,"name":"Uncletopia | Los Angeles | 3 | All Maps","name_short":"lax-3","host":"lax-1.us.uncletopia.com","port":27035,"enabled":true,"region":"us-west","cc":"us","latitude":33.94279,"longitude":-118.41004,"reserved":0,"last_update":"0001-01-01T00:00:00Z","name_a2s":"Uncletopia | Los Angeles | 3 | All Maps","protocol":17,"map":"pl_frontier_final","folder":"tf","game":"Team Fortress","app_id":440,"player_count":0,"max_players":24,"Bots":0,"server_type":"Dedicated","server_os":"Linux","password":true,"vac":true,"version":"7961495","steam_id":85568392924510198,"keywords":["nocrits","nodmgspread","payload","uncletopia"],"game_id":440,"stv_port":27036,"stv_name":"Uncletopia | Los Angeles | 3 | All Maps | STV","players":null},{"server_id":25,"name":"Uncletopia | Los Angeles | 4 | Stopwatch","name_short":"lax-4","host":"lax-1.us.uncletopia.com","port":27045,"enabled":true,"region":"us-west","cc":"us","latitude":33.94279,"longitude":-118.41004,"reserved":0,"last_update":"0001-01-01T00:00:00Z","name_a2s":"Uncletopia | Los Angeles | 4 | Stopwatch","protocol":17,"map":"pl_barnblitz","folder":"tf","game":"Team Fortress","app_id":440,"player_count":0,"max_players":24,"Bots":0,"server_type":"Dedicated","server_os":"Linux","password":true,"vac":true,"version":"7961495","steam_id":85568392924510199,"keywords":["nocrits","nodmgspread","payload","uncletopia"],"game_id":440,"stv_port":27046,"stv_name":"Uncletopia | Los Angeles | 4 | Stopwatch | STV","players":null},{"server_id":11,"name":"Uncletopia | London | 1 | All Maps","name_short":"lon-1","host":"lon-1.uk.uncletopia.com","port":27015,"enabled":true,"region":"eu","cc":"gb","latitude":51.509865,"longitude":-0.118092,"reserved":0,"last_update":"0001-01-01T00:00:00Z","name_a2s":"Uncletopia | London | 1 | All Maps","protocol":17,"map":"pl_borneo","folder":"tf","game":"Team Fortress","app_id":440,"player_count":24,"max_players":24,"Bots":0,"server_type":"Dedicated","server_os":"Linux","password":true,"vac":true,"version":"7961495","steam_id":85568392924367362,"keywords":["nocrits","nodmgspread","payload","uncletopia"],"game_id":440,"stv_port":27016,"stv_name":"Uncletopia | London | 1 | All Maps | STV","players":[{"user_id":508,"name":"Galex","steam_id":76561198045637579,"connected_time":71000000000,"state":"active","ping":55},{"user_id":488,"name":"xD","steam_id":76561198103633797,"connected_time":3342000000000,"state":"active","ping":94},{"user_id":476,"name":"shooer!","steam_id":76561198110531281,"connected_time":4464000000000,"state":"active","ping":72},{"user_id":419,"name":"LasagneMan","steam_id":76561198971904377,"connected_time":9278000000000,"state":"active","ping":46},{"user_id":507,"name":"Purple Soup :D","steam_id":76561198985100366,"connected_time":74000000000,"state":"active","ping":98},{"user_id":477,"name":"Slifer the Furry SAMURAI UwU","steam_id":76561198062255803,"connected_time":4327000000000,"state":"active","ping":279},{"user_id":504,"name":"Mammut","steam_id":76561198056773933,"connected_time":605000000000,"state":"active","ping":53},{"user_id":501,"name":"TheEventGuy","steam_id":76561197972797744,"connected_time":1114000000000,"state":"active","ping":67},{"user_id":461,"name":"Tummy","steam_id":76561198045654910,"connected_time":5610000000000,"state":"active","ping":44},{"user_id":509,"name":"gibb (official)","steam_id":76561198074097655,"connected_time":68000000000,"state":"active","ping":33},{"user_id":486,"name":"pyromaniac","steam_id":76561198292781255,"connected_time":3444000000000,"state":"active","ping":73},{"user_id":505,"name":"Sir Cauterize","steam_id":76561198047079422,"connected_time":90000000000,"state":"active","ping":51},{"user_id":492,"name":"halow","steam_id":76561198061505163,"connected_time":2546000000000,"state":"active","ping":107},{"user_id":475,"name":"stroyo","steam_id":76561198409592046,"connected_time":4594000000000,"state":"active","ping":48},{"user_id":489,"name":"Vince","steam_id":76561198128953279,"connected_time":3132000000000,"state":"active","ping":67},{"user_id":510,"name":"8 Ball","steam_id":76561197960988736,"connected_time":67000000000,"state":"active","ping":48},{"user_id":503,"name":"bikerkid207","steam_id":76561198390782783,"connected_time":824000000000,"state":"active","ping":116},{"user_id":437,"name":"waitrose gaming","steam_id":76561198011450253,"connected_time":8087000000000,"state":"active","ping":51},{"user_id":421,"name":"LordTrap.exe","steam_id":76561198318089716,"connected_time":9242000000000,"state":"active","ping":57},{"user_id":511,"name":"bernkastel","steam_id":76561198030909125,"connected_time":65000000000,"state":"active","ping":78},{"user_id":494,"name":"jermany","steam_id":76561198126599355,"connected_time":2020000000000,"state":"active","ping":59},{"user_id":502,"name":"❤︎WarMole❤","steam_id":76561198104248760,"connected_time":983000000000,"state":"active","ping":67},{"user_id":478,"name":"BreadBubbles","steam_id":76561198174332826,"connected_time":4316000000000,"state":"active","ping":58},{"user_id":500,"name":"KermSlinger","steam_id":76561198854027069,"connected_time":1128000000000,"state":"active","ping":66}]},{"server_id":114,"name":"Uncletopia | London | 2 | All Maps","name_short":"lon-2","host":"lon-1.uk.uncletopia.com","port":27025,"enabled":true,"region":"eu","cc":"gb","latitude":51.509865,"longitude":-0.118092,"reserved":0,"last_update":"0001-01-01T00:00:00Z","name_a2s":"Uncletopia | London | 2 | All Maps","protocol":17,"map":"koth_lakeside_final","folder":"tf","game":"Team Fortress","app_id":440,"player_count":0,"max_players":24,"Bots":0,"server_type":"Dedicated","server_os":"Linux","password":true,"vac":true,"version":"7961495","steam_id":85568392924470941,"keywords":["cp","nocrits","nodmgspread","uncletopia"],"game_id":440,"stv_port":27026,"stv_name":"Uncletopia | London | 2 | All Maps | STV","players":null},{"server_id":320,"name":"Uncletopia | London | 3 | All Maps","name_short":"lon-3","host":"lon-1.uk.uncletopia.com","port":27035,"enabled":true,"region":"eu","cc":"gb","latitude":51.509865,"longitude":-0.118092,"reserved":0,"last_update":"0001-01-01T00:00:00Z","name_a2s":"Uncletopia | London | 3 | All Maps","protocol":17,"map":"pl_borneo","folder":"tf","game":"Team Fortress","app_id":440,"player_count":24,"max_players":24,"Bots":0,"server_type":"Dedicated","server_os":"Linux","password":true,"vac":true,"version":"7961495","steam_id":85568392924510192,"keywords":["nocrits","nodmgspread","payload","uncletopia"],"game_id":440,"stv_port":27036,"stv_name":"Uncletopia | London | 3 | All Maps | STV","players":[{"user_id":113,"name":"Doogie","steam_id":76561198846924693,"connected_time":993000000000,"state":"active","ping":51},{"user_id":128,"name":"Jyghc","steam_id":76561198405980575,"connected_time":745000000000,"state":"active","ping":72},{"user_id":112,"name":"emag live","steam_id":76561198047164140,"connected_time":1017000000000,"state":"active","ping":60},{"user_id":73,"name":"AnanasGerste","steam_id":76561198133825211,"connected_time":4918000000000,"state":"active","ping":61},{"user_id":114,"name":"Jean-Marie D'hermoz","steam_id":76561198243205796,"connected_time":977000000000,"state":"active","ping":75},{"user_id":115,"name":"Gohan","steam_id":76561198064498302,"connected_time":976000000000,"state":"active","ping":68},{"user_id":129,"name":"Jahmez Lyin","steam_id":76561198065785912,"connected_time":735000000000,"state":"active","ping":59},{"user_id":59,"name":"Rin-Nakaret","steam_id":76561197971051188,"connected_time":5923000000000,"state":"active","ping":59},{"user_id":56,"name":"Nittugai","steam_id":76561198067366462,"connected_time":6026000000000,"state":"active","ping":60},{"user_id":79,"name":"Ascended Noob","steam_id":76561198079411460,"connected_time":4849000000000,"state":"active","ping":44},{"user_id":137,"name":"Fluffy","steam_id":76561198084447725,"connected_time":460000000000,"state":"active","ping":46},{"user_id":133,"name":"[\u003e.\u003c]7","steam_id":76561198095560087,"connected_time":571000000000,"state":"active","ping":78},{"user_id":38,"name":"Çodar","steam_id":76561198235518444,"connected_time":6315000000000,"state":"active","ping":39},{"user_id":139,"name":"night.s","steam_id":76561198326287823,"connected_time":7000000000,"state":"spawning","ping":74},{"user_id":138,"name":"MargoulGetron","steam_id":76561198020551698,"connected_time":206000000000,"state":"active","ping":57},{"user_id":131,"name":"brtaba","steam_id":76561198796334790,"connected_time":724000000000,"state":"active","ping":70},{"user_id":104,"name":"rachel aldana's massive milkers","steam_id":76561198025916703,"connected_time":2480000000000,"state":"active","ping":60},{"user_id":105,"name":"Udinese Dion","steam_id":76561198067931573,"connected_time":2284000000000,"state":"active","ping":60},{"user_id":83,"name":"Refurbished Boy","steam_id":76561197995834697,"connected_time":4811000000000,"state":"active","ping":105},{"user_id":119,"name":"Industrial Revolution","steam_id":76561198230811124,"connected_time":921000000000,"state":"active","ping":67},{"user_id":101,"name":"cansado","steam_id":76561198003898089,"connected_time":2976000000000,"state":"active","ping":72},{"user_id":135,"name":"DrFast","steam_id":76561198138637093,"connected_time":532000000000,"state":"active","ping":81},{"user_id":120,"name":"Chambersite","steam_id":76561198197022399,"connected_time":918000000000,"state":"active","ping":79},{"user_id":121,"name":"Even Rüüd","steam_id":76561197981144291,"connected_time":913000000000,"state":"active","ping":72}]},{"server_id":321,"name":"Uncletopia | London | 4 | All Maps","name_short":"lon-4","host":"lon-1.uk.uncletopia.com","port":27045,"enabled":true,"region":"eu","cc":"gb","latitude":51.509865,"longitude":-0.118092,"reserved":0,"last_update":"0001-01-01T00:00:00Z","name_a2s":"Uncletopia | London | 4 | All Maps","protocol":17,"map":"pl_frontier_final","folder":"tf","game":"Team Fortress","app_id":440,"player_count":24,"max_players":24,"Bots":0,"server_type":"Dedicated","server_os":"Linux","password":true,"vac":true,"version":"7961495","steam_id":85568392924510193,"keywords":["nocrits","nodmgspread","payload","uncletopia"],"game_id":440,"stv_port":27046,"stv_name":"Uncletopia | London | 4 | All Maps | STV","players":[{"user_id":48,"name":"sBLOCKER  85","steam_id":76561198939078994,"connected_time":2822000000000,"state":"active","ping":149},{"user_id":70,"name":"sniper speedrun carbine","steam_id":76561198235814492,"connected_time":1919000000000,"state":"active","ping":80},{"user_id":18,"name":"Sheen (Khang)","steam_id":76561198371062974,"connected_time":4436000000000,"state":"active","ping":92},{"user_id":72,"name":"Vivon","steam_id":76561198830042245,"connected_time":1849000000000,"state":"active","ping":133},{"user_id":71,"name":"Da pidro's laif!","steam_id":76561198961095597,"connected_time":1907000000000,"state":"active","ping":122},{"user_id":81,"name":"wah","steam_id":76561198831652772,"connected_time":737000000000,"state":"active","ping":122},{"user_id":24,"name":"Keho","steam_id":76561198087962709,"connected_time":4030000000000,"state":"active","ping":71},{"user_id":25,"name":"A cretin","steam_id":76561198848650365,"connected_time":3968000000000,"state":"active","ping":79},{"user_id":91,"name":"rets_","steam_id":76561198061551392,"connected_time":294000000000,"state":"active","ping":53},{"user_id":89,"name":"Jabussy","steam_id":76561198111148719,"connected_time":309000000000,"state":"active","ping":71},{"user_id":61,"name":"Jonny J","steam_id":76561198027710849,"connected_time":2065000000000,"state":"active","ping":86},{"user_id":88,"name":"Mega Saturn","steam_id":76561198024750500,"connected_time":309000000000,"state":"active","ping":86},{"user_id":73,"name":"minecraft version 1.7.2","steam_id":76561198002451113,"connected_time":1821000000000,"state":"active","ping":97},{"user_id":77,"name":"Uselss Joe","steam_id":76561198275853629,"connected_time":1267000000000,"state":"active","ping":60},{"user_id":78,"name":"Henry Fonda","steam_id":76561199378865926,"connected_time":1180000000000,"state":"active","ping":90},{"user_id":92,"name":"Birch","steam_id":76561197998712822,"connected_time":288000000000,"state":"active","ping":46},{"user_id":79,"name":"That Bussy Can Squirt","steam_id":76561199185615752,"connected_time":1042000000000,"state":"active","ping":55},{"user_id":90,"name":"WolfmanCZ","steam_id":76561199157141414,"connected_time":307000000000,"state":"active","ping":75},{"user_id":39,"name":"꧁๖乡Ðe·SexyLion乡꧂","steam_id":76561198123539320,"connected_time":3648000000000,"state":"active","ping":91},{"user_id":93,"name":"Bad Dev","steam_id":76561197970632049,"connected_time":288000000000,"state":"active","ping":89},{"user_id":85,"name":"High-Key Cat","steam_id":76561198012929012,"connected_time":618000000000,"state":"active","ping":67},{"user_id":84,"name":"Mobster Tortoise","steam_id":76561199036837091,"connected_time":683000000000,"state":"active","ping":91},{"user_id":65,"name":"i have a micropenis","steam_id":76561199009805208,"connected_time":1976000000000,"state":"active","ping":114},{"user_id":87,"name":"gronk","steam_id":76561199031539961,"connected_time":407000000000,"state":"active","ping":63}]},{"server_id":21,"name":"Uncletopia | London | 5 | All Maps","name_short":"lon-5","host":"lon-1.uk.uncletopia.com","port":27055,"enabled":true,"region":"eu","cc":"gb","latitude":51.509865,"longitude":-0.118092,"reserved":0,"last_update":"0001-01-01T00:00:00Z","name_a2s":"Uncletopia | London | 5 | All Maps","protocol":17,"map":"koth_lakeside_final","folder":"tf","game":"Team Fortress","app_id":440,"player_count":17,"max_players":24,"Bots":0,"server_type":"Dedicated","server_os":"Linux","password":true,"vac":true,"version":"7961495","steam_id":85568392924742829,"keywords":["cp","nocrits","nodmgspread","uncletopia"],"game_id":440,"stv_port":27056,"stv_name":"Uncletopia | London | 5 | All Maps | STV","players":[{"user_id":11,"name":"Fyann","steam_id":76561199139052789,"connected_time":1040000000000,"state":"active","ping":83},{"user_id":12,"name":"Skellettos","steam_id":76561198886981662,"connected_time":896000000000,"state":"active","ping":66},{"user_id":13,"name":"KENZO","steam_id":76561197993520279,"connected_time":689000000000,"state":"active","ping":79},{"user_id":14,"name":"Dispenser Here!","steam_id":76561199091240203,"connected_time":616000000000,"state":"active","ping":31},{"user_id":16,"name":"Ontly™","steam_id":76561199183874065,"connected_time":595000000000,"state":"active","ping":72},{"user_id":21,"name":"LowTierSous","steam_id":76561199147513580,"connected_time":270000000000,"state":"active","ping":94},{"user_id":18,"name":"Geoff the Oracle","steam_id":76561198053759965,"connected_time":548000000000,"state":"active","ping":59},{"user_id":19,"name":"nano","steam_id":76561199220439812,"connected_time":417000000000,"state":"active","ping":52},{"user_id":22,"name":"Ritzy","steam_id":76561198381955342,"connected_time":266000000000,"state":"active","ping":51},{"user_id":23,"name":"The Rozzler","steam_id":76561198066282859,"connected_time":260000000000,"state":"active","ping":40},{"user_id":24,"name":"Grimbo","steam_id":76561198826767537,"connected_time":249000000000,"state":"active","ping":131},{"user_id":25,"name":"Lupine Primogen","steam_id":76561198028921204,"connected_time":195000000000,"state":"active","ping":90},{"user_id":26,"name":"Fus in Boots","steam_id":76561198053897722,"connected_time":168000000000,"state":"active","ping":61},{"user_id":27,"name":"ivanhus_","steam_id":76561199048134719,"connected_time":110000000000,"state":"active","ping":89},{"user_id":28,"name":"spacenano","steam_id":76561198139798583,"connected_time":79000000000,"state":"active","ping":47},{"user_id":29,"name":"Joshass","steam_id":76561198062663024,"connected_time":78000000000,"state":"active","ping":73},{"user_id":30,"name":"bitkomet","steam_id":76561198058232147,"connected_time":37000000000,"state":"active","ping":76}]},{"server_id":22,"name":"Uncletopia | London | 6 | All Maps","name_short":"lon-6","host":"lon-1.uk.uncletopia.com","port":27065,"enabled":true,"region":"eu","cc":"gb","latitude":51.509865,"longitude":-0.118092,"reserved":0,"last_update":"0001-01-01T00:00:00Z","name_a2s":"Uncletopia | London | 6 | All Maps","protocol":17,"map":"pl_borneo","folder":"tf","game":"Team Fortress","app_id":440,"player_count":24,"max_players":24,"Bots":0,"server_type":"Dedicated","server_os":"Linux","password":true,"vac":true,"version":"7961495","steam_id":85568392924742830,"keywords":["nocrits","nodmgspread","payload","uncletopia"],"game_id":440,"stv_port":27066,"stv_name":"Uncletopia | London | 6 | All Maps | STV","players":[{"user_id":280,"name":"Pinkchup","steam_id":76561198106802803,"connected_time":4187000000000,"state":"active","ping":75},{"user_id":303,"name":"dmEngineer_tf2 #SaveTF2","steam_id":76561199388956338,"connected_time":1932000000000,"state":"active","ping":85},{"user_id":283,"name":"Hok","steam_id":76561198354431918,"connected_time":3177000000000,"state":"active","ping":45},{"user_id":245,"name":"fence_","steam_id":76561198150386379,"connected_time":6693000000000,"state":"active","ping":46},{"user_id":281,"name":"Minimi","steam_id":76561198873850443,"connected_time":4186000000000,"state":"active","ping":42},{"user_id":304,"name":"Fissure","steam_id":76561198272595481,"connected_time":1917000000000,"state":"active","ping":67},{"user_id":299,"name":"veki177","steam_id":76561199059047474,"connected_time":2475000000000,"state":"active","ping":93},{"user_id":295,"name":"Topool45","steam_id":76561199161389847,"connected_time":2588000000000,"state":"active","ping":90},{"user_id":305,"name":"Riko","steam_id":76561199057643011,"connected_time":1865000000000,"state":"active","ping":50},{"user_id":288,"name":"Pottery Knight","steam_id":76561198094455814,"connected_time":2924000000000,"state":"active","ping":85},{"user_id":173,"name":"After8","steam_id":76561198090750865,"connected_time":11830000000000,"state":"active","ping":75},{"user_id":279,"name":"mixxxa_french","steam_id":76561198085098243,"connected_time":4940000000000,"state":"active","ping":121},{"user_id":270,"name":"Hamedius","steam_id":76561199152512027,"connected_time":5265000000000,"state":"active","ping":71},{"user_id":308,"name":"Jughead","steam_id":76561198000355410,"connected_time":1364000000000,"state":"active","ping":45},{"user_id":316,"name":"Speltok","steam_id":76561198084028223,"connected_time":379000000000,"state":"active","ping":96},{"user_id":278,"name":"Chiabuvis","steam_id":76561198450037172,"connected_time":4959000000000,"state":"active","ping":71},{"user_id":290,"name":"alpha","steam_id":76561198250491640,"connected_time":2882000000000,"state":"active","ping":50},{"user_id":311,"name":"lillunya ♡","steam_id":76561198330418866,"connected_time":956000000000,"state":"active","ping":69},{"user_id":300,"name":"Rezzarezz","steam_id":76561198092020043,"connected_time":2304000000000,"state":"active","ping":68},{"user_id":309,"name":"TreatFly","steam_id":76561198069707362,"connected_time":1286000000000,"state":"active","ping":58},{"user_id":307,"name":"GLUEEATER hedon/","steam_id":76561198249832770,"connected_time":1435000000000,"state":"active","ping":47},{"user_id":310,"name":"Man with passion for Oil","steam_id":76561199384193338,"connected_time":968000000000,"state":"active","ping":67},{"user_id":292,"name":"Hej sokoły!","steam_id":76561198406300604,"connected_time":2796000000000,"state":"active","ping":98},{"user_id":319,"name":".morale-","steam_id":76561198102195119,"connected_time":303000000000,"state":"active","ping":30}]},{"server_id":40,"name":"Uncletopia | London | 7 | Stopwatch","name_short":"lon-7","host":"lon-1.uk.uncletopia.com","port":27075,"enabled":true,"region":"eu","cc":"gb","latitude":51.509865,"longitude":-0.118092,"reserved":0,"last_update":"0001-01-01T00:00:00Z","name_a2s":"Uncletopia | London | 7 | Stopwatch","protocol":17,"map":"koth_lakeside_final","folder":"tf","game":"Team Fortress","app_id":440,"player_count":0,"max_players":24,"Bots":0,"server_type":"Dedicated","server_os":"Linux","password":true,"vac":true,"version":"7961495","steam_id":85568392924964314,"keywords":["cp","nocrits","nodmgspread","uncletopia"],"game_id":440,"stv_port":27076,"stv_name":"Uncletopia | London | 7 | Stopwatch | STV","players":null},{"server_id":41,"name":"Uncletopia | London | 8 | Community","name_short":"lon-8","host":"lon-1.uk.uncletopia.com","port":27085,"enabled":true,"region":"eu","cc":"gb","latitude":51.509865,"longitude":-0.118092,"reserved":0,"last_update":"0001-01-01T00:00:00Z","name_a2s":"Uncletopia | London | 8 | Community","protocol":17,"map":"workshop/koth_bagel_rc6.ugc2514036946","folder":"tf","game":"Team Fortress","app_id":440,"player_count":0,"max_players":24,"Bots":0,"server_type":"Dedicated","server_os":"Linux","password":true,"vac":true,"version":"7961495","steam_id":85568392924964315,"keywords":["cp","nocrits","nodmgspread","uncletopia"],"game_id":440,"stv_port":27086,"stv_name":"Uncletopia | London | 8 | Community | STV","players":null},{"server_id":300,"name":"Uncletopia | Montréal | 1 | All Maps","name_short":"mtl-1","host":"mtl-1.ca.uncletopia.com","port":27015,"enabled":true,"region":"us-east","cc":"ca","latitude":45.50889,"longitude":-73.56167,"reserved":0,"last_update":"0001-01-01T00:00:00Z","name_a2s":"","protocol":0,"map":"","folder":"","game":"","app_id":0,"player_count":0,"max_players":0,"Bots":0,"server_type":"","server_os":"","password":false,"vac":false,"version":"","steam_id":0,"keywords":null,"game_id":0,"stv_port":0,"stv_name":"","players":null},{"server_id":301,"name":"Uncletopia | Montréal | 2 | ???","name_short":"mtl-2","host":"mtl-1.ca.uncletopia.com","port":27025,"enabled":true,"region":"us-east","cc":"ca","latitude":45.50889,"longitude":-73.56167,"reserved":0,"last_update":"0001-01-01T00:00:00Z","name_a2s":"","protocol":0,"map":"","folder":"","game":"","app_id":0,"player_count":0,"max_players":0,"Bots":0,"server_type":"","server_os":"","password":false,"vac":false,"version":"","steam_id":0,"keywords":null,"game_id":0,"stv_port":0,"stv_name":"","players":null},{"server_id":13,"name":"Uncletopia | New York City | 1 | All Maps","name_short":"nyc-1","host":"nyc-1.us.uncletopia.com","port":27015,"enabled":true,"region":"us-east","cc":"us","latitude":40.73061,"longitude":-73.93524,"reserved":0,"last_update":"0001-01-01T00:00:00Z","name_a2s":"Uncletopia | New York City | 1 | All Maps","protocol":17,"map":"cp_snakewater_final1","folder":"tf","game":"Team Fortress","app_id":440,"player_count":24,"max_players":24,"Bots":0,"server_type":"Dedicated","server_os":"Linux","password":true,"vac":true,"version":"7961495","steam_id":85568392924469993,"keywords":["cp","nocrits","nodmgspread","uncletopia"],"game_id":440,"stv_port":27016,"stv_name":"Uncletopia | New York City | 1 | All Maps | STV","players":[{"user_id":118,"name":"Larry Fisherman","steam_id":76561198068654532,"connected_time":4357000000000,"state":"active","ping":49},{"user_id":145,"name":"Spy on Training","steam_id":76561198872678762,"connected_time":2103000000000,"state":"active","ping":121},{"user_id":158,"name":"zippy koots","steam_id":76561197981353938,"connected_time":1234000000000,"state":"active","ping":101},{"user_id":107,"name":"9AM | Lunean LFP","steam_id":76561198106546230,"connected_time":4916000000000,"state":"active","ping":58},{"user_id":77,"name":"indi","steam_id":76561198045917538,"connected_time":7267000000000,"state":"active","ping":73},{"user_id":170,"name":"Minus 8","steam_id":76561198812090491,"connected_time":116000000000,"state":"active","ping":127},{"user_id":159,"name":"Poop Deck Joe","steam_id":76561198271397568,"connected_time":1232000000000,"state":"active","ping":88},{"user_id":168,"name":"new york city pizza rat","steam_id":76561198202589758,"connected_time":295000000000,"state":"active","ping":72},{"user_id":127,"name":"Flap","steam_id":76561198078889633,"connected_time":3686000000000,"state":"active","ping":71},{"user_id":137,"name":"neet","steam_id":76561197968115168,"connected_time":3056000000000,"state":"active","ping":46},{"user_id":143,"name":"pussyclapper69 (Ape)","steam_id":76561198237827742,"connected_time":2243000000000,"state":"active","ping":42},{"user_id":165,"name":"Im High","steam_id":76561198049954886,"connected_time":600000000000,"state":"active","ping":55},{"user_id":157,"name":"Rigby","steam_id":76561198258121396,"connected_time":1382000000000,"state":"active","ping":84},{"user_id":162,"name":"pnut","steam_id":76561198043862737,"connected_time":960000000000,"state":"active","ping":45},{"user_id":166,"name":"Moonman327","steam_id":76561197992616059,"connected_time":588000000000,"state":"active","ping":72},{"user_id":171,"name":"Mushroom","steam_id":76561198980693043,"connected_time":61000000000,"state":"active","ping":67},{"user_id":167,"name":"e","steam_id":76561198137759797,"connected_time":575000000000,"state":"active","ping":139},{"user_id":155,"name":"Obama F. Kennedy","steam_id":76561198282499318,"connected_time":1763000000000,"state":"active","ping":56},{"user_id":126,"name":"sqerkbo","steam_id":76561198080012700,"connected_time":3987000000000,"state":"active","ping":48},{"user_id":164,"name":"AliveChimera","steam_id":76561198026857731,"connected_time":793000000000,"state":"active","ping":83},{"user_id":169,"name":"epsilene","steam_id":76561198027468624,"connected_time":166000000000,"state":"active","ping":44},{"user_id":151,"name":"Dum_Bass(Fish)","steam_id":76561197988105207,"connected_time":1883000000000,"state":"active","ping":63},{"user_id":156,"name":"JoCaleb02","steam_id":76561198272389829,"connected_time":1731000000000,"state":"active","ping":59},{"user_id":161,"name":"EpicManCoolKid","steam_id":76561198253462393,"connected_time":992000000000,"state":"active","ping":75}]},{"server_id":14,"name":"Uncletopia | New York City | 2 | All Maps","name_short":"nyc-2","host":"nyc-1.us.uncletopia.com","port":27025,"enabled":true,"region":"us-east","cc":"us","latitude":40.73061,"longitude":-73.93524,"reserved":0,"last_update":"0001-01-01T00:00:00Z","name_a2s":"Uncletopia | New York City | 2 | All Maps","protocol":17,"map":"pl_snowycoast","folder":"tf","game":"Team Fortress","app_id":440,"player_count":0,"max_players":24,"Bots":0,"server_type":"Dedicated","server_os":"Linux","password":true,"vac":true,"version":"7961495","steam_id":85568392924469994,"keywords":["nocrits","nodmgspread","payload","uncletopia"],"game_id":440,"stv_port":27026,"stv_name":"Uncletopia | New York City | 2 | All Maps | STV","players":null},{"server_id":15,"name":"Uncletopia | New York City | 3 | Stopwatch","name_short":"nyc-3","host":"nyc-1.us.uncletopia.com","port":27035,"enabled":true,"region":"us-east","cc":"us","latitude":40.73061,"longitude":-73.93524,"reserved":0,"last_update":"0001-01-01T00:00:00Z","name_a2s":"Uncletopia | New York City | 3 | Stopwatch","protocol":17,"map":"workshop/pl_badwater_pro_v12.ugc2142942074","folder":"tf","game":"Team Fortress","app_id":440,"player_count":0,"max_players":24,"Bots":0,"server_type":"Dedicated","server_os":"Linux","password":true,"vac":true,"version":"7961495","steam_id":85568392924742820,"keywords":["nocrits","nodmgspread","payload","uncletopia"],"game_id":440,"stv_port":27036,"stv_name":"Uncletopia | New York City | 3 | Stopwatch | STV","players":null},{"server_id":16,"name":"Uncletopia | New York City | 4 | Community","name_short":"nyc-4","host":"nyc-1.us.uncletopia.com","port":27045,"enabled":true,"region":"us-east","cc":"us","latitude":40.73061,"longitude":-73.93524,"reserved":0,"last_update":"0001-01-01T00:00:00Z","name_a2s":"Uncletopia | New York City | 4 | Community","protocol":17,"map":"cp_altitude","folder":"tf","game":"Team Fortress","app_id":440,"player_count":0,"max_players":24,"Bots":0,"server_type":"Dedicated","server_os":"Linux","password":true,"vac":true,"version":"7961495","steam_id":85568392924742821,"keywords":["cp","nocrits","nodmgspread","uncletopia"],"game_id":440,"stv_port":27046,"stv_name":"Uncletopia | New York City | 4 | Community | STV","players":null},{"server_id":142,"name":"Uncletopia | São Paulo | 1 | All Maps","name_short":"sao-1","host":"sao-1.br.uncletopia.com","port":27015,"enabled":true,"region":"sa","cc":"br","latitude":-23.533773,"longitude":-46.62529,"reserved":0,"last_update":"0001-01-01T00:00:00Z","name_a2s":"Uncletopia | São Paulo | 1 | All Maps","protocol":17,"map":"koth_viaduct","folder":"tf","game":"Team Fortress","app_id":440,"player_count":0,"max_players":24,"Bots":0,"server_type":"Dedicated","server_os":"Linux","password":true,"vac":true,"version":"7961495","steam_id":85568392924469996,"keywords":["cp","nocrits","nodmgspread","uncletopia"],"game_id":440,"stv_port":27016,"stv_name":"Uncletopia | São Paulo | 1 | All Maps | STV","players":null},{"server_id":143,"name":"Uncletopia | São Paulo | 2 | Community","name_short":"sao-2","host":"sao-2.br.uncletopia.com","port":27015,"enabled":true,"region":"sa","cc":"br","latitude":-23.533773,"longitude":-46.62529,"reserved":0,"last_update":"0001-01-01T00:00:00Z","name_a2s":"Uncletopia | São Paulo | 2 | Community","protocol":17,"map":"pl_badwater","folder":"tf","game":"Team Fortress","app_id":440,"player_count":0,"max_players":24,"Bots":0,"server_type":"Dedicated","server_os":"Linux","password":true,"vac":true,"version":"7961495","steam_id":85568392924485349,"keywords":["nocrits","nodmgspread","payload","uncletopia"],"game_id":440,"stv_port":27016,"stv_name":"Uncletopia | São Paulo | 2 | Community | STV","players":null},{"server_id":7,"name":"Uncletopia | Seattle | 1 | All Maps","name_short":"sea-1","host":"sea-1.us.uncletopia.com","port":27015,"enabled":true,"region":"us-west","cc":"us","latitude":47.608013,"longitude":-122.33517,"reserved":0,"last_update":"0001-01-01T00:00:00Z","name_a2s":"Uncletopia | Seattle | 1 | All Maps","protocol":17,"map":"pl_badwater","folder":"tf","game":"Team Fortress","app_id":440,"player_count":24,"max_players":24,"Bots":0,"server_type":"Dedicated","server_os":"Linux","password":true,"vac":true,"version":"7961495","steam_id":85568392924469997,"keywords":["nocrits","nodmgspread","payload","uncletopia"],"game_id":440,"stv_port":27016,"stv_name":"Uncletopia | Seattle | 1 | All Maps | STV","players":[{"user_id":165,"name":"Goozrat","steam_id":76561198399281848,"connected_time":1440000000000,"state":"active","ping":127},{"user_id":126,"name":"Booticles The Dickstroyer","steam_id":76561198043314392,"connected_time":4210000000000,"state":"active","ping":53},{"user_id":166,"name":"GX thedittoguy","steam_id":76561199013129784,"connected_time":1434000000000,"state":"active","ping":96},{"user_id":168,"name":"Bombat","steam_id":76561198083096946,"connected_time":1330000000000,"state":"active","ping":97},{"user_id":187,"name":"Outcast_","steam_id":76561199122744740,"connected_time":480000000000,"state":"active","ping":118},{"user_id":155,"name":"float","steam_id":76561198363371528,"connected_time":1705000000000,"state":"active","ping":51},{"user_id":158,"name":"Ranch","steam_id":76561198035557013,"connected_time":1594000000000,"state":"active","ping":95},{"user_id":186,"name":"Rustyorion","steam_id":76561198439186347,"connected_time":532000000000,"state":"active","ping":55},{"user_id":132,"name":"Xynnan","steam_id":76561198122232186,"connected_time":4036000000000,"state":"active","ping":99},{"user_id":178,"name":"Thrasher","steam_id":76561197977801547,"connected_time":755000000000,"state":"active","ping":135},{"user_id":182,"name":"Jimjonjoe","steam_id":76561199195695913,"connected_time":646000000000,"state":"active","ping":93},{"user_id":162,"name":"SneekiCheekiQbone","steam_id":76561198045077980,"connected_time":1487000000000,"state":"active","ping":73},{"user_id":170,"name":"TheSmokingMan","steam_id":76561198032652995,"connected_time":1214000000000,"state":"active","ping":96},{"user_id":183,"name":"great value","steam_id":76561198368978553,"connected_time":635000000000,"state":"active","ping":114},{"user_id":173,"name":"radiation","steam_id":76561198001157602,"connected_time":1119000000000,"state":"active","ping":134},{"user_id":174,"name":"mommy joder","steam_id":76561198131833567,"connected_time":976000000000,"state":"active","ping":69},{"user_id":184,"name":"Nico The Cheese","steam_id":76561199065272792,"connected_time":624000000000,"state":"active","ping":84},{"user_id":138,"name":"infetterence","steam_id":76561198410078962,"connected_time":3753000000000,"state":"active","ping":87},{"user_id":185,"name":"Flea103","steam_id":76561198085863864,"connected_time":622000000000,"state":"active","ping":92},{"user_id":179,"name":"AceDeuce","steam_id":76561198049904924,"connected_time":728000000000,"state":"active","ping":104},{"user_id":154,"name":"risk","steam_id":76561197990096353,"connected_time":1793000000000,"state":"active","ping":41},{"user_id":177,"name":"The Professor","steam_id":76561198046165617,"connected_time":845000000000,"state":"active","ping":96},{"user_id":98,"name":"FrostNova","steam_id":76561198348354629,"connected_time":6821000000000,"state":"active","ping":75},{"user_id":145,"name":"FlamingManiac","steam_id":76561198361996837,"connected_time":2854000000000,"state":"active","ping":137}]},{"server_id":119,"name":"Uncletopia | Seattle | 2 | All Maps","name_short":"sea-2","host":"sea-1.us.uncletopia.com","port":27025,"enabled":true,"region":"us-west","cc":"us","latitude":47.608013,"longitude":-122.33517,"reserved":0,"last_update":"0001-01-01T00:00:00Z","name_a2s":"Uncletopia | Seattle | 2 | All Maps","protocol":17,"map":"cp_mountainlab","folder":"tf","game":"Team Fortress","app_id":440,"player_count":0,"max_players":24,"Bots":0,"server_type":"Dedicated","server_os":"Linux","password":true,"vac":true,"version":"7961495","steam_id":85568392924469998,"keywords":["cp","nocrits","nodmgspread","uncletopia"],"game_id":440,"stv_port":27026,"stv_name":"Uncletopia | Seattle | 2 | All Maps | STV","players":null},{"server_id":406,"name":"Uncletopia | Seattle | 3 | Stopwatch","name_short":"sea-3","host":"sea-1.us.uncletopia.com","port":27035,"enabled":true,"region":"us-west","cc":"us","latitude":47.608013,"longitude":-122.33517,"reserved":0,"last_update":"0001-01-01T00:00:00Z","name_a2s":"Uncletopia | Seattle | 3 | Stopwatch","protocol":17,"map":"cp_snakewater_final1","folder":"tf","game":"Team Fortress","app_id":440,"player_count":0,"max_players":24,"Bots":0,"server_type":"Dedicated","server_os":"Linux","password":true,"vac":true,"version":"7961495","steam_id":85568392924515217,"keywords":["cp","nocrits","nodmgspread","uncletopia"],"game_id":440,"stv_port":27036,"stv_name":"Uncletopia | Seattle | 3 | Stopwatch | STV","players":null},{"server_id":17,"name":"Uncletopia | San Francisco | 1 | All Maps","name_short":"sfo-1","host":"sfo-1.us.uncletopia.com","port":27015,"enabled":true,"region":"us-west","cc":"us","latitude":37.77397,"longitude":-122.4313,"reserved":0,"last_update":"0001-01-01T00:00:00Z","name_a2s":"Uncletopia | San Francisco | 1 | All Maps","protocol":17,"map":"koth_cascade","folder":"tf","game":"Team Fortress","app_id":440,"player_count":0,"max_players":24,"Bots":0,"server_type":"Dedicated","server_os":"Linux","password":true,"vac":true,"version":"7961495","steam_id":85568392924469999,"keywords":["cp","nocrits","nodmgspread","uncletopia"],"game_id":440,"stv_port":27016,"stv_name":"Uncletopia | San Francisco | 1 | All Maps | STV","players":null},{"server_id":18,"name":"Uncletopia | San Francisco | 2 | All Maps","name_short":"sfo-2","host":"sfo-1.us.uncletopia.com","port":27025,"enabled":true,"region":"us-west","cc":"us","latitude":37.77397,"longitude":-122.4313,"reserved":0,"last_update":"0001-01-01T00:00:00Z","name_a2s":"Uncletopia | San Francisco | 2 | All Maps","protocol":17,"map":"pl_frontier_final","folder":"tf","game":"Team Fortress","app_id":440,"player_count":0,"max_players":24,"Bots":0,"server_type":"Dedicated","server_os":"Linux","password":true,"vac":true,"version":"7961495","steam_id":85568392924470000,"keywords":["nocrits","nodmgspread","payload","uncletopia"],"game_id":440,"stv_port":27026,"stv_name":"Uncletopia | San Francisco | 2 | All Maps | STV","players":null},{"server_id":19,"name":"Uncletopia | San Francisco | 3 | Stopwatch","name_short":"sfo-3","host":"sfo-1.us.uncletopia.com","port":27035,"enabled":true,"region":"us-west","cc":"us","latitude":37.77397,"longitude":-122.4313,"reserved":0,"last_update":"0001-01-01T00:00:00Z","name_a2s":"Uncletopia | San Francisco | 3 | Stopwatch","protocol":17,"map":"pl_pier","folder":"tf","game":"Team Fortress","app_id":440,"player_count":0,"max_players":24,"Bots":0,"server_type":"Dedicated","server_os":"Linux","password":true,"vac":true,"version":"7961495","steam_id":85568392924742824,"keywords":["nocrits","nodmgspread","payload","uncletopia"],"game_id":440,"stv_port":27036,"stv_name":"Uncletopia | San Francisco | 3 | Stopwatch | STV","players":null},{"server_id":20,"name":"Uncletopia | San Francisco | 4 | Community","name_short":"sfo-4","host":"sfo-1.us.uncletopia.com","port":27045,"enabled":true,"region":"us-west","cc":"us","latitude":37.77397,"longitude":-122.4313,"reserved":0,"last_update":"0001-01-01T00:00:00Z","name_a2s":"Uncletopia | San Francisco | 4 | Community","protocol":17,"map":"pl_pier","folder":"tf","game":"Team Fortress","app_id":440,"player_count":0,"max_players":24,"Bots":0,"server_type":"Dedicated","server_os":"Linux","password":true,"vac":true,"version":"7961495","steam_id":85568392924742826,"keywords":["nocrits","nodmgspread","payload","uncletopia"],"game_id":440,"stv_port":27046,"stv_name":"Uncletopia | San Francisco | 4 | Community | STV","players":null},{"server_id":141,"name":"Uncletopia | Sydney | 1 | All Maps","name_short":"syd-1","host":"syd-1.au.uncletopia.com","port":27015,"enabled":true,"region":"au","cc":"au","latitude":-33.865143,"longitude":151.2099,"reserved":0,"last_update":"0001-01-01T00:00:00Z","name_a2s":"Uncletopia | Sydney | 1 | All Maps","protocol":17,"map":"koth_lakeside_final","folder":"tf","game":"Team Fortress","app_id":440,"player_count":0,"max_players":24,"Bots":0,"server_type":"Dedicated","server_os":"Linux","password":true,"vac":true,"version":"7961495","steam_id":85568392924470001,"keywords":["cp","nocrits","nodmgspread","uncletopia"],"game_id":440,"stv_port":27016,"stv_name":"Uncletopia | Sydney | 1 | All Maps | STV","players":null},{"server_id":123,"name":"Uncletopia | Sydney | 2 | All Maps","name_short":"syd-2","host":"syd-1.au.uncletopia.com","port":27025,"enabled":true,"region":"au","cc":"au","latitude":-33.865143,"longitude":151.2099,"reserved":0,"last_update":"0001-01-01T00:00:00Z","name_a2s":"Uncletopia | Sydney | 2 | All Maps","protocol":17,"map":"koth_lakeside_final","folder":"tf","game":"Team Fortress","app_id":440,"player_count":0,"max_players":24,"Bots":0,"server_type":"Dedicated","server_os":"Linux","password":true,"vac":true,"version":"7961495","steam_id":85568392924470002,"keywords":["cp","nocrits","nodmgspread","uncletopia"],"game_id":440,"stv_port":27026,"stv_name":"Uncletopia | Sydney | 2 | All Maps | STV","players":null},{"server_id":395,"name":"Uncletopia | Sydney | 3 | All Maps","name_short":"syd-3","host":"syd-1.au.uncletopia.com","port":27035,"enabled":true,"region":"au","cc":"au","latitude":-33.865143,"longitude":151.2099,"reserved":0,"last_update":"0001-01-01T00:00:00Z","name_a2s":"Uncletopia | Sydney | 3 | All Maps","protocol":17,"map":"cp_dustbowl","folder":"tf","game":"Team Fortress","app_id":440,"player_count":0,"max_players":24,"Bots":0,"server_type":"Dedicated","server_os":"Linux","password":true,"vac":true,"version":"7961495","steam_id":85568392925194467,"keywords":["cp","nocrits","nodmgspread","uncletopia"],"game_id":440,"stv_port":27036,"stv_name":"Uncletopia | Sydney | 3 | All Maps | STV","players":null},{"server_id":396,"name":"Uncletopia | Sydney | 4 | All Maps","name_short":"syd-4","host":"syd-1.au.uncletopia.com","port":27045,"enabled":true,"region":"au","cc":"au","latitude":-33.865143,"longitude":151.2099,"reserved":0,"last_update":"0001-01-01T00:00:00Z","name_a2s":"Uncletopia | Sydney | 4 | All Maps","protocol":17,"map":"cp_sunshine","folder":"tf","game":"Team Fortress","app_id":440,"player_count":0,"max_players":24,"Bots":0,"server_type":"Dedicated","server_os":"Linux","password":true,"vac":true,"version":"7961495","steam_id":85568392925397958,"keywords":["cp","nocrits","nodmgspread","uncletopia"],"game_id":440,"stv_port":27046,"stv_name":"Uncletopia | Sydney | 4 | All Maps | STV","players":null},{"server_id":58,"name":"Uncletopia | Sydney | 5 | Stopwatch","name_short":"syd-5","host":"syd-1.au.uncletopia.com","port":27055,"enabled":true,"region":"au","cc":"au","latitude":-33.865143,"longitude":151.2099,"reserved":0,"last_update":"0001-01-01T00:00:00Z","name_a2s":"Uncletopia | Sydney | 5 | Stopwatch","protocol":17,"map":"workshop/koth_ashville_final.ugc2130459942","folder":"tf","game":"Team Fortress","app_id":440,"player_count":0,"max_players":24,"Bots":0,"server_type":"Dedicated","server_os":"Linux","password":true,"vac":true,"version":"7961495","steam_id":85568392925397959,"keywords":["cp","nocrits","nodmgspread","uncletopia"],"game_id":440,"stv_port":27056,"stv_name":"Uncletopia | Sydney | 5 | Stopwatch | STV","players":null},{"server_id":59,"name":"Uncletopia | Sydney | 6 | Community","name_short":"syd-6","host":"syd-1.au.uncletopia.com","port":27065,"enabled":true,"region":"au","cc":"au","latitude":-33.865143,"longitude":151.2099,"reserved":0,"last_update":"0001-01-01T00:00:00Z","name_a2s":"Uncletopia | Sydney | 6 | Community","protocol":17,"map":"workshop/koth_kemptown_rc1.ugc767410655","folder":"tf","game":"Team Fortress","app_id":440,"player_count":0,"max_players":24,"Bots":0,"server_type":"Dedicated","server_os":"Linux","password":true,"vac":true,"version":"7961495","steam_id":85568392925397960,"keywords":["cp","nocrits","nodmgspread","uncletopia"],"game_id":440,"stv_port":27066,"stv_name":"Uncletopia | Sydney | 6 | Community | STV","players":null},{"server_id":49,"name":"Uncletopia | Warsaw | 1 | All Maps","name_short":"waw-1","host":"waw-1.pl.uncletopia.com","port":27015,"enabled":true,"region":"eu","cc":"pl","latitude":52.2297,"longitude":21.017532,"reserved":0,"last_update":"0001-01-01T00:00:00Z","name_a2s":"Uncletopia | Warsaw | 1 | All Maps","protocol":17,"map":"koth_lakeside_final","folder":"tf","game":"Team Fortress","app_id":440,"player_count":0,"max_players":24,"Bots":0,"server_type":"Dedicated","server_os":"Linux","password":true,"vac":true,"version":"7961495","steam_id":85568392925397850,"keywords":["cp","nocrits","nodmgspread","uncletopia"],"game_id":440,"stv_port":27016,"stv_name":"Uncletopia | Warsaw | 1 | All Maps | STV","players":null},{"server_id":50,"name":"Uncletopia | Warsaw | 2 | All Maps","name_short":"waw-2","host":"waw-1.pl.uncletopia.com","port":27025,"enabled":true,"region":"eu","cc":"pl","latitude":52.2297,"longitude":21.017532,"reserved":0,"last_update":"0001-01-01T00:00:00Z","name_a2s":"Uncletopia | Warsaw | 2 | All Maps","protocol":17,"map":"pl_pier","folder":"tf","game":"Team Fortress","app_id":440,"player_count":23,"max_players":24,"Bots":0,"server_type":"Dedicated","server_os":"Linux","password":true,"vac":true,"version":"7961495","steam_id":85568392925397851,"keywords":["nocrits","nodmgspread","payload","uncletopia"],"game_id":440,"stv_port":27026,"stv_name":"Uncletopia | Warsaw | 2 | All Maps | STV","players":[{"user_id":159,"name":"abdpocoyo","steam_id":76561198094321481,"connected_time":1010000000000,"state":"active","ping":86},{"user_id":153,"name":"john fortress","steam_id":76561198013237629,"connected_time":1237000000000,"state":"active","ping":119},{"user_id":128,"name":"purplecan","steam_id":76561199208283508,"connected_time":2982000000000,"state":"active","ping":56},{"user_id":133,"name":"Spy uberer","steam_id":76561199165355017,"connected_time":2791000000000,"state":"active","ping":155},{"user_id":140,"name":"iswaxan","steam_id":76561199214988157,"connected_time":2410000000000,"state":"active","ping":98},{"user_id":135,"name":"0xDEADBEEF","steam_id":76561199075416111,"connected_time":2725000000000,"state":"active","ping":114},{"user_id":146,"name":"Philardo ✡","steam_id":76561198164516394,"connected_time":1622000000000,"state":"active","ping":82},{"user_id":98,"name":"1914","steam_id":76561198257383813,"connected_time":4703000000000,"state":"active","ping":58},{"user_id":165,"name":"gℓιgαℓιϯsүη #saveTF2","steam_id":76561198086528680,"connected_time":464000000000,"state":"active","ping":118},{"user_id":100,"name":"def","steam_id":76561198857396812,"connected_time":4641000000000,"state":"active","ping":47},{"user_id":158,"name":"chickenoidi","steam_id":76561198449498382,"connected_time":1050000000000,"state":"active","ping":136},{"user_id":142,"name":"LOBZIK","steam_id":76561198114830120,"connected_time":2056000000000,"state":"active","ping":53},{"user_id":127,"name":":)","steam_id":76561198039964082,"connected_time":3400000000000,"state":"active","ping":57},{"user_id":144,"name":"Gman","steam_id":76561198357543942,"connected_time":1817000000000,"state":"active","ping":109},{"user_id":163,"name":"PashaVerti","steam_id":76561199013963024,"connected_time":600000000000,"state":"active","ping":60},{"user_id":155,"name":"Black Mesa Employee","steam_id":76561198184151394,"connected_time":1231000000000,"state":"active","ping":75},{"user_id":148,"name":"Frager #trashrights","steam_id":76561198323411853,"connected_time":1544000000000,"state":"active","ping":66},{"user_id":149,"name":"TheEwaffle","steam_id":76561198058280997,"connected_time":1538000000000,"state":"active","ping":98},{"user_id":89,"name":"sparkynerd","steam_id":76561199040106887,"connected_time":5101000000000,"state":"active","ping":87},{"user_id":157,"name":"pisshead","steam_id":76561198003151589,"connected_time":1074000000000,"state":"active","ping":76},{"user_id":160,"name":"Cypher","steam_id":76561197996967254,"connected_time":1005000000000,"state":"active","ping":75},{"user_id":150,"name":"Mussolini","steam_id":76561198218384865,"connected_time":1527000000000,"state":"active","ping":114},{"user_id":161,"name":"Average meme enjoyer","steam_id":76561199087566663,"connected_time":707000000000,"state":"active","ping":63}]},{"server_id":51,"name":"Uncletopia | Warsaw | 3 | All Maps","name_short":"waw-3","host":"waw-1.pl.uncletopia.com","port":27035,"enabled":true,"region":"eu","cc":"pl","latitude":52.2297,"longitude":21.017532,"reserved":0,"last_update":"0001-01-01T00:00:00Z","name_a2s":"Uncletopia | Warsaw | 3 | All Maps","protocol":17,"map":"pl_upward","folder":"tf","game":"Team Fortress","app_id":440,"player_count":24,"max_players":24,"Bots":0,"server_type":"Dedicated","server_os":"Linux","password":true,"vac":true,"version":"7961495","steam_id":85568392925397852,"keywords":["nocrits","nodmgspread","payload","uncletopia"],"game_id":440,"stv_port":27036,"stv_name":"Uncletopia | Warsaw | 3 | All Maps | STV","players":[{"user_id":56,"name":"alice","steam_id":76561198269200388,"connected_time":6236000000000,"state":"active","ping":59},{"user_id":132,"name":"KaasKrans","steam_id":76561198240451972,"connected_time":2069000000000,"state":"active","ping":71},{"user_id":144,"name":"deepnotic","steam_id":76561199154324805,"connected_time":931000000000,"state":"active","ping":56},{"user_id":140,"name":"Vitun vittu","steam_id":76561198110679463,"connected_time":1082000000000,"state":"active","ping":93},{"user_id":136,"name":"Sniper Chimp","steam_id":76561198140107843,"connected_time":1855000000000,"state":"active","ping":49},{"user_id":154,"name":"bean","steam_id":76561198161013815,"connected_time":678000000000,"state":"active","ping":86},{"user_id":159,"name":".mostech","steam_id":76561198180506521,"connected_time":444000000000,"state":"active","ping":82},{"user_id":116,"name":"cobblestone","steam_id":76561198079123043,"connected_time":2500000000000,"state":"active","ping":90},{"user_id":117,"name":"Skalt","steam_id":76561198941117244,"connected_time":2485000000000,"state":"active","ping":99},{"user_id":114,"name":"Na záchodě","steam_id":76561198383952144,"connected_time":2556000000000,"state":"active","ping":104},{"user_id":142,"name":"Spongelica Slobblecoque","steam_id":76561198009072273,"connected_time":1010000000000,"state":"active","ping":69},{"user_id":145,"name":"jhwqb","steam_id":76561199397906541,"connected_time":931000000000,"state":"active","ping":120},{"user_id":155,"name":"please do not the cat","steam_id":76561198089003514,"connected_time":671000000000,"state":"active","ping":60},{"user_id":146,"name":"ПАПА","steam_id":76561199047376761,"connected_time":911000000000,"state":"active","ping":103},{"user_id":156,"name":"BŁäck..","steam_id":76561198300644952,"connected_time":614000000000,"state":"active","ping":90},{"user_id":157,"name":"Valoxi","steam_id":76561197995042938,"connected_time":602000000000,"state":"active","ping":89},{"user_id":149,"name":"Killbasa","steam_id":76561198064868400,"connected_time":855000000000,"state":"active","ping":154},{"user_id":151,"name":"Strangerdanger","steam_id":76561198206728500,"connected_time":801000000000,"state":"active","ping":81},{"user_id":164,"name":"HarveyGames","steam_id":76561198355794253,"connected_time":344000000000,"state":"active","ping":122},{"user_id":137,"name":"Rurek","steam_id":76561198061467487,"connected_time":1618000000000,"state":"active","ping":48},{"user_id":160,"name":"8","steam_id":76561198059174917,"connected_time":418000000000,"state":"active","ping":101},{"user_id":153,"name":"Aku+","steam_id":76561198813782795,"connected_time":743000000000,"state":"active","ping":90},{"user_id":161,"name":"mineblast99","steam_id":76561199065648954,"connected_time":410000000000,"state":"active","ping":180},{"user_id":163,"name":"tequila sunset","steam_id":76561198315969106,"connected_time":372000000000,"state":"active","ping":109}]},{"server_id":52,"name":"Uncletopia | Warsaw | 4 | All Maps","name_short":"waw-4","host":"waw-1.pl.uncletopia.com","port":27045,"enabled":true,"region":"eu","cc":"pl","latitude":52.2297,"longitude":21.017532,"reserved":0,"last_update":"0001-01-01T00:00:00Z","name_a2s":"Uncletopia | Warsaw | 4 | All Maps","protocol":17,"map":"cp_altitude","folder":"tf","game":"Team Fortress","app_id":440,"player_count":0,"max_players":24,"Bots":0,"server_type":"Dedicated","server_os":"Linux","password":true,"vac":true,"version":"7961495","steam_id":85568392925397853,"keywords":["cp","nocrits","nodmgspread","uncletopia"],"game_id":440,"stv_port":27046,"stv_name":"Uncletopia | Warsaw | 4 | All Maps | STV","players":null},{"server_id":53,"name":"Uncletopia | Warsaw | 5 | Stopwatch","name_short":"waw-5","host":"waw-1.pl.uncletopia.com","port":27055,"enabled":true,"region":"eu","cc":"pl","latitude":52.2297,"longitude":21.017532,"reserved":0,"last_update":"0001-01-01T00:00:00Z","name_a2s":"Uncletopia | Warsaw | 5 | Stopwatch","protocol":17,"map":"workshop/pl_vigil_rc10.ugc1266210012","folder":"tf","game":"Team Fortress","app_id":440,"player_count":0,"max_players":24,"Bots":0,"server_type":"Dedicated","server_os":"Linux","password":true,"vac":true,"version":"7961495","steam_id":85568392925397854,"keywords":["nocrits","nodmgspread","payload","uncletopia"],"game_id":440,"stv_port":27056,"stv_name":"Uncletopia | Warsaw | 5 | Stopwatch | STV","players":null},{"server_id":54,"name":"Uncletopia | Warsaw | 6 | Community","name_short":"waw-6","host":"waw-1.pl.uncletopia.com","port":27065,"enabled":true,"region":"eu","cc":"pl","latitude":52.2297,"longitude":21.017532,"reserved":0,"last_update":"0001-01-01T00:00:00Z","name_a2s":"Uncletopia | Warsaw | 6 | Community","protocol":17,"map":"cp_altitude","folder":"tf","game":"Team Fortress","app_id":440,"player_count":0,"max_players":24,"Bots":0,"server_type":"Dedicated","server_os":"Linux","password":true,"vac":true,"version":"7961495","steam_id":85568392925397856,"keywords":["cp","nocrits","nodmgspread","uncletopia"],"game_id":440,"stv_port":27066,"stv_name":"Uncletopia | Warsaw | 6 | Community | STV","players":null}]}