{"status":true,"message":"","result":[{"server_id":9,"name":"Uncletopia | Atlanta | 1 | All Maps","name_short":"atl-1","host":"atl-1.us.uncletopia.com","port":27015,"enabled":true,"region":"us-east","cc":"us","latitude":33.753746,"longitude":-84.38633,"reserved":0,"last_update":"0001-01-01T00:00:00Z","name_a2s":"Uncletopia | Atlanta | 1 | All Maps","protocol":17,"map":"pl_badwater","folder":"tf","game":"Team Fortress","app_id":440,"player_count":24,"max_players":24,"Bots":0,"server_type":"Dedicated","server_os":"Linux","password":true,"vac":true,"version":"7757534","steam_id":85568392924469982,"keywords":["nocrits","nodmgspread","payload","uncletopia"],"game_id":440,"stv_port":27016,"stv_name":"Uncletopia | Atlanta | 1 | All Maps | STV","players":[{"user_id":467,"name":"Tue","steam_id":76561198181668501,"connected_time":1560000000000,"state":"active","ping":59},{"user_id":447,"name":"erwebomio","steam_id":76561198071152924,"connected_time":3155000000000,"state":"active","ping":113},{"user_id":470,"name":"sansa musa","steam_id":76561198163723555,"connected_time":1067000000000,"state":"active","ping":69},{"user_id":421,"name":"Scorch","steam_id":76561198167024005,"connected_time":3964000000000,"state":"active","ping":54},{"user_id":429,"name":"ATL1 | Kramer","steam_id":76561198083595936,"connected_time":3470000000000,"state":"active","ping":75},{"user_id":469,"name":"ATL1 | Le4n!!!","steam_id":76561198045522596,"connected_time":1490000000000,"state":"active","ping":64},{"user_id":452,"name":"Snoopy","steam_id":76561198273735974,"connected_time":3026000000000,"state":"active","ping":91},{"user_id":442,"name":"MyamE","steam_id":76561198133278462,"connected_time":3319000000000,"state":"active","ping":71},{"user_id":478,"name":"Im High","steam_id":76561198049954886,"connected_time":85000000000,"state":"active","ping":67},{"user_id":426,"name":"BLU1 | Flint","steam_id":76561198066547582,"connected_time":3932000000000,"state":"active","ping":115},{"user_id":443,"name":"THE SUN","steam_id":76561198357428939,"connected_time":3297000000000,"state":"active","ping":59},{"user_id":475,"name":"Brandonazz","steam_id":76561197994366351,"connected_time":177000000000,"state":"active","ping":72},{"user_id":464,"name":"ATL1 | ma0re","steam_id":76561199231971506,"connected_time":2078000000000,"state":"active","ping":69},{"user_id":455,"name":"BLU1 | Shame","steam_id":76561198100490994,"connected_time":2966000000000,"state":"active","ping":60},{"user_id":477,"name":"Gustavo Fring","steam_id":76561198132807405,"connected_time":96000000000,"state":"active","ping":81},{"user_id":466,"name":"RED1 | snoops","steam_id":76561197986760351,"connected_time":1867000000000,"state":"active","ping":75},{"user_id":479,"name":"Havocs HollyTree She/her","steam_id":76561198982631429,"connected_time":84000000000,"state":"active","ping":94},{"user_id":433,"name":"Mong","steam_id":76561198838757422,"connected_time":3431000000000,"state":"active","ping":86},{"user_id":392,"name":"Tay1Qr","steam_id":76561198082809935,"connected_time":6813000000000,"state":"active","ping":61},{"user_id":480,"name":"TGPupps","steam_id":76561198281201914,"connected_time":83000000000,"state":"active","ping":124},{"user_id":439,"name":"troll","steam_id":76561198040890252,"connected_time":3382000000000,"state":"active","ping":48},{"user_id":461,"name":"LadyAnon","steam_id":76561198014709418,"connected_time":2096000000000,"state":"active","ping":46},{"user_id":462,"name":"Straight White Mail","steam_id":76561198182813630,"connected_time":2095000000000,"state":"active","ping":114},{"user_id":474,"name":"SCATTER","steam_id":76561198405168492,"connected_time":868000000000,"state":"active","ping":91}]},{"server_id":400,"name":"Uncletopia | Atlanta | 3 | Community","name_short":"atl-3","host":"atl-1.us.uncletopia.com","port":27035,"enabled":true,"region":"us-east","cc":"us","latitude":33.753746,"longitude":-84.38633,"reserved":0,"last_update":"0001-01-01T00:00:00Z","name_a2s":"Uncletopia | Atlanta | 3 | Community","protocol":17,"map":"workshop/koth_ramjam_rc1.ugc459778887","folder":"tf","game":"Team Fortress","app_id":440,"player_count":1,"max_players":32,"Bots":0,"server_type":"Dedicated","server_os":"Linux","password":true,"vac":true,"version":"7757534","steam_id":85568392924515187,"keywords":["cp","increased_maxplayers","nocrits","nodmgspread","uncletopia"],"game_id":440,"stv_port":27036,"stv_name":"Uncletopia | Atlanta | 3 | Community | STV","players":[{"user_id":17,"name":"Cheems","steam_id":76561198269074039,"connected_time":15000000000,"state":"spawning","ping":112}]},{"server_id":401,"name":"Uncletopia | Atlanta | 4 | No Payload","name_short":"atl-4","host":"atl-1.us.uncletopia.com","port":27045,"enabled":true,"region":"us-east","cc":"us","latitude":33.753746,"longitude":-84.38633,"reserved":0,"last_update":"0001-01-01T00:00:00Z","name_a2s":"","protocol":0,"map":"","folder":"","game":"","app_id":0,"player_count":0,"max_players":0,"Bots":0,"server_type":"","server_os":"","password":false,"vac":false,"version":"","steam_id":0,"keywords":null,"game_id":0,"stv_port":0,"stv_name":"","players":null},{"server_id":2,"name":"Uncletopia | Chicago | 1 | All Maps","name_short":"chi-1","host":"chi-1.us.uncletopia.com","port":27015,"enabled":true,"region":"us-central","cc":"us","latitude":41.881832,"longitude":-87.62318,"reserved":0,"last_update":"0001-01-01T00:00:00Z","name_a2s":"Uncletopia | Chicago | 1 | All Maps","protocol":17,"map":"cp_dustbowl","folder":"tf","game":"Team Fortress","app_id":440,"player_count":23,"max_players":24,"Bots":0,"server_type":"Dedicated","server_os":"Linux","password":true,"vac":true,"version":"7757534","steam_id":85568392924469984,"keywords":["cp","nocrits","nodmgspread","uncletopia"],"game_id":440,"stv_port":27016,"stv_name":"Uncletopia | Chicago | 1 | All Maps | STV","players":[{"user_id":542,"name":"Bilgecrank","steam_id":76561197967191751,"connected_time":1183000000000,"state":"active","ping":84},{"user_id":503,"name":"zero .","steam_id":76561198880290310,"connected_time":4457000000000,"state":"active","ping":84},{"user_id":551,"name":"ÁÅ´Êòü | Marsy","steam_id":76561198014979892,"connected_time":643000000000,"state":"active","ping":74},{"user_id":535,"name":"Anthid","steam_id":76561198074493797,"connected_time":1921000000000,"state":"active","ping":60},{"user_id":556,"name":"Weebsbros","steam_id":76561198056750224,"connected_time":325000000000,"state":"active","ping":58},{"user_id":527,"name":"FattSucc","steam_id":76561198009500503,"connected_time":2324000000000,"state":"active","ping":90},{"user_id":553,"name":"Slime-san","steam_id":76561198886509660,"connected_time":567000000000,"state":"active","ping":71},{"user_id":557,"name":"hunger101","steam_id":76561199005387503,"connected_time":32000000000,"state":"spawning","ping":74},{"user_id":538,"name":"JimmyWings","steam_id":76561198999925713,"connected_time":1527000000000,"state":"active","ping":63},{"user_id":506,"name":"Sire Salty","steam_id":76561198079639072,"connected_time":4120000000000,"state":"active","ping":65},{"user_id":482,"name":"MosBlunted","steam_id":76561198259380127,"connected_time":5699000000000,"state":"active","ping":70},{"user_id":519,"name":"Christmas Ham","steam_id":76561198119601623,"connected_time":2397000000000,"state":"active","ping":151},{"user_id":516,"name":"mossy_woods","steam_id":76561198284350370,"connected_time":2818000000000,"state":"active","ping":68},{"user_id":543,"name":"Coke Himmy","steam_id":76561198397459211,"connected_time":1175000000000,"state":"active","ping":84},{"user_id":550,"name":"Fake Uncle","steam_id":76561198880227689,"connected_time":825000000000,"state":"active","ping":68},{"user_id":439,"name":"the lesbianist pyroshark","steam_id":76561198374227766,"connected_time":11094000000000,"state":"active","ping":71},{"user_id":479,"name":"FrumpyGoldsmith","steam_id":76561199036534127,"connected_time":6406000000000,"state":"active","ping":80},{"user_id":537,"name":".JIFF","steam_id":76561198045181760,"connected_time":1539000000000,"state":"active","ping":60},{"user_id":540,"name":"Dr Spaceman","steam_id":76561197969755657,"connected_time":1508000000000,"state":"active","ping":51},{"user_id":547,"name":"DeadErebus","steam_id":76561198286117045,"connected_time":981000000000,"state":"active","ping":42},{"user_id":548,"name":"Spha","steam_id":76561198796297800,"connected_time":975000000000,"state":"active","ping":92},{"user_id":552,"name":"Creamster","steam_id":76561198828624384,"connected_time":618000000000,"state":"active","ping":126},{"user_id":460,"name":"Lia_Rein","steam_id":76561198151569597,"connected_time":7813000000000,"state":"active","ping":147}]},{"server_id":106,"name":"Uncletopia | Chicago | 2 | All Maps","name_short":"chi-2","host":"chi-1.us.uncletopia.com","port":27025,"enabled":true,"region":"us-central","cc":"us","latitude":41.881832,"longitude":-87.62318,"reserved":0,"last_update":"0001-01-01T00:00:00Z","name_a2s":"Uncletopia | Chicago | 2 | All Maps","protocol":17,"map":"pl_swiftwater_final1","folder":"tf","game":"Team Fortress","app_id":440,"player_count":24,"max_players":24,"Bots":0,"server_type":"Dedicated","server_os":"Linux","password":true,"vac":true,"version":"7757534","steam_id":85568392924469985,"keywords":["nocrits","nodmgspread","payload","uncletopia"],"game_id":440,"stv_port":27026,"stv_name":"Uncletopia | Chicago | 2 | All Maps | STV","players":[{"user_id":462,"name":"brandofpie","steam_id":76561198835825550,"connected_time":708000000000,"state":"active","ping":84},{"user_id":440,"name":"nhbiker","steam_id":76561198081277675,"connected_time":2714000000000,"state":"active","ping":59},{"user_id":471,"name":"*","steam_id":76561198173047169,"connected_time":596000000000,"state":"active","ping":59},{"user_id":444,"name":"Jack","steam_id":76561198060330207,"connected_time":2659000000000,"state":"active","ping":75},{"user_id":464,"name":"NitroNick","steam_id":76561198045728022,"connected_time":696000000000,"state":"active","ping":70},{"user_id":410,"name":"StarCopper","steam_id":76561198024890295,"connected_time":5576000000000,"state":"active","ping":86},{"user_id":353,"name":"Sickmind33","steam_id":76561198036248611,"connected_time":8643000000000,"state":"active","ping":45},{"user_id":451,"name":"vcx","steam_id":76561198139371143,"connected_time":1821000000000,"state":"active","ping":60},{"user_id":463,"name":"antwon from ghetto smosh","steam_id":76561198367019006,"connected_time":707000000000,"state":"active","ping":71},{"user_id":427,"name":"Fuzzy Toast","steam_id":76561198028067781,"connected_time":4404000000000,"state":"active","ping":42},{"user_id":473,"name":"BLACK MAN FROM JOJO","steam_id":76561198272948471,"connected_time":386000000000,"state":"active","ping":54},{"user_id":454,"name":"kite","steam_id":76561198346516392,"connected_time":1541000000000,"state":"active","ping":68},{"user_id":445,"name":"A Lost CAWs","steam_id":76561198127120212,"connected_time":2654000000000,"state":"active","ping":101},{"user_id":469,"name":"Meelo","steam_id":76561198128569927,"connected_time":637000000000,"state":"active","ping":86},{"user_id":460,"name":"Lirehsa","steam_id":76561198799166348,"connected_time":1180000000000,"state":"active","ping":165},{"user_id":472,"name":"The Lone Grape","steam_id":76561198257410767,"connected_time":428000000000,"state":"active","ping":57},{"user_id":419,"name":"Bronze Age GRINDSET","steam_id":76561198859118263,"connected_time":4566000000000,"state":"active","ping":82},{"user_id":466,"name":"d!eing pigs Wh3n?","steam_id":76561198963410515,"connected_time":684000000000,"state":"active","ping":80},{"user_id":459,"name":"h√§mis","steam_id":76561198089616341,"connected_time":1289000000000,"state":"active","ping":74},{"user_id":461,"name":"Riandox","steam_id":76561198130577326,"connected_time":1106000000000,"state":"active","ping":75},{"user_id":405,"name":"rudy","steam_id":76561198088712799,"connected_time":6856000000000,"state":"active","ping":79},{"user_id":450,"name":"Cyber Cylon","steam_id":76561198048972781,"connected_time":1926000000000,"state":"active","ping":58},{"user_id":426,"name":"Cat in Your Backyard","steam_id":76561197979078330,"connected_time":4491000000000,"state":"active","ping":61},{"user_id":470,"name":"‚ô• memegamer23123 ‚ô•","steam_id":76561198048478450,"connected_time":637000000000,"state":"active","ping":82}]},{"server_id":402,"name":"Uncletopia | Chicago | 3 | All Maps","name_short":"chi-3","host":"chi-1.us.uncletopia.com","port":27035,"enabled":true,"region":"us-central","cc":"us","latitude":41.881832,"longitude":-87.62318,"reserved":0,"last_update":"0001-01-01T00:00:00Z","name_a2s":"Uncletopia | Chicago | 3 | All Maps","protocol":17,"map":"cp_mountainlab","folder":"tf","game":"Team Fortress","app_id":440,"player_count":24,"max_players":24,"Bots":0,"server_type":"Dedicated","server_os":"Linux","password":true,"vac":true,"version":"7757534","steam_id":85568392924515191,"keywords":["cp","nocrits","nodmgspread","uncletopia"],"game_id":440,"stv_port":27036,"stv_name":"Uncletopia | Chicago | 3 | All Maps | STV","players":[{"user_id":468,"name":"A Meat Bicycle","steam_id":76561198358757709,"connected_time":1160000000000,"state":"active","ping":98},{"user_id":475,"name":"Lane","steam_id":76561197965828506,"connected_time":482000000000,"state":"active","ping":38},{"user_id":458,"name":"Dispenser (Twan)","steam_id":76561197991064908,"connected_time":1266000000000,"state":"active","ping":63},{"user_id":459,"name":"Linkara runnin' real fast","steam_id":76561198162904792,"connected_time":1265000000000,"state":"active","ping":84},{"user_id":472,"name":"Bottle O' Glue","steam_id":76561199176772833,"connected_time":691000000000,"state":"active","ping":97},{"user_id":461,"name":"beefmaster","steam_id":76561198072578009,"connected_time":1247000000000,"state":"active","ping":71},{"user_id":452,"name":"Pohnut","steam_id":76561198087831690,"connected_time":1618000000000,"state":"active","ping":145},{"user_id":473,"name":"Rendoas","steam_id":76561198002105259,"connected_time":667000000000,"state":"active","ping":74},{"user_id":463,"name":"seamn","steam_id":76561198354473513,"connected_time":1229000000000,"state":"active","ping":56},{"user_id":382,"name":"hearthian","steam_id":76561198113235260,"connected_time":7320000000000,"state":"active","ping":96},{"user_id":413,"name":"Dokkibai","steam_id":76561198355935693,"connected_time":3940000000000,"state":"active","ping":45},{"user_id":465,"name":"Javaris Jamar Javarison-Lamar","steam_id":76561198146951387,"connected_time":1221000000000,"state":"active","ping":75},{"user_id":466,"name":"ttv/muenstier","steam_id":76561198312153623,"connected_time":1220000000000,"state":"active","ping":60},{"user_id":424,"name":"Horrizan","steam_id":76561197965028480,"connected_time":2929000000000,"state":"active","ping":77},{"user_id":443,"name":"Local","steam_id":76561199042686473,"connected_time":2214000000000,"state":"active","ping":58},{"user_id":474,"name":"Plain Toast","steam_id":76561198451580251,"connected_time":649000000000,"state":"active","ping":83},{"user_id":469,"name":"Toasty Gyro","steam_id":76561198001026643,"connected_time":1144000000000,"state":"active","ping":50},{"user_id":470,"name":"what","steam_id":76561198082336619,"connected_time":1108000000000,"state":"active","ping":71},{"user_id":426,"name":"ButterScotch","steam_id":76561199389314894,"connected_time":2880000000000,"state":"active","ping":67},{"user_id":433,"name":"koompa_stomp","steam_id":76561198073081735,"connected_time":2472000000000,"state":"active","ping":102},{"user_id":449,"name":"HappySmiles1010","steam_id":76561199202300463,"connected_time":1799000000000,"state":"active","ping":94},{"user_id":446,"name":"Krazy","steam_id":76561198835502709,"connected_time":2204000000000,"state":"active","ping":102},{"user_id":448,"name":"Quibbli","steam_id":76561199214866732,"connected_time":1968000000000,"state":"active","ping":69},{"user_id":454,"name":"h20verdrive","steam_id":76561198115957085,"connected_time":1594000000000,"state":"active","ping":90}]},{"server_id":403,"name":"Uncletopia | Chicago | 4 | All Maps","name_short":"chi-4","host":"chi-1.us.uncletopia.com","port":27045,"enabled":true,"region":"us-central","cc":"us","latitude":41.881832,"longitude":-87.62318,"reserved":0,"last_update":"0001-01-01T00:00:00Z","name_a2s":"Uncletopia | Chicago | 4 | All Maps","protocol":17,"map":"pl_snowycoast","folder":"tf","game":"Team Fortress","app_id":440,"player_count":24,"max_players":24,"Bots":0,"server_type":"Dedicated","server_os":"Linux","password":true,"vac":true,"version":"7757534","steam_id":85568392924515193,"keywords":["nocrits","nodmgspread","payload","uncletopia"],"game_id":440,"stv_port":27046,"stv_name":"Uncletopia | Chicago | 4 | All Maps | STV","players":[{"user_id":353,"name":"hack fraud","steam_id":76561198015036066,"connected_time":1333000000000,"state":"active","ping":97},{"user_id":335,"name":"[T]aKer","steam_id":76561198001778013,"connected_time":2221000000000,"state":"active","ping":137},{"user_id":300,"name":"proud owner of a large tongue","steam_id":76561198106690989,"connected_time":5101000000000,"state":"active","ping":74},{"user_id":288,"name":"American Dad","steam_id":76561198059711448,"connected_time":6480000000000,"state":"active","ping":71},{"user_id":328,"name":"PinkLemonade","steam_id":76561198799286228,"connected_time":3049000000000,"state":"active","ping":73},{"user_id":297,"name":"Xavibite","steam_id":76561198209380493,"connected_time":5591000000000,"state":"active","ping":61},{"user_id":352,"name":"Fiendish Frog","steam_id":76561198029478821,"connected_time":1362000000000,"state":"active","ping":75},{"user_id":348,"name":"Krusty Nut","steam_id":76561198120637924,"connected_time":1531000000000,"state":"active","ping":65},{"user_id":356,"name":"badasscoolboy57","steam_id":76561198795412055,"connected_time":1194000000000,"state":"active","ping":89},{"user_id":360,"name":"King","steam_id":76561198010019214,"connected_time":551000000000,"state":"active","ping":50},{"user_id":327,"name":"e0e0","steam_id":76561198293839750,"connected_time":3379000000000,"state":"active","ping":66},{"user_id":364,"name":"fettuccine sequence","steam_id":76561198000564263,"connected_time":136000000000,"state":"active","ping":71},{"user_id":318,"name":"what the devil","steam_id":76561198326083509,"connected_time":4194000000000,"state":"active","ping":91},{"user_id":326,"name":"[TSG] Turner's Chocolate Milk","steam_id":76561198058963288,"connected_time":3537000000000,"state":"active","ping":84},{"user_id":350,"name":"igotmail","steam_id":76561198070631899,"connected_time":1428000000000,"state":"active","ping":69},{"user_id":357,"name":"ProjectSinclair","steam_id":76561198927854184,"connected_time":1129000000000,"state":"active","ping":74},{"user_id":354,"name":"Jaramr","steam_id":76561197984387067,"connected_time":1324000000000,"state":"active","ping":87},{"user_id":345,"name":"Alex","steam_id":76561198116937513,"connected_time":1792000000000,"state":"active","ping":94},{"user_id":367,"name":"The Dead Weight","steam_id":76561198056694098,"connected_time":0,"state":"connecting","ping":0},{"user_id":362,"name":"Lawnmower","steam_id":76561198186680197,"connected_time":371000000000,"state":"active","ping":87},{"user_id":355,"name":"Biosock Infiknit","steam_id":76561198072693794,"connected_time":1321000000000,"state":"active","ping":54},{"user_id":359,"name":"t h e n a","steam_id":76561198169736062,"connected_time":954000000000,"state":"active","ping":95},{"user_id":363,"name":"BUNGACOWA","steam_id":76561198979176018,"connected_time":157000000000,"state":"active","ping":93},{"user_id":330,"name":"sam!!! :)","steam_id":76561198217362968,"connected_time":3048000000000,"state":"active","ping":78}]},{"server_id":36,"name":"Uncletopia | Chicago | 5 | All Maps","name_short":"chi-5","host":"chi-2.us.uncletopia.com","port":27015,"enabled":true,"region":"us-central","cc":"us","latitude":41.881832,"longitude":-87.62318,"reserved":0,"last_update":"0001-01-01T00:00:00Z","name_a2s":"Uncletopia | Chicago | 5 | All Maps","protocol":17,"map":"koth_lakeside_final","folder":"tf","game":"Team Fortress","app_id":440,"player_count":23,"max_players":24,"Bots":0,"server_type":"Dedicated","server_os":"Linux","password":true,"vac":true,"version":"7757534","steam_id":85568392924866362,"keywords":["cp","nocrits","nodmgspread","uncletopia"],"game_id":440,"stv_port":27016,"stv_name":"Uncletopia | Chicago | 5 | All Maps | STV","players":[{"user_id":183,"name":"MidMilk","steam_id":76561198285631030,"connected_time":4223000000000,"state":"active","ping":74},{"user_id":263,"name":"Inevitable","steam_id":76561198210050169,"connected_time":780000000000,"state":"active","ping":65},{"user_id":195,"name":"NUt","steam_id":76561198031007966,"connected_time":3872000000000,"state":"active","ping":73},{"user_id":240,"name":"iron within, iron without","steam_id":76561199058337415,"connected_time":1752000000000,"state":"active","ping":95},{"user_id":272,"name":"toastman","steam_id":76561198207073088,"connected_time":321000000000,"state":"active","ping":178},{"user_id":265,"name":"100 goons","steam_id":76561198212272548,"connected_time":694000000000,"state":"active","ping":56},{"user_id":268,"name":"kametro4","steam_id":76561198835430429,"connected_time":528000000000,"state":"active","ping":87},{"user_id":253,"name":"Johnny Lawrence #JohnnyMaxxing","steam_id":76561199367141671,"connected_time":1133000000000,"state":"active","ping":59},{"user_id":270,"name":"Smiles","steam_id":76561198107197973,"connected_time":483000000000,"state":"active","ping":60},{"user_id":133,"name":"ASDF","steam_id":76561199086189834,"connected_time":7940000000000,"state":"active","ping":66},{"user_id":275,"name":"GTO- TheRealWeiner","steam_id":76561198083975056,"connected_time":0,"state":"spawning","ping":56},{"user_id":256,"name":"BeetDropper","steam_id":76561198066087696,"connected_time":1048000000000,"state":"active","ping":74},{"user_id":201,"name":"The Green One","steam_id":76561198199776974,"connected_time":3835000000000,"state":"active","ping":60},{"user_id":247,"name":"Stormz64","steam_id":76561198239036482,"connected_time":1553000000000,"state":"active","ping":48},{"user_id":204,"name":"‚ô• JUNE ‚ô•","steam_id":76561198975039481,"connected_time":3801000000000,"state":"active","ping":60},{"user_id":242,"name":"vypon","steam_id":76561198388233907,"connected_time":1716000000000,"state":"active","ping":76},{"user_id":243,"name":"gilbert","steam_id":76561199078045198,"connected_time":1714000000000,"state":"active","ping":85},{"user_id":211,"name":"My dad owns Club Penguin.","steam_id":76561198032864436,"connected_time":3015000000000,"state":"active","ping":72},{"user_id":249,"name":"Pineapple Pancakes","steam_id":76561198860470713,"connected_time":1303000000000,"state":"active","ping":60},{"user_id":264,"name":"Who's Pablo","steam_id":76561198380533809,"connected_time":774000000000,"state":"active","ping":65},{"user_id":273,"name":"The Duggler","steam_id":76561199005778478,"connected_time":183000000000,"state":"active","ping":60},{"user_id":267,"name":"WarriorFire97","steam_id":76561198276930551,"connected_time":615000000000,"state":"active","ping":114},{"user_id":274,"name":"crs22","steam_id":76561198120149196,"connected_time":182000000000,"state":"active","ping":60}]},{"server_id":37,"name":"Uncletopia | Chicago | 6 | All Maps","name_short":"chi-6","host":"chi-2.us.uncletopia.com","port":27025,"enabled":true,"region":"us-central","cc":"us","latitude":41.881832,"longitude":-87.62318,"reserved":0,"last_update":"0001-01-01T00:00:00Z","name_a2s":"Uncletopia | Chicago | 6 | All Maps","protocol":17,"map":"cp_dustbowl","folder":"tf","game":"Team Fortress","app_id":440,"player_count":22,"max_players":24,"Bots":0,"server_type":"Dedicated","server_os":"Linux","password":true,"vac":true,"version":"7757534","steam_id":85568392924866363,"keywords":["cp","nocrits","nodmgspread","uncletopia"],"game_id":440,"stv_port":27026,"stv_name":"Uncletopia | Chicago | 6 | All Maps | STV","players":[{"user_id":257,"name":"Miner2495","steam_id":76561198445904523,"connected_time":3761000000000,"state":"active","ping":68},{"user_id":301,"name":"Emails","steam_id":76561198836919458,"connected_time":1060000000000,"state":"active","ping":79},{"user_id":319,"name":"phone","steam_id":76561198029268743,"connected_time":28000000000,"state":"active","ping":60},{"user_id":320,"name":"Uso","steam_id":76561198012093238,"connected_time":13000000000,"state":"active","ping":47},{"user_id":277,"name":"Only One Jhakobi","steam_id":76561197993641141,"connected_time":2790000000000,"state":"active","ping":61},{"user_id":315,"name":"Giirbot","steam_id":76561198014113526,"connected_time":239000000000,"state":"active","ping":58},{"user_id":270,"name":"An Erect Penis :)","steam_id":76561198086477485,"connected_time":3591000000000,"state":"active","ping":37},{"user_id":295,"name":"the","steam_id":76561198311446636,"connected_time":1451000000000,"state":"active","ping":59},{"user_id":318,"name":"DrakeYorn","steam_id":76561198986353696,"connected_time":151000000000,"state":"active","ping":71},{"user_id":297,"name":"Wiccaa","steam_id":76561199209580985,"connected_time":1418000000000,"state":"active","ping":69},{"user_id":307,"name":"Ejaculation Zach","steam_id":76561198203765200,"connected_time":320000000000,"state":"active","ping":56},{"user_id":293,"name":"ShitsandGiggles‚Ñ¢","steam_id":76561198058708019,"connected_time":1559000000000,"state":"active","ping":55},{"user_id":302,"name":"drugger. (charlemagne implant)","steam_id":76561198353463585,"connected_time":1030000000000,"state":"active","ping":83},{"user_id":298,"name":"Doodoo feces üòÅ","steam_id":76561198049784197,"connected_time":1416000000000,"state":"active","ping":94},{"user_id":305,"name":"Meepster","steam_id":76561198146305159,"connected_time":931000000000,"state":"active","ping":99},{"user_id":316,"name":"Super3D","steam_id":76561199297779078,"connected_time":213000000000,"state":"active","ping":60},{"user_id":253,"name":"Dr.KombatPhD.ttv","steam_id":76561198263847667,"connected_time":4131000000000,"state":"active","ping":59},{"user_id":310,"name":"RipHunter77","steam_id":76561198272973014,"connected_time":283000000000,"state":"active","ping":77},{"user_id":291,"name":"Tony Pizza","steam_id":76561198044331477,"connected_time":1903000000000,"state":"active","ping":74},{"user_id":246,"name":"The Penis Genius","steam_id":76561199096646760,"connected_time":5105000000000,"state":"active","ping":73},{"user_id":299,"name":"shart","steam_id":76561198039002838,"connected_time":1336000000000,"state":"active","ping":77},{"user_id":311,"name":"CaveMann","steam_id":76561198063049297,"connected_time":278000000000,"state":"active","ping":104}]},{"server_id":38,"name":"Uncletopia | Chicago | 7 | Stopwatch Beta","name_short":"chi-7","host":"chi-2.us.uncletopia.com","port":27035,"enabled":true,"region":"us-central","cc":"us","latitude":41.881832,"longitude":-87.62318,"reserved":0,"last_update":"0001-01-01T00:00:00Z","name_a2s":"Uncletopia | Chicago | 7 | Stopwatch Beta","protocol":17,"map":"pl_upward","folder":"tf","game":"Team Fortress","app_id":440,"player_count":0,"max_players":24,"Bots":0,"server_type":"Dedicated","server_os":"Linux","password":true,"vac":true,"version":"7757534","steam_id":85568392924866364,"keywords":["nocrits","nodmgspread","payload","uncletopia"],"game_id":440,"stv_port":27036,"stv_name":"Uncletopia | Chicago | 7 | Stopwatch Beta | STV","players":null},{"server_id":39,"name":"Uncletopia | Chicago | 8 | Community","name_short":"chi-8","host":"chi-2.us.uncletopia.com","port":27045,"enabled":true,"region":"us-central","cc":"us","latitude":41.881832,"longitude":-87.62318,"reserved":0,"last_update":"0001-01-01T00:00:00Z","name_a2s":"Uncletopia | Chicago | 8 | Community","protocol":17,"map":"workshop/pl_corrode_rc2.ugc546577989","folder":"tf","game":"Team Fortress","app_id":440,"player_count":0,"max_players":24,"Bots":0,"server_type":"Dedicated","server_os":"Linux","password":true,"vac":true,"version":"7757534","steam_id":85568392924866365,"keywords":["nocrits","nodmgspread","payload","uncletopia"],"game_id":440,"stv_port":27046,"stv_name":"Uncletopia | Chicago | 8 | Community | STV","players":null},{"server_id":8,"name":"Uncletopia | Dallas | 1 | All Maps","name_short":"dal-1","host":"dal-1.us.uncletopia.com","port":27015,"enabled":true,"region":"us-central","cc":"us","latitude":32.779167,"longitude":-96.80889,"reserved":0,"last_update":"0001-01-01T00:00:00Z","name_a2s":"Uncletopia | Dallas | 1 | All Maps","protocol":17,"map":"pl_upward","folder":"tf","game":"Team Fortress","app_id":440,"player_count":24,"max_players":24,"Bots":0,"server_type":"Dedicated","server_os":"Linux","password":true,"vac":true,"version":"7757534","steam_id":85568392924469986,"keywords":["nocrits","nodmgspread","payload","uncletopia"],"game_id":440,"stv_port":27016,"stv_name":"Uncletopia | Dallas | 1 | All Maps | STV","players":[{"user_id":179,"name":"tlm","steam_id":76561198178457461,"connected_time":1630000000000,"state":"active","ping":45},{"user_id":197,"name":"madg00mba","steam_id":76561198334418685,"connected_time":776000000000,"state":"active","ping":66},{"user_id":176,"name":"spherewithahat","steam_id":76561199122192660,"connected_time":1719000000000,"state":"active","ping":99},{"user_id":173,"name":"Emma","steam_id":76561198318093783,"connected_time":1848000000000,"state":"active","ping":66},{"user_id":127,"name":"Moonflower ‚ú¶","steam_id":76561198191782483,"connected_time":4648000000000,"state":"active","ping":51},{"user_id":144,"name":"Luck","steam_id":76561199122232082,"connected_time":3889000000000,"state":"active","ping":113},{"user_id":128,"name":"ulti_fd","steam_id":76561198050926014,"connected_time":4643000000000,"state":"active","ping":78},{"user_id":178,"name":"ItchyThunder111","steam_id":76561199149907692,"connected_time":1644000000000,"state":"active","ping":113},{"user_id":200,"name":"The Caretaker","steam_id":76561198125241411,"connected_time":135000000000,"state":"active","ping":101},{"user_id":190,"name":"that one guy","steam_id":76561198081689582,"connected_time":1306000000000,"state":"active","ping":79},{"user_id":182,"name":"ShootyGuns","steam_id":76561198366519134,"connected_time":1586000000000,"state":"active","ping":62},{"user_id":201,"name":"Cat","steam_id":76561198121342302,"connected_time":74000000000,"state":"active","ping":90},{"user_id":193,"name":"EtherealApparitionInvestigator","steam_id":76561198093538786,"connected_time":1016000000000,"state":"active","ping":45},{"user_id":191,"name":"Drakon","steam_id":76561198078210822,"connected_time":1282000000000,"state":"active","ping":91},{"user_id":199,"name":"Platinum","steam_id":76561198052463484,"connected_time":627000000000,"state":"active","ping":75},{"user_id":188,"name":"self sufficient kitten","steam_id":76561197960592612,"connected_time":1417000000000,"state":"active","ping":106},{"user_id":194,"name":"Lord Foog the 2st","steam_id":76561198073106278,"connected_time":989000000000,"state":"active","ping":59},{"user_id":196,"name":"SimplySammy","steam_id":76561197982256946,"connected_time":833000000000,"state":"active","ping":60},{"user_id":168,"name":"Yayifications","steam_id":76561198066227208,"connected_time":2137000000000,"state":"active","ping":75},{"user_id":186,"name":"carrion goat she/it","steam_id":76561198262064871,"connected_time":1509000000000,"state":"active","ping":85},{"user_id":187,"name":"Lego Man","steam_id":76561198300458561,"connected_time":1468000000000,"state":"active","ping":86},{"user_id":170,"name":"Gungus Dingaling","steam_id":76561198018270898,"connected_time":2062000000000,"state":"active","ping":55},{"user_id":198,"name":"TheTruthOfTheCessationOfDukkha","steam_id":76561198214370515,"connected_time":769000000000,"state":"active","ping":78},{"user_id":167,"name":"‚ù§ Ashley ‚ù§","steam_id":76561198056428303,"connected_time":2208000000000,"state":"active","ping":75}]},{"server_id":108,"name":"Uncletopia | Dallas | 2 | All Maps","name_short":"dal-2","host":"dal-1.us.uncletopia.com","port":27025,"enabled":true,"region":"us-central","cc":"us","latitude":32.779167,"longitude":-96.80889,"reserved":0,"last_update":"0001-01-01T00:00:00Z","name_a2s":"Uncletopia | Dallas | 2 | All Maps","protocol":17,"map":"koth_harvest_final","folder":"tf","game":"Team Fortress","app_id":440,"player_count":24,"max_players":24,"Bots":0,"server_type":"Dedicated","server_os":"Linux","password":true,"vac":true,"version":"7757534","steam_id":85568392924469988,"keywords":["cp","nocrits","nodmgspread","uncletopia"],"game_id":440,"stv_port":27026,"stv_name":"Uncletopia | Dallas | 2 | All Maps | STV","players":[{"user_id":441,"name":"harold #chungus #pewdiepie #ROF","steam_id":76561198414336279,"connected_time":2067000000000,"state":"active","ping":61},{"user_id":440,"name":"DiabetesMan","steam_id":76561198075668940,"connected_time":2120000000000,"state":"active","ping":86},{"user_id":469,"name":"zofran4","steam_id":76561198116165711,"connected_time":260000000000,"state":"active","ping":81},{"user_id":382,"name":"Jupiter Morningstar","steam_id":76561198042679485,"connected_time":6704000000000,"state":"active","ping":114},{"user_id":459,"name":"Dat Dere Kirby","steam_id":76561198084054568,"connected_time":1106000000000,"state":"active","ping":89},{"user_id":413,"name":"papi Chulo","steam_id":76561198126274984,"connected_time":4005000000000,"state":"active","ping":97},{"user_id":473,"name":"jdt631","steam_id":76561198271999934,"connected_time":66000000000,"state":"active","ping":122},{"user_id":430,"name":"Your Local NPR Station","steam_id":76561198143830279,"connected_time":3360000000000,"state":"active","ping":57},{"user_id":458,"name":"derdds","steam_id":76561198034339940,"connected_time":1121000000000,"state":"active","ping":77},{"user_id":417,"name":"‚òºBarracuda‚òº","steam_id":76561198013022083,"connected_time":3908000000000,"state":"active","ping":60},{"user_id":468,"name":"Dog","steam_id":76561198450992953,"connected_time":324000000000,"state":"active","ping":90},{"user_id":273,"name":"Dictator Noodle","steam_id":76561198277243768,"connected_time":14924000000000,"state":"active","ping":79},{"user_id":337,"name":"Abra","steam_id":76561198086309918,"connected_time":11272000000000,"state":"active","ping":70},{"user_id":439,"name":"NBA Youngboy","steam_id":76561199118797200,"connected_time":2470000000000,"state":"active","ping":48},{"user_id":470,"name":"nja","steam_id":76561198216487540,"connected_time":257000000000,"state":"active","ping":104},{"user_id":475,"name":"moe","steam_id":76561198929586245,"connected_time":5000000000,"state":"spawning","ping":62},{"user_id":455,"name":"Shrim","steam_id":76561198064269967,"connected_time":1404000000000,"state":"active","ping":49},{"user_id":434,"name":"BlahMan","steam_id":76561198014325197,"connected_time":3181000000000,"state":"active","ping":58},{"user_id":464,"name":"WaywardFinn","steam_id":76561198040391296,"connected_time":744000000000,"state":"active","ping":96},{"user_id":410,"name":"boppetson","steam_id":76561198073529045,"connected_time":4086000000000,"state":"active","ping":78},{"user_id":446,"name":"The Hunter","steam_id":76561198068589198,"connected_time":1973000000000,"state":"active","ping":73},{"user_id":474,"name":"cAssBlaster","steam_id":76561198138488101,"connected_time":59000000000,"state":"active","ping":53},{"user_id":419,"name":"amazing","steam_id":76561198386233160,"connected_time":3900000000000,"state":"active","ping":68},{"user_id":462,"name":"KiwiDwit","steam_id":76561198044364778,"connected_time":1027000000000,"state":"active","ping":68}]},{"server_id":5,"name":"Uncletopia | Frankfurt | 1 | All Maps","name_short":"frk-1","host":"frk-1.de.uncletopia.com","port":27015,"enabled":true,"region":"eu","cc":"de","latitude":50.110924,"longitude":8.682127,"reserved":0,"last_update":"0001-01-01T00:00:00Z","name_a2s":"Uncletopia | Frankfurt | 1 | All Maps","protocol":17,"map":"cp_altitude","folder":"tf","game":"Team Fortress","app_id":440,"player_count":0,"max_players":24,"Bots":0,"server_type":"Dedicated","server_os":"Linux","password":true,"vac":true,"version":"7757534","steam_id":85568392924469989,"keywords":["cp","nocrits","nodmgspread","uncletopia"],"game_id":440,"stv_port":27016,"stv_name":"Uncletopia | Frankfurt | 1 | All Maps | STV","players":null},{"server_id":110,"name":"Uncletopia | Frankfurt | 2 | All Maps","name_short":"frk-2","host":"frk-1.de.uncletopia.com","port":27025,"enabled":true,"region":"eu","cc":"de","latitude":50.110924,"longitude":8.682127,"reserved":0,"last_update":"0001-01-01T00:00:00Z","name_a2s":"Uncletopia | Frankfurt | 2 | All Maps","protocol":17,"map":"cp_dustbowl","folder":"tf","game":"Team Fortress","app_id":440,"player_count":0,"max_players":24,"Bots":0,"server_type":"Dedicated","server_os":"Linux","password":true,"vac":true,"version":"7757534","steam_id":85568392924469990,"keywords":["cp","nocrits","nodmgspread","uncletopia"],"game_id":440,"stv_port":27026,"stv_name":"Uncletopia | Frankfurt | 2 | All Maps | STV","players":null},{"server_id":308,"name":"Uncletopia | Frankfurt | 3 | All Maps","name_short":"frk-3","host":"frk-1.de.uncletopia.com","port":27035,"enabled":true,"region":"eu","cc":"de","latitude":50.110924,"longitude":8.682127,"reserved":0,"last_update":"0001-01-01T00:00:00Z","name_a2s":"Uncletopia | Frankfurt | 3 | All Maps","protocol":17,"map":"koth_viaduct","folder":"tf","game":"Team Fortress","app_id":440,"player_count":0,"max_players":24,"Bots":0,"server_type":"Dedicated","server_os":"Linux","password":true,"vac":true,"version":"7757534","steam_id":85568392924504274,"keywords":["cp","nocrits","nodmgspread","uncletopia"],"game_id":440,"stv_port":27036,"stv_name":"Uncletopia | Frankfurt | 3 | All Maps | STV","players":null},{"server_id":309,"name":"Uncletopia | Frankfurt | 4 | All Maps","name_short":"frk-4","host":"frk-1.de.uncletopia.com","port":27045,"enabled":true,"region":"eu","cc":"de","latitude":50.110924,"longitude":8.682127,"reserved":0,"last_update":"0001-01-01T00:00:00Z","name_a2s":"Uncletopia | Frankfurt | 4 | All Maps","protocol":17,"map":"cp_process_final","folder":"tf","game":"Team Fortress","app_id":440,"player_count":0,"max_players":24,"Bots":0,"server_type":"Dedicated","server_os":"Linux","password":true,"vac":true,"version":"7757534","steam_id":85568392924504275,"keywords":["cp","nocrits","nodmgspread","uncletopia"],"game_id":440,"stv_port":27046,"stv_name":"Uncletopia | Frankfurt | 4 | All Maps | STV","players":null},{"server_id":310,"name":"Uncletopia | Frankfurt | 5 | All Maps","name_short":"frk-5","host":"frk-1.de.uncletopia.com","port":27055,"enabled":true,"region":"eu","cc":"de","latitude":50.110924,"longitude":8.682127,"reserved":0,"last_update":"0001-01-01T00:00:00Z","name_a2s":"Uncletopia | Frankfurt | 5 | All Maps","protocol":17,"map":"koth_cascade","folder":"tf","game":"Team Fortress","app_id":440,"player_count":0,"max_players":24,"Bots":0,"server_type":"Dedicated","server_os":"Linux","password":true,"vac":true,"version":"7757534","steam_id":85568392924504277,"keywords":["cp","nocrits","nodmgspread","uncletopia"],"game_id":440,"stv_port":27056,"stv_name":"Uncletopia | Frankfurt | 5 | All Maps | STV","players":null},{"server_id":311,"name":"Uncletopia | Frankfurt | 6 | All Maps","name_short":"frk-6","host":"frk-1.de.uncletopia.com","port":27065,"enabled":true,"region":"eu","cc":"de","latitude":50.110924,"longitude":8.682127,"reserved":0,"last_update":"0001-01-01T00:00:00Z","name_a2s":"Uncletopia | Frankfurt | 6 | All Maps","protocol":17,"map":"pl_swiftwater_final1","folder":"tf","game":"Team Fortress","app_id":440,"player_count":0,"max_players":24,"Bots":0,"server_type":"Dedicated","server_os":"Linux","password":true,"vac":true,"version":"7757534","steam_id":85568392924504278,"keywords":["nocrits","nodmgspread","payload","uncletopia"],"game_id":440,"stv_port":27066,"stv_name":"Uncletopia | Frankfurt | 6 | All Maps | STV","players":null},{"server_id":23,"name":"Uncletopia | Frankfurt | 7 | Stopwatch Beta","name_short":"frk-7","host":"frk-1.de.uncletopia.com","port":27075,"enabled":true,"region":"eu","cc":"de","latitude":50.110924,"longitude":8.682127,"reserved":0,"last_update":"0001-01-01T00:00:00Z","name_a2s":"Uncletopia | Frankfurt | 7 | Stopwatch Beta","protocol":17,"map":"cp_sunshine","folder":"tf","game":"Team Fortress","app_id":440,"player_count":0,"max_players":24,"Bots":0,"server_type":"Dedicated","server_os":"Linux","password":true,"vac":true,"version":"7757534","steam_id":85568392924742827,"keywords":["cp","nocrits","nodmgspread","uncletopia"],"game_id":440,"stv_port":27076,"stv_name":"Uncletopia | Frankfurt | 7 | Stopwatch Beta | STV","players":null},{"server_id":24,"name":"Uncletopia | Frankfurt | 8 | Community","name_short":"frk-8","host":"frk-1.de.uncletopia.com","port":27085,"enabled":true,"region":"eu","cc":"de","latitude":50.110924,"longitude":8.682127,"reserved":0,"last_update":"0001-01-01T00:00:00Z","name_a2s":"Uncletopia | Frankfurt | 8 | Community","protocol":17,"map":"workshop/koth_ashville_final.ugc2130459942","folder":"tf","game":"Team Fortress","app_id":440,"player_count":0,"max_players":24,"Bots":0,"server_type":"Dedicated","server_os":"Linux","password":true,"vac":true,"version":"7757534","steam_id":85568392924742828,"keywords":["cp","nocrits","nodmgspread","uncletopia"],"game_id":440,"stv_port":27086,"stv_name":"Uncletopia | Frankfurt | 8 | Community | STV","players":null},{"server_id":202,"name":"Uncletopia | Hong Kong | 1 | All Maps","name_short":"hgk-1","host":"hgk-1.hk.uncletopia.com","port":27015,"enabled":true,"region":"asia","cc":"hk","latitude":22.302711,"longitude":114.177216,"reserved":0,"last_update":"0001-01-01T00:00:00Z","name_a2s":"Uncletopia | Hong Kong | 1 | All Maps","protocol":17,"map":"cp_dustbowl","folder":"tf","game":"Team Fortress","app_id":440,"player_count":0,"max_players":24,"Bots":0,"server_type":"Dedicated","server_os":"Linux","password":true,"vac":true,"version":"7757534","steam_id":85568392924494504,"keywords":["cp","nocrits","nodmgspread","uncletopia"],"game_id":440,"stv_port":27016,"stv_name":"Uncletopia | Hong Kong | 1 | All Maps | STV","players":null},{"server_id":1,"name":"Uncletopia | Los Angeles | 1 | All Maps","name_short":"lax-1","host":"lax-1.us.uncletopia.com","port":27015,"enabled":true,"region":"us-west","cc":"us","latitude":33.94279,"longitude":-118.41004,"reserved":0,"last_update":"0001-01-01T00:00:00Z","name_a2s":"Uncletopia | Los Angeles | 1 | All Maps","protocol":17,"map":"koth_viaduct","folder":"tf","game":"Team Fortress","app_id":440,"player_count":24,"max_players":24,"Bots":0,"server_type":"Dedicated","server_os":"Linux","password":true,"vac":true,"version":"7757534","steam_id":85568392924469991,"keywords":["cp","nocrits","nodmgspread","uncletopia"],"game_id":440,"stv_port":27016,"stv_name":"Uncletopia | Los Angeles | 1 | All Maps | STV","players":[{"user_id":325,"name":"HASH Yellow Mellow","steam_id":76561198089697360,"connected_time":9000000000,"state":"active","ping":108},{"user_id":309,"name":"MrrPamplemousse","steam_id":76561198072241333,"connected_time":1022000000000,"state":"active","ping":115},{"user_id":319,"name":"A Puppy","steam_id":76561198828184456,"connected_time":433000000000,"state":"active","ping":94},{"user_id":297,"name":"UnderpaidCloud","steam_id":76561198264568269,"connected_time":2090000000000,"state":"active","ping":84},{"user_id":287,"name":"Abomination","steam_id":76561199196994961,"connected_time":3111000000000,"state":"active","ping":69},{"user_id":310,"name":"Bluedemon","steam_id":76561199212058684,"connected_time":1007000000000,"state":"active","ping":52},{"user_id":306,"name":"jawnymac","steam_id":76561198179529599,"connected_time":1587000000000,"state":"active","ping":59},{"user_id":299,"name":"psychic","steam_id":76561198136301926,"connected_time":1939000000000,"state":"active","ping":46},{"user_id":315,"name":"Ronnie Pickering!","steam_id":76561198041842118,"connected_time":501000000000,"state":"active","ping":54},{"user_id":291,"name":"raquid6","steam_id":76561199185138895,"connected_time":3049000000000,"state":"active","ping":68},{"user_id":288,"name":"Mythical Lag","steam_id":76561198347031281,"connected_time":3099000000000,"state":"active","ping":82},{"user_id":313,"name":"I like cheese (real)","steam_id":76561198882837408,"connected_time":820000000000,"state":"active","ping":52},{"user_id":324,"name":"Minedark","steam_id":76561198250995706,"connected_time":49000000000,"state":"spawning","ping":76},{"user_id":283,"name":"Zaiah","steam_id":76561198377588247,"connected_time":3447000000000,"state":"active","ping":83},{"user_id":322,"name":"Red Physical","steam_id":76561198151864382,"connected_time":166000000000,"state":"active","ping":159},{"user_id":323,"name":"achoo","steam_id":76561198009091066,"connected_time":156000000000,"state":"active","ping":72},{"user_id":320,"name":"Thicket","steam_id":76561198371066702,"connected_time":274000000000,"state":"active","ping":45},{"user_id":303,"name":"goongremlin","steam_id":76561198278196215,"connected_time":1848000000000,"state":"active","ping":65},{"user_id":317,"name":"boneyard","steam_id":76561199080454140,"connected_time":456000000000,"state":"active","ping":108},{"user_id":318,"name":"Toon","steam_id":76561198395437335,"connected_time":449000000000,"state":"active","ping":156},{"user_id":290,"name":"Complex_Divine","steam_id":76561198812369488,"connected_time":3082000000000,"state":"active","ping":93},{"user_id":311,"name":"TOTO By Africa","steam_id":76561198089385204,"connected_time":949000000000,"state":"active","ping":99},{"user_id":282,"name":"cardboardwarrior1","steam_id":76561199145044693,"connected_time":3681000000000,"state":"active","ping":117},{"user_id":226,"name":"hoopswoop9","steam_id":76561199203050556,"connected_time":7221000000000,"state":"active","ping":60}]},{"server_id":112,"name":"Uncletopia | Los Angeles | 2 | All Maps","name_short":"lax-2","host":"lax-1.us.uncletopia.com","port":27025,"enabled":true,"region":"us-west","cc":"us","latitude":33.94279,"longitude":-118.41004,"reserved":0,"last_update":"0001-01-01T00:00:00Z","name_a2s":"Uncletopia | Los Angeles | 2 | All Maps","protocol":17,"map":"pl_upward","folder":"tf","game":"Team Fortress","app_id":440,"player_count":0,"max_players":24,"Bots":0,"server_type":"Dedicated","server_os":"Linux","password":true,"vac":true,"version":"7757534","steam_id":85568392924469992,"keywords":["nocrits","nodmgspread","payload","uncletopia"],"game_id":440,"stv_port":27026,"stv_name":"Uncletopia | Los Angeles | 2 | All Maps | STV","players":null},{"server_id":324,"name":"Uncletopia | Los Angeles | 3 | All Maps","name_short":"lax-3","host":"lax-1.us.uncletopia.com","port":27035,"enabled":true,"region":"us-west","cc":"us","latitude":33.94279,"longitude":-118.41004,"reserved":0,"last_update":"0001-01-01T00:00:00Z","name_a2s":"Uncletopia | Los Angeles | 3 | All Maps","protocol":17,"map":"koth_highpass","folder":"tf","game":"Team Fortress","app_id":440,"player_count":0,"max_players":24,"Bots":0,"server_type":"Dedicated","server_os":"Linux","password":true,"vac":true,"version":"7757534","steam_id":85568392924510198,"keywords":["cp","nocrits","nodmgspread","uncletopia"],"game_id":440,"stv_port":27036,"stv_name":"Uncletopia | Los Angeles | 3 | All Maps | STV","players":null},{"server_id":25,"name":"Uncletopia | Los Angeles | 4 | Stopwatch Beta","name_short":"lax-4","host":"lax-1.us.uncletopia.com","port":27045,"enabled":true,"region":"us-west","cc":"us","latitude":33.94279,"longitude":-118.41004,"reserved":0,"last_update":"0001-01-01T00:00:00Z","name_a2s":"Uncletopia | Los Angeles | 4 | Stopwatch Beta","protocol":17,"map":"pl_frontier_final","folder":"tf","game":"Team Fortress","app_id":440,"player_count":0,"max_players":24,"Bots":0,"server_type":"Dedicated","server_os":"Linux","password":true,"vac":true,"version":"7757534","steam_id":85568392924510199,"keywords":["nocrits","nodmgspread","payload","uncletopia"],"game_id":440,"stv_port":27046,"stv_name":"Uncletopia | Los Angeles | 4 | Stopwatch Beta | STV","players":null},{"server_id":11,"name":"Uncletopia | London | 1 | All Maps","name_short":"lon-1","host":"lon-1.uk.uncletopia.com","port":27015,"enabled":true,"region":"eu","cc":"gb","latitude":51.509865,"longitude":-0.118092,"reserved":0,"last_update":"0001-01-01T00:00:00Z","name_a2s":"Uncletopia | London | 1 | All Maps","protocol":17,"map":"koth_viaduct","folder":"tf","game":"Team Fortress","app_id":440,"player_count":24,"max_players":24,"Bots":0,"server_type":"Dedicated","server_os":"Linux","password":true,"vac":true,"version":"7757534","steam_id":85568392924367362,"keywords":["cp","nocrits","nodmgspread","uncletopia"],"game_id":440,"stv_port":27016,"stv_name":"Uncletopia | London | 1 | All Maps | STV","players":[{"user_id":804,"name":"Blank","steam_id":76561198212308677,"connected_time":4505000000000,"state":"active","ping":71},{"user_id":821,"name":"Tsuruko","steam_id":76561198063618114,"connected_time":3355000000000,"state":"active","ping":68},{"user_id":815,"name":"Big Mac Gaming","steam_id":76561198158209651,"connected_time":3610000000000,"state":"active","ping":51},{"user_id":837,"name":"cat","steam_id":76561198305304708,"connected_time":1487000000000,"state":"active","ping":45},{"user_id":842,"name":"triangle","steam_id":76561198046838168,"connected_time":798000000000,"state":"active","ping":60},{"user_id":820,"name":"blade","steam_id":76561198235739036,"connected_time":3416000000000,"state":"active","ping":76},{"user_id":850,"name":"sheepy dab's hand","steam_id":76561198040284781,"connected_time":119000000000,"state":"active","ping":56},{"user_id":776,"name":"frosty","steam_id":76561198094560834,"connected_time":7673000000000,"state":"active","ping":45},{"user_id":844,"name":"smelter demon","steam_id":76561198038748489,"connected_time":266000000000,"state":"active","ping":75},{"user_id":805,"name":"teddy","steam_id":76561198007436837,"connected_time":4487000000000,"state":"active","ping":30},{"user_id":813,"name":"lost a kromozone","steam_id":76561198257836694,"connected_time":3976000000000,"state":"active","ping":33},{"user_id":803,"name":"Croy","steam_id":76561197972552579,"connected_time":4527000000000,"state":"active","ping":44},{"user_id":801,"name":"SuperBob103","steam_id":76561199175360012,"connected_time":4595000000000,"state":"active","ping":49},{"user_id":851,"name":"trans werewolf","steam_id":76561198107235989,"connected_time":67000000000,"state":"active","ping":70},{"user_id":846,"name":"Groose","steam_id":76561198261094295,"connected_time":160000000000,"state":"active","ping":63},{"user_id":823,"name":"Pablo","steam_id":76561198160394046,"connected_time":3348000000000,"state":"active","ping":114},{"user_id":834,"name":"jones","steam_id":76561198044434971,"connected_time":1505000000000,"state":"active","ping":72},{"user_id":835,"name":"Remax5","steam_id":76561198155644993,"connected_time":1501000000000,"state":"active","ping":101},{"user_id":833,"name":"rev up the bugatti wahey","steam_id":76561198079589665,"connected_time":2191000000000,"state":"active","ping":108},{"user_id":836,"name":"Rainbow Unicorn","steam_id":76561198152960504,"connected_time":1488000000000,"state":"active","ping":98},{"user_id":841,"name":"vani","steam_id":76561197991778291,"connected_time":1344000000000,"state":"active","ping":75},{"user_id":828,"name":"SuntanPikachu","steam_id":76561198121242476,"connected_time":2808000000000,"state":"active","ping":61},{"user_id":831,"name":"engie?","steam_id":76561198331852832,"connected_time":2772000000000,"state":"active","ping":45},{"user_id":849,"name":"IronHawk‚ú® @ no sound","steam_id":76561198008959448,"connected_time":139000000000,"state":"active","ping":74}]},{"server_id":114,"name":"Uncletopia | London | 2 | All Maps","name_short":"lon-2","host":"lon-1.uk.uncletopia.com","port":27025,"enabled":true,"region":"eu","cc":"gb","latitude":51.509865,"longitude":-0.118092,"reserved":0,"last_update":"0001-01-01T00:00:00Z","name_a2s":"Uncletopia | London | 2 | All Maps","protocol":17,"map":"koth_viaduct","folder":"tf","game":"Team Fortress","app_id":440,"player_count":0,"max_players":24,"Bots":0,"server_type":"Dedicated","server_os":"Linux","password":true,"vac":true,"version":"7757534","steam_id":85568392924470941,"keywords":["cp","nocrits","nodmgspread","uncletopia"],"game_id":440,"stv_port":27026,"stv_name":"Uncletopia | London | 2 | All Maps | STV","players":null},{"server_id":320,"name":"Uncletopia | London | 3 | All Maps","name_short":"lon-3","host":"lon-1.uk.uncletopia.com","port":27035,"enabled":true,"region":"eu","cc":"gb","latitude":51.509865,"longitude":-0.118092,"reserved":0,"last_update":"0001-01-01T00:00:00Z","name_a2s":"Uncletopia | London | 3 | All Maps","protocol":17,"map":"pl_badwater","folder":"tf","game":"Team Fortress","app_id":440,"player_count":15,"max_players":24,"Bots":0,"server_type":"Dedicated","server_os":"Linux","password":true,"vac":true,"version":"7757534","steam_id":85568392924510192,"keywords":["nocrits","nodmgspread","payload","uncletopia"],"game_id":440,"stv_port":27036,"stv_name":"Uncletopia | London | 3 | All Maps | STV","players":[{"user_id":715,"name":"dr dick","steam_id":76561198359701072,"connected_time":1262000000000,"state":"active","ping":54},{"user_id":716,"name":"antifaschistische aktion","steam_id":76561198052028942,"connected_time":1234000000000,"state":"active","ping":146},{"user_id":731,"name":"Skagzilla| trade.tf","steam_id":76561198260114743,"connected_time":334000000000,"state":"active","ping":49},{"user_id":718,"name":"girl best friend","steam_id":76561198098268878,"connected_time":1202000000000,"state":"active","ping":121},{"user_id":735,"name":"Mach |=|20BB|)","steam_id":76561198952487564,"connected_time":87000000000,"state":"active","ping":90},{"user_id":720,"name":"Sivik","steam_id":76561198370329466,"connected_time":1053000000000,"state":"active","ping":52},{"user_id":736,"name":"Billy Genie","steam_id":76561198061724014,"connected_time":85000000000,"state":"active","ping":38},{"user_id":722,"name":"Dingus","steam_id":76561199237114670,"connected_time":904000000000,"state":"active","ping":186},{"user_id":732,"name":"wadiyatalkinabeet","steam_id":76561198045505082,"connected_time":218000000000,"state":"active","ping":75},{"user_id":726,"name":"I AM MEAT","steam_id":76561198173085283,"connected_time":555000000000,"state":"active","ping":270},{"user_id":727,"name":"Coach McFish","steam_id":76561198210456405,"connected_time":502000000000,"state":"active","ping":175},{"user_id":728,"name":"Banana Dispenser","steam_id":76561198446549451,"connected_time":460000000000,"state":"active","ping":56},{"user_id":737,"name":"Sodden1","steam_id":76561198189099455,"connected_time":58000000000,"state":"active","ping":290},{"user_id":734,"name":"Doctor Marijuana","steam_id":76561198288289879,"connected_time":196000000000,"state":"active","ping":53},{"user_id":738,"name":"Stragnov‚òÜ","steam_id":76561198074702465,"connected_time":39000000000,"state":"active","ping":60}]},{"server_id":321,"name":"Uncletopia | London | 4 | All Maps","name_short":"lon-4","host":"lon-1.uk.uncletopia.com","port":27045,"enabled":true,"region":"eu","cc":"gb","latitude":51.509865,"longitude":-0.118092,"reserved":0,"last_update":"0001-01-01T00:00:00Z","name_a2s":"Uncletopia | London | 4 | All Maps","protocol":17,"map":"koth_viaduct","folder":"tf","game":"Team Fortress","app_id":440,"player_count":0,"max_players":24,"Bots":0,"server_type":"Dedicated","server_os":"Linux","password":true,"vac":true,"version":"7757534","steam_id":85568392924510193,"keywords":["cp","nocrits","nodmgspread","uncletopia"],"game_id":440,"stv_port":27046,"stv_name":"Uncletopia | London | 4 | All Maps | STV","players":null},{"server_id":21,"name":"Uncletopia | London | 5 | All Maps","name_short":"lon-5","host":"lon-1.uk.uncletopia.com","port":27055,"enabled":true,"region":"eu","cc":"gb","latitude":51.509865,"longitude":-0.118092,"reserved":0,"last_update":"0001-01-01T00:00:00Z","name_a2s":"Uncletopia | London | 5 | All Maps","protocol":17,"map":"cp_process_final","folder":"tf","game":"Team Fortress","app_id":440,"player_count":0,"max_players":24,"Bots":0,"server_type":"Dedicated","server_os":"Linux","password":true,"vac":true,"version":"7757534","steam_id":85568392924742829,"keywords":["cp","nocrits","nodmgspread","uncletopia"],"game_id":440,"stv_port":27056,"stv_name":"Uncletopia | London | 5 | All Maps | STV","players":null},{"server_id":22,"name":"Uncletopia | London | 6 | All Maps","name_short":"lon-6","host":"lon-1.uk.uncletopia.com","port":27065,"enabled":true,"region":"eu","cc":"gb","latitude":51.509865,"longitude":-0.118092,"reserved":0,"last_update":"0001-01-01T00:00:00Z","name_a2s":"Uncletopia | London | 6 | All Maps","protocol":17,"map":"koth_cascade","folder":"tf","game":"Team Fortress","app_id":440,"player_count":0,"max_players":24,"Bots":0,"server_type":"Dedicated","server_os":"Linux","password":true,"vac":true,"version":"7757534","steam_id":85568392924742830,"keywords":["cp","nocrits","nodmgspread","uncletopia"],"game_id":440,"stv_port":27066,"stv_name":"Uncletopia | London | 6 | All Maps | STV","players":null},{"server_id":40,"name":"Uncletopia | London | 7 | No Payload","name_short":"lon-7","host":"lon-1.uk.uncletopia.com","port":27075,"enabled":true,"region":"eu","cc":"gb","latitude":51.509865,"longitude":-0.118092,"reserved":0,"last_update":"0001-01-01T00:00:00Z","name_a2s":"Uncletopia | London | 7 | No Payload","protocol":17,"map":"cp_yukon_final","folder":"tf","game":"Team Fortress","app_id":440,"player_count":0,"max_players":24,"Bots":0,"server_type":"Dedicated","server_os":"Linux","password":true,"vac":true,"version":"7757534","steam_id":85568392924964314,"keywords":["cp","nocrits","nodmgspread","uncletopia"],"game_id":440,"stv_port":27076,"stv_name":"Uncletopia | London | 7 | No Payload | STV","players":null},{"server_id":41,"name":"Uncletopia | London | 8 | Community","name_short":"lon-8","host":"lon-1.uk.uncletopia.com","port":27085,"enabled":true,"region":"eu","cc":"gb","latitude":51.509865,"longitude":-0.118092,"reserved":0,"last_update":"0001-01-01T00:00:00Z","name_a2s":"Uncletopia | London | 8 | Community","protocol":17,"map":"workshop/cp_sulfur_rc2.ugc619869471","folder":"tf","game":"Team Fortress","app_id":440,"player_count":0,"max_players":24,"Bots":0,"server_type":"Dedicated","server_os":"Linux","password":true,"vac":true,"version":"7757534","steam_id":85568392924964315,"keywords":["cp","nocrits","nodmgspread","uncletopia"],"game_id":440,"stv_port":27086,"stv_name":"Uncletopia | London | 8 | Community | STV","players":null},{"server_id":300,"name":"Uncletopia | Montr√©al | 1 | All Maps","name_short":"mtl-1","host":"mtl-1.ca.uncletopia.com","port":27015,"enabled":true,"region":"us-east","cc":"ca","latitude":45.50889,"longitude":-73.56167,"reserved":0,"last_update":"0001-01-01T00:00:00Z","name_a2s":"Uncletopia | Montr√©al | 1 | All Maps","protocol":17,"map":"pl_badwater","folder":"tf","game":"Team Fortress","app_id":440,"player_count":0,"max_players":24,"Bots":0,"server_type":"Dedicated","server_os":"Linux","password":true,"vac":true,"version":"7757534","steam_id":85568392924500087,"keywords":["nocrits","nodmgspread","payload","uncletopia"],"game_id":440,"stv_port":27016,"stv_name":"Uncletopia | Montr√©al | 1 | All Maps | STV","players":null},{"server_id":301,"name":"Uncletopia | Montr√©al | 2 | All Maps","name_short":"mtl-2","host":"mtl-1.ca.uncletopia.com","port":27025,"enabled":true,"region":"us-east","cc":"ca","latitude":45.50889,"longitude":-73.56167,"reserved":0,"last_update":"0001-01-01T00:00:00Z","name_a2s":"Uncletopia | Montr√©al | 2 | All Maps","protocol":17,"map":"koth_highpass","folder":"tf","game":"Team Fortress","app_id":440,"player_count":0,"max_players":24,"Bots":0,"server_type":"Dedicated","server_os":"Linux","password":true,"vac":true,"version":"7757534","steam_id":85568392924500088,"keywords":["cp","nocrits","nodmgspread","uncletopia"],"game_id":440,"stv_port":27026,"stv_name":"Uncletopia | Montr√©al | 2 | All Maps | STV","players":null},{"server_id":302,"name":"Uncletopia | Montr√©al | 3 | All Maps","name_short":"mtl-3","host":"mtl-1.ca.uncletopia.com","port":27035,"enabled":true,"region":"us-east","cc":"ca","latitude":45.50889,"longitude":-73.56167,"reserved":0,"last_update":"0001-01-01T00:00:00Z","name_a2s":"Uncletopia | Montr√©al | 3 | All Maps","protocol":17,"map":"pl_snowycoast","folder":"tf","game":"Team Fortress","app_id":440,"player_count":24,"max_players":24,"Bots":0,"server_type":"Dedicated","server_os":"Linux","password":true,"vac":true,"version":"7757534","steam_id":85568392924500089,"keywords":["nocrits","nodmgspread","payload","uncletopia"],"game_id":440,"stv_port":27036,"stv_name":"Uncletopia | Montr√©al | 3 | All Maps | STV","players":[{"user_id":60,"name":"[DEEP] Roz257","steam_id":76561198842844532,"connected_time":351000000000,"state":"active","ping":59},{"user_id":61,"name":"MrrPickle","steam_id":76561198122046514,"connected_time":271000000000,"state":"active","ping":61},{"user_id":62,"name":"Smet19","steam_id":76561198118455606,"connected_time":256000000000,"state":"active","ping":56},{"user_id":63,"name":"Mortimer Khan","steam_id":76561197968829990,"connected_time":252000000000,"state":"active","ping":69},{"user_id":64,"name":"dicksnip","steam_id":76561198356515396,"connected_time":180000000000,"state":"active","ping":90},{"user_id":65,"name":"Kirby","steam_id":76561199161858008,"connected_time":166000000000,"state":"active","ping":84},{"user_id":49,"name":"FearTheJynx","steam_id":76561198136487957,"connected_time":845000000000,"state":"active","ping":100},{"user_id":66,"name":"white ray","steam_id":76561198026664629,"connected_time":165000000000,"state":"active","ping":51},{"user_id":67,"name":"Bad Headshots - (RIP Rick May)","steam_id":76561199050642411,"connected_time":157000000000,"state":"active","ping":95},{"user_id":59,"name":"DO NOT call me BART SIMPSON!!","steam_id":76561198069113375,"connected_time":388000000000,"state":"active","ping":47},{"user_id":39,"name":"teh mummy","steam_id":76561198044123636,"connected_time":1802000000000,"state":"active","ping":104},{"user_id":51,"name":"sweglord227","steam_id":76561198415510262,"connected_time":811000000000,"state":"active","ping":68},{"user_id":17,"name":"JACOB","steam_id":76561198211874895,"connected_time":2767000000000,"state":"active","ping":73},{"user_id":68,"name":"rude boi","steam_id":76561198006783260,"connected_time":142000000000,"state":"active","ping":60},{"user_id":56,"name":"GAUGUIN","steam_id":76561198246193520,"connected_time":700000000000,"state":"active","ping":43},{"user_id":35,"name":"drdoofus123","steam_id":76561198016826181,"connected_time":2074000000000,"state":"active","ping":86},{"user_id":22,"name":"dan","steam_id":76561197984998426,"connected_time":2637000000000,"state":"active","ping":130},{"user_id":69,"name":"Vegerot","steam_id":76561197997843710,"connected_time":128000000000,"state":"active","ping":59},{"user_id":53,"name":"Thequirka","steam_id":76561198968058652,"connected_time":759000000000,"state":"active","ping":116},{"user_id":25,"name":"Sammich","steam_id":76561198010543087,"connected_time":2597000000000,"state":"active","ping":75},{"user_id":26,"name":"RokkitFrog","steam_id":76561198046465850,"connected_time":2589000000000,"state":"active","ping":99},{"user_id":27,"name":"docstaph","steam_id":76561197985145935,"connected_time":2579000000000,"state":"active","ping":62},{"user_id":54,"name":"snuppy","steam_id":76561199157666657,"connected_time":751000000000,"state":"active","ping":136},{"user_id":44,"name":"robert","steam_id":76561198001196512,"connected_time":1382000000000,"state":"active","ping":90}]},{"server_id":303,"name":"Uncletopia | Montr√©al | 4 | No Payload","name_short":"mtl-4","host":"mtl-1.ca.uncletopia.com","port":27045,"enabled":true,"region":"us-east","cc":"ca","latitude":45.50889,"longitude":-73.56167,"reserved":0,"last_update":"0001-01-01T00:00:00Z","name_a2s":"Uncletopia | Montr√©al | 4 | No Payload","protocol":17,"map":"cp_gullywash_final1","folder":"tf","game":"Team Fortress","app_id":440,"player_count":0,"max_players":24,"Bots":0,"server_type":"Dedicated","server_os":"Linux","password":true,"vac":true,"version":"7757534","steam_id":85568392924500090,"keywords":["cp","nocrits","nodmgspread","uncletopia"],"game_id":440,"stv_port":27046,"stv_name":"Uncletopia | Montr√©al | 4 | No Payload | STV","players":null},{"server_id":13,"name":"Uncletopia | New York City | 1 | All Maps","name_short":"nyc-1","host":"nyc-1.us.uncletopia.com","port":27015,"enabled":true,"region":"us-east","cc":"us","latitude":40.73061,"longitude":-73.93524,"reserved":0,"last_update":"0001-01-01T00:00:00Z","name_a2s":"Uncletopia | New York City | 1 | All Maps","protocol":17,"map":"cp_dustbowl","folder":"tf","game":"Team Fortress","app_id":440,"player_count":24,"max_players":24,"Bots":0,"server_type":"Dedicated","server_os":"Linux","password":true,"vac":true,"version":"7757534","steam_id":85568392924469993,"keywords":["cp","nocrits","nodmgspread","uncletopia"],"game_id":440,"stv_port":27016,"stv_name":"Uncletopia | New York City | 1 | All Maps | STV","players":[{"user_id":84,"name":"Nice21","steam_id":76561199427548141,"connected_time":804000000000,"state":"active","ping":75},{"user_id":85,"name":"Just Luke","steam_id":76561198072134257,"connected_time":673000000000,"state":"active","ping":57},{"user_id":76,"name":"boo_thefeared","steam_id":76561198127967685,"connected_time":1569000000000,"state":"active","ping":128},{"user_id":31,"name":"Come'ere Sweatheart","steam_id":76561198869845138,"connected_time":3804000000000,"state":"active","ping":127},{"user_id":62,"name":"Wahooka","steam_id":76561197962240925,"connected_time":1959000000000,"state":"active","ping":57},{"user_id":81,"name":"Dieu-Sama","steam_id":76561198002075862,"connected_time":948000000000,"state":"active","ping":74},{"user_id":32,"name":"Lieutenant Seafoamey","steam_id":76561198372575944,"connected_time":3784000000000,"state":"active","ping":145},{"user_id":55,"name":"John Darksoul","steam_id":76561198999712284,"connected_time":2958000000000,"state":"active","ping":77},{"user_id":34,"name":"Myn","steam_id":76561198055438857,"connected_time":3748000000000,"state":"active","ping":58},{"user_id":73,"name":"monke12344","steam_id":76561199274757725,"connected_time":1750000000000,"state":"active","ping":72},{"user_id":88,"name":"leonardo doujinshi","steam_id":76561198025810326,"connected_time":285000000000,"state":"active","ping":45},{"user_id":68,"name":"Joy #savetf2","steam_id":76561198073690173,"connected_time":1924000000000,"state":"active","ping":55},{"user_id":38,"name":"Bi Panic","steam_id":76561198426306122,"connected_time":3551000000000,"state":"active","ping":82},{"user_id":59,"name":"frank","steam_id":76561198045436159,"connected_time":2008000000000,"state":"active","ping":63},{"user_id":86,"name":"Engineer","steam_id":76561198880576642,"connected_time":538000000000,"state":"active","ping":62},{"user_id":79,"name":"smocc","steam_id":76561197993726746,"connected_time":971000000000,"state":"active","ping":52},{"user_id":51,"name":"Fantastibad","steam_id":76561199087329262,"connected_time":3181000000000,"state":"active","ping":70},{"user_id":43,"name":"Glitchy stick","steam_id":76561199013429386,"connected_time":3344000000000,"state":"active","ping":62},{"user_id":44,"name":"dan","steam_id":76561198061589465,"connected_time":3336000000000,"state":"active","ping":45},{"user_id":82,"name":"Scab Collector","steam_id":76561198346425545,"connected_time":919000000000,"state":"active","ping":64},{"user_id":83,"name":"silentpieceofbacon","steam_id":76561198869323351,"connected_time":909000000000,"state":"active","ping":78},{"user_id":69,"name":"Definitely Not A Replicant.","steam_id":76561198087464370,"connected_time":1870000000000,"state":"active","ping":133},{"user_id":49,"name":"Slondermin","steam_id":76561198320301349,"connected_time":3226000000000,"state":"active","ping":67},{"user_id":78,"name":"Therealjuan23","steam_id":76561198400171971,"connected_time":978000000000,"state":"active","ping":74}]},{"server_id":14,"name":"Uncletopia | New York City | 2 | All Maps","name_short":"nyc-2","host":"nyc-1.us.uncletopia.com","port":27025,"enabled":true,"region":"us-east","cc":"us","latitude":40.73061,"longitude":-73.93524,"reserved":0,"last_update":"0001-01-01T00:00:00Z","name_a2s":"Uncletopia | New York City | 2 | All Maps","protocol":17,"map":"koth_harvest_final","folder":"tf","game":"Team Fortress","app_id":440,"player_count":24,"max_players":24,"Bots":0,"server_type":"Dedicated","server_os":"Linux","password":true,"vac":true,"version":"7757534","steam_id":85568392924469994,"keywords":["cp","nocrits","nodmgspread","uncletopia"],"game_id":440,"stv_port":27026,"stv_name":"Uncletopia | New York City | 2 | All Maps | STV","players":[{"user_id":268,"name":"Havok","steam_id":76561198063455003,"connected_time":1912000000000,"state":"active","ping":51},{"user_id":278,"name":"Boag a day","steam_id":76561198107259309,"connected_time":838000000000,"state":"active","ping":36},{"user_id":257,"name":"Literally a Trans Woman","steam_id":76561198054639925,"connected_time":2903000000000,"state":"active","ping":51},{"user_id":272,"name":"Jacknerik","steam_id":76561198041365662,"connected_time":975000000000,"state":"active","ping":68},{"user_id":273,"name":"Edfan","steam_id":76561198021299904,"connected_time":942000000000,"state":"active","ping":73},{"user_id":287,"name":"a table","steam_id":76561198158461279,"connected_time":480000000000,"state":"active","ping":63},{"user_id":269,"name":"quack","steam_id":76561198138783216,"connected_time":1592000000000,"state":"active","ping":50},{"user_id":258,"name":"REALLINUSJEWTIP.","steam_id":76561198056647983,"connected_time":2878000000000,"state":"active","ping":65},{"user_id":283,"name":"flappyflap2","steam_id":76561198285048973,"connected_time":600000000000,"state":"active","ping":37},{"user_id":184,"name":"MetaKrakalaka","steam_id":76561199095316646,"connected_time":7751000000000,"state":"active","ping":60},{"user_id":264,"name":"glitch","steam_id":76561197979495589,"connected_time":2384000000000,"state":"active","ping":53},{"user_id":263,"name":"KOTH_SHE/HERVEST","steam_id":76561198029274581,"connected_time":2685000000000,"state":"active","ping":52},{"user_id":259,"name":"paisano","steam_id":76561198065575472,"connected_time":2875000000000,"state":"active","ping":46},{"user_id":169,"name":"fast","steam_id":76561198311704368,"connected_time":9172000000000,"state":"active","ping":63},{"user_id":274,"name":"Ramblet","steam_id":76561199026783260,"connected_time":934000000000,"state":"active","ping":54},{"user_id":291,"name":"Rockcrusher","steam_id":76561199012666353,"connected_time":81000000000,"state":"active","ping":64},{"user_id":282,"name":"Mochi","steam_id":76561199151314140,"connected_time":612000000000,"state":"active","ping":38},{"user_id":190,"name":"Viokik","steam_id":76561198408846602,"connected_time":7374000000000,"state":"active","ping":54},{"user_id":292,"name":"oh god i'm gonna CHUM","steam_id":76561198019210187,"connected_time":53000000000,"state":"active","ping":84},{"user_id":288,"name":"Devoid","steam_id":76561198254039012,"connected_time":180000000000,"state":"active","ping":32},{"user_id":285,"name":"6t26j","steam_id":76561198278282836,"connected_time":545000000000,"state":"active","ping":45},{"user_id":293,"name":"Butthole Surfer","steam_id":76561198020526407,"connected_time":40000000000,"state":"active","ping":89},{"user_id":230,"name":"heavenorlasvegaaaas","steam_id":76561198142394470,"connected_time":4957000000000,"state":"active","ping":64},{"user_id":250,"name":"Chewbacca","steam_id":76561198041927925,"connected_time":3764000000000,"state":"active","ping":59}]},{"server_id":15,"name":"Uncletopia | New York City | 3 | Stopwatch Beta","name_short":"nyc-3","host":"nyc-1.us.uncletopia.com","port":27035,"enabled":true,"region":"us-east","cc":"us","latitude":40.73061,"longitude":-73.93524,"reserved":0,"last_update":"0001-01-01T00:00:00Z","name_a2s":"Uncletopia | New York City | 3 | Stopwatch Beta","protocol":17,"map":"pl_borneo","folder":"tf","game":"Team Fortress","app_id":440,"player_count":0,"max_players":24,"Bots":0,"server_type":"Dedicated","server_os":"Linux","password":true,"vac":true,"version":"7757534","steam_id":85568392924742820,"keywords":["nocrits","nodmgspread","payload","uncletopia"],"game_id":440,"stv_port":27036,"stv_name":"Uncletopia | New York City | 3 | Stopwatch Beta | STV","players":null},{"server_id":16,"name":"Uncletopia | New York City | 4 | Community","name_short":"nyc-4","host":"nyc-1.us.uncletopia.com","port":27045,"enabled":true,"region":"us-east","cc":"us","latitude":40.73061,"longitude":-73.93524,"reserved":0,"last_update":"0001-01-01T00:00:00Z","name_a2s":"Uncletopia | New York City | 4 | Community","protocol":17,"map":"workshop/pl_boundary_final1.ugc456799153","folder":"tf","game":"Team Fortress","app_id":440,"player_count":24,"max_players":24,"Bots":0,"server_type":"Dedicated","server_os":"Linux","password":true,"vac":true,"version":"7757534","steam_id":85568392924742821,"keywords":["nocrits","nodmgspread","payload","uncletopia"],"game_id":440,"stv_port":27046,"stv_name":"Uncletopia | New York City | 4 | Community | STV","players":[{"user_id":101,"name":"Young-OG","steam_id":76561198058800479,"connected_time":803000000000,"state":"active","ping":86},{"user_id":57,"name":"mu","steam_id":76561197997530228,"connected_time":3658000000000,"state":"active","ping":121},{"user_id":83,"name":"Gamewiz","steam_id":76561197991536178,"connected_time":1928000000000,"state":"active","ping":113},{"user_id":76,"name":"Idiot on his Keyboard","steam_id":76561198217662787,"connected_time":2810000000000,"state":"active","ping":70},{"user_id":108,"name":"Fawful's Minion","steam_id":76561198090120779,"connected_time":134000000000,"state":"active","ping":138},{"user_id":60,"name":"Bunion Boi","steam_id":76561198018695252,"connected_time":3555000000000,"state":"active","ping":86},{"user_id":42,"name":"Coffee","steam_id":76561198098622184,"connected_time":4336000000000,"state":"active","ping":71},{"user_id":85,"name":"nekfresh","steam_id":76561198074821089,"connected_time":1751000000000,"state":"active","ping":118},{"user_id":44,"name":"Buff McMann","steam_id":76561198050196317,"connected_time":4290000000000,"state":"active","ping":62},{"user_id":107,"name":"Nico","steam_id":76561198125701869,"connected_time":337000000000,"state":"active","ping":65},{"user_id":46,"name":"Ham_Slammich","steam_id":76561198167978620,"connected_time":4276000000000,"state":"active","ping":64},{"user_id":94,"name":"Zhenaj","steam_id":76561199209016136,"connected_time":1305000000000,"state":"active","ping":61},{"user_id":97,"name":"hsq =)","steam_id":76561198087534644,"connected_time":1127000000000,"state":"active","ping":74},{"user_id":102,"name":"JZ","steam_id":76561198377029198,"connected_time":791000000000,"state":"active","ping":67},{"user_id":87,"name":"Monsterjessy","steam_id":76561198035630985,"connected_time":1589000000000,"state":"active","ping":58},{"user_id":89,"name":"tooth","steam_id":76561197986437643,"connected_time":1463000000000,"state":"active","ping":55},{"user_id":90,"name":"JimmySquid","steam_id":76561198254242530,"connected_time":1448000000000,"state":"active","ping":157},{"user_id":105,"name":"Saikou!!!","steam_id":76561198044045406,"connected_time":727000000000,"state":"active","ping":80},{"user_id":103,"name":"avant","steam_id":76561198104921055,"connected_time":757000000000,"state":"active","ping":84},{"user_id":104,"name":"the Good Guy","steam_id":76561198416759211,"connected_time":742000000000,"state":"active","ping":150},{"user_id":72,"name":"emily","steam_id":76561198051872256,"connected_time":3129000000000,"state":"active","ping":70},{"user_id":95,"name":"Bobbn","steam_id":76561198876124683,"connected_time":1275000000000,"state":"active","ping":84},{"user_id":74,"name":"VX_","steam_id":76561198211529143,"connected_time":3009000000000,"state":"active","ping":67},{"user_id":96,"name":"Glanderson booper","steam_id":76561198021223747,"connected_time":1273000000000,"state":"active","ping":128}]},{"server_id":142,"name":"Uncletopia | S√£o Paulo | 1 | All Maps","name_short":"sao-1","host":"sao-1.br.uncletopia.com","port":27015,"enabled":true,"region":"sa","cc":"br","latitude":-23.533773,"longitude":-46.62529,"reserved":0,"last_update":"0001-01-01T00:00:00Z","name_a2s":"Uncletopia | S√£o Paulo | 1 | All Maps","protocol":17,"map":"koth_viaduct","folder":"tf","game":"Team Fortress","app_id":440,"player_count":0,"max_players":24,"Bots":0,"server_type":"Dedicated","server_os":"Linux","password":true,"vac":true,"version":"7757534","steam_id":85568392924469996,"keywords":["cp","nocrits","nodmgspread","uncletopia"],"game_id":440,"stv_port":27016,"stv_name":"Uncletopia | S√£o Paulo | 1 | All Maps | STV","players":null},{"server_id":143,"name":"Uncletopia | S√£o Paulo | 2 | All Maps","name_short":"sao-2","host":"sao-2.br.uncletopia.com","port":27015,"enabled":true,"region":"sa","cc":"br","latitude":-23.533773,"longitude":-46.62529,"reserved":0,"last_update":"0001-01-01T00:00:00Z","name_a2s":"Uncletopia | S√£o Paulo | 2 | All Maps","protocol":17,"map":"koth_highpass","folder":"tf","game":"Team Fortress","app_id":440,"player_count":0,"max_players":24,"Bots":0,"server_type":"Dedicated","server_os":"Linux","password":true,"vac":true,"version":"7757534","steam_id":85568392924485349,"keywords":["cp","nocrits","nodmgspread","uncletopia"],"game_id":440,"stv_port":27016,"stv_name":"Uncletopia | S√£o Paulo | 2 | All Maps | STV","players":null},{"server_id":7,"name":"Uncletopia | Seattle | 1 | All Maps","name_short":"sea-1","host":"sea-1.us.uncletopia.com","port":27015,"enabled":true,"region":"us-west","cc":"us","latitude":47.608013,"longitude":-122.33517,"reserved":0,"last_update":"0001-01-01T00:00:00Z","name_a2s":"Uncletopia | Seattle | 1 | All Maps","protocol":17,"map":"koth_badlands","folder":"tf","game":"Team Fortress","app_id":440,"player_count":23,"max_players":24,"Bots":0,"server_type":"Dedicated","server_os":"Linux","password":true,"vac":true,"version":"7757534","steam_id":85568392924469997,"keywords":["cp","nocrits","nodmgspread","uncletopia"],"game_id":440,"stv_port":27016,"stv_name":"Uncletopia | Seattle | 1 | All Maps | STV","players":[{"user_id":607,"name":"Maid 'n' China","steam_id":76561198423392976,"connected_time":120000000000,"state":"active","ping":65},{"user_id":585,"name":"„Ä£dust„Ä£ -she/her-","steam_id":76561198045218909,"connected_time":1989000000000,"state":"active","ping":42},{"user_id":600,"name":"Hassium","steam_id":76561198162541373,"connected_time":1190000000000,"state":"active","ping":54},{"user_id":490,"name":"Lambchop","steam_id":76561198043900363,"connected_time":9297000000000,"state":"active","ping":83},{"user_id":602,"name":"M4 SOPMOD II Enjoyer","steam_id":76561198155176802,"connected_time":1046000000000,"state":"active","ping":129},{"user_id":605,"name":"Mico (Ooze Producer)","steam_id":76561198125462953,"connected_time":654000000000,"state":"active","ping":49},{"user_id":608,"name":"Jorge_dude_2008","steam_id":76561198870649125,"connected_time":108000000000,"state":"active","ping":86},{"user_id":574,"name":"Chicanery","steam_id":76561198977589038,"connected_time":2808000000000,"state":"active","ping":110},{"user_id":567,"name":"Username","steam_id":76561198855586261,"connected_time":3240000000000,"state":"active","ping":61},{"user_id":606,"name":"KingTinkerer","steam_id":76561198226856548,"connected_time":280000000000,"state":"active","ping":77},{"user_id":609,"name":"AmiableNebula","steam_id":76561198094306627,"connected_time":68000000000,"state":"active","ping":68},{"user_id":531,"name":"stoner catgirl","steam_id":76561198337705174,"connected_time":6200000000000,"state":"active","ping":75},{"user_id":575,"name":"jug of coleslaw","steam_id":76561198080851298,"connected_time":2633000000000,"state":"active","ping":63},{"user_id":535,"name":"rat gets the cheese","steam_id":76561198031234032,"connected_time":5262000000000,"state":"active","ping":101},{"user_id":578,"name":"Stranger","steam_id":76561198062459671,"connected_time":2257000000000,"state":"active","ping":77},{"user_id":537,"name":"reiidaya","steam_id":76561198325306660,"connected_time":5256000000000,"state":"active","ping":57},{"user_id":610,"name":"J O S H¬≥¬≤","steam_id":76561198122603779,"connected_time":60000000000,"state":"active","ping":82},{"user_id":589,"name":"FTN | Shakaman","steam_id":76561198039829758,"connected_time":1948000000000,"state":"active","ping":124},{"user_id":603,"name":"Kuma","steam_id":76561199100813140,"connected_time":917000000000,"state":"active","ping":91},{"user_id":596,"name":"HomesliceHobbes","steam_id":76561198042770895,"connected_time":1470000000000,"state":"active","ping":43},{"user_id":553,"name":"Quickxdeathx02","steam_id":76561198396771470,"connected_time":4350000000000,"state":"active","ping":68},{"user_id":594,"name":"Tetra","steam_id":76561198145257468,"connected_time":1634000000000,"state":"active","ping":102},{"user_id":551,"name":"Cassandra (She/her)","steam_id":76561198094123940,"connected_time":4436000000000,"state":"active","ping":129}]},{"server_id":119,"name":"Uncletopia | Seattle | 2 | All Maps","name_short":"sea-2","host":"sea-1.us.uncletopia.com","port":27025,"enabled":true,"region":"us-west","cc":"us","latitude":47.608013,"longitude":-122.33517,"reserved":0,"last_update":"0001-01-01T00:00:00Z","name_a2s":"Uncletopia | Seattle | 2 | All Maps","protocol":17,"map":"pl_upward","folder":"tf","game":"Team Fortress","app_id":440,"player_count":24,"max_players":24,"Bots":0,"server_type":"Dedicated","server_os":"Linux","password":true,"vac":true,"version":"7757534","steam_id":85568392924469998,"keywords":["nocrits","nodmgspread","payload","uncletopia"],"game_id":440,"stv_port":27026,"stv_name":"Uncletopia | Seattle | 2 | All Maps | STV","players":[{"user_id":557,"name":"st","steam_id":76561198107213976,"connected_time":5768000000000,"state":"active","ping":61},{"user_id":611,"name":"Hey Kid","steam_id":76561198087089023,"connected_time":1372000000000,"state":"active","ping":116},{"user_id":612,"name":"MarshallMellows","steam_id":76561198231561020,"connected_time":1314000000000,"state":"active","ping":55},{"user_id":627,"name":"\u003c3Elise\u003c3","steam_id":76561198146435005,"connected_time":328000000000,"state":"active","ping":71},{"user_id":614,"name":"kris736","steam_id":76561198038208255,"connected_time":1221000000000,"state":"active","ping":108},{"user_id":623,"name":"[chef] iron","steam_id":76561197970888616,"connected_time":953000000000,"state":"active","ping":71},{"user_id":616,"name":"ethanfive","steam_id":76561198035294132,"connected_time":1200000000000,"state":"active","ping":121},{"user_id":631,"name":"[DATS‚û°] Sugar Meowth","steam_id":76561197995251793,"connected_time":238000000000,"state":"active","ping":40},{"user_id":617,"name":"AmazingSloth23","steam_id":76561198370397476,"connected_time":1188000000000,"state":"active","ping":128},{"user_id":592,"name":"Court Wizard, Sir Dr. Clydesdal","steam_id":76561198149267697,"connected_time":2915000000000,"state":"active","ping":70},{"user_id":555,"name":"Tibetan Pop Star","steam_id":76561198844903984,"connected_time":5907000000000,"state":"active","ping":93},{"user_id":629,"name":"biscuit","steam_id":76561198149443710,"connected_time":324000000000,"state":"active","ping":89},{"user_id":624,"name":"Robogineer","steam_id":76561198026994739,"connected_time":756000000000,"state":"active","ping":77},{"user_id":630,"name":"Eris","steam_id":76561199471434875,"connected_time":321000000000,"state":"active","ping":44},{"user_id":507,"name":"Boasta' Berry","steam_id":76561198029015179,"connected_time":10186000000000,"state":"active","ping":129},{"user_id":607,"name":"Marz","steam_id":76561198799364911,"connected_time":1676000000000,"state":"active","ping":85},{"user_id":603,"name":"Algibruh","steam_id":76561199221599415,"connected_time":1998000000000,"state":"active","ping":60},{"user_id":590,"name":"Geight","steam_id":76561197991645292,"connected_time":3267000000000,"state":"active","ping":59},{"user_id":620,"name":"captain red","steam_id":76561198191587983,"connected_time":1149000000000,"state":"active","ping":89},{"user_id":604,"name":"1dk","steam_id":76561198135104742,"connected_time":1840000000000,"state":"active","ping":47},{"user_id":600,"name":"Jeugh","steam_id":76561198073498865,"connected_time":2267000000000,"state":"active","ping":149},{"user_id":626,"name":"PzVIIIMaus","steam_id":76561198346559365,"connected_time":389000000000,"state":"active","ping":93},{"user_id":625,"name":"The Pepsi¬Æ Superbowl¬Æ!","steam_id":76561198080828981,"connected_time":719000000000,"state":"active","ping":74},{"user_id":622,"name":"Thexx ‚ù§","steam_id":76561198113823050,"connected_time":1083000000000,"state":"active","ping":46}]},{"server_id":406,"name":"Uncletopia | Seattle | 3 | Stopwatch Beta","name_short":"sea-3","host":"sea-1.us.uncletopia.com","port":27035,"enabled":true,"region":"us-west","cc":"us","latitude":47.608013,"longitude":-122.33517,"reserved":0,"last_update":"0001-01-01T00:00:00Z","name_a2s":"Uncletopia | Seattle | 3 | Stopwatch Beta","protocol":17,"map":"pl_upward","folder":"tf","game":"Team Fortress","app_id":440,"player_count":0,"max_players":24,"Bots":0,"server_type":"Dedicated","server_os":"Linux","password":true,"vac":true,"version":"7757534","steam_id":85568392924515217,"keywords":["nocrits","nodmgspread","payload","uncletopia"],"game_id":440,"stv_port":27036,"stv_name":"Uncletopia | Seattle | 3 | Stopwatch Beta | STV","players":null},{"server_id":17,"name":"Uncletopia | San Francisco | 1 | All Maps","name_short":"sfo-1","host":"sfo-1.us.uncletopia.com","port":27015,"enabled":true,"region":"us-west","cc":"us","latitude":37.77397,"longitude":-122.4313,"reserved":0,"last_update":"0001-01-01T00:00:00Z","name_a2s":"Uncletopia | San Francisco | 1 | All Maps","protocol":17,"map":"pl_badwater","folder":"tf","game":"Team Fortress","app_id":440,"player_count":24,"max_players":24,"Bots":0,"server_type":"Dedicated","server_os":"Linux","password":true,"vac":true,"version":"7757534","steam_id":85568392924469999,"keywords":["nocrits","nodmgspread","payload","uncletopia"],"game_id":440,"stv_port":27016,"stv_name":"Uncletopia | San Francisco | 1 | All Maps | STV","players":[{"user_id":82,"name":"Jonatello","steam_id":76561198045699189,"connected_time":994000000000,"state":"active","ping":70},{"user_id":50,"name":"Elixir","steam_id":76561198166786809,"connected_time":3548000000000,"state":"active","ping":122},{"user_id":74,"name":"Biggest Dude In Town 4U","steam_id":76561198070281464,"connected_time":1580000000000,"state":"active","ping":92},{"user_id":97,"name":"Chrisscar","steam_id":76561198086298130,"connected_time":239000000000,"state":"active","ping":60},{"user_id":75,"name":"They could be starlings","steam_id":76561198441020995,"connected_time":1554000000000,"state":"active","ping":56},{"user_id":78,"name":"UndeadZomboy","steam_id":76561198048425072,"connected_time":1392000000000,"state":"active","ping":54},{"user_id":72,"name":"SomeFuckingGuy #SAVETF2","steam_id":76561199239165015,"connected_time":2267000000000,"state":"active","ping":81},{"user_id":96,"name":"Milotic","steam_id":76561198047995713,"connected_time":290000000000,"state":"active","ping":70},{"user_id":54,"name":"dandy","steam_id":76561197967362217,"connected_time":3422000000000,"state":"active","ping":53},{"user_id":31,"name":"The Radiance67","steam_id":76561198199685971,"connected_time":4369000000000,"state":"active","ping":91},{"user_id":32,"name":"Rexcya","steam_id":76561198874190578,"connected_time":4366000000000,"state":"active","ping":70},{"user_id":83,"name":"420blzItM8","steam_id":76561198137983285,"connected_time":981000000000,"state":"active","ping":100},{"user_id":46,"name":"hersheybargame","steam_id":76561199162003623,"connected_time":3627000000000,"state":"active","ping":50},{"user_id":94,"name":"siah","steam_id":76561198051881047,"connected_time":424000000000,"state":"active","ping":96},{"user_id":64,"name":"Tort boi","steam_id":76561198125327110,"connected_time":2891000000000,"state":"active","ping":72},{"user_id":48,"name":"Jesus Christ","steam_id":76561199388058358,"connected_time":3577000000000,"state":"active","ping":85},{"user_id":95,"name":"Bobbo","steam_id":76561198055689771,"connected_time":334000000000,"state":"active","ping":77},{"user_id":80,"name":"CthUwU","steam_id":76561198036541581,"connected_time":1214000000000,"state":"active","ping":120},{"user_id":85,"name":"Í∑ÄÏ∞®ÎÇò","steam_id":76561198001284882,"connected_time":871000000000,"state":"active","ping":187},{"user_id":86,"name":"Iyeong","steam_id":76561199041521622,"connected_time":860000000000,"state":"active","ping":88},{"user_id":62,"name":"Joshzu","steam_id":76561198200521137,"connected_time":2962000000000,"state":"active","ping":71},{"user_id":87,"name":"clowns have comedic currency","steam_id":76561198070136627,"connected_time":853000000000,"state":"active","ping":58},{"user_id":89,"name":"Spacey","steam_id":76561198127335850,"connected_time":844000000000,"state":"active","ping":86},{"user_id":91,"name":"iconic paint eater","steam_id":76561198161067554,"connected_time":829000000000,"state":"active","ping":44}]},{"server_id":18,"name":"Uncletopia | San Francisco | 2 | All Maps","name_short":"sfo-2","host":"sfo-1.us.uncletopia.com","port":27025,"enabled":true,"region":"us-west","cc":"us","latitude":37.77397,"longitude":-122.4313,"reserved":0,"last_update":"0001-01-01T00:00:00Z","name_a2s":"Uncletopia | San Francisco | 2 | All Maps","protocol":17,"map":"koth_lakeside_final","folder":"tf","game":"Team Fortress","app_id":440,"player_count":0,"max_players":24,"Bots":0,"server_type":"Dedicated","server_os":"Linux","password":true,"vac":true,"version":"7757534","steam_id":85568392924470000,"keywords":["cp","nocrits","nodmgspread","uncletopia"],"game_id":440,"stv_port":27026,"stv_name":"Uncletopia | San Francisco | 2 | All Maps | STV","players":null},{"server_id":19,"name":"Uncletopia | San Francisco | 3 | Stopwatch Beta","name_short":"sfo-3","host":"sfo-1.us.uncletopia.com","port":27035,"enabled":true,"region":"us-west","cc":"us","latitude":37.77397,"longitude":-122.4313,"reserved":0,"last_update":"0001-01-01T00:00:00Z","name_a2s":"Uncletopia | San Francisco | 3 | Stopwatch Beta","protocol":17,"map":"pl_borneo","folder":"tf","game":"Team Fortress","app_id":440,"player_count":0,"max_players":24,"Bots":0,"server_type":"Dedicated","server_os":"Linux","password":true,"vac":true,"version":"7757534","steam_id":85568392924742824,"keywords":["nocrits","nodmgspread","payload","uncletopia"],"game_id":440,"stv_port":27036,"stv_name":"Uncletopia | San Francisco | 3 | Stopwatch Beta | STV","players":null},{"server_id":20,"name":"Uncletopia | San Francisco | 4 | Community","name_short":"sfo-4","host":"sfo-1.us.uncletopia.com","port":27045,"enabled":true,"region":"us-west","cc":"us","latitude":37.77397,"longitude":-122.4313,"reserved":0,"last_update":"0001-01-01T00:00:00Z","name_a2s":"Uncletopia | San Francisco | 4 | Community","protocol":17,"map":"koth_highpass","folder":"tf","game":"Team Fortress","app_id":440,"player_count":0,"max_players":24,"Bots":0,"server_type":"Dedicated","server_os":"Linux","password":true,"vac":true,"version":"7757534","steam_id":85568392924742826,"keywords":["cp","nocrits","nodmgspread","uncletopia"],"game_id":440,"stv_port":27046,"stv_name":"Uncletopia | San Francisco | 4 | Community | STV","players":null},{"server_id":141,"name":"Uncletopia | Sydney | 1 | All Maps","name_short":"syd-1","host":"syd-1.au.uncletopia.com","port":27015,"enabled":true,"region":"au","cc":"au","latitude":-33.865143,"longitude":151.2099,"reserved":0,"last_update":"0001-01-01T00:00:00Z","name_a2s":"Uncletopia | Sydney | 1 | All Maps","protocol":17,"map":"pl_swiftwater_final1","folder":"tf","game":"Team Fortress","app_id":440,"player_count":24,"max_players":24,"Bots":0,"server_type":"Dedicated","server_os":"Linux","password":true,"vac":true,"version":"7757534","steam_id":85568392924470001,"keywords":["nocrits","nodmgspread","payload","uncletopia"],"game_id":440,"stv_port":27016,"stv_name":"Uncletopia | Sydney | 1 | All Maps | STV","players":[{"user_id":121,"name":"Cyrome","steam_id":76561198049602369,"connected_time":919000000000,"state":"active","ping":62},{"user_id":107,"name":"Pirate Arr","steam_id":76561198011944697,"connected_time":1409000000000,"state":"active","ping":53},{"user_id":125,"name":"Darren","steam_id":76561198988128327,"connected_time":245000000000,"state":"active","ping":44},{"user_id":54,"name":"Blazey ‰ºäÈÅî ÊîøÂÆó","steam_id":76561197971082275,"connected_time":4214000000000,"state":"active","ping":116},{"user_id":120,"name":"rastaFROG730","steam_id":76561198058812647,"connected_time":991000000000,"state":"active","ping":47},{"user_id":113,"name":"sarah.nintendogs","steam_id":76561198035811678,"connected_time":1360000000000,"state":"active","ping":45},{"user_id":122,"name":"liam","steam_id":76561198046239819,"connected_time":854000000000,"state":"active","ping":87},{"user_id":74,"name":"Warren","steam_id":76561198120350917,"connected_time":3016000000000,"state":"active","ping":37},{"user_id":62,"name":"Batering","steam_id":76561198039849442,"connected_time":3762000000000,"state":"active","ping":56},{"user_id":93,"name":"k1ll4r","steam_id":76561198195519834,"connected_time":1589000000000,"state":"active","ping":48},{"user_id":116,"name":"Greenie Weenie","steam_id":76561198147970145,"connected_time":1181000000000,"state":"active","ping":38},{"user_id":115,"name":"cade is sleepy","steam_id":76561198126719182,"connected_time":1323000000000,"state":"active","ping":45},{"user_id":85,"name":"Pat","steam_id":76561198244663182,"connected_time":2168000000000,"state":"active","ping":56},{"user_id":135,"name":"futso","steam_id":76561198106076530,"connected_time":1000000000,"state":"spawning","ping":41},{"user_id":134,"name":"pog-lygamy","steam_id":76561198306660831,"connected_time":59000000000,"state":"active","ping":60},{"user_id":44,"name":"CouldBeKarlos","steam_id":76561198956180767,"connected_time":4635000000000,"state":"active","ping":53},{"user_id":127,"name":"piratespy22","steam_id":76561198042198744,"connected_time":242000000000,"state":"active","ping":46},{"user_id":55,"name":"ttv/ca7x3","steam_id":76561198181194862,"connected_time":4203000000000,"state":"active","ping":60},{"user_id":132,"name":"Hally","steam_id":76561198045236233,"connected_time":78000000000,"state":"active","ping":54},{"user_id":119,"name":"Phantom Postman","steam_id":76561198075252643,"connected_time":1149000000000,"state":"active","ping":81},{"user_id":50,"name":"DragRiper","steam_id":76561198050917553,"connected_time":4467000000000,"state":"active","ping":53},{"user_id":133,"name":"Jrool","steam_id":76561198130635051,"connected_time":72000000000,"state":"active","ping":82},{"user_id":124,"name":"helton1 #RemoveCrossbow","steam_id":76561198841855657,"connected_time":256000000000,"state":"active","ping":55},{"user_id":103,"name":"Cv76","steam_id":76561198817942619,"connected_time":1429000000000,"state":"active","ping":41}]},{"server_id":123,"name":"Uncletopia | Sydney | 2 | All Maps","name_short":"syd-2","host":"syd-1.au.uncletopia.com","port":27025,"enabled":true,"region":"au","cc":"au","latitude":-33.865143,"longitude":151.2099,"reserved":0,"last_update":"0001-01-01T00:00:00Z","name_a2s":"Uncletopia | Sydney | 2 | All Maps","protocol":17,"map":"koth_viaduct","folder":"tf","game":"Team Fortress","app_id":440,"player_count":1,"max_players":24,"Bots":0,"server_type":"Dedicated","server_os":"Linux","password":true,"vac":true,"version":"7757534","steam_id":85568392924470002,"keywords":["cp","nocrits","nodmgspread","uncletopia"],"game_id":440,"stv_port":27026,"stv_name":"Uncletopia | Sydney | 2 | All Maps | STV","players":[{"user_id":12,"name":"Lord Oink","steam_id":76561198125237921,"connected_time":281000000000,"state":"active","ping":33}]},{"server_id":395,"name":"Uncletopia | Sydney | 3 | All Maps","name_short":"syd-3","host":"syd-1.au.uncletopia.com","port":27035,"enabled":true,"region":"au","cc":"au","latitude":-33.865143,"longitude":151.2099,"reserved":0,"last_update":"0001-01-01T00:00:00Z","name_a2s":"Uncletopia | Sydney | 3 | All Maps","protocol":17,"map":"pl_barnblitz","folder":"tf","game":"Team Fortress","app_id":440,"player_count":0,"max_players":24,"Bots":0,"server_type":"Dedicated","server_os":"Linux","password":true,"vac":true,"version":"7757534","steam_id":85568392925194467,"keywords":["nocrits","nodmgspread","payload","uncletopia"],"game_id":440,"stv_port":27036,"stv_name":"Uncletopia | Sydney | 3 | All Maps | STV","players":null},{"server_id":396,"name":"Uncletopia | Sydney | 4 | All Maps","name_short":"syd-4","host":"syd-1.au.uncletopia.com","port":27045,"enabled":true,"region":"au","cc":"au","latitude":-33.865143,"longitude":151.2099,"reserved":0,"last_update":"0001-01-01T00:00:00Z","name_a2s":"Uncletopia | Sydney | 4 | All Maps","protocol":17,"map":"koth_lakeside_final","folder":"tf","game":"Team Fortress","app_id":440,"player_count":0,"max_players":24,"Bots":0,"server_type":"Dedicated","server_os":"Linux","password":true,"vac":true,"version":"7757534","steam_id":85568392925397958,"keywords":["cp","nocrits","nodmgspread","uncletopia"],"game_id":440,"stv_port":27046,"stv_name":"Uncletopia | Sydney | 4 | All Maps | STV","players":null},{"server_id":58,"name":"Uncletopia | Sydney | 5 | Stopwatch Beta","name_short":"syd-5","host":"syd-1.au.uncletopia.com","port":27055,"enabled":true,"region":"au","cc":"au","latitude":-33.865143,"longitude":151.2099,"reserved":0,"last_update":"0001-01-01T00:00:00Z","name_a2s":"Uncletopia | Sydney | 5 | Stopwatch Beta","protocol":17,"map":"koth_highpass","folder":"tf","game":"Team Fortress","app_id":440,"player_count":0,"max_players":24,"Bots":0,"server_type":"Dedicated","server_os":"Linux","password":true,"vac":true,"version":"7757534","steam_id":85568392925397959,"keywords":["cp","nocrits","nodmgspread","uncletopia"],"game_id":440,"stv_port":27056,"stv_name":"Uncletopia | Sydney | 5 | Stopwatch Beta | STV","players":null},{"server_id":59,"name":"Uncletopia | Sydney | 6 | Community","name_short":"syd-6","host":"syd-1.au.uncletopia.com","port":27065,"enabled":true,"region":"au","cc":"au","latitude":-33.865143,"longitude":151.2099,"reserved":0,"last_update":"0001-01-01T00:00:00Z","name_a2s":"Uncletopia | Sydney | 6 | Community","protocol":17,"map":"workshop/koth_trenchfoot_b1a.ugc731436616","folder":"tf","game":"Team Fortress","app_id":440,"player_count":0,"max_players":24,"Bots":0,"server_type":"Dedicated","server_os":"Linux","password":true,"vac":true,"version":"7757534","steam_id":85568392925397960,"keywords":["cp","nocrits","nodmgspread","uncletopia"],"game_id":440,"stv_port":27066,"stv_name":"Uncletopia | Sydney | 6 | Community | STV","players":null},{"server_id":49,"name":"Uncletopia | Warsaw | 1 | All Maps","name_short":"waw-1","host":"waw-1.pl.uncletopia.com","port":27015,"enabled":true,"region":"eu","cc":"pl","latitude":52.2297,"longitude":21.017532,"reserved":0,"last_update":"0001-01-01T00:00:00Z","name_a2s":"","protocol":0,"map":"","folder":"","game":"","app_id":0,"player_count":0,"max_players":0,"Bots":0,"server_type":"","server_os":"","password":false,"vac":false,"version":"","steam_id":0,"keywords":null,"game_id":0,"stv_port":0,"stv_name":"","players":null},{"server_id":50,"name":"Uncletopia | Warsaw | 2 | All Maps","name_short":"waw-2","host":"waw-1.pl.uncletopia.com","port":27025,"enabled":true,"region":"eu","cc":"pl","latitude":52.2297,"longitude":21.017532,"reserved":0,"last_update":"0001-01-01T00:00:00Z","name_a2s":"Uncletopia | Warsaw | 2 | All Maps","protocol":17,"map":"cp_altitude","folder":"tf","game":"Team Fortress","app_id":440,"player_count":0,"max_players":24,"Bots":0,"server_type":"Dedicated","server_os":"Linux","password":true,"vac":true,"version":"7757534","steam_id":85568392925397851,"keywords":["cp","nocrits","nodmgspread","uncletopia"],"game_id":440,"stv_port":27026,"stv_name":"Uncletopia | Warsaw | 2 | All Maps | STV","players":null},{"server_id":51,"name":"Uncletopia | Warsaw | 3 | All Maps","name_short":"waw-3","host":"waw-1.pl.uncletopia.com","port":27035,"enabled":true,"region":"eu","cc":"pl","latitude":52.2297,"longitude":21.017532,"reserved":0,"last_update":"0001-01-01T00:00:00Z","name_a2s":"Uncletopia | Warsaw | 3 | All Maps","protocol":17,"map":"cp_dustbowl","folder":"tf","game":"Team Fortress","app_id":440,"player_count":0,"max_players":24,"Bots":0,"server_type":"Dedicated","server_os":"Linux","password":true,"vac":true,"version":"7757534","steam_id":85568392925397852,"keywords":["cp","nocrits","nodmgspread","uncletopia"],"game_id":440,"stv_port":27036,"stv_name":"Uncletopia | Warsaw | 3 | All Maps | STV","players":null},{"server_id":52,"name":"Uncletopia | Warsaw | 4 | All Maps","name_short":"waw-4","host":"waw-1.pl.uncletopia.com","port":27045,"enabled":true,"region":"eu","cc":"pl","latitude":52.2297,"longitude":21.017532,"reserved":0,"last_update":"0001-01-01T00:00:00Z","name_a2s":"Uncletopia | Warsaw | 4 | All Maps","protocol":17,"map":"pl_borneo","folder":"tf","game":"Team Fortress","app_id":440,"player_count":0,"max_players":24,"Bots":0,"server_type":"Dedicated","server_os":"Linux","password":true,"vac":true,"version":"7757534","steam_id":85568392925397853,"keywords":["nocrits","nodmgspread","payload","uncletopia"],"game_id":440,"stv_port":27046,"stv_name":"Uncletopia | Warsaw | 4 | All Maps | STV","players":null},{"server_id":53,"name":"Uncletopia | Warsaw | 5 | Stopwatch Beta","name_short":"waw-5","host":"waw-1.pl.uncletopia.com","port":27055,"enabled":true,"region":"eu","cc":"pl","latitude":52.2297,"longitude":21.017532,"reserved":0,"last_update":"0001-01-01T00:00:00Z","name_a2s":"Uncletopia | Warsaw | 5 | Stopwatch Beta","protocol":17,"map":"pl_barnblitz","folder":"tf","game":"Team Fortress","app_id":440,"player_count":0,"max_players":24,"Bots":0,"server_type":"Dedicated","server_os":"Linux","password":true,"vac":true,"version":"7757534","steam_id":85568392925397854,"keywords":["nocrits","nodmgspread","payload","uncletopia"],"game_id":440,"stv_port":27056,"stv_name":"Uncletopia | Warsaw | 5 | Stopwatch Beta | STV","players":null},{"server_id":54,"name":"Uncletopia | Warsaw | 6 | Community","name_short":"waw-6","host":"waw-1.pl.uncletopia.com","port":27065,"enabled":true,"region":"eu","cc":"pl","latitude":52.2297,"longitude":21.017532,"reserved":0,"last_update":"0001-01-01T00:00:00Z","name_a2s":"Uncletopia | Warsaw | 6 | Community","protocol":17,"map":"pl_swiftwater_final1","folder":"tf","game":"Team Fortress","app_id":440,"player_count":0,"max_players":24,"Bots":0,"server_type":"Dedicated","server_os":"Linux","password":true,"vac":true,"version":"7757534","steam_id":85568392925397856,"keywords":["nocrits","nodmgspread","payload","uncletopia"],"game_id":440,"stv_port":27066,"stv_name":"Uncletopia | Warsaw | 6 | Community | STV","players":null}]}