{"status":true,"message":"","result":[{"server_id":9,"name":"Uncletopia | Atlanta | 1 | All Maps","name_short":"atl-1","host":"atl-1.us.uncletopia.com","port":27015,"enabled":true,"region":"us-east","cc":"us","latitude":33.753746,"longitude":-84.38633,"reserved":0,"last_update":"0001-01-01T00:00:00Z","name_a2s":"Uncletopia | Atlanta | 1 | All Maps","protocol":17,"map":"pl_pier","folder":"tf","game":"Team Fortress","app_id":440,"player_count":24,"max_players":24,"Bots":0,"server_type":"Dedicated","server_os":"Linux","password":true,"vac":true,"version":"7757534","steam_id":85568392924469982,"keywords":["nocrits","nodmgspread","payload","uncletopia"],"game_id":440,"stv_port":27016,"stv_name":"Uncletopia | Atlanta | 1 | All Maps | STV","players":[{"user_id":8,"name":"Sierra","steam_id":76561199454229513,"connected_time":5183000000000,"state":"active","ping":67},{"user_id":37,"name":"AlexLovesYou","steam_id":76561199163263543,"connected_time":3466000000000,"state":"active","ping":72},{"user_id":48,"name":"B)","steam_id":76561198093921290,"connected_time":2796000000000,"state":"active","ping":58},{"user_id":12,"name":"Z4LTte","steam_id":76561198283258068,"connected_time":4534000000000,"state":"active","ping":60},{"user_id":13,"name":"Brain Rot Zee","steam_id":76561198094070642,"connected_time":4519000000000,"state":"active","ping":106},{"user_id":14,"name":"harry gooch","steam_id":76561198024817457,"connected_time":4375000000000,"state":"active","ping":61},{"user_id":58,"name":"Satan-2","steam_id":76561199231742764,"connected_time":1559000000000,"state":"active","ping":85},{"user_id":16,"name":"Amish Robot","steam_id":76561198041156065,"connected_time":4096000000000,"state":"active","ping":80},{"user_id":57,"name":"Pixler544","steam_id":76561198240575132,"connected_time":2233000000000,"state":"active","ping":62},{"user_id":62,"name":"MjrMovnTARGET","steam_id":76561199125908849,"connected_time":1218000000000,"state":"active","ping":76},{"user_id":19,"name":"Ripheart","steam_id":76561198089661561,"connected_time":3997000000000,"state":"active","ping":56},{"user_id":60,"name":"Cringe Krisofferson","steam_id":76561198121926605,"connected_time":1231000000000,"state":"active","ping":71},{"user_id":33,"name":"Apantard","steam_id":76561199066783653,"connected_time":3617000000000,"state":"active","ping":93},{"user_id":63,"name":"Flat Eric","steam_id":76561198114922735,"connected_time":1208000000000,"state":"active","ping":55},{"user_id":52,"name":"how do i girl???","steam_id":76561198050290565,"connected_time":2309000000000,"state":"active","ping":70},{"user_id":59,"name":"mudman","steam_id":76561198079420187,"connected_time":1352000000000,"state":"active","ping":73},{"user_id":50,"name":"mashallah","steam_id":76561198075111427,"connected_time":2753000000000,"state":"active","ping":80},{"user_id":66,"name":"Kurt Biscuitmaker","steam_id":76561198331701823,"connected_time":470000000000,"state":"active","ping":86},{"user_id":47,"name":"E$$ence","steam_id":76561198013374122,"connected_time":2983000000000,"state":"active","ping":52},{"user_id":28,"name":"nat","steam_id":76561198865090309,"connected_time":3788000000000,"state":"active","ping":100},{"user_id":68,"name":"chikin.sauce","steam_id":76561198042464635,"connected_time":14000000000,"state":"active","ping":70},{"user_id":30,"name":"The Sydney Sleeper Itself","steam_id":76561198180251763,"connected_time":3762000000000,"state":"active","ping":69},{"user_id":31,"name":"Slavaskyanovamirakevchei","steam_id":76561198141218864,"connected_time":3685000000000,"state":"active","ping":80},{"user_id":36,"name":"LerN","steam_id":76561198083463877,"connected_time":3508000000000,"state":"active","ping":74}]},{"server_id":400,"name":"Uncletopia | Atlanta | 3 | Community","name_short":"atl-3","host":"atl-1.us.uncletopia.com","port":27035,"enabled":true,"region":"us-east","cc":"us","latitude":33.753746,"longitude":-84.38633,"reserved":0,"last_update":"0001-01-01T00:00:00Z","name_a2s":"Uncletopia | Atlanta | 3 | Community","protocol":17,"map":"cp_mountainlab","folder":"tf","game":"Team Fortress","app_id":440,"player_count":0,"max_players":24,"Bots":0,"server_type":"Dedicated","server_os":"Linux","password":true,"vac":true,"version":"7757534","steam_id":85568392924515187,"keywords":["cp","nocrits","nodmgspread","uncletopia"],"game_id":440,"stv_port":27036,"stv_name":"Uncletopia | Atlanta | 3 | Community | STV","players":null},{"server_id":401,"name":"Uncletopia | Atlanta | 4 | No Payload","name_short":"atl-4","host":"atl-1.us.uncletopia.com","port":27045,"enabled":true,"region":"us-east","cc":"us","latitude":33.753746,"longitude":-84.38633,"reserved":0,"last_update":"0001-01-01T00:00:00Z","name_a2s":"","protocol":0,"map":"","folder":"","game":"","app_id":0,"player_count":0,"max_players":0,"Bots":0,"server_type":"","server_os":"","password":false,"vac":false,"version":"","steam_id":0,"keywords":null,"game_id":0,"stv_port":0,"stv_name":"","players":null},{"server_id":2,"name":"Uncletopia | Chicago | 1 | All Maps","name_short":"chi-1","host":"chi-1.us.uncletopia.com","port":27015,"enabled":true,"region":"us-central","cc":"us","latitude":41.881832,"longitude":-87.62318,"reserved":0,"last_update":"0001-01-01T00:00:00Z","name_a2s":"Uncletopia | Chicago | 1 | All Maps","protocol":17,"map":"cp_dustbowl","folder":"tf","game":"Team Fortress","app_id":440,"player_count":0,"max_players":24,"Bots":0,"server_type":"Dedicated","server_os":"Linux","password":true,"vac":true,"version":"7757534","steam_id":85568392924469984,"keywords":["cp","nocrits","nodmgspread","uncletopia"],"game_id":440,"stv_port":27016,"stv_name":"Uncletopia | Chicago | 1 | All Maps | STV","players":null},{"server_id":106,"name":"Uncletopia | Chicago | 2 | All Maps","name_short":"chi-2","host":"chi-1.us.uncletopia.com","port":27025,"enabled":true,"region":"us-central","cc":"us","latitude":41.881832,"longitude":-87.62318,"reserved":0,"last_update":"0001-01-01T00:00:00Z","name_a2s":"Uncletopia | Chicago | 2 | All Maps","protocol":17,"map":"pl_upward","folder":"tf","game":"Team Fortress","app_id":440,"player_count":0,"max_players":24,"Bots":0,"server_type":"Dedicated","server_os":"Linux","password":true,"vac":true,"version":"7757534","steam_id":85568392924469985,"keywords":["nocrits","nodmgspread","payload","uncletopia"],"game_id":440,"stv_port":27026,"stv_name":"Uncletopia | Chicago | 2 | All Maps | STV","players":null},{"server_id":402,"name":"Uncletopia | Chicago | 3 | All Maps","name_short":"chi-3","host":"chi-1.us.uncletopia.com","port":27035,"enabled":true,"region":"us-central","cc":"us","latitude":41.881832,"longitude":-87.62318,"reserved":0,"last_update":"0001-01-01T00:00:00Z","name_a2s":"Uncletopia | Chicago | 3 | All Maps","protocol":17,"map":"koth_cascade","folder":"tf","game":"Team Fortress","app_id":440,"player_count":0,"max_players":24,"Bots":0,"server_type":"Dedicated","server_os":"Linux","password":true,"vac":true,"version":"7757534","steam_id":85568392924515191,"keywords":["cp","nocrits","nodmgspread","uncletopia"],"game_id":440,"stv_port":27036,"stv_name":"Uncletopia | Chicago | 3 | All Maps | STV","players":null},{"server_id":403,"name":"Uncletopia | Chicago | 4 | All Maps","name_short":"chi-4","host":"chi-1.us.uncletopia.com","port":27045,"enabled":true,"region":"us-central","cc":"us","latitude":41.881832,"longitude":-87.62318,"reserved":0,"last_update":"0001-01-01T00:00:00Z","name_a2s":"Uncletopia | Chicago | 4 | All Maps","protocol":17,"map":"pl_borneo","folder":"tf","game":"Team Fortress","app_id":440,"player_count":24,"max_players":24,"Bots":0,"server_type":"Dedicated","server_os":"Linux","password":true,"vac":true,"version":"7757534","steam_id":85568392924515193,"keywords":["nocrits","nodmgspread","payload","uncletopia"],"game_id":440,"stv_port":27046,"stv_name":"Uncletopia | Chicago | 4 | All Maps | STV","players":[{"user_id":200,"name":"Trusty","steam_id":76561198035444237,"connected_time":417000000000,"state":"active","ping":63},{"user_id":191,"name":"PrinceGrotle","steam_id":76561198206131603,"connected_time":705000000000,"state":"active","ping":73},{"user_id":186,"name":"baesth","steam_id":76561198857820304,"connected_time":1748000000000,"state":"active","ping":84},{"user_id":206,"name":"tailorturtle","steam_id":76561198107481127,"connected_time":342000000000,"state":"active","ping":68},{"user_id":187,"name":"Yoshi62","steam_id":76561199103748704,"connected_time":1628000000000,"state":"active","ping":132},{"user_id":189,"name":"Welrod Gaming","steam_id":76561198439201906,"connected_time":742000000000,"state":"active","ping":72},{"user_id":74,"name":"Tony Swan","steam_id":76561198026438574,"connected_time":10033000000000,"state":"active","ping":124},{"user_id":210,"name":"Fudgely","steam_id":76561198039425862,"connected_time":141000000000,"state":"active","ping":72},{"user_id":207,"name":"Jared In Target","steam_id":76561198372449718,"connected_time":335000000000,"state":"active","ping":72},{"user_id":149,"name":"Stephen \"Fatso\" Stromboli","steam_id":76561198060911025,"connected_time":5405000000000,"state":"active","ping":43},{"user_id":201,"name":"_Lusty_","steam_id":76561198876948142,"connected_time":413000000000,"state":"active","ping":65},{"user_id":211,"name":"27 blends","steam_id":76561197997100185,"connected_time":32000000000,"state":"active","ping":89},{"user_id":169,"name":"Doost44","steam_id":76561198115785902,"connected_time":3016000000000,"state":"active","ping":64},{"user_id":204,"name":"Decimus","steam_id":76561198341781527,"connected_time":357000000000,"state":"active","ping":71},{"user_id":205,"name":"Ejaculation Zach","steam_id":76561198203765200,"connected_time":356000000000,"state":"active","ping":57},{"user_id":48,"name":"Wungsten","steam_id":76561198047983571,"connected_time":12192000000000,"state":"active","ping":62},{"user_id":182,"name":"Huey","steam_id":76561198972816386,"connected_time":2040000000000,"state":"active","ping":78},{"user_id":145,"name":"Bali","steam_id":76561198038693845,"connected_time":5721000000000,"state":"active","ping":89},{"user_id":178,"name":"wiiblob","steam_id":76561198109106242,"connected_time":2303000000000,"state":"active","ping":142},{"user_id":161,"name":"Errrmmett","steam_id":76561198041314051,"connected_time":3522000000000,"state":"active","ping":57},{"user_id":185,"name":"finger","steam_id":76561198068558572,"connected_time":1823000000000,"state":"active","ping":86},{"user_id":199,"name":"Hylic","steam_id":76561199051314589,"connected_time":424000000000,"state":"active","ping":63},{"user_id":202,"name":"princess musky paws","steam_id":76561198054925421,"connected_time":411000000000,"state":"active","ping":57},{"user_id":197,"name":"F_L BongRipper","steam_id":76561198047136927,"connected_time":434000000000,"state":"active","ping":57}]},{"server_id":36,"name":"Uncletopia | Chicago | 5 | All Maps","name_short":"chi-5","host":"chi-2.us.uncletopia.com","port":27015,"enabled":true,"region":"us-central","cc":"us","latitude":41.881832,"longitude":-87.62318,"reserved":0,"last_update":"0001-01-01T00:00:00Z","name_a2s":"Uncletopia | Chicago | 5 | All Maps","protocol":17,"map":"koth_lakeside_final","folder":"tf","game":"Team Fortress","app_id":440,"player_count":0,"max_players":24,"Bots":0,"server_type":"Dedicated","server_os":"Linux","password":true,"vac":true,"version":"7757534","steam_id":85568392924866362,"keywords":["cp","nocrits","nodmgspread","uncletopia"],"game_id":440,"stv_port":27016,"stv_name":"Uncletopia | Chicago | 5 | All Maps | STV","players":null},{"server_id":37,"name":"Uncletopia | Chicago | 6 | All Maps","name_short":"chi-6","host":"chi-2.us.uncletopia.com","port":27025,"enabled":true,"region":"us-central","cc":"us","latitude":41.881832,"longitude":-87.62318,"reserved":0,"last_update":"0001-01-01T00:00:00Z","name_a2s":"Uncletopia | Chicago | 6 | All Maps","protocol":17,"map":"pl_pier","folder":"tf","game":"Team Fortress","app_id":440,"player_count":4,"max_players":24,"Bots":0,"server_type":"Dedicated","server_os":"Linux","password":true,"vac":true,"version":"7757534","steam_id":85568392924866363,"keywords":["nocrits","nodmgspread","payload","uncletopia"],"game_id":440,"stv_port":27026,"stv_name":"Uncletopia | Chicago | 6 | All Maps | STV","players":[{"user_id":5,"name":"dicksnip","steam_id":76561198356515396,"connected_time":1162000000000,"state":"active","ping":70},{"user_id":6,"name":"Gabe Newele!!!!","steam_id":76561197979090955,"connected_time":782000000000,"state":"active","ping":90},{"user_id":12,"name":"ThatThingWithaK","steam_id":76561198317602350,"connected_time":397000000000,"state":"active","ping":90},{"user_id":13,"name":"What day is it?","steam_id":76561199056736682,"connected_time":290000000000,"state":"active","ping":54}]},{"server_id":38,"name":"Uncletopia | Chicago | 7 | Stopwatch Beta","name_short":"chi-7","host":"chi-2.us.uncletopia.com","port":27035,"enabled":true,"region":"us-central","cc":"us","latitude":41.881832,"longitude":-87.62318,"reserved":0,"last_update":"0001-01-01T00:00:00Z","name_a2s":"Uncletopia | Chicago | 7 | Stopwatch Beta","protocol":17,"map":"koth_viaduct","folder":"tf","game":"Team Fortress","app_id":440,"player_count":0,"max_players":24,"Bots":0,"server_type":"Dedicated","server_os":"Linux","password":true,"vac":true,"version":"7757534","steam_id":85568392924866364,"keywords":["cp","nocrits","nodmgspread","uncletopia"],"game_id":440,"stv_port":27036,"stv_name":"Uncletopia | Chicago | 7 | Stopwatch Beta | STV","players":null},{"server_id":39,"name":"Uncletopia | Chicago | 8 | Community","name_short":"chi-8","host":"chi-2.us.uncletopia.com","port":27045,"enabled":true,"region":"us-central","cc":"us","latitude":41.881832,"longitude":-87.62318,"reserved":0,"last_update":"0001-01-01T00:00:00Z","name_a2s":"Uncletopia | Chicago | 8 | Community","protocol":17,"map":"koth_lakeside_final","folder":"tf","game":"Team Fortress","app_id":440,"player_count":0,"max_players":24,"Bots":0,"server_type":"Dedicated","server_os":"Linux","password":true,"vac":true,"version":"7757534","steam_id":85568392924866365,"keywords":["cp","nocrits","nodmgspread","uncletopia"],"game_id":440,"stv_port":27046,"stv_name":"Uncletopia | Chicago | 8 | Community | STV","players":null},{"server_id":8,"name":"Uncletopia | Dallas | 1 | All Maps","name_short":"dal-1","host":"dal-1.us.uncletopia.com","port":27015,"enabled":true,"region":"us-central","cc":"us","latitude":32.779167,"longitude":-96.80889,"reserved":0,"last_update":"0001-01-01T00:00:00Z","name_a2s":"Uncletopia | Dallas | 1 | All Maps","protocol":17,"map":"koth_highpass","folder":"tf","game":"Team Fortress","app_id":440,"player_count":0,"max_players":24,"Bots":0,"server_type":"Dedicated","server_os":"Linux","password":true,"vac":true,"version":"7757534","steam_id":85568392924469986,"keywords":["cp","nocrits","nodmgspread","uncletopia"],"game_id":440,"stv_port":27016,"stv_name":"Uncletopia | Dallas | 1 | All Maps | STV","players":null},{"server_id":108,"name":"Uncletopia | Dallas | 2 | All Maps","name_short":"dal-2","host":"dal-1.us.uncletopia.com","port":27025,"enabled":true,"region":"us-central","cc":"us","latitude":32.779167,"longitude":-96.80889,"reserved":0,"last_update":"0001-01-01T00:00:00Z","name_a2s":"Uncletopia | Dallas | 2 | All Maps","protocol":17,"map":"cp_altitude","folder":"tf","game":"Team Fortress","app_id":440,"player_count":0,"max_players":24,"Bots":0,"server_type":"Dedicated","server_os":"Linux","password":true,"vac":true,"version":"7757534","steam_id":85568392924469988,"keywords":["cp","nocrits","nodmgspread","uncletopia"],"game_id":440,"stv_port":27026,"stv_name":"Uncletopia | Dallas | 2 | All Maps | STV","players":null},{"server_id":5,"name":"Uncletopia | Frankfurt | 1 | All Maps","name_short":"frk-1","host":"frk-1.de.uncletopia.com","port":27015,"enabled":true,"region":"eu","cc":"de","latitude":50.110924,"longitude":8.682127,"reserved":0,"last_update":"0001-01-01T00:00:00Z","name_a2s":"Uncletopia | Frankfurt | 1 | All Maps","protocol":17,"map":"pl_barnblitz","folder":"tf","game":"Team Fortress","app_id":440,"player_count":24,"max_players":24,"Bots":0,"server_type":"Dedicated","server_os":"Linux","password":true,"vac":true,"version":"7757534","steam_id":85568392924469989,"keywords":["nocrits","nodmgspread","payload","uncletopia"],"game_id":440,"stv_port":27016,"stv_name":"Uncletopia | Frankfurt | 1 | All Maps | STV","players":[{"user_id":243,"name":"Jag är ett anka","steam_id":76561198059978438,"connected_time":699000000000,"state":"active","ping":49},{"user_id":198,"name":"PLUTO","steam_id":76561198312436128,"connected_time":2470000000000,"state":"active","ping":132},{"user_id":135,"name":"Pronton","steam_id":76561198082502910,"connected_time":5965000000000,"state":"active","ping":50},{"user_id":141,"name":"XPullaHiiri","steam_id":76561198031652375,"connected_time":5644000000000,"state":"active","ping":84},{"user_id":250,"name":"iIMOFIi","steam_id":76561199000483925,"connected_time":16000000000,"state":"active","ping":171},{"user_id":244,"name":"christmas with weezer","steam_id":76561198863788240,"connected_time":668000000000,"state":"active","ping":76},{"user_id":236,"name":"madman hesus","steam_id":76561198159702599,"connected_time":1151000000000,"state":"active","ping":119},{"user_id":222,"name":"citronous","steam_id":76561198093290934,"connected_time":2066000000000,"state":"active","ping":58},{"user_id":241,"name":"disposablesuperbread","steam_id":76561199074703607,"connected_time":893000000000,"state":"active","ping":70},{"user_id":247,"name":"MrFish","steam_id":76561198853073331,"connected_time":251000000000,"state":"active","ping":107},{"user_id":239,"name":"o$ama","steam_id":76561199143737200,"connected_time":908000000000,"state":"active","ping":99},{"user_id":237,"name":"Rashid Besythe","steam_id":76561198081477129,"connected_time":1026000000000,"state":"active","ping":74},{"user_id":246,"name":"Huscper","steam_id":76561198106229481,"connected_time":345000000000,"state":"active","ping":83},{"user_id":161,"name":"Soerlssoelssöen","steam_id":76561197993060585,"connected_time":4327000000000,"state":"active","ping":73},{"user_id":155,"name":"fmdi","steam_id":76561199433879329,"connected_time":5017000000000,"state":"active","ping":72},{"user_id":238,"name":"sev//","steam_id":76561198797730418,"connected_time":969000000000,"state":"active","ping":48},{"user_id":142,"name":"LOBZIK","steam_id":76561198114830120,"connected_time":5638000000000,"state":"active","ping":79},{"user_id":180,"name":"Nards","steam_id":76561198001819260,"connected_time":3174000000000,"state":"active","ping":70},{"user_id":162,"name":"walluu","steam_id":76561198121830870,"connected_time":4170000000000,"state":"active","ping":75},{"user_id":209,"name":"skibidi bop yes yes yes","steam_id":76561198306177608,"connected_time":2339000000000,"state":"active","ping":72},{"user_id":163,"name":"rizook","steam_id":76561198055010039,"connected_time":4143000000000,"state":"active","ping":63},{"user_id":160,"name":"Pico","steam_id":76561198063552545,"connected_time":4489000000000,"state":"active","ping":100},{"user_id":240,"name":"jawA","steam_id":76561198070341774,"connected_time":906000000000,"state":"active","ping":71},{"user_id":249,"name":"CoreTaviy","steam_id":76561199209053097,"connected_time":55000000000,"state":"active","ping":83}]},{"server_id":110,"name":"Uncletopia | Frankfurt | 2 | All Maps","name_short":"frk-2","host":"frk-1.de.uncletopia.com","port":27025,"enabled":true,"region":"eu","cc":"de","latitude":50.110924,"longitude":8.682127,"reserved":0,"last_update":"0001-01-01T00:00:00Z","name_a2s":"Uncletopia | Frankfurt | 2 | All Maps","protocol":17,"map":"pl_snowycoast","folder":"tf","game":"Team Fortress","app_id":440,"player_count":0,"max_players":24,"Bots":0,"server_type":"Dedicated","server_os":"Linux","password":true,"vac":true,"version":"7757534","steam_id":85568392924469990,"keywords":["nocrits","nodmgspread","payload","uncletopia"],"game_id":440,"stv_port":27026,"stv_name":"Uncletopia | Frankfurt | 2 | All Maps | STV","players":null},{"server_id":308,"name":"Uncletopia | Frankfurt | 3 | All Maps","name_short":"frk-3","host":"frk-1.de.uncletopia.com","port":27035,"enabled":true,"region":"eu","cc":"de","latitude":50.110924,"longitude":8.682127,"reserved":0,"last_update":"0001-01-01T00:00:00Z","name_a2s":"Uncletopia | Frankfurt | 3 | All Maps","protocol":17,"map":"cp_altitude","folder":"tf","game":"Team Fortress","app_id":440,"player_count":0,"max_players":24,"Bots":0,"server_type":"Dedicated","server_os":"Linux","password":true,"vac":true,"version":"7757534","steam_id":85568392924504274,"keywords":["cp","nocrits","nodmgspread","uncletopia"],"game_id":440,"stv_port":27036,"stv_name":"Uncletopia | Frankfurt | 3 | All Maps | STV","players":null},{"server_id":309,"name":"Uncletopia | Frankfurt | 4 | All Maps","name_short":"frk-4","host":"frk-1.de.uncletopia.com","port":27045,"enabled":true,"region":"eu","cc":"de","latitude":50.110924,"longitude":8.682127,"reserved":0,"last_update":"0001-01-01T00:00:00Z","name_a2s":"Uncletopia | Frankfurt | 4 | All Maps","protocol":17,"map":"pl_pier","folder":"tf","game":"Team Fortress","app_id":440,"player_count":10,"max_players":24,"Bots":0,"server_type":"Dedicated","server_os":"Linux","password":true,"vac":true,"version":"7757534","steam_id":85568392924504275,"keywords":["nocrits","nodmgspread","payload","uncletopia"],"game_id":440,"stv_port":27046,"stv_name":"Uncletopia | Frankfurt | 4 | All Maps | STV","players":[{"user_id":6,"name":"ran is running","steam_id":76561199443185667,"connected_time":1115000000000,"state":"active","ping":153},{"user_id":7,"name":"justin_ (f2p) (real)","steam_id":76561198839843428,"connected_time":1109000000000,"state":"active","ping":153},{"user_id":18,"name":"Saymesal","steam_id":76561198886917393,"connected_time":476000000000,"state":"active","ping":72},{"user_id":10,"name":"big hoops","steam_id":76561198004703799,"connected_time":790000000000,"state":"active","ping":45},{"user_id":12,"name":"Enigmus","steam_id":76561197994063627,"connected_time":756000000000,"state":"active","ping":87},{"user_id":13,"name":"Bat in a thousand","steam_id":76561198320506848,"connected_time":749000000000,"state":"active","ping":51},{"user_id":14,"name":"KingofCubes","steam_id":76561198258037513,"connected_time":708000000000,"state":"active","ping":65},{"user_id":16,"name":"Pinkchup","steam_id":76561198106802803,"connected_time":581000000000,"state":"active","ping":68},{"user_id":17,"name":"Dingus","steam_id":76561198140514058,"connected_time":538000000000,"state":"active","ping":51},{"user_id":19,"name":"Artock","steam_id":76561198808599713,"connected_time":359000000000,"state":"active","ping":97}]},{"server_id":310,"name":"Uncletopia | Frankfurt | 5 | All Maps","name_short":"frk-5","host":"frk-1.de.uncletopia.com","port":27055,"enabled":true,"region":"eu","cc":"de","latitude":50.110924,"longitude":8.682127,"reserved":0,"last_update":"0001-01-01T00:00:00Z","name_a2s":"Uncletopia | Frankfurt | 5 | All Maps","protocol":17,"map":"cp_altitude","folder":"tf","game":"Team Fortress","app_id":440,"player_count":0,"max_players":24,"Bots":0,"server_type":"Dedicated","server_os":"Linux","password":true,"vac":true,"version":"7757534","steam_id":85568392924504277,"keywords":["cp","nocrits","nodmgspread","uncletopia"],"game_id":440,"stv_port":27056,"stv_name":"Uncletopia | Frankfurt | 5 | All Maps | STV","players":null},{"server_id":311,"name":"Uncletopia | Frankfurt | 6 | All Maps","name_short":"frk-6","host":"frk-1.de.uncletopia.com","port":27065,"enabled":true,"region":"eu","cc":"de","latitude":50.110924,"longitude":8.682127,"reserved":0,"last_update":"0001-01-01T00:00:00Z","name_a2s":"Uncletopia | Frankfurt | 6 | All Maps","protocol":17,"map":"pl_badwater","folder":"tf","game":"Team Fortress","app_id":440,"player_count":0,"max_players":24,"Bots":0,"server_type":"Dedicated","server_os":"Linux","password":true,"vac":true,"version":"7757534","steam_id":85568392924504278,"keywords":["nocrits","nodmgspread","payload","uncletopia"],"game_id":440,"stv_port":27066,"stv_name":"Uncletopia | Frankfurt | 6 | All Maps | STV","players":null},{"server_id":23,"name":"Uncletopia | Frankfurt | 7 | Stopwatch Beta","name_short":"frk-7","host":"frk-1.de.uncletopia.com","port":27075,"enabled":true,"region":"eu","cc":"de","latitude":50.110924,"longitude":8.682127,"reserved":0,"last_update":"0001-01-01T00:00:00Z","name_a2s":"Uncletopia | Frankfurt | 7 | Stopwatch Beta","protocol":17,"map":"pl_borneo","folder":"tf","game":"Team Fortress","app_id":440,"player_count":0,"max_players":24,"Bots":0,"server_type":"Dedicated","server_os":"Linux","password":true,"vac":true,"version":"7757534","steam_id":85568392924742827,"keywords":["nocrits","nodmgspread","payload","uncletopia"],"game_id":440,"stv_port":27076,"stv_name":"Uncletopia | Frankfurt | 7 | Stopwatch Beta | STV","players":null},{"server_id":24,"name":"Uncletopia | Frankfurt | 8 | Community","name_short":"frk-8","host":"frk-1.de.uncletopia.com","port":27085,"enabled":true,"region":"eu","cc":"de","latitude":50.110924,"longitude":8.682127,"reserved":0,"last_update":"0001-01-01T00:00:00Z","name_a2s":"Uncletopia | Frankfurt | 8 | Community","protocol":17,"map":"koth_viaduct","folder":"tf","game":"Team Fortress","app_id":440,"player_count":4,"max_players":24,"Bots":0,"server_type":"Dedicated","server_os":"Linux","password":true,"vac":true,"version":"7757534","steam_id":85568392924742828,"keywords":["cp","nocrits","nodmgspread","uncletopia"],"game_id":440,"stv_port":27086,"stv_name":"Uncletopia | Frankfurt | 8 | Community | STV","players":[{"user_id":3,"name":"Ork","steam_id":76561197968575924,"connected_time":1216000000000,"state":"active","ping":63},{"user_id":4,"name":"norespectforthedevil","steam_id":76561197998922218,"connected_time":1039000000000,"state":"active","ping":102},{"user_id":5,"name":"Lordware","steam_id":76561198022011299,"connected_time":516000000000,"state":"active","ping":85},{"user_id":6,"name":"muey","steam_id":76561198442973573,"connected_time":253000000000,"state":"active","ping":75}]},{"server_id":202,"name":"Uncletopia | Hong Kong | 1 | All Maps","name_short":"hgk-1","host":"hgk-1.hk.uncletopia.com","port":27015,"enabled":true,"region":"asia","cc":"hk","latitude":22.302711,"longitude":114.177216,"reserved":0,"last_update":"0001-01-01T00:00:00Z","name_a2s":"Uncletopia | Hong Kong | 1 | All Maps","protocol":17,"map":"pl_frontier_final","folder":"tf","game":"Team Fortress","app_id":440,"player_count":7,"max_players":24,"Bots":0,"server_type":"Dedicated","server_os":"Linux","password":true,"vac":true,"version":"7757534","steam_id":85568392924494504,"keywords":["nocrits","nodmgspread","payload","uncletopia"],"game_id":440,"stv_port":27016,"stv_name":"Uncletopia | Hong Kong | 1 | All Maps | STV","players":[{"user_id":372,"name":"DresatCouchonion","steam_id":76561199388364553,"connected_time":3693000000000,"state":"active","ping":176},{"user_id":364,"name":"Waltuh (CEO of Chicanery)","steam_id":76561199257300024,"connected_time":4841000000000,"state":"active","ping":64},{"user_id":376,"name":"Snorry","steam_id":76561198066737409,"connected_time":2937000000000,"state":"active","ping":91},{"user_id":381,"name":"brizzard","steam_id":76561198048438653,"connected_time":1825000000000,"state":"active","ping":42},{"user_id":385,"name":"FighterX9","steam_id":76561198832500806,"connected_time":1321000000000,"state":"active","ping":158},{"user_id":386,"name":"Nice","steam_id":76561199180653046,"connected_time":334000000000,"state":"active","ping":125},{"user_id":360,"name":"Bertengkar","steam_id":76561198213031155,"connected_time":5413000000000,"state":"active","ping":90}]},{"server_id":1,"name":"Uncletopia | Los Angeles | 1 | All Maps","name_short":"lax-1","host":"lax-1.us.uncletopia.com","port":27015,"enabled":true,"region":"us-west","cc":"us","latitude":33.94279,"longitude":-118.41004,"reserved":0,"last_update":"0001-01-01T00:00:00Z","name_a2s":"Uncletopia | Los Angeles | 1 | All Maps","protocol":17,"map":"cp_process_final","folder":"tf","game":"Team Fortress","app_id":440,"player_count":0,"max_players":24,"Bots":0,"server_type":"Dedicated","server_os":"Linux","password":true,"vac":true,"version":"7757534","steam_id":85568392924469991,"keywords":["cp","nocrits","nodmgspread","uncletopia"],"game_id":440,"stv_port":27016,"stv_name":"Uncletopia | Los Angeles | 1 | All Maps | STV","players":null},{"server_id":112,"name":"Uncletopia | Los Angeles | 2 | All Maps","name_short":"lax-2","host":"lax-1.us.uncletopia.com","port":27025,"enabled":true,"region":"us-west","cc":"us","latitude":33.94279,"longitude":-118.41004,"reserved":0,"last_update":"0001-01-01T00:00:00Z","name_a2s":"Uncletopia | Los Angeles | 2 | All Maps","protocol":17,"map":"koth_viaduct","folder":"tf","game":"Team Fortress","app_id":440,"player_count":0,"max_players":24,"Bots":0,"server_type":"Dedicated","server_os":"Linux","password":true,"vac":true,"version":"7757534","steam_id":85568392924469992,"keywords":["cp","nocrits","nodmgspread","uncletopia"],"game_id":440,"stv_port":27026,"stv_name":"Uncletopia | Los Angeles | 2 | All Maps | STV","players":null},{"server_id":324,"name":"Uncletopia | Los Angeles | 3 | All Maps","name_short":"lax-3","host":"lax-1.us.uncletopia.com","port":27035,"enabled":true,"region":"us-west","cc":"us","latitude":33.94279,"longitude":-118.41004,"reserved":0,"last_update":"0001-01-01T00:00:00Z","name_a2s":"Uncletopia | Los Angeles | 3 | All Maps","protocol":17,"map":"cp_altitude","folder":"tf","game":"Team Fortress","app_id":440,"player_count":0,"max_players":24,"Bots":0,"server_type":"Dedicated","server_os":"Linux","password":true,"vac":true,"version":"7757534","steam_id":85568392924510198,"keywords":["cp","nocrits","nodmgspread","uncletopia"],"game_id":440,"stv_port":27036,"stv_name":"Uncletopia | Los Angeles | 3 | All Maps | STV","players":null},{"server_id":25,"name":"Uncletopia | Los Angeles | 4 | Stopwatch Beta","name_short":"lax-4","host":"lax-1.us.uncletopia.com","port":27045,"enabled":true,"region":"us-west","cc":"us","latitude":33.94279,"longitude":-118.41004,"reserved":0,"last_update":"0001-01-01T00:00:00Z","name_a2s":"Uncletopia | Los Angeles | 4 | Stopwatch Beta","protocol":17,"map":"cp_dustbowl","folder":"tf","game":"Team Fortress","app_id":440,"player_count":0,"max_players":24,"Bots":0,"server_type":"Dedicated","server_os":"Linux","password":true,"vac":true,"version":"7757534","steam_id":85568392924510199,"keywords":["cp","nocrits","nodmgspread","uncletopia"],"game_id":440,"stv_port":27046,"stv_name":"Uncletopia | Los Angeles | 4 | Stopwatch Beta | STV","players":null},{"server_id":11,"name":"Uncletopia | London | 1 | All Maps","name_short":"lon-1","host":"lon-1.uk.uncletopia.com","port":27015,"enabled":true,"region":"eu","cc":"gb","latitude":51.509865,"longitude":-0.118092,"reserved":0,"last_update":"0001-01-01T00:00:00Z","name_a2s":"Uncletopia | London | 1 | All Maps","protocol":17,"map":"pl_badwater","folder":"tf","game":"Team Fortress","app_id":440,"player_count":23,"max_players":24,"Bots":0,"server_type":"Dedicated","server_os":"Linux","password":true,"vac":true,"version":"7757534","steam_id":85568392924367362,"keywords":["nocrits","nodmgspread","payload","uncletopia"],"game_id":440,"stv_port":27016,"stv_name":"Uncletopia | London | 1 | All Maps | STV","players":[{"user_id":230,"name":"jmp","steam_id":76561198168283286,"connected_time":1128000000000,"state":"active","ping":78},{"user_id":238,"name":"nils","steam_id":76561198254882979,"connected_time":595000000000,"state":"active","ping":63},{"user_id":246,"name":"Hexakosioihexekontahexaphobia","steam_id":76561198058864058,"connected_time":130000000000,"state":"active","ping":130},{"user_id":218,"name":"socaramel","steam_id":76561197984480336,"connected_time":2135000000000,"state":"active","ping":74},{"user_id":240,"name":"Boki","steam_id":76561198044553351,"connected_time":546000000000,"state":"active","ping":69},{"user_id":228,"name":"Princess Fuzz","steam_id":76561198025783000,"connected_time":1171000000000,"state":"active","ping":36},{"user_id":239,"name":"Mafew","steam_id":76561198119993886,"connected_time":558000000000,"state":"active","ping":51},{"user_id":167,"name":"TryX","steam_id":76561199356781475,"connected_time":5578000000000,"state":"active","ping":76},{"user_id":241,"name":"GOD OF CUM","steam_id":76561198417171790,"connected_time":528000000000,"state":"active","ping":71},{"user_id":189,"name":"ZANNABLUKE","steam_id":76561198013534336,"connected_time":4008000000000,"state":"active","ping":56},{"user_id":219,"name":"Valoxi","steam_id":76561197995042938,"connected_time":2077000000000,"state":"active","ping":70},{"user_id":224,"name":"Rezkey","steam_id":76561198206079048,"connected_time":1837000000000,"state":"active","ping":60},{"user_id":247,"name":"☭ybercat","steam_id":76561198014070417,"connected_time":41000000000,"state":"active","ping":57},{"user_id":243,"name":"SugarPlumb","steam_id":76561198258269600,"connected_time":516000000000,"state":"active","ping":45},{"user_id":231,"name":"Moja jaja šlajdraju","steam_id":76561198280390098,"connected_time":917000000000,"state":"active","ping":79},{"user_id":185,"name":"Furno","steam_id":76561197999723047,"connected_time":4088000000000,"state":"active","ping":40},{"user_id":203,"name":"Mapavri","steam_id":76561198370196400,"connected_time":3134000000000,"state":"active","ping":83},{"user_id":199,"name":"poliakov.noam","steam_id":76561199259322961,"connected_time":3536000000000,"state":"active","ping":108},{"user_id":236,"name":"2b","steam_id":76561199149307190,"connected_time":624000000000,"state":"active","ping":81},{"user_id":248,"name":"Protect Ya Neck","steam_id":76561197988121858,"connected_time":35000000000,"state":"active","ping":154},{"user_id":216,"name":"koira","steam_id":76561197996199669,"connected_time":2295000000000,"state":"active","ping":76},{"user_id":226,"name":"skilltissues","steam_id":76561198025828664,"connected_time":1824000000000,"state":"active","ping":57},{"user_id":143,"name":"LordTrap.exe","steam_id":76561198318089716,"connected_time":6434000000000,"state":"active","ping":52}]},{"server_id":114,"name":"Uncletopia | London | 2 | All Maps","name_short":"lon-2","host":"lon-1.uk.uncletopia.com","port":27025,"enabled":true,"region":"eu","cc":"gb","latitude":51.509865,"longitude":-0.118092,"reserved":0,"last_update":"0001-01-01T00:00:00Z","name_a2s":"Uncletopia | London | 2 | All Maps","protocol":17,"map":"pl_pier","folder":"tf","game":"Team Fortress","app_id":440,"player_count":26,"max_players":24,"Bots":0,"server_type":"Dedicated","server_os":"Linux","password":true,"vac":true,"version":"7757534","steam_id":85568392924470941,"keywords":["nocrits","nodmgspread","payload","uncletopia"],"game_id":440,"stv_port":27026,"stv_name":"Uncletopia | London | 2 | All Maps | STV","players":[{"user_id":270,"name":"HERISSON","steam_id":76561199062194778,"connected_time":2091000000000,"state":"active","ping":59},{"user_id":278,"name":"Der Herr Doktor","steam_id":76561198119476089,"connected_time":1678000000000,"state":"active","ping":66},{"user_id":292,"name":"Remyie","steam_id":76561198131031404,"connected_time":584000000000,"state":"active","ping":105},{"user_id":181,"name":"Zerfesh","steam_id":76561198117534358,"connected_time":8160000000000,"state":"active","ping":100},{"user_id":237,"name":"Boil em mash em","steam_id":76561198026508026,"connected_time":3739000000000,"state":"active","ping":71},{"user_id":295,"name":"Seru","steam_id":76561199219827214,"connected_time":412000000000,"state":"active","ping":147},{"user_id":296,"name":"0","steam_id":76561198267909207,"connected_time":287000000000,"state":"active","ping":87},{"user_id":256,"name":"DeCypher [She/Her]","steam_id":76561198171992619,"connected_time":2630000000000,"state":"active","ping":73},{"user_id":297,"name":"PSYNA ZXC","steam_id":76561198314640573,"connected_time":258000000000,"state":"active","ping":158},{"user_id":301,"name":"SCRAMMMBLED","steam_id":76561197998307746,"connected_time":131000000000,"state":"active","ping":65},{"user_id":302,"name":"brtaba","steam_id":76561198796334790,"connected_time":112000000000,"state":"active","ping":73},{"user_id":269,"name":"t.tv/KaizokuHaru","steam_id":76561198209223023,"connected_time":2137000000000,"state":"active","ping":98},{"user_id":300,"name":"Mr. Mundy","steam_id":76561198132008918,"connected_time":207000000000,"state":"active","ping":85},{"user_id":282,"name":"jill valentine","steam_id":76561198075068529,"connected_time":1545000000000,"state":"active","ping":67},{"user_id":268,"name":".Aq","steam_id":76561198043376092,"connected_time":2193000000000,"state":"active","ping":179},{"user_id":290,"name":"Vectillion","steam_id":76561198074292454,"connected_time":660000000000,"state":"active","ping":67},{"user_id":206,"name":"Welder","steam_id":76561198355300561,"connected_time":6573000000000,"state":"active","ping":72},{"user_id":279,"name":"kallerannar","steam_id":76561199095701143,"connected_time":1640000000000,"state":"active","ping":85},{"user_id":303,"name":"Haha?","steam_id":76561198056882245,"connected_time":74000000000,"state":"active","ping":41},{"user_id":305,"name":"iBojhut","steam_id":76561198427102646,"connected_time":67000000000,"state":"active","ping":51},{"user_id":175,"name":"SexyHotChocolate","steam_id":76561198164087698,"connected_time":8783000000000,"state":"active","ping":89},{"user_id":250,"name":"OTP DynamoDM","steam_id":76561198150755391,"connected_time":2906000000000,"state":"active","ping":33},{"user_id":308,"name":"hourglass","steam_id":76561198166613799,"connected_time":6000000000,"state":"spawning","ping":89},{"user_id":307,"name":"Sherman2030","steam_id":76561199095619204,"connected_time":11000000000,"state":"spawning","ping":93},{"user_id":294,"name":"Shyrem","steam_id":76561198409094815,"connected_time":537000000000,"state":"active","ping":57},{"user_id":309,"name":"cockwater","steam_id":76561198209101861,"connected_time":6000000000,"state":"spawning","ping":76}]},{"server_id":320,"name":"Uncletopia | London | 3 | All Maps","name_short":"lon-3","host":"lon-1.uk.uncletopia.com","port":27035,"enabled":true,"region":"eu","cc":"gb","latitude":51.509865,"longitude":-0.118092,"reserved":0,"last_update":"0001-01-01T00:00:00Z","name_a2s":"Uncletopia | London | 3 | All Maps","protocol":17,"map":"cp_sunshine","folder":"tf","game":"Team Fortress","app_id":440,"player_count":24,"max_players":24,"Bots":0,"server_type":"Dedicated","server_os":"Linux","password":true,"vac":true,"version":"7757534","steam_id":85568392924510192,"keywords":["cp","nocrits","nodmgspread","uncletopia"],"game_id":440,"stv_port":27036,"stv_name":"Uncletopia | London | 3 | All Maps | STV","players":[{"user_id":313,"name":"Dr.Sees [F2P]","steam_id":76561199219233587,"connected_time":615000000000,"state":"active","ping":76},{"user_id":304,"name":"Fran","steam_id":76561199070516960,"connected_time":1709000000000,"state":"active","ping":69},{"user_id":254,"name":"FUKAYU","steam_id":76561198380484033,"connected_time":4323000000000,"state":"active","ping":49},{"user_id":293,"name":"Sleepy","steam_id":76561198259010955,"connected_time":2281000000000,"state":"active","ping":41},{"user_id":292,"name":"Envystall","steam_id":76561198134901747,"connected_time":2303000000000,"state":"active","ping":61},{"user_id":312,"name":"merge without looking","steam_id":76561198056702628,"connected_time":627000000000,"state":"active","ping":141},{"user_id":298,"name":"C.H.E.R.E.P.","steam_id":76561198026938595,"connected_time":1966000000000,"state":"active","ping":76},{"user_id":315,"name":"Tywhip","steam_id":76561199207545191,"connected_time":249000000000,"state":"active","ping":56},{"user_id":316,"name":"Juanelo","steam_id":76561199096390505,"connected_time":153000000000,"state":"active","ping":178},{"user_id":317,"name":"upward enjoyer","steam_id":76561198055389492,"connected_time":121000000000,"state":"active","ping":38},{"user_id":272,"name":"MagicGnome (*ᴗ͈ˬᴗ͈)ꕤ","steam_id":76561198060886742,"connected_time":3877000000000,"state":"active","ping":123},{"user_id":295,"name":"Operunter","steam_id":76561198059937616,"connected_time":2074000000000,"state":"active","ping":82},{"user_id":314,"name":"Mao Zedong","steam_id":76561198347020945,"connected_time":350000000000,"state":"active","ping":92},{"user_id":309,"name":"fl1p","steam_id":76561198148565659,"connected_time":815000000000,"state":"active","ping":64},{"user_id":308,"name":"{dogs}კობა77koba77[ASS]","steam_id":76561198154218182,"connected_time":1314000000000,"state":"active","ping":35},{"user_id":299,"name":"Bob.","steam_id":76561198330093822,"connected_time":1914000000000,"state":"active","ping":80},{"user_id":318,"name":"Sulps","steam_id":76561197998423635,"connected_time":117000000000,"state":"active","ping":75},{"user_id":307,"name":"Fat Pigeon","steam_id":76561198817940142,"connected_time":1550000000000,"state":"active","ping":46},{"user_id":311,"name":"Udinese Dion","steam_id":76561198067931573,"connected_time":696000000000,"state":"active","ping":56},{"user_id":294,"name":"walking sentry","steam_id":76561199225363633,"connected_time":2250000000000,"state":"active","ping":120},{"user_id":306,"name":"Kowalski","steam_id":76561198004218740,"connected_time":1701000000000,"state":"active","ping":62},{"user_id":287,"name":"Littleyoshifan","steam_id":76561198445491045,"connected_time":2755000000000,"state":"active","ping":44},{"user_id":301,"name":"soup","steam_id":76561198386933065,"connected_time":1847000000000,"state":"active","ping":77},{"user_id":248,"name":"kbbq","steam_id":76561198346638308,"connected_time":5348000000000,"state":"active","ping":55}]},{"server_id":321,"name":"Uncletopia | London | 4 | All Maps","name_short":"lon-4","host":"lon-1.uk.uncletopia.com","port":27045,"enabled":true,"region":"eu","cc":"gb","latitude":51.509865,"longitude":-0.118092,"reserved":0,"last_update":"0001-01-01T00:00:00Z","name_a2s":"Uncletopia | London | 4 | All Maps","protocol":17,"map":"pl_frontier_final","folder":"tf","game":"Team Fortress","app_id":440,"player_count":17,"max_players":24,"Bots":0,"server_type":"Dedicated","server_os":"Linux","password":true,"vac":true,"version":"7757534","steam_id":85568392924510193,"keywords":["nocrits","nodmgspread","payload","uncletopia"],"game_id":440,"stv_port":27046,"stv_name":"Uncletopia | London | 4 | All Maps | STV","players":[{"user_id":86,"name":"erobrine2","steam_id":76561198173218318,"connected_time":471000000000,"state":"active","ping":50},{"user_id":35,"name":"xd","steam_id":76561198066523881,"connected_time":3476000000000,"state":"active","ping":60},{"user_id":78,"name":"steakman10","steam_id":76561198152584691,"connected_time":999000000000,"state":"active","ping":56},{"user_id":94,"name":"Silver","steam_id":76561198175238807,"connected_time":17000000000,"state":"active","ping":36},{"user_id":81,"name":"Drakey Fenix","steam_id":76561197988896585,"connected_time":722000000000,"state":"active","ping":61},{"user_id":80,"name":"Montrose","steam_id":76561198338911736,"connected_time":958000000000,"state":"active","ping":184},{"user_id":88,"name":"Kemalismus","steam_id":76561198394441106,"connected_time":446000000000,"state":"active","ping":121},{"user_id":45,"name":"tralalaOuiOui","steam_id":76561197963471507,"connected_time":2780000000000,"state":"active","ping":46},{"user_id":73,"name":"JeanCorben","steam_id":76561197965133561,"connected_time":1045000000000,"state":"active","ping":36},{"user_id":48,"name":"Laxslow","steam_id":76561198065361846,"connected_time":2731000000000,"state":"active","ping":60},{"user_id":89,"name":"quickfast","steam_id":76561199438900919,"connected_time":442000000000,"state":"active","ping":37},{"user_id":70,"name":"Blobbaz","steam_id":76561198031076278,"connected_time":1050000000000,"state":"active","ping":49},{"user_id":85,"name":"on1on (pickled)","steam_id":76561197995304137,"connected_time":594000000000,"state":"active","ping":68},{"user_id":92,"name":"The Wolf Leader","steam_id":76561198038007462,"connected_time":69000000000,"state":"active","ping":74},{"user_id":62,"name":"Sylbar","steam_id":76561198065379590,"connected_time":2064000000000,"state":"active","ping":72},{"user_id":60,"name":"Camo Leaf","steam_id":76561197999456575,"connected_time":2206000000000,"state":"active","ping":47},{"user_id":64,"name":"Qwichi","steam_id":76561198264893430,"connected_time":1627000000000,"state":"active","ping":75}]},{"server_id":21,"name":"Uncletopia | London | 5 | All Maps","name_short":"lon-5","host":"lon-1.uk.uncletopia.com","port":27055,"enabled":true,"region":"eu","cc":"gb","latitude":51.509865,"longitude":-0.118092,"reserved":0,"last_update":"0001-01-01T00:00:00Z","name_a2s":"Uncletopia | London | 5 | All Maps","protocol":17,"map":"pl_pier","folder":"tf","game":"Team Fortress","app_id":440,"player_count":0,"max_players":24,"Bots":0,"server_type":"Dedicated","server_os":"Linux","password":true,"vac":true,"version":"7757534","steam_id":85568392924742829,"keywords":["nocrits","nodmgspread","payload","uncletopia"],"game_id":440,"stv_port":27056,"stv_name":"Uncletopia | London | 5 | All Maps | STV","players":null},{"server_id":22,"name":"Uncletopia | London | 6 | All Maps","name_short":"lon-6","host":"lon-1.uk.uncletopia.com","port":27065,"enabled":true,"region":"eu","cc":"gb","latitude":51.509865,"longitude":-0.118092,"reserved":0,"last_update":"0001-01-01T00:00:00Z","name_a2s":"Uncletopia | London | 6 | All Maps","protocol":17,"map":"koth_highpass","folder":"tf","game":"Team Fortress","app_id":440,"player_count":0,"max_players":24,"Bots":0,"server_type":"Dedicated","server_os":"Linux","password":true,"vac":true,"version":"7757534","steam_id":85568392924742830,"keywords":["cp","nocrits","nodmgspread","uncletopia"],"game_id":440,"stv_port":27066,"stv_name":"Uncletopia | London | 6 | All Maps | STV","players":null},{"server_id":40,"name":"Uncletopia | London | 7 | No Payload","name_short":"lon-7","host":"lon-1.uk.uncletopia.com","port":27075,"enabled":true,"region":"eu","cc":"gb","latitude":51.509865,"longitude":-0.118092,"reserved":0,"last_update":"0001-01-01T00:00:00Z","name_a2s":"Uncletopia | London | 7 | No Payload","protocol":17,"map":"koth_highpass","folder":"tf","game":"Team Fortress","app_id":440,"player_count":0,"max_players":24,"Bots":0,"server_type":"Dedicated","server_os":"Linux","password":true,"vac":true,"version":"7757534","steam_id":85568392924964314,"keywords":["cp","nocrits","nodmgspread","uncletopia"],"game_id":440,"stv_port":27076,"stv_name":"Uncletopia | London | 7 | No Payload | STV","players":null},{"server_id":41,"name":"Uncletopia | London | 8 | Community","name_short":"lon-8","host":"lon-1.uk.uncletopia.com","port":27085,"enabled":true,"region":"eu","cc":"gb","latitude":51.509865,"longitude":-0.118092,"reserved":0,"last_update":"0001-01-01T00:00:00Z","name_a2s":"Uncletopia | London | 8 | Community","protocol":17,"map":"workshop/cp_hazyfort_rc6.ugc1365963729","folder":"tf","game":"Team Fortress","app_id":440,"player_count":0,"max_players":24,"Bots":0,"server_type":"Dedicated","server_os":"Linux","password":true,"vac":true,"version":"7757534","steam_id":85568392924964315,"keywords":["cp","nocrits","nodmgspread","uncletopia"],"game_id":440,"stv_port":27086,"stv_name":"Uncletopia | London | 8 | Community | STV","players":null},{"server_id":300,"name":"Uncletopia | Montréal | 1 | All Maps","name_short":"mtl-1","host":"mtl-1.ca.uncletopia.com","port":27015,"enabled":true,"region":"us-east","cc":"ca","latitude":45.50889,"longitude":-73.56167,"reserved":0,"last_update":"0001-01-01T00:00:00Z","name_a2s":"Uncletopia | Montréal | 1 | All Maps","protocol":17,"map":"pl_pier","folder":"tf","game":"Team Fortress","app_id":440,"player_count":0,"max_players":24,"Bots":0,"server_type":"Dedicated","server_os":"Linux","password":true,"vac":true,"version":"7757534","steam_id":85568392924500087,"keywords":["nocrits","nodmgspread","payload","uncletopia"],"game_id":440,"stv_port":27016,"stv_name":"Uncletopia | Montréal | 1 | All Maps | STV","players":null},{"server_id":301,"name":"Uncletopia | Montréal | 2 | All Maps","name_short":"mtl-2","host":"mtl-1.ca.uncletopia.com","port":27025,"enabled":true,"region":"us-east","cc":"ca","latitude":45.50889,"longitude":-73.56167,"reserved":0,"last_update":"0001-01-01T00:00:00Z","name_a2s":"Uncletopia | Montréal | 2 | All Maps","protocol":17,"map":"cp_sunshine","folder":"tf","game":"Team Fortress","app_id":440,"player_count":0,"max_players":24,"Bots":0,"server_type":"Dedicated","server_os":"Linux","password":true,"vac":true,"version":"7757534","steam_id":85568392924500088,"keywords":["cp","nocrits","nodmgspread","uncletopia"],"game_id":440,"stv_port":27026,"stv_name":"Uncletopia | Montréal | 2 | All Maps | STV","players":null},{"server_id":302,"name":"Uncletopia | Montréal | 3 | All Maps","name_short":"mtl-3","host":"mtl-1.ca.uncletopia.com","port":27035,"enabled":true,"region":"us-east","cc":"ca","latitude":45.50889,"longitude":-73.56167,"reserved":0,"last_update":"0001-01-01T00:00:00Z","name_a2s":"Uncletopia | Montréal | 3 | All Maps","protocol":17,"map":"cp_dustbowl","folder":"tf","game":"Team Fortress","app_id":440,"player_count":0,"max_players":24,"Bots":0,"server_type":"Dedicated","server_os":"Linux","password":true,"vac":true,"version":"7757534","steam_id":85568392924500089,"keywords":["cp","nocrits","nodmgspread","uncletopia"],"game_id":440,"stv_port":27036,"stv_name":"Uncletopia | Montréal | 3 | All Maps | STV","players":null},{"server_id":303,"name":"Uncletopia | Montréal | 4 | No Payload","name_short":"mtl-4","host":"mtl-1.ca.uncletopia.com","port":27045,"enabled":true,"region":"us-east","cc":"ca","latitude":45.50889,"longitude":-73.56167,"reserved":0,"last_update":"0001-01-01T00:00:00Z","name_a2s":"Uncletopia | Montréal | 4 | No Payload","protocol":17,"map":"pl_pier","folder":"tf","game":"Team Fortress","app_id":440,"player_count":0,"max_players":24,"Bots":0,"server_type":"Dedicated","server_os":"Linux","password":true,"vac":true,"version":"7757534","steam_id":85568392924500090,"keywords":["nocrits","nodmgspread","payload","uncletopia"],"game_id":440,"stv_port":27046,"stv_name":"Uncletopia | Montréal | 4 | No Payload | STV","players":null},{"server_id":13,"name":"Uncletopia | New York City | 1 | All Maps","name_short":"nyc-1","host":"nyc-1.us.uncletopia.com","port":27015,"enabled":true,"region":"us-east","cc":"us","latitude":40.73061,"longitude":-73.93524,"reserved":0,"last_update":"0001-01-01T00:00:00Z","name_a2s":"Uncletopia | New York City | 1 | All Maps","protocol":17,"map":"cp_snakewater_final1","folder":"tf","game":"Team Fortress","app_id":440,"player_count":0,"max_players":24,"Bots":0,"server_type":"Dedicated","server_os":"Linux","password":true,"vac":true,"version":"7757534","steam_id":85568392924469993,"keywords":["cp","nocrits","nodmgspread","uncletopia"],"game_id":440,"stv_port":27016,"stv_name":"Uncletopia | New York City | 1 | All Maps | STV","players":null},{"server_id":14,"name":"Uncletopia | New York City | 2 | All Maps","name_short":"nyc-2","host":"nyc-1.us.uncletopia.com","port":27025,"enabled":true,"region":"us-east","cc":"us","latitude":40.73061,"longitude":-73.93524,"reserved":0,"last_update":"0001-01-01T00:00:00Z","name_a2s":"Uncletopia | New York City | 2 | All Maps","protocol":17,"map":"cp_dustbowl","folder":"tf","game":"Team Fortress","app_id":440,"player_count":3,"max_players":24,"Bots":0,"server_type":"Dedicated","server_os":"Linux","password":true,"vac":true,"version":"7757534","steam_id":85568392924469994,"keywords":["cp","nocrits","nodmgspread","uncletopia"],"game_id":440,"stv_port":27026,"stv_name":"Uncletopia | New York City | 2 | All Maps | STV","players":[{"user_id":4,"name":"Nice21","steam_id":76561199427548141,"connected_time":156000000000,"state":"active","ping":68},{"user_id":5,"name":"yer_nerd","steam_id":76561199435454093,"connected_time":149000000000,"state":"active","ping":63},{"user_id":6,"name":"Austin The Kat","steam_id":76561198841149665,"connected_time":92000000000,"state":"active","ping":119}]},{"server_id":15,"name":"Uncletopia | New York City | 3 | Stopwatch Beta","name_short":"nyc-3","host":"nyc-1.us.uncletopia.com","port":27035,"enabled":true,"region":"us-east","cc":"us","latitude":40.73061,"longitude":-73.93524,"reserved":0,"last_update":"0001-01-01T00:00:00Z","name_a2s":"Uncletopia | New York City | 3 | Stopwatch Beta","protocol":17,"map":"koth_cascade","folder":"tf","game":"Team Fortress","app_id":440,"player_count":0,"max_players":24,"Bots":0,"server_type":"Dedicated","server_os":"Linux","password":true,"vac":true,"version":"7757534","steam_id":85568392924742820,"keywords":["cp","nocrits","nodmgspread","uncletopia"],"game_id":440,"stv_port":27036,"stv_name":"Uncletopia | New York City | 3 | Stopwatch Beta | STV","players":null},{"server_id":16,"name":"Uncletopia | New York City | 4 | Community","name_short":"nyc-4","host":"nyc-1.us.uncletopia.com","port":27045,"enabled":true,"region":"us-east","cc":"us","latitude":40.73061,"longitude":-73.93524,"reserved":0,"last_update":"0001-01-01T00:00:00Z","name_a2s":"Uncletopia | New York City | 4 | Community","protocol":17,"map":"pl_frontier_final","folder":"tf","game":"Team Fortress","app_id":440,"player_count":0,"max_players":24,"Bots":0,"server_type":"Dedicated","server_os":"Linux","password":true,"vac":true,"version":"7757534","steam_id":85568392924742821,"keywords":["nocrits","nodmgspread","payload","uncletopia"],"game_id":440,"stv_port":27046,"stv_name":"Uncletopia | New York City | 4 | Community | STV","players":null},{"server_id":142,"name":"Uncletopia | São Paulo | 1 | All Maps","name_short":"sao-1","host":"sao-1.br.uncletopia.com","port":27015,"enabled":true,"region":"sa","cc":"br","latitude":-23.533773,"longitude":-46.62529,"reserved":0,"last_update":"0001-01-01T00:00:00Z","name_a2s":"Uncletopia | São Paulo | 1 | All Maps","protocol":17,"map":"cp_altitude","folder":"tf","game":"Team Fortress","app_id":440,"player_count":0,"max_players":24,"Bots":0,"server_type":"Dedicated","server_os":"Linux","password":true,"vac":true,"version":"7757534","steam_id":85568392924469996,"keywords":["cp","nocrits","nodmgspread","uncletopia"],"game_id":440,"stv_port":27016,"stv_name":"Uncletopia | São Paulo | 1 | All Maps | STV","players":null},{"server_id":143,"name":"Uncletopia | São Paulo | 2 | All Maps","name_short":"sao-2","host":"sao-2.br.uncletopia.com","port":27015,"enabled":true,"region":"sa","cc":"br","latitude":-23.533773,"longitude":-46.62529,"reserved":0,"last_update":"0001-01-01T00:00:00Z","name_a2s":"Uncletopia | São Paulo | 2 | All Maps","protocol":17,"map":"koth_viaduct","folder":"tf","game":"Team Fortress","app_id":440,"player_count":0,"max_players":24,"Bots":0,"server_type":"Dedicated","server_os":"Linux","password":true,"vac":true,"version":"7757534","steam_id":85568392924485349,"keywords":["cp","nocrits","nodmgspread","uncletopia"],"game_id":440,"stv_port":27016,"stv_name":"Uncletopia | São Paulo | 2 | All Maps | STV","players":null},{"server_id":7,"name":"Uncletopia | Seattle | 1 | All Maps","name_short":"sea-1","host":"sea-1.us.uncletopia.com","port":27015,"enabled":true,"region":"us-west","cc":"us","latitude":47.608013,"longitude":-122.33517,"reserved":0,"last_update":"0001-01-01T00:00:00Z","name_a2s":"Uncletopia | Seattle | 1 | All Maps","protocol":17,"map":"koth_viaduct","folder":"tf","game":"Team Fortress","app_id":440,"player_count":0,"max_players":24,"Bots":0,"server_type":"Dedicated","server_os":"Linux","password":true,"vac":true,"version":"7757534","steam_id":85568392924469997,"keywords":["cp","nocrits","nodmgspread","uncletopia"],"game_id":440,"stv_port":27016,"stv_name":"Uncletopia | Seattle | 1 | All Maps | STV","players":null},{"server_id":119,"name":"Uncletopia | Seattle | 2 | All Maps","name_short":"sea-2","host":"sea-1.us.uncletopia.com","port":27025,"enabled":true,"region":"us-west","cc":"us","latitude":47.608013,"longitude":-122.33517,"reserved":0,"last_update":"0001-01-01T00:00:00Z","name_a2s":"Uncletopia | Seattle | 2 | All Maps","protocol":17,"map":"cp_dustbowl","folder":"tf","game":"Team Fortress","app_id":440,"player_count":16,"max_players":24,"Bots":0,"server_type":"Dedicated","server_os":"Linux","password":true,"vac":true,"version":"7757534","steam_id":85568392924469998,"keywords":["cp","nocrits","nodmgspread","uncletopia"],"game_id":440,"stv_port":27026,"stv_name":"Uncletopia | Seattle | 2 | All Maps | STV","players":[{"user_id":125,"name":"Iron Argus","steam_id":76561198181088245,"connected_time":252000000000,"state":"active","ping":118},{"user_id":4,"name":"Kit Carson","steam_id":76561198115691546,"connected_time":6745000000000,"state":"active","ping":86},{"user_id":86,"name":"dallas","steam_id":76561199293394516,"connected_time":1601000000000,"state":"active","ping":76},{"user_id":120,"name":"gopnik gaming","steam_id":76561198064194222,"connected_time":543000000000,"state":"active","ping":69},{"user_id":128,"name":"heimdall","steam_id":76561198069380992,"connected_time":70000000000,"state":"active","ping":108},{"user_id":130,"name":"mari_","steam_id":76561198137855741,"connected_time":57000000000,"state":"active","ping":93},{"user_id":127,"name":"My mommy makes me tea","steam_id":76561198819871606,"connected_time":168000000000,"state":"active","ping":241},{"user_id":102,"name":"Xiànhuò yìjià","steam_id":76561198964097305,"connected_time":1106000000000,"state":"active","ping":182},{"user_id":124,"name":"floppy muppet","steam_id":76561198003076261,"connected_time":394000000000,"state":"active","ping":146},{"user_id":65,"name":"Festive Bastard","steam_id":76561198094512904,"connected_time":3918000000000,"state":"active","ping":99},{"user_id":117,"name":"mhmyeah_yeahmhm","steam_id":76561198341190679,"connected_time":689000000000,"state":"active","ping":55},{"user_id":85,"name":"Jagar Tharn","steam_id":76561198018606033,"connected_time":1745000000000,"state":"active","ping":129},{"user_id":115,"name":"Greg69420","steam_id":76561198211335128,"connected_time":739000000000,"state":"active","ping":87},{"user_id":119,"name":"No Thanks","steam_id":76561198001611837,"connected_time":669000000000,"state":"active","ping":120},{"user_id":84,"name":"god approaches","steam_id":76561198081617990,"connected_time":1888000000000,"state":"active","ping":118},{"user_id":104,"name":"fukfuk the friendly dinosaur","steam_id":76561198111878431,"connected_time":1045000000000,"state":"active","ping":66}]},{"server_id":406,"name":"Uncletopia | Seattle | 3 | Stopwatch Beta","name_short":"sea-3","host":"sea-1.us.uncletopia.com","port":27035,"enabled":true,"region":"us-west","cc":"us","latitude":47.608013,"longitude":-122.33517,"reserved":0,"last_update":"0001-01-01T00:00:00Z","name_a2s":"Uncletopia | Seattle | 3 | Stopwatch Beta","protocol":17,"map":"workshop/koth_ramjam_rc1.ugc459778887","folder":"tf","game":"Team Fortress","app_id":440,"player_count":0,"max_players":24,"Bots":0,"server_type":"Dedicated","server_os":"Linux","password":true,"vac":true,"version":"7757534","steam_id":85568392924515217,"keywords":["cp","nocrits","nodmgspread","uncletopia"],"game_id":440,"stv_port":27036,"stv_name":"Uncletopia | Seattle | 3 | Stopwatch Beta | STV","players":null},{"server_id":17,"name":"Uncletopia | San Francisco | 1 | All Maps","name_short":"sfo-1","host":"sfo-1.us.uncletopia.com","port":27015,"enabled":true,"region":"us-west","cc":"us","latitude":37.77397,"longitude":-122.4313,"reserved":0,"last_update":"0001-01-01T00:00:00Z","name_a2s":"Uncletopia | San Francisco | 1 | All Maps","protocol":17,"map":"pl_badwater","folder":"tf","game":"Team Fortress","app_id":440,"player_count":0,"max_players":24,"Bots":0,"server_type":"Dedicated","server_os":"Linux","password":true,"vac":true,"version":"7757534","steam_id":85568392924469999,"keywords":["nocrits","nodmgspread","payload","uncletopia"],"game_id":440,"stv_port":27016,"stv_name":"Uncletopia | San Francisco | 1 | All Maps | STV","players":null},{"server_id":18,"name":"Uncletopia | San Francisco | 2 | All Maps","name_short":"sfo-2","host":"sfo-1.us.uncletopia.com","port":27025,"enabled":true,"region":"us-west","cc":"us","latitude":37.77397,"longitude":-122.4313,"reserved":0,"last_update":"0001-01-01T00:00:00Z","name_a2s":"Uncletopia | San Francisco | 2 | All Maps","protocol":17,"map":"koth_viaduct","folder":"tf","game":"Team Fortress","app_id":440,"player_count":0,"max_players":24,"Bots":0,"server_type":"Dedicated","server_os":"Linux","password":true,"vac":true,"version":"7757534","steam_id":85568392924470000,"keywords":["cp","nocrits","nodmgspread","uncletopia"],"game_id":440,"stv_port":27026,"stv_name":"Uncletopia | San Francisco | 2 | All Maps | STV","players":null},{"server_id":19,"name":"Uncletopia | San Francisco | 3 | Stopwatch Beta","name_short":"sfo-3","host":"sfo-1.us.uncletopia.com","port":27035,"enabled":true,"region":"us-west","cc":"us","latitude":37.77397,"longitude":-122.4313,"reserved":0,"last_update":"0001-01-01T00:00:00Z","name_a2s":"Uncletopia | San Francisco | 3 | Stopwatch Beta","protocol":17,"map":"cp_snakewater_final1","folder":"tf","game":"Team Fortress","app_id":440,"player_count":0,"max_players":24,"Bots":0,"server_type":"Dedicated","server_os":"Linux","password":true,"vac":true,"version":"7757534","steam_id":85568392924742824,"keywords":["cp","nocrits","nodmgspread","uncletopia"],"game_id":440,"stv_port":27036,"stv_name":"Uncletopia | San Francisco | 3 | Stopwatch Beta | STV","players":null},{"server_id":20,"name":"Uncletopia | San Francisco | 4 | Community","name_short":"sfo-4","host":"sfo-1.us.uncletopia.com","port":27045,"enabled":true,"region":"us-west","cc":"us","latitude":37.77397,"longitude":-122.4313,"reserved":0,"last_update":"0001-01-01T00:00:00Z","name_a2s":"Uncletopia | San Francisco | 4 | Community","protocol":17,"map":"pl_frontier_final","folder":"tf","game":"Team Fortress","app_id":440,"player_count":0,"max_players":24,"Bots":0,"server_type":"Dedicated","server_os":"Linux","password":true,"vac":true,"version":"7757534","steam_id":85568392924742826,"keywords":["nocrits","nodmgspread","payload","uncletopia"],"game_id":440,"stv_port":27046,"stv_name":"Uncletopia | San Francisco | 4 | Community | STV","players":null},{"server_id":141,"name":"Uncletopia | Sydney | 1 | All Maps","name_short":"syd-1","host":"syd-1.au.uncletopia.com","port":27015,"enabled":true,"region":"au","cc":"au","latitude":-33.865143,"longitude":151.2099,"reserved":0,"last_update":"0001-01-01T00:00:00Z","name_a2s":"Uncletopia | Sydney | 1 | All Maps","protocol":17,"map":"koth_highpass","folder":"tf","game":"Team Fortress","app_id":440,"player_count":0,"max_players":24,"Bots":0,"server_type":"Dedicated","server_os":"Linux","password":true,"vac":true,"version":"7757534","steam_id":85568392924470001,"keywords":["cp","nocrits","nodmgspread","uncletopia"],"game_id":440,"stv_port":27016,"stv_name":"Uncletopia | Sydney | 1 | All Maps | STV","players":null},{"server_id":123,"name":"Uncletopia | Sydney | 2 | All Maps","name_short":"syd-2","host":"syd-1.au.uncletopia.com","port":27025,"enabled":true,"region":"au","cc":"au","latitude":-33.865143,"longitude":151.2099,"reserved":0,"last_update":"0001-01-01T00:00:00Z","name_a2s":"Uncletopia | Sydney | 2 | All Maps","protocol":17,"map":"koth_lakeside_final","folder":"tf","game":"Team Fortress","app_id":440,"player_count":0,"max_players":24,"Bots":0,"server_type":"Dedicated","server_os":"Linux","password":true,"vac":true,"version":"7757534","steam_id":85568392924470002,"keywords":["cp","nocrits","nodmgspread","uncletopia"],"game_id":440,"stv_port":27026,"stv_name":"Uncletopia | Sydney | 2 | All Maps | STV","players":null},{"server_id":395,"name":"Uncletopia | Sydney | 3 | All Maps","name_short":"syd-3","host":"syd-1.au.uncletopia.com","port":27035,"enabled":true,"region":"au","cc":"au","latitude":-33.865143,"longitude":151.2099,"reserved":0,"last_update":"0001-01-01T00:00:00Z","name_a2s":"Uncletopia | Sydney | 3 | All Maps","protocol":17,"map":"koth_cascade","folder":"tf","game":"Team Fortress","app_id":440,"player_count":0,"max_players":24,"Bots":0,"server_type":"Dedicated","server_os":"Linux","password":true,"vac":true,"version":"7757534","steam_id":85568392925194467,"keywords":["cp","nocrits","nodmgspread","uncletopia"],"game_id":440,"stv_port":27036,"stv_name":"Uncletopia | Sydney | 3 | All Maps | STV","players":null},{"server_id":396,"name":"Uncletopia | Sydney | 4 | All Maps","name_short":"syd-4","host":"syd-1.au.uncletopia.com","port":27045,"enabled":true,"region":"au","cc":"au","latitude":-33.865143,"longitude":151.2099,"reserved":0,"last_update":"0001-01-01T00:00:00Z","name_a2s":"Uncletopia | Sydney | 4 | All Maps","protocol":17,"map":"koth_highpass","folder":"tf","game":"Team Fortress","app_id":440,"player_count":0,"max_players":24,"Bots":0,"server_type":"Dedicated","server_os":"Linux","password":true,"vac":true,"version":"7757534","steam_id":85568392925397958,"keywords":["cp","nocrits","nodmgspread","uncletopia"],"game_id":440,"stv_port":27046,"stv_name":"Uncletopia | Sydney | 4 | All Maps | STV","players":null},{"server_id":58,"name":"Uncletopia | Sydney | 5 | Stopwatch Beta","name_short":"syd-5","host":"syd-1.au.uncletopia.com","port":27055,"enabled":true,"region":"au","cc":"au","latitude":-33.865143,"longitude":151.2099,"reserved":0,"last_update":"0001-01-01T00:00:00Z","name_a2s":"Uncletopia | Sydney | 5 | Stopwatch Beta","protocol":17,"map":"workshop/pl_barnblitz_pro7.ugc582280235","folder":"tf","game":"Team Fortress","app_id":440,"player_count":0,"max_players":24,"Bots":0,"server_type":"Dedicated","server_os":"Linux","password":true,"vac":true,"version":"7757534","steam_id":85568392925397959,"keywords":["nocrits","nodmgspread","payload","uncletopia"],"game_id":440,"stv_port":27056,"stv_name":"Uncletopia | Sydney | 5 | Stopwatch Beta | STV","players":null},{"server_id":59,"name":"Uncletopia | Sydney | 6 | Community","name_short":"syd-6","host":"syd-1.au.uncletopia.com","port":27065,"enabled":true,"region":"au","cc":"au","latitude":-33.865143,"longitude":151.2099,"reserved":0,"last_update":"0001-01-01T00:00:00Z","name_a2s":"Uncletopia | Sydney | 6 | Community","protocol":17,"map":"workshop/pl_eruption_b9a.ugc2807898013","folder":"tf","game":"Team Fortress","app_id":440,"player_count":0,"max_players":24,"Bots":0,"server_type":"Dedicated","server_os":"Linux","password":true,"vac":true,"version":"7757534","steam_id":85568392925397960,"keywords":["nocrits","nodmgspread","payload","uncletopia"],"game_id":440,"stv_port":27066,"stv_name":"Uncletopia | Sydney | 6 | Community | STV","players":null},{"server_id":49,"name":"Uncletopia | Warsaw | 1 | All Maps","name_short":"waw-1","host":"waw-1.pl.uncletopia.com","port":27015,"enabled":true,"region":"eu","cc":"pl","latitude":52.2297,"longitude":21.017532,"reserved":0,"last_update":"0001-01-01T00:00:00Z","name_a2s":"","protocol":0,"map":"","folder":"","game":"","app_id":0,"player_count":0,"max_players":0,"Bots":0,"server_type":"","server_os":"","password":false,"vac":false,"version":"","steam_id":0,"keywords":null,"game_id":0,"stv_port":0,"stv_name":"","players":null},{"server_id":50,"name":"Uncletopia | Warsaw | 2 | All Maps","name_short":"waw-2","host":"waw-1.pl.uncletopia.com","port":27025,"enabled":true,"region":"eu","cc":"pl","latitude":52.2297,"longitude":21.017532,"reserved":0,"last_update":"0001-01-01T00:00:00Z","name_a2s":"Uncletopia | Warsaw | 2 | All Maps","protocol":17,"map":"pl_pier","folder":"tf","game":"Team Fortress","app_id":440,"player_count":0,"max_players":24,"Bots":0,"server_type":"Dedicated","server_os":"Linux","password":true,"vac":true,"version":"7757534","steam_id":85568392925397851,"keywords":["nocrits","nodmgspread","payload","uncletopia"],"game_id":440,"stv_port":27026,"stv_name":"Uncletopia | Warsaw | 2 | All Maps | STV","players":null},{"server_id":51,"name":"Uncletopia | Warsaw | 3 | All Maps","name_short":"waw-3","host":"waw-1.pl.uncletopia.com","port":27035,"enabled":true,"region":"eu","cc":"pl","latitude":52.2297,"longitude":21.017532,"reserved":0,"last_update":"0001-01-01T00:00:00Z","name_a2s":"Uncletopia | Warsaw | 3 | All Maps","protocol":17,"map":"pl_barnblitz","folder":"tf","game":"Team Fortress","app_id":440,"player_count":0,"max_players":24,"Bots":0,"server_type":"Dedicated","server_os":"Linux","password":true,"vac":true,"version":"7757534","steam_id":85568392925397852,"keywords":["nocrits","nodmgspread","payload","uncletopia"],"game_id":440,"stv_port":27036,"stv_name":"Uncletopia | Warsaw | 3 | All Maps | STV","players":null},{"server_id":52,"name":"Uncletopia | Warsaw | 4 | All Maps","name_short":"waw-4","host":"waw-1.pl.uncletopia.com","port":27045,"enabled":true,"region":"eu","cc":"pl","latitude":52.2297,"longitude":21.017532,"reserved":0,"last_update":"0001-01-01T00:00:00Z","name_a2s":"Uncletopia | Warsaw | 4 | All Maps","protocol":17,"map":"koth_cascade","folder":"tf","game":"Team Fortress","app_id":440,"player_count":0,"max_players":24,"Bots":0,"server_type":"Dedicated","server_os":"Linux","password":true,"vac":true,"version":"7757534","steam_id":85568392925397853,"keywords":["cp","nocrits","nodmgspread","uncletopia"],"game_id":440,"stv_port":27046,"stv_name":"Uncletopia | Warsaw | 4 | All Maps | STV","players":null},{"server_id":53,"name":"Uncletopia | Warsaw | 5 | Stopwatch Beta","name_short":"waw-5","host":"waw-1.pl.uncletopia.com","port":27055,"enabled":true,"region":"eu","cc":"pl","latitude":52.2297,"longitude":21.017532,"reserved":0,"last_update":"0001-01-01T00:00:00Z","name_a2s":"Uncletopia | Warsaw | 5 | Stopwatch Beta","protocol":17,"map":"pl_pier","folder":"tf","game":"Team Fortress","app_id":440,"player_count":0,"max_players":24,"Bots":0,"server_type":"Dedicated","server_os":"Linux","password":true,"vac":true,"version":"7757534","steam_id":85568392925397854,"keywords":["nocrits","nodmgspread","payload","uncletopia"],"game_id":440,"stv_port":27056,"stv_name":"Uncletopia | Warsaw | 5 | Stopwatch Beta | STV","players":null},{"server_id":54,"name":"Uncletopia | Warsaw | 6 | Community","name_short":"waw-6","host":"waw-1.pl.uncletopia.com","port":27065,"enabled":true,"region":"eu","cc":"pl","latitude":52.2297,"longitude":21.017532,"reserved":0,"last_update":"0001-01-01T00:00:00Z","name_a2s":"Uncletopia | Warsaw | 6 | Community","protocol":17,"map":"koth_highpass","folder":"tf","game":"Team Fortress","app_id":440,"player_count":0,"max_players":24,"Bots":0,"server_type":"Dedicated","server_os":"Linux","password":true,"vac":true,"version":"7757534","steam_id":85568392925397856,"keywords":["cp","nocrits","nodmgspread","uncletopia"],"game_id":440,"stv_port":27066,"stv_name":"Uncletopia | Warsaw | 6 | Community | STV","players":null}]}