{"status":true,"message":"","result":[{"server_id":9,"name":"Uncletopia | Atlanta | 1 | All Maps","name_short":"atl-1","host":"atl-1.us.uncletopia.com","port":27015,"enabled":true,"region":"us-east","cc":"us","latitude":33.753746,"longitude":-84.38633,"reserved":0,"last_update":"0001-01-01T00:00:00Z","name_a2s":"Uncletopia | Atlanta | 1 | All Maps","protocol":17,"map":"koth_nucleus","folder":"tf","game":"Team Fortress","app_id":440,"player_count":23,"max_players":24,"Bots":0,"server_type":"Dedicated","server_os":"Linux","password":true,"vac":true,"version":"7961495","steam_id":85568392924469982,"keywords":["cp","nocrits","nodmgspread","uncletopia"],"game_id":440,"stv_port":27016,"stv_name":"Uncletopia | Atlanta | 1 | All Maps | STV","players":[{"user_id":551,"name":"she french, i'm a coke boy","steam_id":76561198120440587,"connected_time":2299000000000,"state":"active","ping":45},{"user_id":471,"name":"eish","steam_id":76561198089463603,"connected_time":5622000000000,"state":"active","ping":118},{"user_id":486,"name":"nomad","steam_id":76561197998740399,"connected_time":5369000000000,"state":"active","ping":62},{"user_id":523,"name":"joe","steam_id":76561198045781320,"connected_time":4702000000000,"state":"active","ping":64},{"user_id":429,"name":"Mage","steam_id":76561198285026879,"connected_time":8094000000000,"state":"active","ping":73},{"user_id":558,"name":"WaWaSkittleTits","steam_id":76561198411234398,"connected_time":1132000000000,"state":"active","ping":128},{"user_id":563,"name":"LOVEDRAGON","steam_id":76561198089908485,"connected_time":976000000000,"state":"active","ping":70},{"user_id":543,"name":"ATL 1 | Save your wifi","steam_id":76561198286147372,"connected_time":3927000000000,"state":"active","ping":60},{"user_id":548,"name":"morphine","steam_id":76561198072124799,"connected_time":2857000000000,"state":"active","ping":166},{"user_id":454,"name":"Pango","steam_id":76561198069811545,"connected_time":6777000000000,"state":"active","ping":39},{"user_id":559,"name":"Acuzik","steam_id":76561198045453400,"connected_time":1118000000000,"state":"active","ping":64},{"user_id":417,"name":"ATL1 | cola","steam_id":76561198374390458,"connected_time":9107000000000,"state":"active","ping":61},{"user_id":544,"name":"Heathcliff","steam_id":76561198044288534,"connected_time":3926000000000,"state":"active","ping":64},{"user_id":560,"name":"Braingoo Hex","steam_id":76561198083094783,"connected_time":1116000000000,"state":"active","ping":86},{"user_id":462,"name":"Vee (very cool)","steam_id":76561198330432889,"connected_time":5781000000000,"state":"active","ping":68},{"user_id":425,"name":"shaderoses","steam_id":76561198070800500,"connected_time":8233000000000,"state":"active","ping":67},{"user_id":566,"name":"lil hog","steam_id":76561199230929836,"connected_time":20000000000,"state":"active","ping":135},{"user_id":450,"name":"freyja","steam_id":76561198249206656,"connected_time":7049000000000,"state":"active","ping":89},{"user_id":404,"name":"ATL1 | Uganda (Steel enjoyer)","steam_id":76561199121276474,"connected_time":10121000000000,"state":"active","ping":77},{"user_id":549,"name":"ATL1 | to4st","steam_id":76561198981009008,"connected_time":2321000000000,"state":"active","ping":67},{"user_id":564,"name":"Prsm","steam_id":76561198053344995,"connected_time":767000000000,"state":"active","ping":66},{"user_id":562,"name":"wetto","steam_id":76561198224811504,"connected_time":1083000000000,"state":"active","ping":46},{"user_id":406,"name":"Avo","steam_id":76561197993340494,"connected_time":9789000000000,"state":"active","ping":57}]},{"server_id":104,"name":"Uncletopia | Atlanta | 2 | All Maps","name_short":"atl-2","host":"atl-1.us.uncletopia.com","port":27025,"enabled":true,"region":"us-east","cc":"us","latitude":33.753746,"longitude":-84.38633,"reserved":0,"last_update":"0001-01-01T00:00:00Z","name_a2s":"Uncletopia | Atlanta | 2 | All Maps","protocol":17,"map":"plr_bananabay","folder":"tf","game":"Team Fortress","app_id":440,"player_count":20,"max_players":24,"Bots":0,"server_type":"Dedicated","server_os":"Linux","password":true,"vac":true,"version":"7961495","steam_id":85568392924469983,"keywords":["nocrits","nodmgspread","payload","uncletopia"],"game_id":440,"stv_port":27026,"stv_name":"Uncletopia | Atlanta | 2 | All Maps | STV","players":[{"user_id":65,"name":"Monte","steam_id":76561198097499917,"connected_time":2876000000000,"state":"active","ping":90},{"user_id":105,"name":"munch","steam_id":76561198820480684,"connected_time":32000000000,"state":"active","ping":60},{"user_id":95,"name":"Škorspyzlin","steam_id":76561198159123367,"connected_time":360000000000,"state":"active","ping":160},{"user_id":96,"name":"absolute_Z3r0","steam_id":76561199105120187,"connected_time":341000000000,"state":"active","ping":69},{"user_id":97,"name":"JTP7x","steam_id":76561198836467731,"connected_time":325000000000,"state":"active","ping":71},{"user_id":98,"name":"Elephant Seal","steam_id":76561198065364829,"connected_time":285000000000,"state":"active","ping":83},{"user_id":106,"name":"callum","steam_id":76561198070918366,"connected_time":12000000000,"state":"spawning","ping":84},{"user_id":92,"name":"el pan con pate","steam_id":76561199082491709,"connected_time":466000000000,"state":"active","ping":165},{"user_id":38,"name":"Box","steam_id":76561198826701192,"connected_time":5118000000000,"state":"active","ping":71},{"user_id":102,"name":"sdschildberg","steam_id":76561198119699413,"connected_time":173000000000,"state":"active","ping":62},{"user_id":103,"name":"(void*)FoXX","steam_id":76561197964623732,"connected_time":157000000000,"state":"active","ping":46},{"user_id":104,"name":"DaMultiversalist","steam_id":76561198239552412,"connected_time":101000000000,"state":"active","ping":61},{"user_id":43,"name":"Carlos Hathcock","steam_id":76561198106704811,"connected_time":5054000000000,"state":"active","ping":45},{"user_id":84,"name":"raccocooon","steam_id":76561199138602425,"connected_time":1602000000000,"state":"active","ping":61},{"user_id":108,"name":"paetho YT","steam_id":76561198152690003,"connected_time":3000000000,"state":"spawning","ping":37},{"user_id":73,"name":"Wumbologist","steam_id":76561198188729514,"connected_time":2401000000000,"state":"active","ping":63},{"user_id":75,"name":"Punished Shitster","steam_id":76561198150452857,"connected_time":2207000000000,"state":"active","ping":79},{"user_id":72,"name":"Virus","steam_id":76561198252166472,"connected_time":2606000000000,"state":"active","ping":72},{"user_id":78,"name":"dantheman","steam_id":76561199486390813,"connected_time":1890000000000,"state":"active","ping":60},{"user_id":54,"name":"lucky","steam_id":76561198323426623,"connected_time":4734000000000,"state":"active","ping":76}]},{"server_id":400,"name":"Uncletopia | Atlanta | 3 | Stopwatch","name_short":"atl-3","host":"atl-1.us.uncletopia.com","port":27035,"enabled":true,"region":"us-east","cc":"us","latitude":33.753746,"longitude":-84.38633,"reserved":0,"last_update":"0001-01-01T00:00:00Z","name_a2s":"Uncletopia | Atlanta | 3 | Stopwatch","protocol":17,"map":"workshop/koth_product_final.ugc454272353","folder":"tf","game":"Team Fortress","app_id":440,"player_count":1,"max_players":24,"Bots":0,"server_type":"Dedicated","server_os":"Linux","password":true,"vac":true,"version":"7961495","steam_id":85568392924515187,"keywords":["cp","nocrits","nodmgspread","uncletopia"],"game_id":440,"stv_port":27036,"stv_name":"Uncletopia | Atlanta | 3 | Stopwatch | STV","players":[{"user_id":14,"name":"A Beer and Wing Combo","steam_id":76561198108400585,"connected_time":43000000000,"state":"active","ping":67}]},{"server_id":401,"name":"Uncletopia | Atlanta | 4 | Community","name_short":"atl-4","host":"atl-1.us.uncletopia.com","port":27045,"enabled":true,"region":"us-east","cc":"us","latitude":33.753746,"longitude":-84.38633,"reserved":0,"last_update":"0001-01-01T00:00:00Z","name_a2s":"Uncletopia | Atlanta | 4 | Community","protocol":17,"map":"workshop/pl_barnblitz_pro7.ugc582280235","folder":"tf","game":"Team Fortress","app_id":440,"player_count":24,"max_players":24,"Bots":0,"server_type":"Dedicated","server_os":"Linux","password":true,"vac":true,"version":"7961495","steam_id":85568392924515188,"keywords":["nocrits","nodmgspread","payload","uncletopia"],"game_id":440,"stv_port":27046,"stv_name":"Uncletopia | Atlanta | 4 | Community | STV","players":[{"user_id":492,"name":"J The Jounin","steam_id":76561198034583622,"connected_time":4530000000000,"state":"active","ping":60},{"user_id":550,"name":"Jake The Snake","steam_id":76561198047722285,"connected_time":606000000000,"state":"active","ping":60},{"user_id":547,"name":"None of that $9.99 bullshit","steam_id":76561198116169903,"connected_time":1386000000000,"state":"active","ping":60},{"user_id":519,"name":"Lightning Dust","steam_id":76561198026554788,"connected_time":3000000000000,"state":"active","ping":60},{"user_id":549,"name":"roinguslover443","steam_id":76561198133234284,"connected_time":676000000000,"state":"active","ping":80},{"user_id":520,"name":"Dr Drocsid","steam_id":76561198061870177,"connected_time":2991000000000,"state":"active","ping":81},{"user_id":554,"name":"JellyParrot","steam_id":76561199190990163,"connected_time":555000000000,"state":"active","ping":46},{"user_id":521,"name":"mastercoms","steam_id":76561198046110893,"connected_time":2953000000000,"state":"active","ping":42},{"user_id":502,"name":"Blaze","steam_id":76561198043797702,"connected_time":3989000000000,"state":"active","ping":76},{"user_id":541,"name":"Cosmic","steam_id":76561199089359491,"connected_time":1690000000000,"state":"active","ping":106},{"user_id":551,"name":"Pokon","steam_id":76561198053113088,"connected_time":602000000000,"state":"active","ping":45},{"user_id":546,"name":"Skitz","steam_id":76561198079588236,"connected_time":1429000000000,"state":"active","ping":65},{"user_id":524,"name":"Kenajcrap","steam_id":76561198039573000,"connected_time":2896000000000,"state":"active","ping":167},{"user_id":552,"name":"M4TT","steam_id":76561198118496274,"connected_time":602000000000,"state":"active","ping":87},{"user_id":494,"name":"Kick Down Door 6:00AM TUCK☃RO","steam_id":76561197976146738,"connected_time":4494000000000,"state":"active","ping":71},{"user_id":510,"name":"who is gavin?","steam_id":76561198069415057,"connected_time":3572000000000,"state":"active","ping":69},{"user_id":548,"name":"muhammed","steam_id":76561198872251615,"connected_time":1337000000000,"state":"active","ping":61},{"user_id":553,"name":"MD","steam_id":76561197976300679,"connected_time":599000000000,"state":"active","ping":73},{"user_id":540,"name":"SomeDouche","steam_id":76561198025479406,"connected_time":1768000000000,"state":"active","ping":77},{"user_id":530,"name":"eddiesneeze","steam_id":76561199480506610,"connected_time":2320000000000,"state":"active","ping":108},{"user_id":532,"name":"Cruz","steam_id":76561198135507032,"connected_time":2115000000000,"state":"active","ping":98},{"user_id":543,"name":"james_bondage","steam_id":76561199476062624,"connected_time":1562000000000,"state":"active","ping":78},{"user_id":545,"name":"H.","steam_id":76561198074951179,"connected_time":1458000000000,"state":"active","ping":88},{"user_id":557,"name":"Vexion","steam_id":76561198355319335,"connected_time":125000000000,"state":"active","ping":87}]},{"server_id":2,"name":"Uncletopia | Chicago | 1 | All Maps","name_short":"chi-1","host":"chi-1.us.uncletopia.com","port":27015,"enabled":true,"region":"us-central","cc":"us","latitude":41.881832,"longitude":-87.62318,"reserved":0,"last_update":"0001-01-01T00:00:00Z","name_a2s":"Uncletopia | Chicago | 1 | All Maps","protocol":17,"map":"pl_snowycoast","folder":"tf","game":"Team Fortress","app_id":440,"player_count":24,"max_players":24,"Bots":0,"server_type":"Dedicated","server_os":"Linux","password":true,"vac":true,"version":"7961495","steam_id":85568392924469984,"keywords":["nocrits","nodmgspread","payload","uncletopia"],"game_id":440,"stv_port":27016,"stv_name":"Uncletopia | Chicago | 1 | All Maps | STV","players":[{"user_id":591,"name":"The Grungler","steam_id":76561198126561438,"connected_time":5371000000000,"state":"active","ping":102},{"user_id":610,"name":"Shulgin_4-HO_MET","steam_id":76561198038784254,"connected_time":4099000000000,"state":"active","ping":46},{"user_id":611,"name":"c00kie","steam_id":76561198418178297,"connected_time":4001000000000,"state":"active","ping":46},{"user_id":655,"name":"Praise_to_the_Flashlight!","steam_id":76561199001728789,"connected_time":317000000000,"state":"active","ping":62},{"user_id":568,"name":"Ninetees","steam_id":76561198119483989,"connected_time":7364000000000,"state":"active","ping":77},{"user_id":648,"name":"Snom","steam_id":76561198333827920,"connected_time":422000000000,"state":"active","ping":104},{"user_id":651,"name":"Tibalt Nyahuma","steam_id":76561198034779431,"connected_time":392000000000,"state":"active","ping":63},{"user_id":619,"name":"Pheonix Fel Dragon","steam_id":76561198164974227,"connected_time":2909000000000,"state":"active","ping":70},{"user_id":455,"name":"PickleHater13","steam_id":76561198259380127,"connected_time":15865000000000,"state":"active","ping":52},{"user_id":640,"name":"Mix","steam_id":76561198835593895,"connected_time":1416000000000,"state":"active","ping":57},{"user_id":658,"name":"subdromeda","steam_id":76561198884351860,"connected_time":3000000000,"state":"spawning","ping":58},{"user_id":649,"name":"FattSucc","steam_id":76561198009500503,"connected_time":418000000000,"state":"active","ping":78},{"user_id":595,"name":"ungreat","steam_id":76561198940368888,"connected_time":5159000000000,"state":"active","ping":47},{"user_id":650,"name":"Javaris Jamar Javarison-Lamar","steam_id":76561198146951387,"connected_time":396000000000,"state":"active","ping":75},{"user_id":656,"name":"StretchySnail59","steam_id":76561198073535005,"connected_time":291000000000,"state":"active","ping":56},{"user_id":623,"name":"2D","steam_id":76561198016095410,"connected_time":2849000000000,"state":"active","ping":68},{"user_id":624,"name":"ManiacDan","steam_id":76561199253416043,"connected_time":2836000000000,"state":"active","ping":51},{"user_id":639,"name":"donatello ツ","steam_id":76561198091157081,"connected_time":1468000000000,"state":"active","ping":57},{"user_id":642,"name":"poopybutt420","steam_id":76561199000805315,"connected_time":1140000000000,"state":"active","ping":79},{"user_id":647,"name":"xxxsinpadres","steam_id":76561198366873419,"connected_time":847000000000,"state":"active","ping":61},{"user_id":657,"name":"Maj","steam_id":76561198154203415,"connected_time":264000000000,"state":"active","ping":51},{"user_id":653,"name":"breakfast kitty","steam_id":76561199001918194,"connected_time":371000000000,"state":"active","ping":107},{"user_id":633,"name":"zonc","steam_id":76561198322104962,"connected_time":2422000000000,"state":"active","ping":111},{"user_id":654,"name":"SpycyNoodles","steam_id":76561198309439750,"connected_time":336000000000,"state":"active","ping":46}]},{"server_id":106,"name":"Uncletopia | Chicago | 2 | All Maps","name_short":"chi-2","host":"chi-1.us.uncletopia.com","port":27025,"enabled":true,"region":"us-central","cc":"us","latitude":41.881832,"longitude":-87.62318,"reserved":0,"last_update":"0001-01-01T00:00:00Z","name_a2s":"Uncletopia | Chicago | 2 | All Maps","protocol":17,"map":"cp_well","folder":"tf","game":"Team Fortress","app_id":440,"player_count":24,"max_players":24,"Bots":0,"server_type":"Dedicated","server_os":"Linux","password":true,"vac":true,"version":"7961495","steam_id":85568392924469985,"keywords":["cp","nocrits","nodmgspread","uncletopia"],"game_id":440,"stv_port":27026,"stv_name":"Uncletopia | Chicago | 2 | All Maps | STV","players":[{"user_id":737,"name":"Fatpoob","steam_id":76561198056730096,"connected_time":498000000000,"state":"active","ping":56},{"user_id":712,"name":"eatmysteel","steam_id":76561198976437527,"connected_time":2586000000000,"state":"active","ping":45},{"user_id":722,"name":"Laurbler","steam_id":76561198132094572,"connected_time":1867000000000,"state":"active","ping":49},{"user_id":675,"name":"hearthian","steam_id":76561198113235260,"connected_time":6072000000000,"state":"active","ping":87},{"user_id":747,"name":"krd","steam_id":76561198347660282,"connected_time":97000000000,"state":"active","ping":78},{"user_id":739,"name":"MONKEY | videogamer1002","steam_id":76561198157110599,"connected_time":406000000000,"state":"active","ping":90},{"user_id":701,"name":"mastermt","steam_id":76561198165359850,"connected_time":3806000000000,"state":"active","ping":76},{"user_id":753,"name":"Chucklin","steam_id":76561198010823579,"connected_time":41000000000,"state":"spawning","ping":90},{"user_id":741,"name":"big boobs","steam_id":76561198151150175,"connected_time":397000000000,"state":"active","ping":58},{"user_id":743,"name":"Bytor2121","steam_id":76561197991263350,"connected_time":386000000000,"state":"active","ping":48},{"user_id":713,"name":"LittleJoeRambler","steam_id":76561198015890576,"connected_time":2583000000000,"state":"active","ping":61},{"user_id":744,"name":"Cheeseball","steam_id":76561198996855146,"connected_time":345000000000,"state":"active","ping":91},{"user_id":748,"name":"Jeremy","steam_id":76561198286240347,"connected_time":85000000000,"state":"active","ping":52},{"user_id":694,"name":"cheesewall","steam_id":76561198355317374,"connected_time":4456000000000,"state":"active","ping":62},{"user_id":745,"name":"TheBrocklobster","steam_id":76561198039682984,"connected_time":238000000000,"state":"active","ping":100},{"user_id":749,"name":"Gakster","steam_id":76561198449970446,"connected_time":69000000000,"state":"active","ping":48},{"user_id":697,"name":"Toxic Mercenary","steam_id":76561197988501611,"connected_time":4144000000000,"state":"active","ping":68},{"user_id":750,"name":"SpringSloth","steam_id":76561199211310022,"connected_time":66000000000,"state":"active","ping":73},{"user_id":726,"name":"DJ Pierce","steam_id":76561198394241466,"connected_time":1685000000000,"state":"active","ping":65},{"user_id":751,"name":"Cadetri","steam_id":76561198152179656,"connected_time":63000000000,"state":"active","ping":54},{"user_id":731,"name":"Mr Zero","steam_id":76561198047432133,"connected_time":1256000000000,"state":"active","ping":69},{"user_id":752,"name":"Squiddysquibbles","steam_id":76561198268476001,"connected_time":47000000000,"state":"active","ping":70},{"user_id":714,"name":"Skooks","steam_id":76561198138597371,"connected_time":2503000000000,"state":"active","ping":123},{"user_id":698,"name":"VX Ghost","steam_id":76561198072541436,"connected_time":4125000000000,"state":"active","ping":49}]},{"server_id":402,"name":"Uncletopia | Chicago | 3 | All Maps","name_short":"chi-3","host":"chi-1.us.uncletopia.com","port":27035,"enabled":true,"region":"us-central","cc":"us","latitude":41.881832,"longitude":-87.62318,"reserved":0,"last_update":"0001-01-01T00:00:00Z","name_a2s":"Uncletopia | Chicago | 3 | All Maps","protocol":17,"map":"koth_highpass","folder":"tf","game":"Team Fortress","app_id":440,"player_count":24,"max_players":24,"Bots":0,"server_type":"Dedicated","server_os":"Linux","password":true,"vac":true,"version":"7961495","steam_id":85568392924515191,"keywords":["cp","nocrits","nodmgspread","uncletopia"],"game_id":440,"stv_port":27036,"stv_name":"Uncletopia | Chicago | 3 | All Maps | STV","players":[{"user_id":725,"name":"toastman","steam_id":76561198207073088,"connected_time":597000000000,"state":"active","ping":68},{"user_id":666,"name":"Mega_Man23","steam_id":76561198138341391,"connected_time":2524000000000,"state":"active","ping":59},{"user_id":719,"name":"doop","steam_id":76561198370487545,"connected_time":1022000000000,"state":"active","ping":81},{"user_id":707,"name":"Reiner","steam_id":76561199201762178,"connected_time":1347000000000,"state":"active","ping":66},{"user_id":639,"name":"TOASTEngineer","steam_id":76561198004890916,"connected_time":4172000000000,"state":"active","ping":64},{"user_id":668,"name":"onionaid","steam_id":76561198065266282,"connected_time":2511000000000,"state":"active","ping":71},{"user_id":722,"name":"TheChickenChuck","steam_id":76561199192686708,"connected_time":849000000000,"state":"active","ping":94},{"user_id":671,"name":"bagel","steam_id":76561198061512239,"connected_time":2390000000000,"state":"active","ping":55},{"user_id":723,"name":"MoonWolf","steam_id":76561198095735033,"connected_time":764000000000,"state":"active","ping":64},{"user_id":708,"name":"astrobob911","steam_id":76561199099110654,"connected_time":1345000000000,"state":"active","ping":68},{"user_id":724,"name":"HailStone EQ","steam_id":76561198167566733,"connected_time":707000000000,"state":"active","ping":87},{"user_id":726,"name":"goobert","steam_id":76561198410117398,"connected_time":381000000000,"state":"active","ping":45},{"user_id":627,"name":"corntent","steam_id":76561198824847948,"connected_time":4492000000000,"state":"active","ping":57},{"user_id":720,"name":"Amari","steam_id":76561198272446730,"connected_time":946000000000,"state":"active","ping":57},{"user_id":718,"name":"Blade Racer","steam_id":76561198155896703,"connected_time":1028000000000,"state":"active","ping":67},{"user_id":704,"name":"donny burger","steam_id":76561198043862737,"connected_time":1362000000000,"state":"active","ping":60},{"user_id":711,"name":"Snazzy_","steam_id":76561198014803098,"connected_time":1316000000000,"state":"active","ping":64},{"user_id":713,"name":"anonpain","steam_id":76561198081317092,"connected_time":1299000000000,"state":"active","ping":51},{"user_id":714,"name":"Steak-Pocketer","steam_id":76561198277651410,"connected_time":1283000000000,"state":"active","ping":60},{"user_id":664,"name":"GreatTimBones","steam_id":76561198409145748,"connected_time":2723000000000,"state":"active","ping":71},{"user_id":721,"name":"Amoxicilina","steam_id":76561198168486429,"connected_time":906000000000,"state":"active","ping":117},{"user_id":715,"name":"RusticCarp42989","steam_id":76561198361151865,"connected_time":1255000000000,"state":"active","ping":107},{"user_id":716,"name":"SiltyStar85","steam_id":76561198309175923,"connected_time":1244000000000,"state":"active","ping":101},{"user_id":676,"name":"Zombieslayer","steam_id":76561198407877826,"connected_time":1863000000000,"state":"active","ping":76}]},{"server_id":403,"name":"Uncletopia | Chicago | 4 | All Maps","name_short":"chi-4","host":"chi-1.us.uncletopia.com","port":27045,"enabled":true,"region":"us-central","cc":"us","latitude":41.881832,"longitude":-87.62318,"reserved":0,"last_update":"0001-01-01T00:00:00Z","name_a2s":"Uncletopia | Chicago | 4 | All Maps","protocol":17,"map":"pl_thundermountain","folder":"tf","game":"Team Fortress","app_id":440,"player_count":24,"max_players":24,"Bots":0,"server_type":"Dedicated","server_os":"Linux","password":true,"vac":true,"version":"7961495","steam_id":85568392924515193,"keywords":["nocrits","nodmgspread","payload","uncletopia"],"game_id":440,"stv_port":27046,"stv_name":"Uncletopia | Chicago | 4 | All Maps | STV","players":[{"user_id":400,"name":"Joe, Banana","steam_id":76561198077551754,"connected_time":155000000000,"state":"active","ping":69},{"user_id":355,"name":"Argo","steam_id":76561198353725622,"connected_time":3567000000000,"state":"active","ping":75},{"user_id":219,"name":"Lia_Rein","steam_id":76561198151569597,"connected_time":15077000000000,"state":"active","ping":154},{"user_id":383,"name":"Crayfry","steam_id":76561198146525237,"connected_time":1463000000000,"state":"active","ping":45},{"user_id":348,"name":"Der Krieger105","steam_id":76561197978384609,"connected_time":4539000000000,"state":"active","ping":74},{"user_id":328,"name":"hej","steam_id":76561197996366940,"connected_time":7013000000000,"state":"active","ping":60},{"user_id":376,"name":"sum0","steam_id":76561198260451626,"connected_time":2395000000000,"state":"active","ping":50},{"user_id":295,"name":"qory","steam_id":76561198152064890,"connected_time":9918000000000,"state":"active","ping":53},{"user_id":402,"name":"Cosmos Rogue","steam_id":76561198378791617,"connected_time":28000000000,"state":"active","ping":50},{"user_id":388,"name":"Solarin","steam_id":76561198006483758,"connected_time":1381000000000,"state":"active","ping":63},{"user_id":397,"name":"War on Drugs Fighter","steam_id":76561198103211035,"connected_time":325000000000,"state":"active","ping":56},{"user_id":398,"name":"jek","steam_id":76561198097816136,"connected_time":318000000000,"state":"active","ping":75},{"user_id":366,"name":"while(1)","steam_id":76561198000876529,"connected_time":3321000000000,"state":"active","ping":59},{"user_id":362,"name":"eipi","steam_id":76561199084492097,"connected_time":3475000000000,"state":"active","ping":69},{"user_id":380,"name":"Cornelius","steam_id":76561198123447388,"connected_time":1681000000000,"state":"active","ping":45},{"user_id":396,"name":"dolpin 2.0","steam_id":76561198299123353,"connected_time":344000000000,"state":"active","ping":61},{"user_id":371,"name":"goombinus","steam_id":76561198136164826,"connected_time":2631000000000,"state":"active","ping":43},{"user_id":338,"name":"MedRed™ #IATAH","steam_id":76561198002962970,"connected_time":5613000000000,"state":"active","ping":105},{"user_id":390,"name":"Cassius Money","steam_id":76561197979696414,"connected_time":1190000000000,"state":"active","ping":42},{"user_id":363,"name":"Swag","steam_id":76561198835483242,"connected_time":3472000000000,"state":"active","ping":62},{"user_id":346,"name":"Swash","steam_id":76561197969421355,"connected_time":4574000000000,"state":"active","ping":60},{"user_id":377,"name":"kwrzrguy445","steam_id":76561198137124492,"connected_time":2032000000000,"state":"active","ping":67},{"user_id":387,"name":"dailyspesh","steam_id":76561197988072369,"connected_time":1450000000000,"state":"active","ping":62},{"user_id":336,"name":"thecal","steam_id":76561198307893384,"connected_time":5758000000000,"state":"active","ping":61}]},{"server_id":36,"name":"Uncletopia | Chicago | 5 | All Maps","name_short":"chi-5","host":"chi-2.us.uncletopia.com","port":27015,"enabled":true,"region":"us-central","cc":"us","latitude":41.881832,"longitude":-87.62318,"reserved":0,"last_update":"0001-01-01T00:00:00Z","name_a2s":"Uncletopia | Chicago | 5 | All Maps","protocol":17,"map":"pl_snowycoast","folder":"tf","game":"Team Fortress","app_id":440,"player_count":24,"max_players":24,"Bots":0,"server_type":"Dedicated","server_os":"Linux","password":true,"vac":true,"version":"7961495","steam_id":85568392924866362,"keywords":["nocrits","nodmgspread","payload","uncletopia"],"game_id":440,"stv_port":27016,"stv_name":"Uncletopia | Chicago | 5 | All Maps | STV","players":[{"user_id":195,"name":"DrMania82","steam_id":76561198113086878,"connected_time":391000000000,"state":"active","ping":103},{"user_id":172,"name":"crouch2004","steam_id":76561198085429828,"connected_time":1196000000000,"state":"active","ping":99},{"user_id":162,"name":"Shady Businessman","steam_id":76561198143855968,"connected_time":2757000000000,"state":"active","ping":86},{"user_id":194,"name":"moldyboi_","steam_id":76561199051928811,"connected_time":399000000000,"state":"active","ping":97},{"user_id":171,"name":"Huntpk","steam_id":76561198340591674,"connected_time":1288000000000,"state":"active","ping":35},{"user_id":174,"name":":3","steam_id":76561199194702127,"connected_time":1102000000000,"state":"active","ping":79},{"user_id":193,"name":"gIBBY","steam_id":76561198080099598,"connected_time":438000000000,"state":"active","ping":59},{"user_id":198,"name":"GarbageBin","steam_id":76561199067367646,"connected_time":196000000000,"state":"active","ping":78},{"user_id":196,"name":"Wafflemouth","steam_id":76561198086040614,"connected_time":360000000000,"state":"active","ping":48},{"user_id":87,"name":"Digitic","steam_id":76561198080295536,"connected_time":6474000000000,"state":"active","ping":62},{"user_id":187,"name":"Dent","steam_id":76561198304978514,"connected_time":848000000000,"state":"active","ping":67},{"user_id":164,"name":"Meskoozy","steam_id":76561198102394479,"connected_time":2536000000000,"state":"active","ping":60},{"user_id":124,"name":"NvAka","steam_id":76561199044781490,"connected_time":3938000000000,"state":"active","ping":60},{"user_id":179,"name":"Oops","steam_id":76561198015032646,"connected_time":922000000000,"state":"active","ping":99},{"user_id":201,"name":"Transbian mommy GF","steam_id":76561198153233822,"connected_time":58000000000,"state":"active","ping":52},{"user_id":192,"name":"fish (2:3)","steam_id":76561198134331073,"connected_time":458000000000,"state":"active","ping":94},{"user_id":202,"name":"THE DARKNESS","steam_id":76561198311004039,"connected_time":23000000000,"state":"active","ping":93},{"user_id":200,"name":"your name is timofee!!!","steam_id":76561198072179483,"connected_time":162000000000,"state":"active","ping":96},{"user_id":182,"name":"Medici","steam_id":76561198310130481,"connected_time":915000000000,"state":"active","ping":71},{"user_id":190,"name":"Pixeled","steam_id":76561198088917077,"connected_time":772000000000,"state":"active","ping":81},{"user_id":184,"name":"Detective Bread Crumbs","steam_id":76561198143630277,"connected_time":911000000000,"state":"active","ping":39},{"user_id":185,"name":"Cat doin laundry","steam_id":76561198063895852,"connected_time":910000000000,"state":"active","ping":67},{"user_id":199,"name":"Boofenshmirtz","steam_id":76561198071649858,"connected_time":188000000000,"state":"active","ping":56},{"user_id":132,"name":"enhanced with disney's FastPlay","steam_id":76561198164134387,"connected_time":3907000000000,"state":"active","ping":99}]},{"server_id":37,"name":"Uncletopia | Chicago | 6 | All Maps","name_short":"chi-6","host":"chi-2.us.uncletopia.com","port":27025,"enabled":true,"region":"us-central","cc":"us","latitude":41.881832,"longitude":-87.62318,"reserved":0,"last_update":"0001-01-01T00:00:00Z","name_a2s":"Uncletopia | Chicago | 6 | All Maps","protocol":17,"map":"pl_frontier_final","folder":"tf","game":"Team Fortress","app_id":440,"player_count":24,"max_players":24,"Bots":0,"server_type":"Dedicated","server_os":"Linux","password":true,"vac":true,"version":"7961495","steam_id":85568392924866363,"keywords":["nocrits","nodmgspread","payload","uncletopia"],"game_id":440,"stv_port":27026,"stv_name":"Uncletopia | Chicago | 6 | All Maps | STV","players":[{"user_id":270,"name":"chrisd149","steam_id":76561198018710480,"connected_time":254000000000,"state":"active","ping":81},{"user_id":202,"name":"LobsterPot","steam_id":76561198072225973,"connected_time":4363000000000,"state":"active","ping":63},{"user_id":250,"name":"Robert","steam_id":76561198133200895,"connected_time":1266000000000,"state":"active","ping":60},{"user_id":271,"name":"TreeGuy","steam_id":76561198026191469,"connected_time":238000000000,"state":"active","ping":60},{"user_id":221,"name":"starfungus","steam_id":76561198158312789,"connected_time":2615000000000,"state":"active","ping":69},{"user_id":238,"name":"crazyabe111","steam_id":76561198407686352,"connected_time":1866000000000,"state":"active","ping":71},{"user_id":268,"name":"smuffy","steam_id":76561198091459506,"connected_time":448000000000,"state":"active","ping":70},{"user_id":265,"name":"Srg-Waffle","steam_id":76561198204555116,"connected_time":613000000000,"state":"active","ping":92},{"user_id":254,"name":"whirlybird","steam_id":76561198353887173,"connected_time":1017000000000,"state":"active","ping":72},{"user_id":255,"name":"Arrythmia","steam_id":76561198093748123,"connected_time":973000000000,"state":"active","ping":90},{"user_id":256,"name":"Soju","steam_id":76561198044130442,"connected_time":951000000000,"state":"active","ping":82},{"user_id":272,"name":"bumrusherz","steam_id":76561198440658195,"connected_time":202000000000,"state":"active","ping":75},{"user_id":248,"name":"emeraldrhymes","steam_id":76561198842486176,"connected_time":1342000000000,"state":"active","ping":71},{"user_id":257,"name":"Tohubohu","steam_id":76561198077838448,"connected_time":940000000000,"state":"active","ping":104},{"user_id":233,"name":"natty bhopper","steam_id":76561198094806066,"connected_time":2297000000000,"state":"active","ping":72},{"user_id":242,"name":"Murphystation64","steam_id":76561198798655627,"connected_time":1736000000000,"state":"active","ping":75},{"user_id":273,"name":"cheetaz","steam_id":76561198224614084,"connected_time":166000000000,"state":"active","ping":64},{"user_id":274,"name":"sheep","steam_id":76561198994761483,"connected_time":107000000000,"state":"active","ping":90},{"user_id":258,"name":"augs","steam_id":76561199120607417,"connected_time":894000000000,"state":"active","ping":56},{"user_id":275,"name":"MAJICBUCKET","steam_id":76561198825268471,"connected_time":106000000000,"state":"active","ping":61},{"user_id":215,"name":"Tomoko2001","steam_id":76561198047117990,"connected_time":3426000000000,"state":"active","ping":94},{"user_id":261,"name":"klevmeister","steam_id":76561198799106535,"connected_time":877000000000,"state":"active","ping":90},{"user_id":262,"name":"Space Cops","steam_id":76561198032414253,"connected_time":850000000000,"state":"active","ping":61},{"user_id":263,"name":"FumaPorros3000","steam_id":76561199100161024,"connected_time":799000000000,"state":"active","ping":102}]},{"server_id":38,"name":"Uncletopia | Chicago | 7 | Stopwatch","name_short":"chi-7","host":"chi-2.us.uncletopia.com","port":27035,"enabled":true,"region":"us-central","cc":"us","latitude":41.881832,"longitude":-87.62318,"reserved":0,"last_update":"0001-01-01T00:00:00Z","name_a2s":"Uncletopia | Chicago | 7 | Stopwatch","protocol":17,"map":"pl_swiftwater_final1","folder":"tf","game":"Team Fortress","app_id":440,"player_count":0,"max_players":24,"Bots":0,"server_type":"Dedicated","server_os":"Linux","password":true,"vac":true,"version":"7961495","steam_id":85568392924866364,"keywords":["nocrits","nodmgspread","payload","uncletopia"],"game_id":440,"stv_port":27036,"stv_name":"Uncletopia | Chicago | 7 | Stopwatch | STV","players":null},{"server_id":39,"name":"Uncletopia | Chicago | 8 | Community","name_short":"chi-8","host":"chi-2.us.uncletopia.com","port":27045,"enabled":true,"region":"us-central","cc":"us","latitude":41.881832,"longitude":-87.62318,"reserved":0,"last_update":"0001-01-01T00:00:00Z","name_a2s":"Uncletopia | Chicago | 8 | Community","protocol":17,"map":"workshop/koth_slaughter_rc1.ugc1712845210","folder":"tf","game":"Team Fortress","app_id":440,"player_count":0,"max_players":24,"Bots":0,"server_type":"Dedicated","server_os":"Linux","password":true,"vac":true,"version":"7961495","steam_id":85568392924866365,"keywords":["cp","nocrits","nodmgspread","uncletopia"],"game_id":440,"stv_port":27046,"stv_name":"Uncletopia | Chicago | 8 | Community | STV","players":null},{"server_id":8,"name":"Uncletopia | Dallas | 1 | All Maps","name_short":"dal-1","host":"dal-1.us.uncletopia.com","port":27015,"enabled":true,"region":"us-central","cc":"us","latitude":32.779167,"longitude":-96.80889,"reserved":0,"last_update":"0001-01-01T00:00:00Z","name_a2s":"Uncletopia | Dallas | 1 | All Maps","protocol":17,"map":"cp_powerhouse","folder":"tf","game":"Team Fortress","app_id":440,"player_count":24,"max_players":24,"Bots":0,"server_type":"Dedicated","server_os":"Linux","password":true,"vac":true,"version":"7961495","steam_id":85568392924469986,"keywords":["cp","nocrits","nodmgspread","uncletopia"],"game_id":440,"stv_port":27016,"stv_name":"Uncletopia | Dallas | 1 | All Maps | STV","players":[{"user_id":577,"name":"Pixy","steam_id":76561198028214757,"connected_time":1311000000000,"state":"active","ping":89},{"user_id":561,"name":"UberVirginWeeb","steam_id":76561198412980444,"connected_time":2503000000000,"state":"active","ping":73},{"user_id":590,"name":"Big Chungus Gaming","steam_id":76561198068794194,"connected_time":398000000000,"state":"active","ping":72},{"user_id":474,"name":"PurplePond","steam_id":76561199062421006,"connected_time":8205000000000,"state":"active","ping":62},{"user_id":588,"name":"Snoogs","steam_id":76561198444880931,"connected_time":433000000000,"state":"active","ping":78},{"user_id":584,"name":"Topaz Tom","steam_id":76561199214479904,"connected_time":520000000000,"state":"active","ping":86},{"user_id":586,"name":"Flower","steam_id":76561198075443147,"connected_time":490000000000,"state":"active","ping":182},{"user_id":587,"name":"Surfing Garchomp","steam_id":76561199107236884,"connected_time":482000000000,"state":"active","ping":107},{"user_id":538,"name":"Darkag","steam_id":76561198301535911,"connected_time":3506000000000,"state":"active","ping":77},{"user_id":581,"name":"Eomy","steam_id":76561198297783627,"connected_time":945000000000,"state":"active","ping":76},{"user_id":589,"name":"Yongle","steam_id":76561198068591156,"connected_time":414000000000,"state":"active","ping":78},{"user_id":591,"name":"BIG DICK BANDITO","steam_id":76561198047945799,"connected_time":351000000000,"state":"active","ping":82},{"user_id":585,"name":"Blast","steam_id":76561198996826279,"connected_time":505000000000,"state":"active","ping":73},{"user_id":535,"name":"BMoney","steam_id":76561198799389030,"connected_time":3601000000000,"state":"active","ping":106},{"user_id":554,"name":"team fortress 2","steam_id":76561198093995793,"connected_time":2887000000000,"state":"active","ping":105},{"user_id":555,"name":"Lae","steam_id":76561198185527278,"connected_time":2839000000000,"state":"active","ping":75},{"user_id":592,"name":"MiniatureTrumpet","steam_id":76561198807533157,"connected_time":334000000000,"state":"active","ping":75},{"user_id":579,"name":"Spinch","steam_id":76561198296224166,"connected_time":1156000000000,"state":"active","ping":73},{"user_id":593,"name":"Scremz (Jeffery Bomber)","steam_id":76561198090314229,"connected_time":319000000000,"state":"active","ping":73},{"user_id":556,"name":"poggerchamp","steam_id":76561199145124973,"connected_time":2754000000000,"state":"active","ping":59},{"user_id":594,"name":"SteveDude!","steam_id":76561198114366424,"connected_time":200000000000,"state":"active","ping":179},{"user_id":539,"name":"Snoman","steam_id":76561197969248675,"connected_time":3446000000000,"state":"active","ping":90},{"user_id":595,"name":"perezpro214","steam_id":76561199507124097,"connected_time":171000000000,"state":"active","ping":44},{"user_id":560,"name":"KIKI CURBSTOMP","steam_id":76561198262064871,"connected_time":2596000000000,"state":"active","ping":75}]},{"server_id":108,"name":"Uncletopia | Dallas | 2 | All Maps","name_short":"dal-2","host":"dal-1.us.uncletopia.com","port":27025,"enabled":true,"region":"us-central","cc":"us","latitude":32.779167,"longitude":-96.80889,"reserved":0,"last_update":"0001-01-01T00:00:00Z","name_a2s":"Uncletopia | Dallas | 2 | All Maps","protocol":17,"map":"koth_king","folder":"tf","game":"Team Fortress","app_id":440,"player_count":11,"max_players":24,"Bots":0,"server_type":"Dedicated","server_os":"Linux","password":true,"vac":true,"version":"7961495","steam_id":85568392924469988,"keywords":["cp","nocrits","nodmgspread","uncletopia"],"game_id":440,"stv_port":27026,"stv_name":"Uncletopia | Dallas | 2 | All Maps | STV","players":[{"user_id":366,"name":"Chief Bro D","steam_id":76561198179392111,"connected_time":263000000000,"state":"active","ping":48},{"user_id":365,"name":"flarifier","steam_id":76561198315072848,"connected_time":667000000000,"state":"active","ping":75},{"user_id":367,"name":"Crλf227","steam_id":76561198196211121,"connected_time":39000000000,"state":"active","ping":68},{"user_id":358,"name":"TechnoBear2099","steam_id":76561198238863596,"connected_time":930000000000,"state":"active","ping":51},{"user_id":355,"name":"Alcohol Hominid","steam_id":76561198320313950,"connected_time":970000000000,"state":"active","ping":44},{"user_id":320,"name":"Spoinga Bob","steam_id":76561198172772014,"connected_time":3345000000000,"state":"active","ping":73},{"user_id":359,"name":"Dylanxp300","steam_id":76561198271974937,"connected_time":900000000000,"state":"active","ping":84},{"user_id":364,"name":"RockiMtnOystr","steam_id":76561198106915405,"connected_time":803000000000,"state":"active","ping":74},{"user_id":265,"name":"Harbor Seal","steam_id":76561198162631724,"connected_time":7663000000000,"state":"active","ping":84},{"user_id":345,"name":"2's a Party but 3 is a Crowd","steam_id":76561198181479354,"connected_time":1752000000000,"state":"active","ping":77},{"user_id":315,"name":"StudioMania (#SAVETF2)","steam_id":76561198211315795,"connected_time":4110000000000,"state":"active","ping":60}]},{"server_id":404,"name":"Uncletopia | Dallas | 3 | All Maps","name_short":"dal-3","host":"dal-1.us.uncletopia.com","port":27035,"enabled":true,"region":"us-central","cc":"us","latitude":32.779167,"longitude":-96.80889,"reserved":0,"last_update":"0001-01-01T00:00:00Z","name_a2s":"Uncletopia | Dallas | 3 | All Maps","protocol":17,"map":"pl_barnblitz","folder":"tf","game":"Team Fortress","app_id":440,"player_count":23,"max_players":24,"Bots":0,"server_type":"Dedicated","server_os":"Linux","password":true,"vac":true,"version":"7961495","steam_id":85568392924515219,"keywords":["nocrits","nodmgspread","payload","uncletopia"],"game_id":440,"stv_port":27036,"stv_name":"Uncletopia | Dallas | 3 | All Maps | STV","players":[{"user_id":540,"name":"Pongallow","steam_id":76561198146876078,"connected_time":4027000000000,"state":"active","ping":72},{"user_id":548,"name":"Junfez","steam_id":76561198340001889,"connected_time":3017000000000,"state":"active","ping":76},{"user_id":546,"name":"Soda","steam_id":76561198219209367,"connected_time":3129000000000,"state":"active","ping":67},{"user_id":578,"name":"Lezabel","steam_id":76561198970753261,"connected_time":719000000000,"state":"active","ping":88},{"user_id":452,"name":"Voids","steam_id":76561198128386726,"connected_time":10147000000000,"state":"active","ping":87},{"user_id":579,"name":"gothpapa","steam_id":76561198452122510,"connected_time":621000000000,"state":"active","ping":88},{"user_id":487,"name":"BombWolf","steam_id":76561198289812368,"connected_time":7972000000000,"state":"active","ping":85},{"user_id":566,"name":"tack","steam_id":76561198408477421,"connected_time":2012000000000,"state":"active","ping":77},{"user_id":570,"name":"MoistSquidical","steam_id":76561199200296010,"connected_time":1671000000000,"state":"active","ping":43},{"user_id":564,"name":"kicks","steam_id":76561199228854923,"connected_time":2122000000000,"state":"active","ping":65},{"user_id":580,"name":"panzerkampfwagen xi schlange","steam_id":76561198006883248,"connected_time":463000000000,"state":"active","ping":59},{"user_id":544,"name":"pizza cuck","steam_id":76561198040455711,"connected_time":3313000000000,"state":"active","ping":59},{"user_id":572,"name":"Dullahan","steam_id":76561198119668908,"connected_time":1664000000000,"state":"active","ping":119},{"user_id":576,"name":"Lee?","steam_id":76561199060892634,"connected_time":1549000000000,"state":"active","ping":57},{"user_id":562,"name":"gary","steam_id":76561197999779377,"connected_time":2152000000000,"state":"active","ping":83},{"user_id":414,"name":"punk cock","steam_id":76561198418182764,"connected_time":12288000000000,"state":"active","ping":86},{"user_id":552,"name":"Dark Lord","steam_id":76561198044199150,"connected_time":2973000000000,"state":"active","ping":98},{"user_id":565,"name":"jestor","steam_id":76561198248148760,"connected_time":2056000000000,"state":"active","ping":66},{"user_id":577,"name":"That one gamer boy","steam_id":76561199166485004,"connected_time":963000000000,"state":"active","ping":63},{"user_id":558,"name":"peenus the sus","steam_id":76561198132870504,"connected_time":2427000000000,"state":"active","ping":81},{"user_id":555,"name":"Not A Rapper","steam_id":76561198077523537,"connected_time":2909000000000,"state":"active","ping":101},{"user_id":575,"name":"GreenApples","steam_id":76561198120559543,"connected_time":1649000000000,"state":"active","ping":121},{"user_id":539,"name":"0:-)","steam_id":76561198142056100,"connected_time":4224000000000,"state":"active","ping":87}]},{"server_id":405,"name":"Uncletopia | Dallas | 4 | Community","name_short":"dal-4","host":"dal-1.us.uncletopia.com","port":27045,"enabled":true,"region":"us-central","cc":"us","latitude":32.779167,"longitude":-96.80889,"reserved":0,"last_update":"0001-01-01T00:00:00Z","name_a2s":"Uncletopia | Dallas | 4 | Community","protocol":17,"map":"workshop/pl_shoreleave_rc2.ugc1238849347","folder":"tf","game":"Team Fortress","app_id":440,"player_count":23,"max_players":24,"Bots":0,"server_type":"Dedicated","server_os":"Linux","password":true,"vac":true,"version":"7961495","steam_id":85568392924515220,"keywords":["nocrits","nodmgspread","payload","uncletopia"],"game_id":440,"stv_port":27046,"stv_name":"Uncletopia | Dallas | 4 | Community | STV","players":[{"user_id":126,"name":"everybody want to rule the worl","steam_id":76561198425503395,"connected_time":883000000000,"state":"active","ping":41},{"user_id":127,"name":"LG_Fridge_User","steam_id":76561198977815014,"connected_time":880000000000,"state":"active","ping":73},{"user_id":55,"name":"puffle fanatic","steam_id":76561198094030685,"connected_time":5777000000000,"state":"active","ping":75},{"user_id":122,"name":"Op banana","steam_id":76561198303231451,"connected_time":1272000000000,"state":"active","ping":32},{"user_id":145,"name":"Matt from Wii sports","steam_id":76561199081701750,"connected_time":52000000000,"state":"active","ping":46},{"user_id":129,"name":"JimmyDeanXD","steam_id":76561198286173316,"connected_time":762000000000,"state":"active","ping":70},{"user_id":121,"name":"Seyoiu","steam_id":76561198275985905,"connected_time":1406000000000,"state":"active","ping":75},{"user_id":143,"name":"Pokyfastfox25","steam_id":76561199184985857,"connected_time":225000000000,"state":"active","ping":74},{"user_id":140,"name":"rumes","steam_id":76561198349219467,"connected_time":397000000000,"state":"active","ping":47},{"user_id":130,"name":"TheSmolPopato","steam_id":76561199076606348,"connected_time":723000000000,"state":"active","ping":72},{"user_id":141,"name":"GUH","steam_id":76561199013202758,"connected_time":358000000000,"state":"active","ping":73},{"user_id":142,"name":"Eli the THICC","steam_id":76561198062356519,"connected_time":315000000000,"state":"active","ping":78},{"user_id":131,"name":"Menachem","steam_id":76561198041226420,"connected_time":717000000000,"state":"active","ping":68},{"user_id":132,"name":"Air Friar","steam_id":76561199036741543,"connected_time":676000000000,"state":"active","ping":88},{"user_id":90,"name":"The Rat Bastard","steam_id":76561198112705880,"connected_time":2618000000000,"state":"active","ping":82},{"user_id":133,"name":"Rambunctious Tom","steam_id":76561199386233763,"connected_time":651000000000,"state":"active","ping":90},{"user_id":134,"name":"ack.awesome676","steam_id":76561199109415958,"connected_time":650000000000,"state":"active","ping":71},{"user_id":144,"name":"schnedwob","steam_id":76561197999146588,"connected_time":139000000000,"state":"active","ping":45},{"user_id":146,"name":"Pants™","steam_id":76561198272612983,"connected_time":24000000000,"state":"spawning","ping":164},{"user_id":80,"name":"Meshric","steam_id":76561198036001091,"connected_time":3198000000000,"state":"active","ping":82},{"user_id":136,"name":"Dogvan","steam_id":76561198176708643,"connected_time":608000000000,"state":"active","ping":47},{"user_id":137,"name":"Exactly 8 Italians","steam_id":76561199443213821,"connected_time":601000000000,"state":"active","ping":100},{"user_id":138,"name":"Uluyo","steam_id":76561198065857148,"connected_time":474000000000,"state":"active","ping":68}]},{"server_id":5,"name":"Uncletopia | Frankfurt | 1 | All Maps","name_short":"frk-1","host":"frk-1.de.uncletopia.com","port":27015,"enabled":true,"region":"eu","cc":"de","latitude":50.110924,"longitude":8.682127,"reserved":0,"last_update":"0001-01-01T00:00:00Z","name_a2s":"Uncletopia | Frankfurt | 1 | All Maps","protocol":17,"map":"cp_fastlane","folder":"tf","game":"Team Fortress","app_id":440,"player_count":0,"max_players":24,"Bots":0,"server_type":"Dedicated","server_os":"Linux","password":true,"vac":true,"version":"7961495","steam_id":85568392924469989,"keywords":["cp","nocrits","nodmgspread","uncletopia"],"game_id":440,"stv_port":27016,"stv_name":"Uncletopia | Frankfurt | 1 | All Maps | STV","players":null},{"server_id":110,"name":"Uncletopia | Frankfurt | 2 | All Maps","name_short":"frk-2","host":"frk-1.de.uncletopia.com","port":27025,"enabled":true,"region":"eu","cc":"de","latitude":50.110924,"longitude":8.682127,"reserved":0,"last_update":"0001-01-01T00:00:00Z","name_a2s":"Uncletopia | Frankfurt | 2 | All Maps","protocol":17,"map":"cp_dustbowl","folder":"tf","game":"Team Fortress","app_id":440,"player_count":8,"max_players":24,"Bots":0,"server_type":"Dedicated","server_os":"Linux","password":true,"vac":true,"version":"7961495","steam_id":85568392924469990,"keywords":["cp","nocrits","nodmgspread","uncletopia"],"game_id":440,"stv_port":27026,"stv_name":"Uncletopia | Frankfurt | 2 | All Maps | STV","players":[{"user_id":867,"name":"Arkainiel Silver","steam_id":76561198188302519,"connected_time":444000000000,"state":"active","ping":45},{"user_id":851,"name":"nrvvs","steam_id":76561199134714492,"connected_time":2368000000000,"state":"active","ping":145},{"user_id":866,"name":"Retrogue","steam_id":76561198131776972,"connected_time":737000000000,"state":"active","ping":44},{"user_id":861,"name":"Chacklemalk","steam_id":76561198049544606,"connected_time":1629000000000,"state":"active","ping":69},{"user_id":846,"name":"Zayd","steam_id":76561199076481015,"connected_time":3126000000000,"state":"active","ping":125},{"user_id":863,"name":"Brozy","steam_id":76561199014951849,"connected_time":1316000000000,"state":"active","ping":74},{"user_id":847,"name":"jonbob","steam_id":76561197963506620,"connected_time":2985000000000,"state":"active","ping":55},{"user_id":833,"name":"Loona my beloved","steam_id":76561198067182918,"connected_time":4664000000000,"state":"active","ping":77}]},{"server_id":308,"name":"Uncletopia | Frankfurt | 3 | All Maps","name_short":"frk-3","host":"frk-1.de.uncletopia.com","port":27035,"enabled":true,"region":"eu","cc":"de","latitude":50.110924,"longitude":8.682127,"reserved":0,"last_update":"0001-01-01T00:00:00Z","name_a2s":"Uncletopia | Frankfurt | 3 | All Maps","protocol":17,"map":"koth_brazil","folder":"tf","game":"Team Fortress","app_id":440,"player_count":0,"max_players":24,"Bots":0,"server_type":"Dedicated","server_os":"Linux","password":true,"vac":true,"version":"7961495","steam_id":85568392924504274,"keywords":["cp","nocrits","nodmgspread","uncletopia"],"game_id":440,"stv_port":27036,"stv_name":"Uncletopia | Frankfurt | 3 | All Maps | STV","players":null},{"server_id":309,"name":"Uncletopia | Frankfurt | 4 | All Maps","name_short":"frk-4","host":"frk-1.de.uncletopia.com","port":27045,"enabled":true,"region":"eu","cc":"de","latitude":50.110924,"longitude":8.682127,"reserved":0,"last_update":"0001-01-01T00:00:00Z","name_a2s":"Uncletopia | Frankfurt | 4 | All Maps","protocol":17,"map":"cp_process_final","folder":"tf","game":"Team Fortress","app_id":440,"player_count":0,"max_players":24,"Bots":0,"server_type":"Dedicated","server_os":"Linux","password":true,"vac":true,"version":"7961495","steam_id":85568392924504275,"keywords":["cp","nocrits","nodmgspread","uncletopia"],"game_id":440,"stv_port":27046,"stv_name":"Uncletopia | Frankfurt | 4 | All Maps | STV","players":null},{"server_id":310,"name":"Uncletopia | Frankfurt | 5 | All Maps","name_short":"frk-5","host":"frk-1.de.uncletopia.com","port":27055,"enabled":true,"region":"eu","cc":"de","latitude":50.110924,"longitude":8.682127,"reserved":0,"last_update":"0001-01-01T00:00:00Z","name_a2s":"Uncletopia | Frankfurt | 5 | All Maps","protocol":17,"map":"cp_dustbowl","folder":"tf","game":"Team Fortress","app_id":440,"player_count":0,"max_players":24,"Bots":0,"server_type":"Dedicated","server_os":"Linux","password":true,"vac":true,"version":"7961495","steam_id":85568392924504277,"keywords":["cp","nocrits","nodmgspread","uncletopia"],"game_id":440,"stv_port":27056,"stv_name":"Uncletopia | Frankfurt | 5 | All Maps | STV","players":null},{"server_id":311,"name":"Uncletopia | Frankfurt | 6 | All Maps","name_short":"frk-6","host":"frk-1.de.uncletopia.com","port":27065,"enabled":true,"region":"eu","cc":"de","latitude":50.110924,"longitude":8.682127,"reserved":0,"last_update":"0001-01-01T00:00:00Z","name_a2s":"Uncletopia | Frankfurt | 6 | All Maps","protocol":17,"map":"pl_thundermountain","folder":"tf","game":"Team Fortress","app_id":440,"player_count":0,"max_players":24,"Bots":0,"server_type":"Dedicated","server_os":"Linux","password":true,"vac":true,"version":"7961495","steam_id":85568392924504278,"keywords":["nocrits","nodmgspread","payload","uncletopia"],"game_id":440,"stv_port":27066,"stv_name":"Uncletopia | Frankfurt | 6 | All Maps | STV","players":null},{"server_id":23,"name":"Uncletopia | Frankfurt | 7 | Stopwatch","name_short":"frk-7","host":"frk-1.de.uncletopia.com","port":27075,"enabled":true,"region":"eu","cc":"de","latitude":50.110924,"longitude":8.682127,"reserved":0,"last_update":"0001-01-01T00:00:00Z","name_a2s":"Uncletopia | Frankfurt | 7 | Stopwatch","protocol":17,"map":"workshop/koth_product_final.ugc454272353","folder":"tf","game":"Team Fortress","app_id":440,"player_count":0,"max_players":24,"Bots":0,"server_type":"Dedicated","server_os":"Linux","password":true,"vac":true,"version":"7961495","steam_id":85568392924742827,"keywords":["cp","nocrits","nodmgspread","uncletopia"],"game_id":440,"stv_port":27076,"stv_name":"Uncletopia | Frankfurt | 7 | Stopwatch | STV","players":null},{"server_id":24,"name":"Uncletopia | Frankfurt | 8 | Community","name_short":"frk-8","host":"frk-1.de.uncletopia.com","port":27085,"enabled":true,"region":"eu","cc":"de","latitude":50.110924,"longitude":8.682127,"reserved":0,"last_update":"0001-01-01T00:00:00Z","name_a2s":"Uncletopia | Frankfurt | 8 | Community","protocol":17,"map":"workshop/rd_asteroid_redux_b1.ugc2154902912","folder":"tf","game":"Team Fortress","app_id":440,"player_count":0,"max_players":24,"Bots":0,"server_type":"Dedicated","server_os":"Linux","password":true,"vac":true,"version":"7961495","steam_id":85568392924742828,"keywords":["beta","nocrits","nodmgspread","rd","uncletopia"],"game_id":440,"stv_port":27086,"stv_name":"Uncletopia | Frankfurt | 8 | Community | STV","players":null},{"server_id":202,"name":"Uncletopia | Hong Kong | 1 | All Maps","name_short":"hgk-1","host":"hgk-1.hk.uncletopia.com","port":27015,"enabled":true,"region":"asia","cc":"hk","latitude":22.302711,"longitude":114.177216,"reserved":0,"last_update":"0001-01-01T00:00:00Z","name_a2s":"Uncletopia | Hong Kong | 1 | All Maps","protocol":17,"map":"koth_lakeside_final","folder":"tf","game":"Team Fortress","app_id":440,"player_count":0,"max_players":24,"Bots":0,"server_type":"Dedicated","server_os":"Linux","password":true,"vac":true,"version":"7961495","steam_id":85568392924494504,"keywords":["cp","nocrits","nodmgspread","uncletopia"],"game_id":440,"stv_port":27016,"stv_name":"Uncletopia | Hong Kong | 1 | All Maps | STV","players":null},{"server_id":1,"name":"Uncletopia | Los Angeles | 1 | All Maps","name_short":"lax-1","host":"lax-1.us.uncletopia.com","port":27015,"enabled":true,"region":"us-west","cc":"us","latitude":33.94279,"longitude":-118.41004,"reserved":0,"last_update":"0001-01-01T00:00:00Z","name_a2s":"Uncletopia | Los Angeles | 1 | All Maps","protocol":17,"map":"pl_frontier_final","folder":"tf","game":"Team Fortress","app_id":440,"player_count":0,"max_players":24,"Bots":0,"server_type":"Dedicated","server_os":"Linux","password":true,"vac":true,"version":"7961495","steam_id":85568392924469991,"keywords":["nocrits","nodmgspread","payload","uncletopia"],"game_id":440,"stv_port":27016,"stv_name":"Uncletopia | Los Angeles | 1 | All Maps | STV","players":null},{"server_id":112,"name":"Uncletopia | Los Angeles | 2 | All Maps","name_short":"lax-2","host":"lax-1.us.uncletopia.com","port":27025,"enabled":true,"region":"us-west","cc":"us","latitude":33.94279,"longitude":-118.41004,"reserved":0,"last_update":"0001-01-01T00:00:00Z","name_a2s":"Uncletopia | Los Angeles | 2 | All Maps","protocol":17,"map":"ctf_doublecross","folder":"tf","game":"Team Fortress","app_id":440,"player_count":24,"max_players":24,"Bots":0,"server_type":"Dedicated","server_os":"Linux","password":true,"vac":true,"version":"7961495","steam_id":85568392924469992,"keywords":["ctf","nocrits","nodmgspread","uncletopia"],"game_id":440,"stv_port":27026,"stv_name":"Uncletopia | Los Angeles | 2 | All Maps | STV","players":[{"user_id":427,"name":"Laxoloni","steam_id":76561199197045700,"connected_time":372000000000,"state":"active","ping":70},{"user_id":370,"name":"glurp","steam_id":76561198065347016,"connected_time":3963000000000,"state":"active","ping":46},{"user_id":423,"name":"milk","steam_id":76561198053410877,"connected_time":726000000000,"state":"active","ping":45},{"user_id":420,"name":"Mystic man of potatoe","steam_id":76561198027267207,"connected_time":741000000000,"state":"active","ping":46},{"user_id":429,"name":"dpfquick","steam_id":76561199145167569,"connected_time":156000000000,"state":"active","ping":70},{"user_id":421,"name":"Retzone","steam_id":76561198136789982,"connected_time":737000000000,"state":"active","ping":93},{"user_id":416,"name":"Magikarp_Gamer","steam_id":76561198143910511,"connected_time":1627000000000,"state":"active","ping":62},{"user_id":356,"name":"★GANGST The Trackpad Gamer★","steam_id":76561198086268377,"connected_time":5345000000000,"state":"active","ping":53},{"user_id":402,"name":"TGD","steam_id":76561198197582594,"connected_time":2099000000000,"state":"active","ping":76},{"user_id":379,"name":"times table","steam_id":76561198341452558,"connected_time":3654000000000,"state":"active","ping":71},{"user_id":411,"name":"TylertheImperial","steam_id":76561199401195068,"connected_time":1972000000000,"state":"active","ping":50},{"user_id":403,"name":"SD","steam_id":76561198217410988,"connected_time":2095000000000,"state":"active","ping":46},{"user_id":390,"name":"shtummy","steam_id":76561198271940610,"connected_time":3221000000000,"state":"active","ping":44},{"user_id":404,"name":"Discipline Matthews","steam_id":76561198140231083,"connected_time":2075000000000,"state":"active","ping":66},{"user_id":424,"name":"Human Resources Manager","steam_id":76561198066386411,"connected_time":723000000000,"state":"active","ping":46},{"user_id":428,"name":"HAT-WEARING™ Maggot Gamer Cat","steam_id":76561197973992705,"connected_time":185000000000,"state":"active","ping":57},{"user_id":407,"name":"Locrian","steam_id":76561198356159602,"connected_time":2070000000000,"state":"active","ping":61},{"user_id":418,"name":"I EAT PEOPLE","steam_id":76561199171865610,"connected_time":756000000000,"state":"active","ping":44},{"user_id":385,"name":"Sneebis","steam_id":76561198101185353,"connected_time":3581000000000,"state":"active","ping":99},{"user_id":415,"name":"Reem0h","steam_id":76561198169848690,"connected_time":1689000000000,"state":"active","ping":104},{"user_id":397,"name":"MineOpal","steam_id":76561198044716407,"connected_time":2744000000000,"state":"active","ping":45},{"user_id":413,"name":"UncleMuscles","steam_id":76561198032539981,"connected_time":1884000000000,"state":"active","ping":53},{"user_id":395,"name":"unit","steam_id":76561198058033361,"connected_time":2764000000000,"state":"active","ping":41},{"user_id":419,"name":"Ranger Lugi","steam_id":76561198143611016,"connected_time":755000000000,"state":"active","ping":70}]},{"server_id":324,"name":"Uncletopia | Los Angeles | 3 | All Maps","name_short":"lax-3","host":"lax-1.us.uncletopia.com","port":27035,"enabled":true,"region":"us-west","cc":"us","latitude":33.94279,"longitude":-118.41004,"reserved":0,"last_update":"0001-01-01T00:00:00Z","name_a2s":"Uncletopia | Los Angeles | 3 | All Maps","protocol":17,"map":"cp_process_final","folder":"tf","game":"Team Fortress","app_id":440,"player_count":8,"max_players":24,"Bots":0,"server_type":"Dedicated","server_os":"Linux","password":true,"vac":true,"version":"7961495","steam_id":85568392924510198,"keywords":["cp","nocrits","nodmgspread","uncletopia"],"game_id":440,"stv_port":27036,"stv_name":"Uncletopia | Los Angeles | 3 | All Maps | STV","players":[{"user_id":29,"name":"The premium licking experience","steam_id":76561199213456232,"connected_time":1423000000000,"state":"active","ping":29},{"user_id":28,"name":"CInnabitch","steam_id":76561198913057497,"connected_time":1484000000000,"state":"active","ping":50},{"user_id":34,"name":"weed","steam_id":76561199128192017,"connected_time":854000000000,"state":"active","ping":74},{"user_id":37,"name":"[girlkisser esports] transfiend","steam_id":76561198407600762,"connected_time":363000000000,"state":"active","ping":74},{"user_id":39,"name":"MrPeanutBetter","steam_id":76561199149697526,"connected_time":293000000000,"state":"active","ping":68},{"user_id":31,"name":"🐺-Iwky-🦊","steam_id":76561198185616311,"connected_time":1299000000000,"state":"active","ping":72},{"user_id":33,"name":"Sterling Nano","steam_id":76561198048580088,"connected_time":1123000000000,"state":"active","ping":48},{"user_id":38,"name":"A Commodore 64®","steam_id":76561198156203733,"connected_time":359000000000,"state":"active","ping":71}]},{"server_id":25,"name":"Uncletopia | Los Angeles | 4 | Stopwatch","name_short":"lax-4","host":"lax-1.us.uncletopia.com","port":27045,"enabled":true,"region":"us-west","cc":"us","latitude":33.94279,"longitude":-118.41004,"reserved":0,"last_update":"0001-01-01T00:00:00Z","name_a2s":"Uncletopia | Los Angeles | 4 | Stopwatch","protocol":17,"map":"workshop/pl_badwater_pro_v12.ugc2142942074","folder":"tf","game":"Team Fortress","app_id":440,"player_count":0,"max_players":24,"Bots":0,"server_type":"Dedicated","server_os":"Linux","password":true,"vac":true,"version":"7961495","steam_id":85568392924510199,"keywords":["nocrits","nodmgspread","payload","uncletopia"],"game_id":440,"stv_port":27046,"stv_name":"Uncletopia | Los Angeles | 4 | Stopwatch | STV","players":null},{"server_id":11,"name":"Uncletopia | London | 1 | All Maps","name_short":"lon-1","host":"lon-1.uk.uncletopia.com","port":27015,"enabled":true,"region":"eu","cc":"gb","latitude":51.509865,"longitude":-0.118092,"reserved":0,"last_update":"0001-01-01T00:00:00Z","name_a2s":"Uncletopia | London | 1 | All Maps","protocol":17,"map":"koth_nucleus","folder":"tf","game":"Team Fortress","app_id":440,"player_count":0,"max_players":24,"Bots":0,"server_type":"Dedicated","server_os":"Linux","password":true,"vac":true,"version":"7961495","steam_id":85568392924367362,"keywords":["cp","nocrits","nodmgspread","uncletopia"],"game_id":440,"stv_port":27016,"stv_name":"Uncletopia | London | 1 | All Maps | STV","players":null},{"server_id":114,"name":"Uncletopia | London | 2 | All Maps","name_short":"lon-2","host":"lon-1.uk.uncletopia.com","port":27025,"enabled":true,"region":"eu","cc":"gb","latitude":51.509865,"longitude":-0.118092,"reserved":0,"last_update":"0001-01-01T00:00:00Z","name_a2s":"Uncletopia | London | 2 | All Maps","protocol":17,"map":"pl_badwater","folder":"tf","game":"Team Fortress","app_id":440,"player_count":22,"max_players":24,"Bots":0,"server_type":"Dedicated","server_os":"Linux","password":true,"vac":true,"version":"7961495","steam_id":85568392924470941,"keywords":["nocrits","nodmgspread","payload","uncletopia"],"game_id":440,"stv_port":27026,"stv_name":"Uncletopia | London | 2 | All Maps | STV","players":[{"user_id":504,"name":"Steen","steam_id":76561198122992510,"connected_time":604000000000,"state":"active","ping":50},{"user_id":495,"name":"pakku","steam_id":76561198121260981,"connected_time":1858000000000,"state":"active","ping":33},{"user_id":498,"name":"Perpetual Pub Push","steam_id":76561198256714846,"connected_time":1220000000000,"state":"active","ping":20},{"user_id":460,"name":"Gytrium","steam_id":76561198121509515,"connected_time":4088000000000,"state":"active","ping":59},{"user_id":481,"name":"Bobirulez","steam_id":76561198009125458,"connected_time":2441000000000,"state":"active","ping":74},{"user_id":508,"name":"JujuBalu","steam_id":76561198207253071,"connected_time":70000000000,"state":"active","ping":26},{"user_id":442,"name":"dempsey? yumyum!","steam_id":76561198049405872,"connected_time":5487000000000,"state":"active","ping":42},{"user_id":482,"name":"lawn (im evil now)","steam_id":76561198001243486,"connected_time":2229000000000,"state":"active","ping":44},{"user_id":469,"name":"taffer","steam_id":76561199480942903,"connected_time":3586000000000,"state":"active","ping":68},{"user_id":491,"name":"❤Mr.M❤","steam_id":76561198071053911,"connected_time":1886000000000,"state":"active","ping":59},{"user_id":433,"name":"Ran33","steam_id":76561197991474499,"connected_time":5889000000000,"state":"active","ping":86},{"user_id":485,"name":"eMcP","steam_id":76561198382509396,"connected_time":1968000000000,"state":"active","ping":52},{"user_id":428,"name":"Ω ScAVENGE Ω","steam_id":76561198034375627,"connected_time":6114000000000,"state":"active","ping":48},{"user_id":509,"name":"DDUUCCKK","steam_id":76561198141953050,"connected_time":1000000000,"state":"spawning","ping":46},{"user_id":510,"name":"Red Mimi Sentry","steam_id":76561197967502407,"connected_time":1000000000,"state":"spawning","ping":37},{"user_id":474,"name":"Coac","steam_id":76561198085265740,"connected_time":2888000000000,"state":"active","ping":60},{"user_id":507,"name":"CharisThePig","steam_id":76561198142583131,"connected_time":138000000000,"state":"active","ping":78},{"user_id":444,"name":"❅✮nurse✮❅","steam_id":76561198204505424,"connected_time":5436000000000,"state":"active","ping":90},{"user_id":501,"name":"⛧ AlphaSatanOmega ⛧","steam_id":76561198035125511,"connected_time":906000000000,"state":"active","ping":126},{"user_id":499,"name":"Edla","steam_id":76561198062815315,"connected_time":1198000000000,"state":"active","ping":116},{"user_id":478,"name":"tired","steam_id":76561198046838168,"connected_time":2585000000000,"state":"active","ping":59},{"user_id":479,"name":"Kanye VEST","steam_id":76561198294476402,"connected_time":2511000000000,"state":"active","ping":66}]},{"server_id":320,"name":"Uncletopia | London | 3 | All Maps","name_short":"lon-3","host":"lon-1.uk.uncletopia.com","port":27035,"enabled":true,"region":"eu","cc":"gb","latitude":51.509865,"longitude":-0.118092,"reserved":0,"last_update":"0001-01-01T00:00:00Z","name_a2s":"Uncletopia | London | 3 | All Maps","protocol":17,"map":"koth_cascade","folder":"tf","game":"Team Fortress","app_id":440,"player_count":0,"max_players":24,"Bots":0,"server_type":"Dedicated","server_os":"Linux","password":true,"vac":true,"version":"7961495","steam_id":85568392924510192,"keywords":["cp","nocrits","nodmgspread","uncletopia"],"game_id":440,"stv_port":27036,"stv_name":"Uncletopia | London | 3 | All Maps | STV","players":null},{"server_id":321,"name":"Uncletopia | London | 4 | All Maps","name_short":"lon-4","host":"lon-1.uk.uncletopia.com","port":27045,"enabled":true,"region":"eu","cc":"gb","latitude":51.509865,"longitude":-0.118092,"reserved":0,"last_update":"0001-01-01T00:00:00Z","name_a2s":"Uncletopia | London | 4 | All Maps","protocol":17,"map":"koth_highpass","folder":"tf","game":"Team Fortress","app_id":440,"player_count":0,"max_players":24,"Bots":0,"server_type":"Dedicated","server_os":"Linux","password":true,"vac":true,"version":"7961495","steam_id":85568392924510193,"keywords":["cp","nocrits","nodmgspread","uncletopia"],"game_id":440,"stv_port":27046,"stv_name":"Uncletopia | London | 4 | All Maps | STV","players":null},{"server_id":21,"name":"Uncletopia | London | 5 | All Maps","name_short":"lon-5","host":"lon-1.uk.uncletopia.com","port":27055,"enabled":true,"region":"eu","cc":"gb","latitude":51.509865,"longitude":-0.118092,"reserved":0,"last_update":"0001-01-01T00:00:00Z","name_a2s":"Uncletopia | London | 5 | All Maps","protocol":17,"map":"pl_snowycoast","folder":"tf","game":"Team Fortress","app_id":440,"player_count":0,"max_players":24,"Bots":0,"server_type":"Dedicated","server_os":"Linux","password":true,"vac":true,"version":"7961495","steam_id":85568392924742829,"keywords":["nocrits","nodmgspread","payload","uncletopia"],"game_id":440,"stv_port":27056,"stv_name":"Uncletopia | London | 5 | All Maps | STV","players":null},{"server_id":22,"name":"Uncletopia | London | 6 | All Maps","name_short":"lon-6","host":"lon-1.uk.uncletopia.com","port":27065,"enabled":true,"region":"eu","cc":"gb","latitude":51.509865,"longitude":-0.118092,"reserved":0,"last_update":"0001-01-01T00:00:00Z","name_a2s":"Uncletopia | London | 6 | All Maps","protocol":17,"map":"koth_lakeside_final","folder":"tf","game":"Team Fortress","app_id":440,"player_count":0,"max_players":24,"Bots":0,"server_type":"Dedicated","server_os":"Linux","password":true,"vac":true,"version":"7961495","steam_id":85568392924742830,"keywords":["cp","nocrits","nodmgspread","uncletopia"],"game_id":440,"stv_port":27066,"stv_name":"Uncletopia | London | 6 | All Maps | STV","players":null},{"server_id":40,"name":"Uncletopia | London | 7 | Stopwatch","name_short":"lon-7","host":"lon-1.uk.uncletopia.com","port":27075,"enabled":true,"region":"eu","cc":"gb","latitude":51.509865,"longitude":-0.118092,"reserved":0,"last_update":"0001-01-01T00:00:00Z","name_a2s":"Uncletopia | London | 7 | Stopwatch","protocol":17,"map":"koth_highpass","folder":"tf","game":"Team Fortress","app_id":440,"player_count":0,"max_players":24,"Bots":0,"server_type":"Dedicated","server_os":"Linux","password":true,"vac":true,"version":"7961495","steam_id":85568392924964314,"keywords":["cp","nocrits","nodmgspread","uncletopia"],"game_id":440,"stv_port":27076,"stv_name":"Uncletopia | London | 7 | Stopwatch | STV","players":null},{"server_id":41,"name":"Uncletopia | London | 8 | Community","name_short":"lon-8","host":"lon-1.uk.uncletopia.com","port":27085,"enabled":true,"region":"eu","cc":"gb","latitude":51.509865,"longitude":-0.118092,"reserved":0,"last_update":"0001-01-01T00:00:00Z","name_a2s":"Uncletopia | London | 8 | Community","protocol":17,"map":"workshop/pl_divulgence_b4b.ugc2884808746","folder":"tf","game":"Team Fortress","app_id":440,"player_count":0,"max_players":24,"Bots":0,"server_type":"Dedicated","server_os":"Linux","password":true,"vac":true,"version":"7961495","steam_id":85568392924964315,"keywords":["nocrits","nodmgspread","payload","uncletopia"],"game_id":440,"stv_port":27086,"stv_name":"Uncletopia | London | 8 | Community | STV","players":null},{"server_id":300,"name":"Uncletopia | Montréal | 1 | One Thousand Uncles","name_short":"mtl-1","host":"mtl-1.ca.uncletopia.com","port":27015,"enabled":true,"region":"us-east","cc":"ca","latitude":45.50889,"longitude":-73.56167,"reserved":0,"last_update":"0001-01-01T00:00:00Z","name_a2s":"Uncletopia | Montréal | 1 | One Thousand Uncles","protocol":17,"map":"pl_upward","folder":"tf","game":"Team Fortress","app_id":440,"player_count":27,"max_players":32,"Bots":16,"server_type":"Dedicated","server_os":"Linux","password":true,"vac":true,"version":"7961495","steam_id":85568392924500087,"keywords":["alltalk","bots","danepve","increased_maxplayers","norespawntime","payload","uncletopia"],"game_id":440,"stv_port":0,"stv_name":"","players":[{"user_id":399,"name":"the grim eeper","steam_id":76561199469646611,"connected_time":614000000000,"state":"active","ping":57},{"user_id":369,"name":"Astromity","steam_id":76561198835144780,"connected_time":1931000000000,"state":"active","ping":62},{"user_id":362,"name":"Poyo Boyo","steam_id":76561198010201227,"connected_time":3306000000000,"state":"active","ping":61},{"user_id":358,"name":"aofi the flat tgirl","steam_id":76561199172110503,"connected_time":4422000000000,"state":"active","ping":87},{"user_id":361,"name":"RacoonGamer","steam_id":76561198100907657,"connected_time":3573000000000,"state":"active","ping":46},{"user_id":365,"name":"Jared","steam_id":76561198020432651,"connected_time":3178000000000,"state":"active","ping":56},{"user_id":381,"name":"MasterCrafter27","steam_id":76561198151035981,"connected_time":890000000000,"state":"active","ping":121},{"user_id":366,"name":"Pie Eater 9000","steam_id":76561198003791564,"connected_time":2586000000000,"state":"active","ping":69},{"user_id":372,"name":"ZharMeny","steam_id":76561199086841610,"connected_time":1544000000000,"state":"active","ping":203},{"user_id":400,"name":"krisko","steam_id":76561199086859648,"connected_time":457000000000,"state":"active","ping":89},{"user_id":401,"name":"Lots0","steam_id":76561198043143145,"connected_time":322000000000,"state":"active","ping":92}]},{"server_id":301,"name":"Uncletopia | Montréal | 2 | One Thousand Uncles","name_short":"mtl-2","host":"mtl-1.ca.uncletopia.com","port":27025,"enabled":true,"region":"us-east","cc":"ca","latitude":45.50889,"longitude":-73.56167,"reserved":0,"last_update":"0001-01-01T00:00:00Z","name_a2s":"Uncletopia | Montréal | 2 | One Thousand Uncles","protocol":17,"map":"pl_chilly","folder":"tf","game":"Team Fortress","app_id":440,"player_count":0,"max_players":32,"Bots":0,"server_type":"Dedicated","server_os":"Linux","password":true,"vac":true,"version":"7961495","steam_id":85568392924500088,"keywords":["alltalk","danepve","increased_maxplayers","norespawntime","payload","uncletopia"],"game_id":440,"stv_port":0,"stv_name":"","players":null},{"server_id":302,"name":"Uncletopia | Montréal | 3 | One Thousand Uncles","name_short":"mtl-3","host":"mtl-1.ca.uncletopia.com","port":27035,"enabled":true,"region":"us-east","cc":"ca","latitude":45.50889,"longitude":-73.56167,"reserved":0,"last_update":"0001-01-01T00:00:00Z","name_a2s":"Uncletopia | Montréal | 3 | One Thousand Uncles","protocol":17,"map":"cp_dustbowl","folder":"tf","game":"Team Fortress","app_id":440,"player_count":0,"max_players":32,"Bots":0,"server_type":"Dedicated","server_os":"Linux","password":true,"vac":true,"version":"7961495","steam_id":85568392924500089,"keywords":["alltalk","cp","danepve","increased_maxplayers","norespawntime","uncletopia"],"game_id":440,"stv_port":0,"stv_name":"","players":null},{"server_id":13,"name":"Uncletopia | New York City | 1 | All Maps","name_short":"nyc-1","host":"nyc-1.us.uncletopia.com","port":27015,"enabled":true,"region":"us-east","cc":"us","latitude":40.73061,"longitude":-73.93524,"reserved":0,"last_update":"0001-01-01T00:00:00Z","name_a2s":"Uncletopia | New York City | 1 | All Maps","protocol":17,"map":"cp_altitude","folder":"tf","game":"Team Fortress","app_id":440,"player_count":24,"max_players":24,"Bots":0,"server_type":"Dedicated","server_os":"Linux","password":true,"vac":true,"version":"7961495","steam_id":85568392924469993,"keywords":["cp","nocrits","nodmgspread","uncletopia"],"game_id":440,"stv_port":27016,"stv_name":"Uncletopia | New York City | 1 | All Maps | STV","players":[{"user_id":442,"name":"DO NOT call me BART SIMPSON!!","steam_id":76561198069113375,"connected_time":1954000000000,"state":"active","ping":46},{"user_id":396,"name":"Madame Meow Meow","steam_id":76561198111399111,"connected_time":4598000000000,"state":"active","ping":49},{"user_id":451,"name":"MistaRattle","steam_id":76561199144406643,"connected_time":1347000000000,"state":"active","ping":111},{"user_id":418,"name":"space man","steam_id":76561198066333670,"connected_time":3869000000000,"state":"active","ping":47},{"user_id":461,"name":"beep","steam_id":76561199096448766,"connected_time":1137000000000,"state":"active","ping":100},{"user_id":453,"name":"Jnet","steam_id":76561198001282720,"connected_time":1280000000000,"state":"active","ping":155},{"user_id":460,"name":"Cervidé","steam_id":76561198098579497,"connected_time":1158000000000,"state":"active","ping":46},{"user_id":454,"name":"Piss God","steam_id":76561198090504334,"connected_time":1252000000000,"state":"active","ping":49},{"user_id":397,"name":"GummybearKillr","steam_id":76561198031235750,"connected_time":4579000000000,"state":"active","ping":44},{"user_id":413,"name":"Yuzu","steam_id":76561198417913035,"connected_time":4097000000000,"state":"active","ping":58},{"user_id":364,"name":"googa","steam_id":76561198133130452,"connected_time":7564000000000,"state":"active","ping":45},{"user_id":448,"name":"MILF Gaming","steam_id":76561198155378170,"connected_time":1376000000000,"state":"active","ping":39},{"user_id":398,"name":"Kinda_Clownish","steam_id":76561198309111836,"connected_time":4510000000000,"state":"active","ping":104},{"user_id":430,"name":"cheeseborgor","steam_id":76561198816448398,"connected_time":2665000000000,"state":"active","ping":70},{"user_id":455,"name":"Government Plates","steam_id":76561198140866252,"connected_time":1251000000000,"state":"active","ping":55},{"user_id":439,"name":"Cheeseboi","steam_id":76561198151598074,"connected_time":2219000000000,"state":"active","ping":54},{"user_id":434,"name":"vv","steam_id":76561198134813102,"connected_time":2245000000000,"state":"active","ping":63},{"user_id":456,"name":"Spyfall","steam_id":76561198081729993,"connected_time":1221000000000,"state":"active","ping":76},{"user_id":457,"name":"Espresso_Depresso","steam_id":76561198396290407,"connected_time":1212000000000,"state":"active","ping":80},{"user_id":447,"name":"1000 Gigglebytes of clown girls","steam_id":76561198290719848,"connected_time":1611000000000,"state":"active","ping":80},{"user_id":458,"name":"DeMarc0","steam_id":76561198150900434,"connected_time":1195000000000,"state":"active","ping":49},{"user_id":459,"name":"dormio","steam_id":76561198400723170,"connected_time":1174000000000,"state":"active","ping":75},{"user_id":462,"name":"AK47Sasquatch","steam_id":76561197971085056,"connected_time":1074000000000,"state":"active","ping":68},{"user_id":423,"name":"Bacchus","steam_id":76561198113244990,"connected_time":3596000000000,"state":"active","ping":73}]},{"server_id":14,"name":"Uncletopia | New York City | 2 | All Maps","name_short":"nyc-2","host":"nyc-1.us.uncletopia.com","port":27025,"enabled":true,"region":"us-east","cc":"us","latitude":40.73061,"longitude":-73.93524,"reserved":0,"last_update":"0001-01-01T00:00:00Z","name_a2s":"Uncletopia | New York City | 2 | All Maps","protocol":17,"map":"pl_pier","folder":"tf","game":"Team Fortress","app_id":440,"player_count":24,"max_players":24,"Bots":0,"server_type":"Dedicated","server_os":"Linux","password":true,"vac":true,"version":"7961495","steam_id":85568392924469994,"keywords":["nocrits","nodmgspread","payload","uncletopia"],"game_id":440,"stv_port":27026,"stv_name":"Uncletopia | New York City | 2 | All Maps | STV","players":[{"user_id":559,"name":"CAVAECHRIST","steam_id":76561199092677510,"connected_time":381000000000,"state":"active","ping":39},{"user_id":516,"name":"zpalmtree","steam_id":76561198134307620,"connected_time":3632000000000,"state":"active","ping":66},{"user_id":560,"name":"Dr. Pleasant","steam_id":76561198111945101,"connected_time":321000000000,"state":"active","ping":77},{"user_id":546,"name":"[NAME-REDACTED]","steam_id":76561198035682975,"connected_time":1997000000000,"state":"active","ping":49},{"user_id":525,"name":"Unlimited_Trees","steam_id":76561198299141443,"connected_time":3415000000000,"state":"active","ping":121},{"user_id":561,"name":"☹","steam_id":76561198804763186,"connected_time":284000000000,"state":"active","ping":51},{"user_id":512,"name":"Tokyo_Timeshift_","steam_id":76561198048677523,"connected_time":3727000000000,"state":"active","ping":60},{"user_id":540,"name":"SPF420","steam_id":76561198083991705,"connected_time":2485000000000,"state":"active","ping":70},{"user_id":554,"name":"Dr Gregory House, MD","steam_id":76561198986281248,"connected_time":1176000000000,"state":"active","ping":58},{"user_id":501,"name":"Niλiwiλi, ▼iscount of ▼io","steam_id":76561198009193777,"connected_time":4327000000000,"state":"active","ping":66},{"user_id":534,"name":"Infinitytacos","steam_id":76561198884260211,"connected_time":2799000000000,"state":"active","ping":69},{"user_id":535,"name":"oppenheimer style","steam_id":76561198026664629,"connected_time":2797000000000,"state":"active","ping":56},{"user_id":558,"name":"✪Type_Alpha","steam_id":76561198122780598,"connected_time":405000000000,"state":"active","ping":54},{"user_id":536,"name":"cream of the crop","steam_id":76561198268581959,"connected_time":2774000000000,"state":"active","ping":131},{"user_id":548,"name":"Bear bird","steam_id":76561198166769479,"connected_time":1582000000000,"state":"active","ping":82},{"user_id":555,"name":"The Final Terminus","steam_id":76561197964985183,"connected_time":1164000000000,"state":"active","ping":43},{"user_id":557,"name":"MAXIMUS","steam_id":76561198085809453,"connected_time":539000000000,"state":"active","ping":73},{"user_id":532,"name":"JxyGREED","steam_id":76561198345026653,"connected_time":2933000000000,"state":"active","ping":48},{"user_id":502,"name":"rocket1714","steam_id":76561198255152396,"connected_time":4207000000000,"state":"active","ping":96},{"user_id":539,"name":"space creep","steam_id":76561198025668545,"connected_time":2744000000000,"state":"active","ping":48},{"user_id":550,"name":"Shrebbie","steam_id":76561198875230824,"connected_time":1443000000000,"state":"active","ping":43},{"user_id":552,"name":"PK","steam_id":76561198368722500,"connected_time":1246000000000,"state":"active","ping":52},{"user_id":522,"name":"Mufalito","steam_id":76561198951889482,"connected_time":3562000000000,"state":"active","ping":172},{"user_id":464,"name":"emotional suppport e-cigarette","steam_id":76561198172120615,"connected_time":6956000000000,"state":"active","ping":35}]},{"server_id":15,"name":"Uncletopia | New York City | 3 | Stopwatch","name_short":"nyc-3","host":"nyc-1.us.uncletopia.com","port":27035,"enabled":true,"region":"us-east","cc":"us","latitude":40.73061,"longitude":-73.93524,"reserved":0,"last_update":"0001-01-01T00:00:00Z","name_a2s":"Uncletopia | New York City | 3 | Stopwatch","protocol":17,"map":"workshop/koth_ashville_final.ugc2130459942","folder":"tf","game":"Team Fortress","app_id":440,"player_count":0,"max_players":24,"Bots":0,"server_type":"Dedicated","server_os":"Linux","password":true,"vac":true,"version":"7961495","steam_id":85568392924742820,"keywords":["cp","nocrits","nodmgspread","uncletopia"],"game_id":440,"stv_port":27036,"stv_name":"Uncletopia | New York City | 3 | Stopwatch | STV","players":null},{"server_id":16,"name":"Uncletopia | New York City | 4 | Community","name_short":"nyc-4","host":"nyc-1.us.uncletopia.com","port":27045,"enabled":true,"region":"us-east","cc":"us","latitude":40.73061,"longitude":-73.93524,"reserved":0,"last_update":"0001-01-01T00:00:00Z","name_a2s":"Uncletopia | New York City | 4 | Community","protocol":17,"map":"workshop/pl_boundary_final1.ugc456799153","folder":"tf","game":"Team Fortress","app_id":440,"player_count":0,"max_players":24,"Bots":0,"server_type":"Dedicated","server_os":"Linux","password":true,"vac":true,"version":"7961495","steam_id":85568392924742821,"keywords":["nocrits","nodmgspread","payload","uncletopia"],"game_id":440,"stv_port":27046,"stv_name":"Uncletopia | New York City | 4 | Community | STV","players":null},{"server_id":142,"name":"Uncletopia | São Paulo | 1 | All Maps","name_short":"sao-1","host":"sao-1.br.uncletopia.com","port":27015,"enabled":true,"region":"sa","cc":"br","latitude":-23.533773,"longitude":-46.62529,"reserved":0,"last_update":"0001-01-01T00:00:00Z","name_a2s":"Uncletopia | São Paulo | 1 | All Maps","protocol":17,"map":"cp_sunshine","folder":"tf","game":"Team Fortress","app_id":440,"player_count":3,"max_players":24,"Bots":0,"server_type":"Dedicated","server_os":"Linux","password":true,"vac":true,"version":"7961495","steam_id":85568392924469996,"keywords":["cp","nocrits","nodmgspread","uncletopia"],"game_id":440,"stv_port":27016,"stv_name":"Uncletopia | São Paulo | 1 | All Maps | STV","players":[{"user_id":29,"name":"ratensio","steam_id":76561199478317830,"connected_time":2637000000000,"state":"active","ping":76},{"user_id":30,"name":"turbo max","steam_id":76561199480853516,"connected_time":2261000000000,"state":"active","ping":79},{"user_id":33,"name":"thesubject432","steam_id":76561199389222489,"connected_time":529000000000,"state":"active","ping":127}]},{"server_id":143,"name":"Uncletopia | São Paulo | 2 | Community","name_short":"sao-2","host":"sao-2.br.uncletopia.com","port":27015,"enabled":true,"region":"sa","cc":"br","latitude":-23.533773,"longitude":-46.62529,"reserved":0,"last_update":"0001-01-01T00:00:00Z","name_a2s":"Uncletopia | São Paulo | 2 | Community","protocol":17,"map":"workshop/koth_slaughter_rc1.ugc1712845210","folder":"tf","game":"Team Fortress","app_id":440,"player_count":0,"max_players":24,"Bots":0,"server_type":"Dedicated","server_os":"Linux","password":true,"vac":true,"version":"7961495","steam_id":85568392924485349,"keywords":["cp","nocrits","nodmgspread","uncletopia"],"game_id":440,"stv_port":27016,"stv_name":"Uncletopia | São Paulo | 2 | Community | STV","players":null},{"server_id":7,"name":"Uncletopia | Seattle | 1 | All Maps","name_short":"sea-1","host":"sea-1.us.uncletopia.com","port":27015,"enabled":true,"region":"us-west","cc":"us","latitude":47.608013,"longitude":-122.33517,"reserved":0,"last_update":"0001-01-01T00:00:00Z","name_a2s":"Uncletopia | Seattle | 1 | All Maps","protocol":17,"map":"cp_dustbowl","folder":"tf","game":"Team Fortress","app_id":440,"player_count":23,"max_players":24,"Bots":0,"server_type":"Dedicated","server_os":"Linux","password":true,"vac":true,"version":"7961495","steam_id":85568392924469997,"keywords":["cp","nocrits","nodmgspread","uncletopia"],"game_id":440,"stv_port":27016,"stv_name":"Uncletopia | Seattle | 1 | All Maps | STV","players":[{"user_id":642,"name":"Banana Man","steam_id":76561199012105803,"connected_time":6267000000000,"state":"active","ping":46},{"user_id":676,"name":"pipi","steam_id":76561198450073779,"connected_time":3689000000000,"state":"active","ping":42},{"user_id":665,"name":"Fokeno","steam_id":76561198019736011,"connected_time":4574000000000,"state":"active","ping":121},{"user_id":707,"name":"Asuka","steam_id":76561198095315695,"connected_time":488000000000,"state":"active","ping":52},{"user_id":699,"name":"Thanks Ants","steam_id":76561197966221018,"connected_time":1345000000000,"state":"active","ping":36},{"user_id":702,"name":"geekynurse","steam_id":76561198107563679,"connected_time":1141000000000,"state":"active","ping":100},{"user_id":687,"name":"lukamine","steam_id":76561198166827208,"connected_time":2731000000000,"state":"active","ping":44},{"user_id":547,"name":"Omega\"Hell's Wall\"EXE","steam_id":76561198395291970,"connected_time":12577000000000,"state":"active","ping":85},{"user_id":697,"name":"MrYadaization","steam_id":76561198050770818,"connected_time":1358000000000,"state":"active","ping":55},{"user_id":666,"name":"Nukkun","steam_id":76561198011598757,"connected_time":4465000000000,"state":"active","ping":45},{"user_id":660,"name":"Dimple","steam_id":76561198980324190,"connected_time":4711000000000,"state":"active","ping":62},{"user_id":703,"name":"lavender","steam_id":76561199069518286,"connected_time":764000000000,"state":"active","ping":70},{"user_id":657,"name":"Nom Skirrett","steam_id":76561198014600788,"connected_time":5153000000000,"state":"active","ping":61},{"user_id":674,"name":"Guu","steam_id":76561197972960348,"connected_time":3878000000000,"state":"active","ping":117},{"user_id":708,"name":"WaffleWithNoToppings","steam_id":76561199088280111,"connected_time":402000000000,"state":"active","ping":45},{"user_id":693,"name":"An Alien Mango","steam_id":76561198864823970,"connected_time":1870000000000,"state":"active","ping":53},{"user_id":709,"name":"Bookmark","steam_id":76561198210918443,"connected_time":398000000000,"state":"active","ping":67},{"user_id":698,"name":"Teckn1cal","steam_id":76561198972914209,"connected_time":1357000000000,"state":"active","ping":55},{"user_id":711,"name":"tmm (theManMan)","steam_id":76561199488457138,"connected_time":35000000000,"state":"active","ping":47},{"user_id":692,"name":"RiceFarmer","steam_id":76561198869180993,"connected_time":2207000000000,"state":"active","ping":48},{"user_id":695,"name":"Agent Slade","steam_id":76561198002922154,"connected_time":1604000000000,"state":"active","ping":98},{"user_id":685,"name":"Tom Buckle","steam_id":76561198870649125,"connected_time":2881000000000,"state":"active","ping":82},{"user_id":696,"name":"fellow NPC","steam_id":76561199152882553,"connected_time":1603000000000,"state":"active","ping":66}]},{"server_id":119,"name":"Uncletopia | Seattle | 2 | All Maps","name_short":"sea-2","host":"sea-1.us.uncletopia.com","port":27025,"enabled":true,"region":"us-west","cc":"us","latitude":47.608013,"longitude":-122.33517,"reserved":0,"last_update":"0001-01-01T00:00:00Z","name_a2s":"Uncletopia | Seattle | 2 | All Maps","protocol":17,"map":"koth_highpass","folder":"tf","game":"Team Fortress","app_id":440,"player_count":3,"max_players":24,"Bots":0,"server_type":"Dedicated","server_os":"Linux","password":true,"vac":true,"version":"7961495","steam_id":85568392924469998,"keywords":["cp","nocrits","nodmgspread","uncletopia"],"game_id":440,"stv_port":27026,"stv_name":"Uncletopia | Seattle | 2 | All Maps | STV","players":[{"user_id":33,"name":"Azary56","steam_id":76561198321404617,"connected_time":1629000000000,"state":"active","ping":54},{"user_id":34,"name":"Birdman743","steam_id":76561198799636748,"connected_time":1437000000000,"state":"active","ping":42},{"user_id":38,"name":"Jutnez","steam_id":76561198199605813,"connected_time":80000000000,"state":"active","ping":107}]},{"server_id":406,"name":"Uncletopia | Seattle | 3 | Stopwatch","name_short":"sea-3","host":"sea-1.us.uncletopia.com","port":27035,"enabled":true,"region":"us-west","cc":"us","latitude":47.608013,"longitude":-122.33517,"reserved":0,"last_update":"0001-01-01T00:00:00Z","name_a2s":"Uncletopia | Seattle | 3 | Stopwatch","protocol":17,"map":"pl_upward","folder":"tf","game":"Team Fortress","app_id":440,"player_count":0,"max_players":24,"Bots":0,"server_type":"Dedicated","server_os":"Linux","password":true,"vac":true,"version":"7961495","steam_id":85568392924515217,"keywords":["nocrits","nodmgspread","payload","uncletopia"],"game_id":440,"stv_port":27036,"stv_name":"Uncletopia | Seattle | 3 | Stopwatch | STV","players":null},{"server_id":17,"name":"Uncletopia | San Francisco | 1 | All Maps","name_short":"sfo-1","host":"sfo-1.us.uncletopia.com","port":27015,"enabled":true,"region":"us-west","cc":"us","latitude":37.77397,"longitude":-122.4313,"reserved":0,"last_update":"0001-01-01T00:00:00Z","name_a2s":"Uncletopia | San Francisco | 1 | All Maps","protocol":17,"map":"cp_sunshine","folder":"tf","game":"Team Fortress","app_id":440,"player_count":22,"max_players":24,"Bots":0,"server_type":"Dedicated","server_os":"Linux","password":true,"vac":true,"version":"7961495","steam_id":85568392924469999,"keywords":["cp","nocrits","nodmgspread","uncletopia"],"game_id":440,"stv_port":27016,"stv_name":"Uncletopia | San Francisco | 1 | All Maps | STV","players":[{"user_id":262,"name":"Other Players, My One Weakness","steam_id":76561197989247588,"connected_time":871000000000,"state":"active","ping":75},{"user_id":165,"name":"Marzbee115","steam_id":76561198095821025,"connected_time":6508000000000,"state":"active","ping":59},{"user_id":280,"name":"Pilot Boy","steam_id":76561198090857288,"connected_time":78000000000,"state":"active","ping":106},{"user_id":285,"name":"TheMachine","steam_id":76561198120939109,"connected_time":20000000000,"state":"active","ping":59},{"user_id":263,"name":"darren","steam_id":76561199050155136,"connected_time":750000000000,"state":"active","ping":55},{"user_id":269,"name":"Linguine","steam_id":76561199000775842,"connected_time":423000000000,"state":"active","ping":61},{"user_id":281,"name":"toby1673","steam_id":76561198453203619,"connected_time":71000000000,"state":"active","ping":67},{"user_id":259,"name":"ronald_stackerusa55","steam_id":76561198150406851,"connected_time":1266000000000,"state":"active","ping":46},{"user_id":275,"name":"Kawaiiestboi","steam_id":76561198182178703,"connected_time":173000000000,"state":"active","ping":60},{"user_id":282,"name":"Phantom","steam_id":76561199200400404,"connected_time":68000000000,"state":"active","ping":59},{"user_id":271,"name":"Zenith Contium","steam_id":76561198031633986,"connected_time":397000000000,"state":"active","ping":61},{"user_id":206,"name":"Knock on the sky and listen","steam_id":76561198077597130,"connected_time":3664000000000,"state":"active","ping":34},{"user_id":228,"name":"vuldrin","steam_id":76561198383695069,"connected_time":2678000000000,"state":"active","ping":40},{"user_id":283,"name":"Red-Raven","steam_id":76561197971130794,"connected_time":56000000000,"state":"active","ping":68},{"user_id":284,"name":"BB Lorexav","steam_id":76561198207565988,"connected_time":52000000000,"state":"active","ping":105},{"user_id":250,"name":"jetllamachicken","steam_id":76561199055365143,"connected_time":1507000000000,"state":"active","ping":55},{"user_id":277,"name":"Viol3tOni","steam_id":76561198079208738,"connected_time":148000000000,"state":"active","ping":62},{"user_id":224,"name":"blobmasterer","steam_id":76561198001131403,"connected_time":2838000000000,"state":"active","ping":46},{"user_id":286,"name":"gamer_scourge","steam_id":76561198973306314,"connected_time":11000000000,"state":"spawning","ping":57},{"user_id":266,"name":"Chili","steam_id":76561198042942046,"connected_time":650000000000,"state":"active","ping":81},{"user_id":268,"name":"camp3r","steam_id":76561197992870439,"connected_time":491000000000,"state":"active","ping":51},{"user_id":218,"name":"VampDemigod","steam_id":76561198381832663,"connected_time":3017000000000,"state":"active","ping":100}]},{"server_id":18,"name":"Uncletopia | San Francisco | 2 | All Maps","name_short":"sfo-2","host":"sfo-1.us.uncletopia.com","port":27025,"enabled":true,"region":"us-west","cc":"us","latitude":37.77397,"longitude":-122.4313,"reserved":0,"last_update":"0001-01-01T00:00:00Z","name_a2s":"Uncletopia | San Francisco | 2 | All Maps","protocol":17,"map":"pl_frontier_final","folder":"tf","game":"Team Fortress","app_id":440,"player_count":25,"max_players":24,"Bots":0,"server_type":"Dedicated","server_os":"Linux","password":true,"vac":true,"version":"7961495","steam_id":85568392924470000,"keywords":["nocrits","nodmgspread","payload","uncletopia"],"game_id":440,"stv_port":27026,"stv_name":"Uncletopia | San Francisco | 2 | All Maps | STV","players":[{"user_id":166,"name":"Frontier Psychiatrist","steam_id":76561198038689088,"connected_time":1877000000000,"state":"active","ping":114},{"user_id":204,"name":"EPIDUB","steam_id":76561199166236287,"connected_time":32000000000,"state":"spawning","ping":237},{"user_id":178,"name":"gromt","steam_id":76561198314446564,"connected_time":913000000000,"state":"active","ping":51},{"user_id":146,"name":"❤ Ashleyyy ❤","steam_id":76561198056428303,"connected_time":3208000000000,"state":"active","ping":57},{"user_id":151,"name":"VixianUwU","steam_id":76561198948815060,"connected_time":3054000000000,"state":"active","ping":69},{"user_id":121,"name":"Commander Shrekard","steam_id":76561198124066405,"connected_time":4800000000000,"state":"active","ping":59},{"user_id":144,"name":"⊹.(̏ ̟͡O  ͜   ̏ ͡O )","steam_id":76561198043684960,"connected_time":3313000000000,"state":"active","ping":94},{"user_id":165,"name":"Admiral","steam_id":76561198200288543,"connected_time":1934000000000,"state":"active","ping":55},{"user_id":115,"name":"Celeritas","steam_id":76561198133414847,"connected_time":5760000000000,"state":"active","ping":55},{"user_id":171,"name":"Engynier Gaimeang (F2P)","steam_id":76561199013888779,"connected_time":1549000000000,"state":"active","ping":51},{"user_id":138,"name":"Cosmolian","steam_id":76561199178160545,"connected_time":3869000000000,"state":"active","ping":59},{"user_id":148,"name":"self sufficient kitten ♥","steam_id":76561197960592612,"connected_time":3182000000000,"state":"active","ping":75},{"user_id":190,"name":"BreadQuest","steam_id":76561198082425960,"connected_time":523000000000,"state":"active","ping":65},{"user_id":179,"name":"PrimGoose","steam_id":76561198041112269,"connected_time":794000000000,"state":"active","ping":118},{"user_id":160,"name":"SunnySideEggs","steam_id":76561198308377741,"connected_time":2256000000000,"state":"active","ping":93},{"user_id":182,"name":"Soap Man","steam_id":76561198000490235,"connected_time":727000000000,"state":"active","ping":72},{"user_id":167,"name":"SonnyMarsh","steam_id":76561198188103746,"connected_time":1804000000000,"state":"active","ping":53},{"user_id":176,"name":"Hi stranger","steam_id":76561199097266686,"connected_time":1319000000000,"state":"active","ping":60},{"user_id":181,"name":"Gnome Tank","steam_id":76561198984179092,"connected_time":764000000000,"state":"active","ping":112},{"user_id":183,"name":"WalrusNyetheBonkGuy","steam_id":76561197995626774,"connected_time":703000000000,"state":"active","ping":53},{"user_id":185,"name":"BoxCann0n","steam_id":76561199153390130,"connected_time":674000000000,"state":"active","ping":194},{"user_id":188,"name":"Rommel2007","steam_id":76561198041744631,"connected_time":638000000000,"state":"active","ping":64},{"user_id":203,"name":"NOT FRIENDLY","steam_id":76561198041327231,"connected_time":58000000000,"state":"active","ping":64},{"user_id":205,"name":"Peppa Pig","steam_id":76561198147772879,"connected_time":7000000000,"state":"spawning","ping":51},{"user_id":186,"name":"Monty","steam_id":76561197993567253,"connected_time":668000000000,"state":"active","ping":73}]},{"server_id":19,"name":"Uncletopia | San Francisco | 3 | Stopwatch","name_short":"sfo-3","host":"sfo-1.us.uncletopia.com","port":27035,"enabled":true,"region":"us-west","cc":"us","latitude":37.77397,"longitude":-122.4313,"reserved":0,"last_update":"0001-01-01T00:00:00Z","name_a2s":"Uncletopia | San Francisco | 3 | Stopwatch","protocol":17,"map":"workshop/koth_product_final.ugc454272353","folder":"tf","game":"Team Fortress","app_id":440,"player_count":0,"max_players":24,"Bots":0,"server_type":"Dedicated","server_os":"Linux","password":true,"vac":true,"version":"7961495","steam_id":85568392924742824,"keywords":["cp","nocrits","nodmgspread","uncletopia"],"game_id":440,"stv_port":27036,"stv_name":"Uncletopia | San Francisco | 3 | Stopwatch | STV","players":null},{"server_id":20,"name":"Uncletopia | San Francisco | 4 | Community","name_short":"sfo-4","host":"sfo-1.us.uncletopia.com","port":27045,"enabled":true,"region":"us-west","cc":"us","latitude":37.77397,"longitude":-122.4313,"reserved":0,"last_update":"0001-01-01T00:00:00Z","name_a2s":"Uncletopia | San Francisco | 4 | Community","protocol":17,"map":"workshop/pl_cactuscanyon_redux_final2.ugc2579644293","folder":"tf","game":"Team Fortress","app_id":440,"player_count":0,"max_players":24,"Bots":0,"server_type":"Dedicated","server_os":"Linux","password":true,"vac":true,"version":"7961495","steam_id":85568392924742826,"keywords":["nocrits","nodmgspread","payload","uncletopia"],"game_id":440,"stv_port":27046,"stv_name":"Uncletopia | San Francisco | 4 | Community | STV","players":null},{"server_id":141,"name":"Uncletopia | Sydney | 1 | All Maps","name_short":"syd-1","host":"syd-1.au.uncletopia.com","port":27015,"enabled":true,"region":"au","cc":"au","latitude":-33.865143,"longitude":151.2099,"reserved":0,"last_update":"0001-01-01T00:00:00Z","name_a2s":"Uncletopia | Sydney | 1 | All Maps","protocol":17,"map":"koth_nucleus","folder":"tf","game":"Team Fortress","app_id":440,"player_count":0,"max_players":24,"Bots":0,"server_type":"Dedicated","server_os":"Linux","password":true,"vac":true,"version":"7961495","steam_id":85568392924470001,"keywords":["cp","nocrits","nodmgspread","uncletopia"],"game_id":440,"stv_port":27016,"stv_name":"Uncletopia | Sydney | 1 | All Maps | STV","players":null},{"server_id":123,"name":"Uncletopia | Sydney | 2 | All Maps","name_short":"syd-2","host":"syd-1.au.uncletopia.com","port":27025,"enabled":true,"region":"au","cc":"au","latitude":-33.865143,"longitude":151.2099,"reserved":0,"last_update":"0001-01-01T00:00:00Z","name_a2s":"Uncletopia | Sydney | 2 | All Maps","protocol":17,"map":"cp_fastlane","folder":"tf","game":"Team Fortress","app_id":440,"player_count":0,"max_players":24,"Bots":0,"server_type":"Dedicated","server_os":"Linux","password":true,"vac":true,"version":"7961495","steam_id":85568392924470002,"keywords":["cp","nocrits","nodmgspread","uncletopia"],"game_id":440,"stv_port":27026,"stv_name":"Uncletopia | Sydney | 2 | All Maps | STV","players":null},{"server_id":395,"name":"Uncletopia | Sydney | 3 | All Maps","name_short":"syd-3","host":"syd-1.au.uncletopia.com","port":27035,"enabled":true,"region":"au","cc":"au","latitude":-33.865143,"longitude":151.2099,"reserved":0,"last_update":"0001-01-01T00:00:00Z","name_a2s":"Uncletopia | Sydney | 3 | All Maps","protocol":17,"map":"cp_metalworks","folder":"tf","game":"Team Fortress","app_id":440,"player_count":0,"max_players":24,"Bots":0,"server_type":"Dedicated","server_os":"Linux","password":true,"vac":true,"version":"7961495","steam_id":85568392925194467,"keywords":["cp","nocrits","nodmgspread","uncletopia"],"game_id":440,"stv_port":27036,"stv_name":"Uncletopia | Sydney | 3 | All Maps | STV","players":null},{"server_id":396,"name":"Uncletopia | Sydney | 4 | All Maps","name_short":"syd-4","host":"syd-1.au.uncletopia.com","port":27045,"enabled":true,"region":"au","cc":"au","latitude":-33.865143,"longitude":151.2099,"reserved":0,"last_update":"0001-01-01T00:00:00Z","name_a2s":"Uncletopia | Sydney | 4 | All Maps","protocol":17,"map":"koth_cascade","folder":"tf","game":"Team Fortress","app_id":440,"player_count":0,"max_players":24,"Bots":0,"server_type":"Dedicated","server_os":"Linux","password":true,"vac":true,"version":"7961495","steam_id":85568392925397958,"keywords":["cp","nocrits","nodmgspread","uncletopia"],"game_id":440,"stv_port":27046,"stv_name":"Uncletopia | Sydney | 4 | All Maps | STV","players":null},{"server_id":58,"name":"Uncletopia | Sydney | 5 | Stopwatch","name_short":"syd-5","host":"syd-1.au.uncletopia.com","port":27055,"enabled":true,"region":"au","cc":"au","latitude":-33.865143,"longitude":151.2099,"reserved":0,"last_update":"0001-01-01T00:00:00Z","name_a2s":"Uncletopia | Sydney | 5 | Stopwatch","protocol":17,"map":"workshop/koth_product_final.ugc454272353","folder":"tf","game":"Team Fortress","app_id":440,"player_count":0,"max_players":24,"Bots":0,"server_type":"Dedicated","server_os":"Linux","password":true,"vac":true,"version":"7961495","steam_id":85568392925397959,"keywords":["cp","nocrits","nodmgspread","uncletopia"],"game_id":440,"stv_port":27056,"stv_name":"Uncletopia | Sydney | 5 | Stopwatch | STV","players":null},{"server_id":59,"name":"Uncletopia | Sydney | 6 | Community","name_short":"syd-6","host":"syd-1.au.uncletopia.com","port":27065,"enabled":true,"region":"au","cc":"au","latitude":-33.865143,"longitude":151.2099,"reserved":0,"last_update":"0001-01-01T00:00:00Z","name_a2s":"Uncletopia | Sydney | 6 | Community","protocol":17,"map":"workshop/koth_trenchfoot_ab1.ugc731436616","folder":"tf","game":"Team Fortress","app_id":440,"player_count":0,"max_players":24,"Bots":0,"server_type":"Dedicated","server_os":"Linux","password":true,"vac":true,"version":"7961495","steam_id":85568392925397960,"keywords":["cp","nocrits","nodmgspread","uncletopia"],"game_id":440,"stv_port":27066,"stv_name":"Uncletopia | Sydney | 6 | Community | STV","players":null},{"server_id":49,"name":"Uncletopia | Warsaw | 1 | One Thousand Uncles","name_short":"waw-1","host":"waw-1.pl.uncletopia.com","port":27015,"enabled":true,"region":"eu","cc":"pl","latitude":52.2297,"longitude":21.017532,"reserved":0,"last_update":"0001-01-01T00:00:00Z","name_a2s":"Uncletopia | Warsaw | 1 | One Thousand Uncles","protocol":17,"map":"pl_barnblitz","folder":"tf","game":"Team Fortress","app_id":440,"player_count":0,"max_players":32,"Bots":0,"server_type":"Dedicated","server_os":"Linux","password":true,"vac":true,"version":"7961495","steam_id":85568392925397850,"keywords":["alltalk","danepve","increased_maxplayers","norespawntime","payload","uncletopia"],"game_id":440,"stv_port":0,"stv_name":"","players":null},{"server_id":50,"name":"Uncletopia | Warsaw | 2 | One Thousand Uncles","name_short":"waw-2","host":"waw-1.pl.uncletopia.com","port":27025,"enabled":true,"region":"eu","cc":"pl","latitude":52.2297,"longitude":21.017532,"reserved":0,"last_update":"0001-01-01T00:00:00Z","name_a2s":"Uncletopia | Warsaw | 2 | One Thousand Uncles","protocol":17,"map":"cp_mossrock","folder":"tf","game":"Team Fortress","app_id":440,"player_count":0,"max_players":32,"Bots":0,"server_type":"Dedicated","server_os":"Linux","password":true,"vac":true,"version":"7961495","steam_id":85568392925397851,"keywords":["alltalk","cp","danepve","increased_maxplayers","norespawntime","uncletopia"],"game_id":440,"stv_port":0,"stv_name":"","players":null},{"server_id":51,"name":"Uncletopia | Warsaw | 3 | All Maps","name_short":"waw-3","host":"waw-1.pl.uncletopia.com","port":27035,"enabled":true,"region":"eu","cc":"pl","latitude":52.2297,"longitude":21.017532,"reserved":0,"last_update":"0001-01-01T00:00:00Z","name_a2s":"Uncletopia | Warsaw | 3 | All Maps","protocol":17,"map":"koth_lakeside_final","folder":"tf","game":"Team Fortress","app_id":440,"player_count":0,"max_players":24,"Bots":0,"server_type":"Dedicated","server_os":"Linux","password":true,"vac":true,"version":"7961495","steam_id":85568392925397852,"keywords":["cp","nocrits","nodmgspread","uncletopia"],"game_id":440,"stv_port":27036,"stv_name":"Uncletopia | Warsaw | 3 | All Maps | STV","players":null},{"server_id":52,"name":"Uncletopia | Warsaw | 4 | All Maps","name_short":"waw-4","host":"waw-1.pl.uncletopia.com","port":27045,"enabled":true,"region":"eu","cc":"pl","latitude":52.2297,"longitude":21.017532,"reserved":0,"last_update":"0001-01-01T00:00:00Z","name_a2s":"Uncletopia | Warsaw | 4 | All Maps","protocol":17,"map":"pl_snowycoast","folder":"tf","game":"Team Fortress","app_id":440,"player_count":0,"max_players":24,"Bots":0,"server_type":"Dedicated","server_os":"Linux","password":true,"vac":true,"version":"7961495","steam_id":85568392925397853,"keywords":["nocrits","nodmgspread","payload","uncletopia"],"game_id":440,"stv_port":27046,"stv_name":"Uncletopia | Warsaw | 4 | All Maps | STV","players":null},{"server_id":53,"name":"Uncletopia | Warsaw | 5 | Stopwatch","name_short":"waw-5","host":"waw-1.pl.uncletopia.com","port":27055,"enabled":true,"region":"eu","cc":"pl","latitude":52.2297,"longitude":21.017532,"reserved":0,"last_update":"0001-01-01T00:00:00Z","name_a2s":"Uncletopia | Warsaw | 5 | Stopwatch","protocol":17,"map":"workshop/koth_ashville_final.ugc2130459942","folder":"tf","game":"Team Fortress","app_id":440,"player_count":0,"max_players":24,"Bots":0,"server_type":"Dedicated","server_os":"Linux","password":true,"vac":true,"version":"7961495","steam_id":85568392925397854,"keywords":["cp","nocrits","nodmgspread","uncletopia"],"game_id":440,"stv_port":27056,"stv_name":"Uncletopia | Warsaw | 5 | Stopwatch | STV","players":null},{"server_id":54,"name":"Uncletopia | Warsaw | 6 | Community","name_short":"waw-6","host":"waw-1.pl.uncletopia.com","port":27065,"enabled":true,"region":"eu","cc":"pl","latitude":52.2297,"longitude":21.017532,"reserved":0,"last_update":"0001-01-01T00:00:00Z","name_a2s":"Uncletopia | Warsaw | 6 | Community","protocol":17,"map":"workshop/koth_jamram_rc1a.ugc2964065613","folder":"tf","game":"Team Fortress","app_id":440,"player_count":0,"max_players":24,"Bots":0,"server_type":"Dedicated","server_os":"Linux","password":true,"vac":true,"version":"7961495","steam_id":85568392925397856,"keywords":["cp","nocrits","nodmgspread","uncletopia"],"game_id":440,"stv_port":27066,"stv_name":"Uncletopia | Warsaw | 6 | Community | STV","players":null}]}