{"status":true,"message":"","result":[{"server_id":9,"name":"Uncletopia | Atlanta | 1 | All Maps","name_short":"atl-1","host":"atl-1.us.uncletopia.com","port":27015,"enabled":true,"region":"us-east","cc":"us","latitude":33.753746,"longitude":-84.38633,"reserved":0,"last_update":"0001-01-01T00:00:00Z","name_a2s":"Uncletopia | Atlanta | 1 | All Maps","protocol":17,"map":"cp_fastlane","folder":"tf","game":"Team Fortress","app_id":440,"player_count":24,"max_players":24,"Bots":0,"server_type":"Dedicated","server_os":"Linux","password":true,"vac":true,"version":"7757534","steam_id":85568392924469982,"keywords":["cp","nocrits","nodmgspread","uncletopia"],"game_id":440,"stv_port":27016,"stv_name":"Uncletopia | Atlanta | 1 | All Maps | STV","players":[{"user_id":141,"name":"The Great Eagle Scourge of 1822","steam_id":76561198325086209,"connected_time":359000000000,"state":"active","ping":118},{"user_id":102,"name":"Underqualified Gunman","steam_id":76561198111061367,"connected_time":4005000000000,"state":"active","ping":60},{"user_id":133,"name":"Quomples","steam_id":76561198140996628,"connected_time":760000000000,"state":"active","ping":85},{"user_id":129,"name":"Candy Sparkles","steam_id":76561198126871264,"connected_time":1574000000000,"state":"active","ping":94},{"user_id":122,"name":"A_Malebolgia","steam_id":76561198097722818,"connected_time":1930000000000,"state":"active","ping":90},{"user_id":21,"name":"esc frame","steam_id":76561198044856349,"connected_time":8885000000000,"state":"active","ping":68},{"user_id":123,"name":"Spiderfight1","steam_id":76561199189991528,"connected_time":1928000000000,"state":"active","ping":76},{"user_id":74,"name":"Rocco Murder","steam_id":76561197995620232,"connected_time":5930000000000,"state":"active","ping":53},{"user_id":121,"name":"Tommy Pickles (Very Cool)","steam_id":76561198391261463,"connected_time":1940000000000,"state":"active","ping":80},{"user_id":83,"name":"scrapheap","steam_id":76561198202407087,"connected_time":5173000000000,"state":"active","ping":83},{"user_id":130,"name":"Learner","steam_id":76561198050176819,"connected_time":1363000000000,"state":"active","ping":69},{"user_id":134,"name":"Banjo","steam_id":76561198004652853,"connected_time":757000000000,"state":"active","ping":105},{"user_id":132,"name":"Fatass","steam_id":76561199209403512,"connected_time":830000000000,"state":"active","ping":107},{"user_id":106,"name":"Sprinklze","steam_id":76561198163562681,"connected_time":3797000000000,"state":"active","ping":51},{"user_id":138,"name":"☼Barracuda☼","steam_id":76561198013022083,"connected_time":699000000000,"state":"active","ping":61},{"user_id":152,"name":"discounted googie","steam_id":76561198056671917,"connected_time":107000000000,"state":"active","ping":71},{"user_id":126,"name":"the piss man","steam_id":76561199039152146,"connected_time":1891000000000,"state":"active","ping":92},{"user_id":120,"name":"sagekiss","steam_id":76561198038831240,"connected_time":2694000000000,"state":"active","ping":115},{"user_id":136,"name":"Tempus Fugit - Memento Mori","steam_id":76561198047672832,"connected_time":733000000000,"state":"active","ping":51},{"user_id":109,"name":"nefarious criminal","steam_id":76561198077506415,"connected_time":3302000000000,"state":"active","ping":48},{"user_id":139,"name":"The Pope","steam_id":76561198313560302,"connected_time":699000000000,"state":"active","ping":45},{"user_id":107,"name":"Brown_Dream","steam_id":76561198975766145,"connected_time":3525000000000,"state":"active","ping":73},{"user_id":46,"name":"Bocchi the Cock","steam_id":76561198152455316,"connected_time":8127000000000,"state":"active","ping":119},{"user_id":151,"name":"freyja","steam_id":76561198249206656,"connected_time":133000000000,"state":"active","ping":76}]},{"server_id":104,"name":"Uncletopia | Atlanta | 2 | All Maps","name_short":"atl-2","host":"atl-1.us.uncletopia.com","port":27025,"enabled":true,"region":"us-east","cc":"us","latitude":33.753746,"longitude":-84.38633,"reserved":0,"last_update":"0001-01-01T00:00:00Z","name_a2s":"Uncletopia | Atlanta | 2 | All Maps","protocol":17,"map":"koth_highpass","folder":"tf","game":"Team Fortress","app_id":440,"player_count":0,"max_players":24,"Bots":0,"server_type":"Dedicated","server_os":"Linux","password":true,"vac":true,"version":"7757534","steam_id":85568392924469983,"keywords":["cp","nocrits","nodmgspread","uncletopia"],"game_id":440,"stv_port":27026,"stv_name":"Uncletopia | Atlanta | 2 | All Maps | STV","players":null},{"server_id":400,"name":"Uncletopia | Atlanta | 3 | Community","name_short":"atl-3","host":"atl-1.us.uncletopia.com","port":27035,"enabled":true,"region":"us-east","cc":"us","latitude":33.753746,"longitude":-84.38633,"reserved":0,"last_update":"0001-01-01T00:00:00Z","name_a2s":"Uncletopia | Atlanta | 3 | Community","protocol":17,"map":"workshop/koth_bagel_rc6.ugc2514036946","folder":"tf","game":"Team Fortress","app_id":440,"player_count":0,"max_players":24,"Bots":0,"server_type":"Dedicated","server_os":"Linux","password":true,"vac":true,"version":"7757534","steam_id":85568392924515187,"keywords":["cp","nocrits","nodmgspread","uncletopia"],"game_id":440,"stv_port":27036,"stv_name":"Uncletopia | Atlanta | 3 | Community | STV","players":null},{"server_id":401,"name":"Uncletopia | Atlanta | 4 | No Payload","name_short":"atl-4","host":"atl-1.us.uncletopia.com","port":27045,"enabled":true,"region":"us-east","cc":"us","latitude":33.753746,"longitude":-84.38633,"reserved":0,"last_update":"0001-01-01T00:00:00Z","name_a2s":"","protocol":0,"map":"","folder":"","game":"","app_id":0,"player_count":0,"max_players":0,"Bots":0,"server_type":"","server_os":"","password":false,"vac":false,"version":"","steam_id":0,"keywords":null,"game_id":0,"stv_port":0,"stv_name":"","players":null},{"server_id":2,"name":"Uncletopia | Chicago | 1 | All Maps","name_short":"chi-1","host":"chi-1.us.uncletopia.com","port":27015,"enabled":true,"region":"us-central","cc":"us","latitude":41.881832,"longitude":-87.62318,"reserved":0,"last_update":"0001-01-01T00:00:00Z","name_a2s":"Uncletopia | Chicago | 1 | All Maps","protocol":17,"map":"plr_bananabay","folder":"tf","game":"Team Fortress","app_id":440,"player_count":24,"max_players":24,"Bots":0,"server_type":"Dedicated","server_os":"Linux","password":true,"vac":true,"version":"7757534","steam_id":85568392924469984,"keywords":["nocrits","nodmgspread","payload","uncletopia"],"game_id":440,"stv_port":27016,"stv_name":"Uncletopia | Chicago | 1 | All Maps | STV","players":[{"user_id":184,"name":"Doublebagel47","steam_id":76561198832021744,"connected_time":2351000000000,"state":"active","ping":68},{"user_id":172,"name":"Gnarly Shark Bite","steam_id":76561198004058342,"connected_time":3589000000000,"state":"active","ping":79},{"user_id":182,"name":"bryyte","steam_id":76561198012377833,"connected_time":2411000000000,"state":"active","ping":48},{"user_id":155,"name":"Firedrakecheerful","steam_id":76561198141166902,"connected_time":5339000000000,"state":"active","ping":46},{"user_id":230,"name":"Dabicus Vile","steam_id":76561198272413758,"connected_time":78000000000,"state":"active","ping":57},{"user_id":171,"name":"YoteDab McFapDab.jpg","steam_id":76561197984870380,"connected_time":3628000000000,"state":"active","ping":76},{"user_id":225,"name":"faxxy","steam_id":76561198079621240,"connected_time":251000000000,"state":"active","ping":80},{"user_id":220,"name":"Chiki","steam_id":76561198063590320,"connected_time":590000000000,"state":"active","ping":71},{"user_id":226,"name":"Ruben","steam_id":76561198048508642,"connected_time":234000000000,"state":"active","ping":97},{"user_id":223,"name":"your dad's pornography","steam_id":76561198067496197,"connected_time":269000000000,"state":"active","ping":50},{"user_id":202,"name":"enmgxcltayiqoacx","steam_id":76561197974965536,"connected_time":1546000000000,"state":"active","ping":59},{"user_id":227,"name":"Ravenous Rodent","steam_id":76561198082632923,"connected_time":234000000000,"state":"active","ping":58},{"user_id":156,"name":"Capn. Wing Ding","steam_id":76561198076068424,"connected_time":5321000000000,"state":"active","ping":73},{"user_id":207,"name":"Chimpish","steam_id":76561199263493270,"connected_time":1494000000000,"state":"active","ping":85},{"user_id":191,"name":"Samitch","steam_id":76561198038247982,"connected_time":2190000000000,"state":"active","ping":95},{"user_id":193,"name":"Acehay14","steam_id":76561198052373291,"connected_time":1927000000000,"state":"active","ping":55},{"user_id":206,"name":"Cat in Your Backyard","steam_id":76561197979078330,"connected_time":1507000000000,"state":"active","ping":60},{"user_id":224,"name":"OpenDown","steam_id":76561198064132688,"connected_time":258000000000,"state":"active","ping":58},{"user_id":228,"name":"ShapedSilver","steam_id":76561199073305310,"connected_time":188000000000,"state":"active","ping":71},{"user_id":162,"name":"Lia_Rein (ttv)","steam_id":76561198151569597,"connected_time":4791000000000,"state":"active","ping":146},{"user_id":208,"name":"boylover54","steam_id":76561199030726701,"connected_time":1480000000000,"state":"active","ping":104},{"user_id":137,"name":"wickit","steam_id":76561199241555613,"connected_time":6979000000000,"state":"active","ping":62},{"user_id":219,"name":"Jyggalag","steam_id":76561198014672516,"connected_time":810000000000,"state":"active","ping":62},{"user_id":222,"name":"Mister Mundy","steam_id":76561198145675134,"connected_time":342000000000,"state":"active","ping":60}]},{"server_id":106,"name":"Uncletopia | Chicago | 2 | All Maps","name_short":"chi-2","host":"chi-1.us.uncletopia.com","port":27025,"enabled":true,"region":"us-central","cc":"us","latitude":41.881832,"longitude":-87.62318,"reserved":0,"last_update":"0001-01-01T00:00:00Z","name_a2s":"Uncletopia | Chicago | 2 | All Maps","protocol":17,"map":"pl_badwater","folder":"tf","game":"Team Fortress","app_id":440,"player_count":0,"max_players":24,"Bots":0,"server_type":"Dedicated","server_os":"Linux","password":true,"vac":true,"version":"7757534","steam_id":85568392924469985,"keywords":["nocrits","nodmgspread","payload","uncletopia"],"game_id":440,"stv_port":27026,"stv_name":"Uncletopia | Chicago | 2 | All Maps | STV","players":null},{"server_id":402,"name":"Uncletopia | Chicago | 3 | All Maps","name_short":"chi-3","host":"chi-1.us.uncletopia.com","port":27035,"enabled":true,"region":"us-central","cc":"us","latitude":41.881832,"longitude":-87.62318,"reserved":0,"last_update":"0001-01-01T00:00:00Z","name_a2s":"Uncletopia | Chicago | 3 | All Maps","protocol":17,"map":"koth_cascade","folder":"tf","game":"Team Fortress","app_id":440,"player_count":0,"max_players":24,"Bots":0,"server_type":"Dedicated","server_os":"Linux","password":true,"vac":true,"version":"7757534","steam_id":85568392924515191,"keywords":["cp","nocrits","nodmgspread","uncletopia"],"game_id":440,"stv_port":27036,"stv_name":"Uncletopia | Chicago | 3 | All Maps | STV","players":null},{"server_id":403,"name":"Uncletopia | Chicago | 4 | All Maps","name_short":"chi-4","host":"chi-1.us.uncletopia.com","port":27045,"enabled":true,"region":"us-central","cc":"us","latitude":41.881832,"longitude":-87.62318,"reserved":0,"last_update":"0001-01-01T00:00:00Z","name_a2s":"Uncletopia | Chicago | 4 | All Maps","protocol":17,"map":"koth_lakeside_final","folder":"tf","game":"Team Fortress","app_id":440,"player_count":0,"max_players":24,"Bots":0,"server_type":"Dedicated","server_os":"Linux","password":true,"vac":true,"version":"7757534","steam_id":85568392924515193,"keywords":["cp","nocrits","nodmgspread","uncletopia"],"game_id":440,"stv_port":27046,"stv_name":"Uncletopia | Chicago | 4 | All Maps | STV","players":null},{"server_id":36,"name":"Uncletopia | Chicago | 5 | All Maps","name_short":"chi-5","host":"chi-2.us.uncletopia.com","port":27015,"enabled":true,"region":"us-central","cc":"us","latitude":41.881832,"longitude":-87.62318,"reserved":0,"last_update":"0001-01-01T00:00:00Z","name_a2s":"Uncletopia | Chicago | 5 | All Maps","protocol":17,"map":"koth_cascade","folder":"tf","game":"Team Fortress","app_id":440,"player_count":0,"max_players":24,"Bots":0,"server_type":"Dedicated","server_os":"Linux","password":true,"vac":true,"version":"7757534","steam_id":85568392924866362,"keywords":["cp","nocrits","nodmgspread","uncletopia"],"game_id":440,"stv_port":27016,"stv_name":"Uncletopia | Chicago | 5 | All Maps | STV","players":null},{"server_id":37,"name":"Uncletopia | Chicago | 6 | All Maps","name_short":"chi-6","host":"chi-2.us.uncletopia.com","port":27025,"enabled":true,"region":"us-central","cc":"us","latitude":41.881832,"longitude":-87.62318,"reserved":0,"last_update":"0001-01-01T00:00:00Z","name_a2s":"Uncletopia | Chicago | 6 | All Maps","protocol":17,"map":"cp_sunshine","folder":"tf","game":"Team Fortress","app_id":440,"player_count":24,"max_players":24,"Bots":0,"server_type":"Dedicated","server_os":"Linux","password":true,"vac":true,"version":"7757534","steam_id":85568392924866363,"keywords":["cp","nocrits","nodmgspread","uncletopia"],"game_id":440,"stv_port":27026,"stv_name":"Uncletopia | Chicago | 6 | All Maps | STV","players":[{"user_id":151,"name":"tasty","steam_id":76561198083839061,"connected_time":2719000000000,"state":"active","ping":53},{"user_id":181,"name":"Demoman With One Joke","steam_id":76561197993467034,"connected_time":1154000000000,"state":"active","ping":45},{"user_id":192,"name":"gromit","steam_id":76561198037746805,"connected_time":460000000000,"state":"active","ping":72},{"user_id":175,"name":"Sky (⌐■_■)","steam_id":76561198104953731,"connected_time":1222000000000,"state":"active","ping":88},{"user_id":176,"name":"EJ","steam_id":76561198126224944,"connected_time":1199000000000,"state":"active","ping":103},{"user_id":165,"name":"Slashes","steam_id":76561197968573499,"connected_time":1845000000000,"state":"active","ping":68},{"user_id":130,"name":"SHADY SWEATER SALESMAN","steam_id":76561198014616865,"connected_time":4499000000000,"state":"active","ping":78},{"user_id":191,"name":"i are steve","steam_id":76561198867457465,"connected_time":470000000000,"state":"active","ping":68},{"user_id":157,"name":"xen","steam_id":76561198048568188,"connected_time":2557000000000,"state":"active","ping":60},{"user_id":177,"name":"Good Vibes","steam_id":76561197985206513,"connected_time":1198000000000,"state":"active","ping":71},{"user_id":178,"name":"Erin","steam_id":76561198394148072,"connected_time":1179000000000,"state":"active","ping":55},{"user_id":179,"name":"need a dispenser here","steam_id":76561198060912995,"connected_time":1179000000000,"state":"active","ping":52},{"user_id":121,"name":"rotmone","steam_id":76561198846618797,"connected_time":5365000000000,"state":"active","ping":72},{"user_id":116,"name":"Fresh0c0","steam_id":76561198271933283,"connected_time":5917000000000,"state":"active","ping":59},{"user_id":194,"name":"9Bendy9","steam_id":76561198164023601,"connected_time":205000000000,"state":"active","ping":110},{"user_id":170,"name":"dabri88","steam_id":76561198103645497,"connected_time":1252000000000,"state":"active","ping":69},{"user_id":182,"name":"Doherty","steam_id":76561198810069425,"connected_time":1123000000000,"state":"active","ping":65},{"user_id":189,"name":"hud7on","steam_id":76561198185811389,"connected_time":873000000000,"state":"active","ping":80},{"user_id":124,"name":"blakejack226","steam_id":76561199128917566,"connected_time":5197000000000,"state":"active","ping":82},{"user_id":195,"name":"Asanez3","steam_id":76561198037381436,"connected_time":175000000000,"state":"active","ping":74},{"user_id":180,"name":"Phrog","steam_id":76561199122281598,"connected_time":1175000000000,"state":"active","ping":50},{"user_id":183,"name":"bird doctor","steam_id":76561199144340440,"connected_time":1121000000000,"state":"active","ping":68},{"user_id":172,"name":"bomb","steam_id":76561198359135819,"connected_time":1250000000000,"state":"active","ping":108},{"user_id":184,"name":"Rocco__","steam_id":76561197992824074,"connected_time":1120000000000,"state":"active","ping":74}]},{"server_id":38,"name":"Uncletopia | Chicago | 7 | Stopwatch Beta","name_short":"chi-7","host":"chi-2.us.uncletopia.com","port":27035,"enabled":true,"region":"us-central","cc":"us","latitude":41.881832,"longitude":-87.62318,"reserved":0,"last_update":"0001-01-01T00:00:00Z","name_a2s":"Uncletopia | Chicago | 7 | Stopwatch Beta","protocol":17,"map":"pl_barnblitz","folder":"tf","game":"Team Fortress","app_id":440,"player_count":0,"max_players":24,"Bots":0,"server_type":"Dedicated","server_os":"Linux","password":true,"vac":true,"version":"7757534","steam_id":85568392924866364,"keywords":["nocrits","nodmgspread","payload","uncletopia"],"game_id":440,"stv_port":27036,"stv_name":"Uncletopia | Chicago | 7 | Stopwatch Beta | STV","players":null},{"server_id":39,"name":"Uncletopia | Chicago | 8 | Community","name_short":"chi-8","host":"chi-2.us.uncletopia.com","port":27045,"enabled":true,"region":"us-central","cc":"us","latitude":41.881832,"longitude":-87.62318,"reserved":0,"last_update":"0001-01-01T00:00:00Z","name_a2s":"Uncletopia | Chicago | 8 | Community","protocol":17,"map":"koth_cascade","folder":"tf","game":"Team Fortress","app_id":440,"player_count":0,"max_players":24,"Bots":0,"server_type":"Dedicated","server_os":"Linux","password":true,"vac":true,"version":"7757534","steam_id":85568392924866365,"keywords":["cp","nocrits","nodmgspread","uncletopia"],"game_id":440,"stv_port":27046,"stv_name":"Uncletopia | Chicago | 8 | Community | STV","players":null},{"server_id":8,"name":"Uncletopia | Dallas | 1 | All Maps","name_short":"dal-1","host":"dal-1.us.uncletopia.com","port":27015,"enabled":true,"region":"us-central","cc":"us","latitude":32.779167,"longitude":-96.80889,"reserved":0,"last_update":"0001-01-01T00:00:00Z","name_a2s":"Uncletopia | Dallas | 1 | All Maps","protocol":17,"map":"pl_borneo","folder":"tf","game":"Team Fortress","app_id":440,"player_count":0,"max_players":24,"Bots":0,"server_type":"Dedicated","server_os":"Linux","password":true,"vac":true,"version":"7757534","steam_id":85568392924469986,"keywords":["nocrits","nodmgspread","payload","uncletopia"],"game_id":440,"stv_port":27016,"stv_name":"Uncletopia | Dallas | 1 | All Maps | STV","players":null},{"server_id":108,"name":"Uncletopia | Dallas | 2 | All Maps","name_short":"dal-2","host":"dal-1.us.uncletopia.com","port":27025,"enabled":true,"region":"us-central","cc":"us","latitude":32.779167,"longitude":-96.80889,"reserved":0,"last_update":"0001-01-01T00:00:00Z","name_a2s":"Uncletopia | Dallas | 2 | All Maps","protocol":17,"map":"cp_dustbowl","folder":"tf","game":"Team Fortress","app_id":440,"player_count":24,"max_players":24,"Bots":0,"server_type":"Dedicated","server_os":"Linux","password":true,"vac":true,"version":"7757534","steam_id":85568392924469988,"keywords":["cp","nocrits","nodmgspread","uncletopia"],"game_id":440,"stv_port":27026,"stv_name":"Uncletopia | Dallas | 2 | All Maps | STV","players":[{"user_id":152,"name":"abra","steam_id":76561198064558316,"connected_time":782000000000,"state":"active","ping":64},{"user_id":148,"name":"SteeredAxe","steam_id":76561198081309492,"connected_time":1336000000000,"state":"active","ping":70},{"user_id":105,"name":"Pancho","steam_id":76561198155847264,"connected_time":4859000000000,"state":"active","ping":67},{"user_id":154,"name":"Captain Buggy","steam_id":76561198024444448,"connected_time":765000000000,"state":"active","ping":93},{"user_id":160,"name":"oxbudy","steam_id":76561198022120207,"connected_time":481000000000,"state":"active","ping":60},{"user_id":151,"name":"Skill Saw Stan","steam_id":76561199013064727,"connected_time":949000000000,"state":"active","ping":101},{"user_id":153,"name":"♥ thedittoguy ♥","steam_id":76561199013129784,"connected_time":782000000000,"state":"active","ping":55},{"user_id":117,"name":"Garfield","steam_id":76561198037803087,"connected_time":3981000000000,"state":"active","ping":67},{"user_id":156,"name":"TMP","steam_id":76561197995400066,"connected_time":752000000000,"state":"active","ping":45},{"user_id":157,"name":"Gocel","steam_id":76561198071467515,"connected_time":742000000000,"state":"active","ping":89},{"user_id":111,"name":"Average Knight Enjoyer","steam_id":76561199124979983,"connected_time":4776000000000,"state":"active","ping":74},{"user_id":162,"name":"yomommasabitch","steam_id":76561198323217150,"connected_time":64000000000,"state":"active","ping":45},{"user_id":150,"name":"2JZ_","steam_id":76561198064027289,"connected_time":970000000000,"state":"active","ping":74},{"user_id":137,"name":"chanoc","steam_id":76561198026734746,"connected_time":2628000000000,"state":"active","ping":86},{"user_id":135,"name":"Scuff1e","steam_id":76561198272995728,"connected_time":2652000000000,"state":"active","ping":58},{"user_id":145,"name":"Nani?","steam_id":76561198130982692,"connected_time":1642000000000,"state":"active","ping":70},{"user_id":143,"name":"barrakmf","steam_id":76561198124801907,"connected_time":1889000000000,"state":"active","ping":102},{"user_id":126,"name":"Rango","steam_id":76561198067275912,"connected_time":3435000000000,"state":"active","ping":98},{"user_id":144,"name":"dad vibes","steam_id":76561197990714447,"connected_time":1730000000000,"state":"active","ping":56},{"user_id":141,"name":"roanoke›","steam_id":76561198048007844,"connected_time":2501000000000,"state":"active","ping":81},{"user_id":149,"name":"average rust player","steam_id":76561198047627340,"connected_time":1118000000000,"state":"active","ping":99},{"user_id":139,"name":"Jon_595","steam_id":76561198846843547,"connected_time":2622000000000,"state":"active","ping":108},{"user_id":158,"name":"WhippedHook","steam_id":76561198069581138,"connected_time":742000000000,"state":"active","ping":92},{"user_id":121,"name":"Shamrock Shake Oct.10.2020 @8pm","steam_id":76561198833313201,"connected_time":3739000000000,"state":"active","ping":89}]},{"server_id":5,"name":"Uncletopia | Frankfurt | 1 | All Maps","name_short":"frk-1","host":"frk-1.de.uncletopia.com","port":27015,"enabled":true,"region":"eu","cc":"de","latitude":50.110924,"longitude":8.682127,"reserved":0,"last_update":"0001-01-01T00:00:00Z","name_a2s":"Uncletopia | Frankfurt | 1 | All Maps","protocol":17,"map":"pl_badwater","folder":"tf","game":"Team Fortress","app_id":440,"player_count":23,"max_players":24,"Bots":0,"server_type":"Dedicated","server_os":"Linux","password":true,"vac":true,"version":"7757534","steam_id":85568392924469989,"keywords":["nocrits","nodmgspread","payload","uncletopia"],"game_id":440,"stv_port":27016,"stv_name":"Uncletopia | Frankfurt | 1 | All Maps | STV","players":[{"user_id":509,"name":"Cypher","steam_id":76561197996967254,"connected_time":201000000000,"state":"active","ping":60},{"user_id":483,"name":"MoistMomMauler","steam_id":76561198069359049,"connected_time":1313000000000,"state":"active","ping":88},{"user_id":444,"name":"Trebox78","steam_id":76561198071963357,"connected_time":4070000000000,"state":"active","ping":75},{"user_id":507,"name":"(wm) Das Fleisch","steam_id":76561198001250715,"connected_time":279000000000,"state":"active","ping":45},{"user_id":488,"name":"Burger King Dante","steam_id":76561198390314734,"connected_time":1127000000000,"state":"active","ping":64},{"user_id":485,"name":"John but racist","steam_id":76561199062091123,"connected_time":1264000000000,"state":"active","ping":58},{"user_id":502,"name":"tzlil","steam_id":76561198399916290,"connected_time":530000000000,"state":"active","ping":109},{"user_id":477,"name":"BLACKBIRD CLOSE [she/her]","steam_id":76561198262910410,"connected_time":1909000000000,"state":"active","ping":90},{"user_id":510,"name":"[V.I.P] Элемент[174]","steam_id":76561198156737439,"connected_time":152000000000,"state":"active","ping":110},{"user_id":499,"name":"hud_saytext_time 0","steam_id":76561198010327228,"connected_time":642000000000,"state":"active","ping":49},{"user_id":481,"name":"Blitzy","steam_id":76561198059253518,"connected_time":1628000000000,"state":"active","ping":76},{"user_id":505,"name":"Piox","steam_id":76561198125689157,"connected_time":360000000000,"state":"active","ping":77},{"user_id":490,"name":"bassya","steam_id":76561198849524221,"connected_time":1113000000000,"state":"active","ping":82},{"user_id":497,"name":"Rex Z'Beq","steam_id":76561199300590000,"connected_time":832000000000,"state":"active","ping":84},{"user_id":472,"name":"Remyie","steam_id":76561198131031404,"connected_time":2351000000000,"state":"active","ping":92},{"user_id":459,"name":"Mad Cat Kivima","steam_id":76561198028959678,"connected_time":2906000000000,"state":"active","ping":95},{"user_id":460,"name":"schweppestr","steam_id":76561198037485644,"connected_time":2905000000000,"state":"active","ping":43},{"user_id":492,"name":"Salabombo","steam_id":76561198127765356,"connected_time":1077000000000,"state":"active","ping":114},{"user_id":503,"name":"Mr_Joergen","steam_id":76561198364713702,"connected_time":526000000000,"state":"active","ping":69},{"user_id":470,"name":"Mecha","steam_id":76561198014927379,"connected_time":2671000000000,"state":"active","ping":157},{"user_id":480,"name":"swueuws","steam_id":76561198020716743,"connected_time":1727000000000,"state":"active","ping":61},{"user_id":467,"name":"Phantom","steam_id":76561198263578961,"connected_time":2752000000000,"state":"active","ping":75}]},{"server_id":110,"name":"Uncletopia | Frankfurt | 2 | All Maps","name_short":"frk-2","host":"frk-1.de.uncletopia.com","port":27025,"enabled":true,"region":"eu","cc":"de","latitude":50.110924,"longitude":8.682127,"reserved":0,"last_update":"0001-01-01T00:00:00Z","name_a2s":"Uncletopia | Frankfurt | 2 | All Maps","protocol":17,"map":"pl_barnblitz","folder":"tf","game":"Team Fortress","app_id":440,"player_count":24,"max_players":24,"Bots":0,"server_type":"Dedicated","server_os":"Linux","password":true,"vac":true,"version":"7757534","steam_id":85568392924469990,"keywords":["nocrits","nodmgspread","payload","uncletopia"],"game_id":440,"stv_port":27026,"stv_name":"Uncletopia | Frankfurt | 2 | All Maps | STV","players":[{"user_id":253,"name":"Canis[Magnus]Pectus","steam_id":76561198363775072,"connected_time":2552000000000,"state":"active","ping":110},{"user_id":292,"name":"BSantos57","steam_id":76561198000597094,"connected_time":126000000000,"state":"active","ping":87},{"user_id":228,"name":"Bottle O' Scrumpy","steam_id":76561199244250562,"connected_time":3935000000000,"state":"active","ping":100},{"user_id":274,"name":"Kokos","steam_id":76561198085501501,"connected_time":702000000000,"state":"active","ping":78},{"user_id":267,"name":"Badrock 1","steam_id":76561198368513115,"connected_time":1453000000000,"state":"active","ping":103},{"user_id":207,"name":"Cafo","steam_id":76561198063795441,"connected_time":5316000000000,"state":"active","ping":65},{"user_id":285,"name":"Mr. Mietsch","steam_id":76561198077516818,"connected_time":438000000000,"state":"active","ping":50},{"user_id":293,"name":"Lassie","steam_id":76561198131924713,"connected_time":125000000000,"state":"active","ping":59},{"user_id":264,"name":"DeCypher [She/Her]","steam_id":76561198171992619,"connected_time":1524000000000,"state":"active","ping":65},{"user_id":268,"name":"Finnish Farmer","steam_id":76561198205366043,"connected_time":1358000000000,"state":"active","ping":86},{"user_id":231,"name":"finbar","steam_id":76561198056812396,"connected_time":3714000000000,"state":"active","ping":74},{"user_id":269,"name":"big poo","steam_id":76561198129157178,"connected_time":986000000000,"state":"active","ping":88},{"user_id":270,"name":"***** ***","steam_id":76561198048037379,"connected_time":965000000000,"state":"active","ping":80},{"user_id":215,"name":"speancer","steam_id":76561198260705251,"connected_time":5081000000000,"state":"active","ping":83},{"user_id":271,"name":"GrzMik","steam_id":76561198061951968,"connected_time":952000000000,"state":"active","ping":92},{"user_id":275,"name":"The.Real.Genesis","steam_id":76561198999652040,"connected_time":691000000000,"state":"active","ping":45},{"user_id":288,"name":"T der Ba","steam_id":76561198091189185,"connected_time":356000000000,"state":"active","ping":47},{"user_id":291,"name":"Neon","steam_id":76561198089944674,"connected_time":153000000000,"state":"active","ping":69},{"user_id":279,"name":"Ricky Dicky Grimes","steam_id":76561198065506317,"connected_time":607000000000,"state":"active","ping":64},{"user_id":294,"name":"Papa Shokry","steam_id":76561198979334583,"connected_time":7000000000,"state":"spawning","ping":67},{"user_id":281,"name":"thebananabomb00","steam_id":76561198296409283,"connected_time":551000000000,"state":"active","ping":82},{"user_id":290,"name":"Ammi Pierce","steam_id":76561198039387585,"connected_time":160000000000,"state":"active","ping":51},{"user_id":287,"name":"GazerBazer","steam_id":76561198879107565,"connected_time":401000000000,"state":"active","ping":66},{"user_id":289,"name":"Zogg","steam_id":76561198352683491,"connected_time":342000000000,"state":"active","ping":55}]},{"server_id":308,"name":"Uncletopia | Frankfurt | 3 | All Maps","name_short":"frk-3","host":"frk-1.de.uncletopia.com","port":27035,"enabled":true,"region":"eu","cc":"de","latitude":50.110924,"longitude":8.682127,"reserved":0,"last_update":"0001-01-01T00:00:00Z","name_a2s":"Uncletopia | Frankfurt | 3 | All Maps","protocol":17,"map":"cp_process_final","folder":"tf","game":"Team Fortress","app_id":440,"player_count":24,"max_players":24,"Bots":0,"server_type":"Dedicated","server_os":"Linux","password":true,"vac":true,"version":"7757534","steam_id":85568392924504274,"keywords":["cp","nocrits","nodmgspread","uncletopia"],"game_id":440,"stv_port":27036,"stv_name":"Uncletopia | Frankfurt | 3 | All Maps | STV","players":[{"user_id":19,"name":"meatsoupcube","steam_id":76561198276802249,"connected_time":1884000000000,"state":"active","ping":105},{"user_id":9,"name":"толя","steam_id":76561199098518615,"connected_time":2959000000000,"state":"active","ping":93},{"user_id":10,"name":"MtnDew","steam_id":76561199100059743,"connected_time":2895000000000,"state":"active","ping":102},{"user_id":11,"name":"please help i suck at this game","steam_id":76561199400534628,"connected_time":2749000000000,"state":"active","ping":89},{"user_id":12,"name":"LS","steam_id":76561198146570384,"connected_time":2645000000000,"state":"active","ping":60},{"user_id":25,"name":"malebranch","steam_id":76561198171177823,"connected_time":1384000000000,"state":"active","ping":87},{"user_id":44,"name":"Heisenberg","steam_id":76561198842650212,"connected_time":779000000000,"state":"active","ping":62},{"user_id":16,"name":"Криминальный уще","steam_id":76561198034136409,"connected_time":2384000000000,"state":"active","ping":92},{"user_id":45,"name":"Nox Equites","steam_id":76561198115438449,"connected_time":571000000000,"state":"active","ping":93},{"user_id":21,"name":"Von Guggenheim","steam_id":76561198086752647,"connected_time":1810000000000,"state":"active","ping":75},{"user_id":46,"name":"Mi Manchi","steam_id":76561198171573129,"connected_time":514000000000,"state":"active","ping":57},{"user_id":26,"name":"THGAwesome","steam_id":76561198162847218,"connected_time":1342000000000,"state":"active","ping":152},{"user_id":27,"name":"Meth","steam_id":76561199300394949,"connected_time":1337000000000,"state":"active","ping":51},{"user_id":47,"name":"Average meme enjoyer","steam_id":76561199087566663,"connected_time":452000000000,"state":"active","ping":79},{"user_id":29,"name":"tj","steam_id":76561198160466307,"connected_time":1202000000000,"state":"active","ping":77},{"user_id":48,"name":"Egor Pomidor","steam_id":76561199175688390,"connected_time":416000000000,"state":"active","ping":82},{"user_id":31,"name":"Ember from Hungary","steam_id":76561198269211299,"connected_time":1156000000000,"state":"active","ping":76},{"user_id":39,"name":"go play rimworld","steam_id":76561199397932924,"connected_time":961000000000,"state":"active","ping":69},{"user_id":49,"name":"TJ1212","steam_id":76561199013575313,"connected_time":402000000000,"state":"active","ping":95},{"user_id":43,"name":"Kati","steam_id":76561198007231088,"connected_time":841000000000,"state":"active","ping":63},{"user_id":50,"name":"Decs","steam_id":76561198825197974,"connected_time":78000000000,"state":"active","ping":215},{"user_id":36,"name":"Seb, Comrade","steam_id":76561198040279587,"connected_time":1036000000000,"state":"active","ping":101},{"user_id":38,"name":"Pilaarius","steam_id":76561198120273212,"connected_time":1001000000000,"state":"active","ping":95},{"user_id":41,"name":"Kvicha Kvaratskhelia","steam_id":76561198179339326,"connected_time":948000000000,"state":"active","ping":75}]},{"server_id":309,"name":"Uncletopia | Frankfurt | 4 | All Maps","name_short":"frk-4","host":"frk-1.de.uncletopia.com","port":27045,"enabled":true,"region":"eu","cc":"de","latitude":50.110924,"longitude":8.682127,"reserved":0,"last_update":"0001-01-01T00:00:00Z","name_a2s":"Uncletopia | Frankfurt | 4 | All Maps","protocol":17,"map":"koth_cascade","folder":"tf","game":"Team Fortress","app_id":440,"player_count":4,"max_players":24,"Bots":0,"server_type":"Dedicated","server_os":"Linux","password":true,"vac":true,"version":"7757534","steam_id":85568392924504275,"keywords":["cp","nocrits","nodmgspread","uncletopia"],"game_id":440,"stv_port":27046,"stv_name":"Uncletopia | Frankfurt | 4 | All Maps | STV","players":[{"user_id":26,"name":"Truegr","steam_id":76561198811912339,"connected_time":73000000000,"state":"active","ping":66},{"user_id":27,"name":"AAAAAAAAAAAAAAAAAAAAA","steam_id":76561199452855953,"connected_time":43000000000,"state":"active","ping":88},{"user_id":28,"name":"fried","steam_id":76561198307522022,"connected_time":6000000000,"state":"active","ping":74},{"user_id":29,"name":"Crackbean","steam_id":76561199115082856,"connected_time":5000000000,"state":"spawning","ping":61}]},{"server_id":310,"name":"Uncletopia | Frankfurt | 5 | All Maps","name_short":"frk-5","host":"frk-1.de.uncletopia.com","port":27055,"enabled":true,"region":"eu","cc":"de","latitude":50.110924,"longitude":8.682127,"reserved":0,"last_update":"0001-01-01T00:00:00Z","name_a2s":"Uncletopia | Frankfurt | 5 | All Maps","protocol":17,"map":"koth_highpass","folder":"tf","game":"Team Fortress","app_id":440,"player_count":0,"max_players":24,"Bots":0,"server_type":"Dedicated","server_os":"Linux","password":true,"vac":true,"version":"7757534","steam_id":85568392924504277,"keywords":["cp","nocrits","nodmgspread","uncletopia"],"game_id":440,"stv_port":27056,"stv_name":"Uncletopia | Frankfurt | 5 | All Maps | STV","players":null},{"server_id":311,"name":"Uncletopia | Frankfurt | 6 | All Maps","name_short":"frk-6","host":"frk-1.de.uncletopia.com","port":27065,"enabled":true,"region":"eu","cc":"de","latitude":50.110924,"longitude":8.682127,"reserved":0,"last_update":"0001-01-01T00:00:00Z","name_a2s":"Uncletopia | Frankfurt | 6 | All Maps","protocol":17,"map":"pl_barnblitz","folder":"tf","game":"Team Fortress","app_id":440,"player_count":23,"max_players":24,"Bots":0,"server_type":"Dedicated","server_os":"Linux","password":true,"vac":true,"version":"7757534","steam_id":85568392924504278,"keywords":["nocrits","nodmgspread","payload","uncletopia"],"game_id":440,"stv_port":27066,"stv_name":"Uncletopia | Frankfurt | 6 | All Maps | STV","players":[{"user_id":150,"name":"frosty","steam_id":76561198094560834,"connected_time":2355000000000,"state":"active","ping":63},{"user_id":163,"name":"Adrenaline","steam_id":76561197970852048,"connected_time":670000000000,"state":"active","ping":60},{"user_id":146,"name":"bachusa1657","steam_id":76561198202175911,"connected_time":2770000000000,"state":"active","ping":68},{"user_id":140,"name":"Tomfool","steam_id":76561197993256481,"connected_time":3133000000000,"state":"active","ping":72},{"user_id":153,"name":"I only use huntsman","steam_id":76561199192434258,"connected_time":1774000000000,"state":"active","ping":89},{"user_id":155,"name":"QWERTY_KKL","steam_id":76561199156419203,"connected_time":1685000000000,"state":"active","ping":151},{"user_id":168,"name":"Pan Pan","steam_id":76561199074670515,"connected_time":320000000000,"state":"active","ping":94},{"user_id":152,"name":"USB Mouse gamer","steam_id":76561198970762992,"connected_time":2096000000000,"state":"active","ping":78},{"user_id":120,"name":"Varsk","steam_id":76561198061398890,"connected_time":4242000000000,"state":"active","ping":59},{"user_id":156,"name":"hananamanna","steam_id":76561198006570285,"connected_time":1647000000000,"state":"active","ping":134},{"user_id":161,"name":"Chambersite","steam_id":76561198197022399,"connected_time":1189000000000,"state":"active","ping":64},{"user_id":158,"name":"Vezage","steam_id":76561198064916164,"connected_time":1592000000000,"state":"active","ping":75},{"user_id":159,"name":"pfear","steam_id":76561197999207328,"connected_time":1581000000000,"state":"active","ping":75},{"user_id":169,"name":"Michael","steam_id":76561198003146906,"connected_time":305000000000,"state":"active","ping":60},{"user_id":171,"name":"Soyboy","steam_id":76561198053885716,"connected_time":289000000000,"state":"active","ping":83},{"user_id":166,"name":"TonTon","steam_id":76561198145468895,"connected_time":505000000000,"state":"active","ping":53},{"user_id":172,"name":"Sora","steam_id":76561198180252495,"connected_time":255000000000,"state":"active","ping":103},{"user_id":173,"name":"cherry","steam_id":76561199006915718,"connected_time":236000000000,"state":"active","ping":73},{"user_id":119,"name":"Hegyi tahó F2P","steam_id":76561199219150356,"connected_time":4274000000000,"state":"active","ping":74},{"user_id":178,"name":"Vano","steam_id":76561198100253164,"connected_time":38000000000,"state":"active","ping":86},{"user_id":142,"name":"Kodutah","steam_id":76561198203405574,"connected_time":3124000000000,"state":"active","ping":89},{"user_id":160,"name":"HwK!","steam_id":76561198287835588,"connected_time":1353000000000,"state":"active","ping":88},{"user_id":175,"name":"Melonyoshi","steam_id":76561198294182303,"connected_time":210000000000,"state":"active","ping":64}]},{"server_id":23,"name":"Uncletopia | Frankfurt | 7 | Stopwatch Beta","name_short":"frk-7","host":"frk-1.de.uncletopia.com","port":27075,"enabled":true,"region":"eu","cc":"de","latitude":50.110924,"longitude":8.682127,"reserved":0,"last_update":"0001-01-01T00:00:00Z","name_a2s":"Uncletopia | Frankfurt | 7 | Stopwatch Beta","protocol":17,"map":"cp_sunshine","folder":"tf","game":"Team Fortress","app_id":440,"player_count":18,"max_players":24,"Bots":0,"server_type":"Dedicated","server_os":"Linux","password":true,"vac":true,"version":"7757534","steam_id":85568392924742827,"keywords":["cp","nocrits","nodmgspread","uncletopia"],"game_id":440,"stv_port":27076,"stv_name":"Uncletopia | Frankfurt | 7 | Stopwatch Beta | STV","players":[{"user_id":365,"name":"petrikpriecinsky","steam_id":76561199478791866,"connected_time":202000000000,"state":"active","ping":74},{"user_id":326,"name":"alexx","steam_id":76561198156394629,"connected_time":3127000000000,"state":"active","ping":86},{"user_id":361,"name":"F","steam_id":76561199149462792,"connected_time":645000000000,"state":"active","ping":66},{"user_id":346,"name":"A fish and sea","steam_id":76561198194745827,"connected_time":1672000000000,"state":"active","ping":47},{"user_id":362,"name":"Jeerven","steam_id":76561198259189841,"connected_time":559000000000,"state":"active","ping":61},{"user_id":314,"name":"certified","steam_id":76561198181368101,"connected_time":3583000000000,"state":"active","ping":53},{"user_id":364,"name":"RudiPrico4","steam_id":76561199014381495,"connected_time":273000000000,"state":"active","ping":53},{"user_id":357,"name":"NATO Battle Mosquito","steam_id":76561198420349969,"connected_time":1088000000000,"state":"active","ping":97},{"user_id":348,"name":"truebosnianking","steam_id":76561199440060597,"connected_time":1635000000000,"state":"active","ping":90},{"user_id":366,"name":"☆MiNTERRRRR☆","steam_id":76561198799866156,"connected_time":173000000000,"state":"active","ping":99},{"user_id":367,"name":"BIBOUZ","steam_id":76561198362850416,"connected_time":68000000000,"state":"active","ping":54},{"user_id":368,"name":"\"LS\"bulleloup5 [FR]","steam_id":76561198882411373,"connected_time":60000000000,"state":"active","ping":352},{"user_id":369,"name":"MeBandae","steam_id":76561198910770432,"connected_time":21000000000,"state":"active","ping":76},{"user_id":370,"name":"engineer drip","steam_id":76561198991032570,"connected_time":3000000000,"state":"spawning","ping":124},{"user_id":329,"name":"Balls","steam_id":76561198086400484,"connected_time":2918000000000,"state":"active","ping":75},{"user_id":330,"name":"i seen a rat","steam_id":76561198079458690,"connected_time":2881000000000,"state":"active","ping":53},{"user_id":331,"name":"Beeman999","steam_id":76561198138266242,"connected_time":2839000000000,"state":"active","ping":77},{"user_id":334,"name":"WHUSSKEY","steam_id":76561198137827441,"connected_time":2816000000000,"state":"active","ping":68}]},{"server_id":24,"name":"Uncletopia | Frankfurt | 8 | Community","name_short":"frk-8","host":"frk-1.de.uncletopia.com","port":27085,"enabled":true,"region":"eu","cc":"de","latitude":50.110924,"longitude":8.682127,"reserved":0,"last_update":"0001-01-01T00:00:00Z","name_a2s":"Uncletopia | Frankfurt | 8 | Community","protocol":17,"map":"koth_lakeside_final","folder":"tf","game":"Team Fortress","app_id":440,"player_count":0,"max_players":24,"Bots":0,"server_type":"Dedicated","server_os":"Linux","password":true,"vac":true,"version":"7757534","steam_id":85568392924742828,"keywords":["cp","nocrits","nodmgspread","uncletopia"],"game_id":440,"stv_port":27086,"stv_name":"Uncletopia | Frankfurt | 8 | Community | STV","players":null},{"server_id":202,"name":"Uncletopia | Hong Kong | 1 | All Maps","name_short":"hgk-1","host":"hgk-1.hk.uncletopia.com","port":27015,"enabled":true,"region":"asia","cc":"hk","latitude":22.302711,"longitude":114.177216,"reserved":0,"last_update":"0001-01-01T00:00:00Z","name_a2s":"Uncletopia | Hong Kong | 1 | All Maps","protocol":17,"map":"cp_process_final","folder":"tf","game":"Team Fortress","app_id":440,"player_count":0,"max_players":24,"Bots":0,"server_type":"Dedicated","server_os":"Linux","password":true,"vac":true,"version":"7757534","steam_id":85568392924494504,"keywords":["cp","nocrits","nodmgspread","uncletopia"],"game_id":440,"stv_port":27016,"stv_name":"Uncletopia | Hong Kong | 1 | All Maps | STV","players":null},{"server_id":1,"name":"Uncletopia | Los Angeles | 1 | All Maps","name_short":"lax-1","host":"lax-1.us.uncletopia.com","port":27015,"enabled":true,"region":"us-west","cc":"us","latitude":33.94279,"longitude":-118.41004,"reserved":0,"last_update":"0001-01-01T00:00:00Z","name_a2s":"Uncletopia | Los Angeles | 1 | All Maps","protocol":17,"map":"koth_lakeside_final","folder":"tf","game":"Team Fortress","app_id":440,"player_count":0,"max_players":24,"Bots":0,"server_type":"Dedicated","server_os":"Linux","password":true,"vac":true,"version":"7757534","steam_id":85568392924469991,"keywords":["cp","nocrits","nodmgspread","uncletopia"],"game_id":440,"stv_port":27016,"stv_name":"Uncletopia | Los Angeles | 1 | All Maps | STV","players":null},{"server_id":112,"name":"Uncletopia | Los Angeles | 2 | All Maps","name_short":"lax-2","host":"lax-1.us.uncletopia.com","port":27025,"enabled":true,"region":"us-west","cc":"us","latitude":33.94279,"longitude":-118.41004,"reserved":0,"last_update":"0001-01-01T00:00:00Z","name_a2s":"Uncletopia | Los Angeles | 2 | All Maps","protocol":17,"map":"pl_badwater","folder":"tf","game":"Team Fortress","app_id":440,"player_count":0,"max_players":24,"Bots":0,"server_type":"Dedicated","server_os":"Linux","password":true,"vac":true,"version":"7757534","steam_id":85568392924469992,"keywords":["nocrits","nodmgspread","payload","uncletopia"],"game_id":440,"stv_port":27026,"stv_name":"Uncletopia | Los Angeles | 2 | All Maps | STV","players":null},{"server_id":324,"name":"Uncletopia | Los Angeles | 3 | All Maps","name_short":"lax-3","host":"lax-1.us.uncletopia.com","port":27035,"enabled":true,"region":"us-west","cc":"us","latitude":33.94279,"longitude":-118.41004,"reserved":0,"last_update":"0001-01-01T00:00:00Z","name_a2s":"Uncletopia | Los Angeles | 3 | All Maps","protocol":17,"map":"koth_lakeside_final","folder":"tf","game":"Team Fortress","app_id":440,"player_count":17,"max_players":24,"Bots":0,"server_type":"Dedicated","server_os":"Linux","password":true,"vac":true,"version":"7757534","steam_id":85568392924510198,"keywords":["cp","nocrits","nodmgspread","uncletopia"],"game_id":440,"stv_port":27036,"stv_name":"Uncletopia | Los Angeles | 3 | All Maps | STV","players":[{"user_id":7,"name":"StarGuyVI","steam_id":76561199366304746,"connected_time":2656000000000,"state":"active","ping":102},{"user_id":8,"name":"Kitten","steam_id":76561198381022004,"connected_time":2618000000000,"state":"active","ping":69},{"user_id":37,"name":"butthole967","steam_id":76561198986534519,"connected_time":320000000000,"state":"active","ping":60},{"user_id":42,"name":"Cum Demon","steam_id":76561198078471141,"connected_time":67000000000,"state":"active","ping":68},{"user_id":23,"name":"stboncho","steam_id":76561198172275301,"connected_time":977000000000,"state":"active","ping":61},{"user_id":22,"name":"PINK STUFF!!!","steam_id":76561198392069179,"connected_time":1103000000000,"state":"active","ping":52},{"user_id":43,"name":"dull","steam_id":76561198300417480,"connected_time":60000000000,"state":"active","ping":129},{"user_id":25,"name":"catrinaisahuman","steam_id":76561198281355729,"connected_time":832000000000,"state":"active","ping":75},{"user_id":26,"name":"Red","steam_id":76561198255311543,"connected_time":749000000000,"state":"active","ping":133},{"user_id":27,"name":"beans","steam_id":76561199082781884,"connected_time":582000000000,"state":"active","ping":51},{"user_id":19,"name":"ShadowZiki","steam_id":76561198145930013,"connected_time":1420000000000,"state":"active","ping":39},{"user_id":28,"name":"Geogeo","steam_id":76561198091567973,"connected_time":579000000000,"state":"active","ping":106},{"user_id":30,"name":"Kaithepi","steam_id":76561198431664933,"connected_time":448000000000,"state":"active","ping":59},{"user_id":36,"name":"I'm so full of stem cells","steam_id":76561198329087915,"connected_time":338000000000,"state":"active","ping":49},{"user_id":34,"name":"Dr. Anonymous","steam_id":76561198061654197,"connected_time":388000000000,"state":"active","ping":92},{"user_id":38,"name":"Tanky","steam_id":76561199440310323,"connected_time":319000000000,"state":"active","ping":115},{"user_id":40,"name":"funkysandwich (real)","steam_id":76561198190962742,"connected_time":293000000000,"state":"active","ping":81}]},{"server_id":25,"name":"Uncletopia | Los Angeles | 4 | Stopwatch Beta","name_short":"lax-4","host":"lax-1.us.uncletopia.com","port":27045,"enabled":true,"region":"us-west","cc":"us","latitude":33.94279,"longitude":-118.41004,"reserved":0,"last_update":"0001-01-01T00:00:00Z","name_a2s":"Uncletopia | Los Angeles | 4 | Stopwatch Beta","protocol":17,"map":"pl_swiftwater_final1","folder":"tf","game":"Team Fortress","app_id":440,"player_count":0,"max_players":24,"Bots":0,"server_type":"Dedicated","server_os":"Linux","password":true,"vac":true,"version":"7757534","steam_id":85568392924510199,"keywords":["nocrits","nodmgspread","payload","uncletopia"],"game_id":440,"stv_port":27046,"stv_name":"Uncletopia | Los Angeles | 4 | Stopwatch Beta | STV","players":null},{"server_id":11,"name":"Uncletopia | London | 1 | All Maps","name_short":"lon-1","host":"lon-1.uk.uncletopia.com","port":27015,"enabled":true,"region":"eu","cc":"gb","latitude":51.509865,"longitude":-0.118092,"reserved":0,"last_update":"0001-01-01T00:00:00Z","name_a2s":"Uncletopia | London | 1 | All Maps","protocol":17,"map":"cp_sunshine","folder":"tf","game":"Team Fortress","app_id":440,"player_count":24,"max_players":24,"Bots":0,"server_type":"Dedicated","server_os":"Linux","password":true,"vac":true,"version":"7757534","steam_id":85568392924367362,"keywords":["cp","nocrits","nodmgspread","uncletopia"],"game_id":440,"stv_port":27016,"stv_name":"Uncletopia | London | 1 | All Maps | STV","players":[{"user_id":602,"name":"ike","steam_id":76561198039845647,"connected_time":747000000000,"state":"active","ping":54},{"user_id":585,"name":"crit-a-cola consumer","steam_id":76561199009968231,"connected_time":3557000000000,"state":"active","ping":57},{"user_id":603,"name":"panziemniak466","steam_id":76561199140876865,"connected_time":697000000000,"state":"active","ping":108},{"user_id":580,"name":"generic alias","steam_id":76561198271607226,"connected_time":3669000000000,"state":"active","ping":87},{"user_id":597,"name":"Jara.","steam_id":76561197992207165,"connected_time":1861000000000,"state":"active","ping":125},{"user_id":605,"name":"Mirlok3","steam_id":76561198093167827,"connected_time":655000000000,"state":"active","ping":76},{"user_id":565,"name":"Titus Tyrwitt","steam_id":76561197990779673,"connected_time":4660000000000,"state":"active","ping":146},{"user_id":599,"name":"combat collin","steam_id":76561198011450253,"connected_time":1843000000000,"state":"active","ping":49},{"user_id":589,"name":"JOHN GAMING (weezer#1fan)","steam_id":76561199085822219,"connected_time":3361000000000,"state":"active","ping":100},{"user_id":560,"name":"Big Spoon","steam_id":76561199247250436,"connected_time":4846000000000,"state":"active","ping":68},{"user_id":563,"name":"twitch.tv/vision515","steam_id":76561198065293729,"connected_time":4698000000000,"state":"active","ping":165},{"user_id":480,"name":"Neo Kojiro","steam_id":76561198000967076,"connected_time":11058000000000,"state":"active","ping":127},{"user_id":609,"name":"British Disapproval","steam_id":76561198001375260,"connected_time":291000000000,"state":"active","ping":81},{"user_id":583,"name":"fieldbox","steam_id":76561198101893112,"connected_time":3618000000000,"state":"active","ping":49},{"user_id":600,"name":"Schwarzschild radius(Rg=2GM/c^2","steam_id":76561198179463343,"connected_time":1792000000000,"state":"active","ping":41},{"user_id":592,"name":"Wyro","steam_id":76561199176835169,"connected_time":3316000000000,"state":"active","ping":53},{"user_id":608,"name":"Get Spooked","steam_id":76561198924141466,"connected_time":355000000000,"state":"active","ping":83},{"user_id":593,"name":"B4R10N","steam_id":76561198047167954,"connected_time":3141000000000,"state":"active","ping":32},{"user_id":611,"name":"sape","steam_id":76561198089322416,"connected_time":48000000000,"state":"active","ping":93},{"user_id":594,"name":"Andreyka","steam_id":76561198038447927,"connected_time":2838000000000,"state":"active","ping":107},{"user_id":607,"name":"beheading video from 2009","steam_id":76561198834897089,"connected_time":602000000000,"state":"active","ping":77},{"user_id":586,"name":"Miss Bari","steam_id":76561198365286092,"connected_time":3542000000000,"state":"active","ping":36},{"user_id":610,"name":"_lesadams_","steam_id":76561198876047711,"connected_time":136000000000,"state":"active","ping":53}]},{"server_id":114,"name":"Uncletopia | London | 2 | All Maps","name_short":"lon-2","host":"lon-1.uk.uncletopia.com","port":27025,"enabled":true,"region":"eu","cc":"gb","latitude":51.509865,"longitude":-0.118092,"reserved":0,"last_update":"0001-01-01T00:00:00Z","name_a2s":"Uncletopia | London | 2 | All Maps","protocol":17,"map":"pl_upward","folder":"tf","game":"Team Fortress","app_id":440,"player_count":24,"max_players":24,"Bots":0,"server_type":"Dedicated","server_os":"Linux","password":true,"vac":true,"version":"7757534","steam_id":85568392924470941,"keywords":["nocrits","nodmgspread","payload","uncletopia"],"game_id":440,"stv_port":27026,"stv_name":"Uncletopia | London | 2 | All Maps | STV","players":[{"user_id":637,"name":"Sparky","steam_id":76561198036754195,"connected_time":767000000000,"state":"active","ping":53},{"user_id":623,"name":"Peanut","steam_id":76561198018865486,"connected_time":1216000000000,"state":"active","ping":67},{"user_id":607,"name":"ThatGamingKiwi","steam_id":76561199170522237,"connected_time":1868000000000,"state":"active","ping":148},{"user_id":624,"name":"Mircoxi","steam_id":76561199407632710,"connected_time":1198000000000,"state":"active","ping":59},{"user_id":625,"name":"After8","steam_id":76561198090750865,"connected_time":1163000000000,"state":"active","ping":71},{"user_id":648,"name":"peppie","steam_id":76561199273930492,"connected_time":255000000000,"state":"active","ping":59},{"user_id":587,"name":"A Pigeon","steam_id":76561198114090555,"connected_time":3128000000000,"state":"active","ping":73},{"user_id":632,"name":"Tanza -","steam_id":76561197961335217,"connected_time":1021000000000,"state":"active","ping":53},{"user_id":646,"name":"Matteo Besho","steam_id":76561199159657855,"connected_time":368000000000,"state":"active","ping":77},{"user_id":628,"name":"Perämiehenä","steam_id":76561197968945306,"connected_time":1148000000000,"state":"active","ping":73},{"user_id":565,"name":"Floof Dog","steam_id":76561198065242175,"connected_time":3972000000000,"state":"active","ping":85},{"user_id":647,"name":"Lux","steam_id":76561198060417740,"connected_time":342000000000,"state":"active","ping":47},{"user_id":638,"name":"wickEd_","steam_id":76561198048068999,"connected_time":716000000000,"state":"active","ping":164},{"user_id":639,"name":"marco / s /","steam_id":76561198300120382,"connected_time":681000000000,"state":"active","ping":63},{"user_id":602,"name":"Skatnaset","steam_id":76561198298457353,"connected_time":2292000000000,"state":"active","ping":70},{"user_id":633,"name":"Mean Green Peen","steam_id":76561198228455736,"connected_time":1009000000000,"state":"active","ping":52},{"user_id":642,"name":"lqmabalz","steam_id":76561198034264020,"connected_time":612000000000,"state":"active","ping":120},{"user_id":618,"name":"shh... tiny carrots r sleeping","steam_id":76561198069649097,"connected_time":1690000000000,"state":"active","ping":50},{"user_id":612,"name":"Trølli","steam_id":76561198069281758,"connected_time":1773000000000,"state":"active","ping":84},{"user_id":641,"name":"Alfred Schroom","steam_id":76561198117990411,"connected_time":674000000000,"state":"active","ping":105},{"user_id":620,"name":"joethefool","steam_id":76561199015436319,"connected_time":1684000000000,"state":"active","ping":125},{"user_id":594,"name":"outlaw","steam_id":76561198323805289,"connected_time":2751000000000,"state":"active","ping":32},{"user_id":621,"name":"Currently wearing crocs","steam_id":76561198139404261,"connected_time":1655000000000,"state":"active","ping":47},{"user_id":592,"name":"poliakov.noam","steam_id":76561199259322961,"connected_time":2966000000000,"state":"active","ping":107}]},{"server_id":320,"name":"Uncletopia | London | 3 | All Maps","name_short":"lon-3","host":"lon-1.uk.uncletopia.com","port":27035,"enabled":true,"region":"eu","cc":"gb","latitude":51.509865,"longitude":-0.118092,"reserved":0,"last_update":"0001-01-01T00:00:00Z","name_a2s":"Uncletopia | London | 3 | All Maps","protocol":17,"map":"pl_upward","folder":"tf","game":"Team Fortress","app_id":440,"player_count":24,"max_players":24,"Bots":0,"server_type":"Dedicated","server_os":"Linux","password":true,"vac":true,"version":"7757534","steam_id":85568392924510192,"keywords":["nocrits","nodmgspread","payload","uncletopia"],"game_id":440,"stv_port":27036,"stv_name":"Uncletopia | London | 3 | All Maps | STV","players":[{"user_id":368,"name":"Dill Killem","steam_id":76561199071571354,"connected_time":171000000000,"state":"active","ping":88},{"user_id":369,"name":"Dr.Sees [F2P]","steam_id":76561199219233587,"connected_time":153000000000,"state":"active","ping":76},{"user_id":338,"name":"Lime","steam_id":76561198071090502,"connected_time":1613000000000,"state":"active","ping":72},{"user_id":357,"name":"Economic crisis","steam_id":76561198063562843,"connected_time":946000000000,"state":"active","ping":63},{"user_id":314,"name":"jkozaka","steam_id":76561198986578926,"connected_time":2569000000000,"state":"active","ping":104},{"user_id":352,"name":"Gimli","steam_id":76561198004149706,"connected_time":1178000000000,"state":"active","ping":59},{"user_id":333,"name":"Space","steam_id":76561198021572167,"connected_time":2072000000000,"state":"active","ping":44},{"user_id":353,"name":"Tohseno","steam_id":76561197995813008,"connected_time":1170000000000,"state":"active","ping":49},{"user_id":349,"name":"Lyncurion","steam_id":76561199260022725,"connected_time":1287000000000,"state":"active","ping":82},{"user_id":317,"name":"Birdseye","steam_id":76561198025852216,"connected_time":2494000000000,"state":"active","ping":46},{"user_id":334,"name":"Karsta","steam_id":76561198376776616,"connected_time":1902000000000,"state":"active","ping":63},{"user_id":370,"name":"very bad game","steam_id":76561198120166752,"connected_time":143000000000,"state":"active","ping":86},{"user_id":366,"name":"🦐 Tust 🦐","steam_id":76561198045694677,"connected_time":380000000000,"state":"active","ping":44},{"user_id":354,"name":"AsuX","steam_id":76561197990333289,"connected_time":1154000000000,"state":"active","ping":60},{"user_id":362,"name":"Ritzy","steam_id":76561198381955342,"connected_time":790000000000,"state":"active","ping":49},{"user_id":311,"name":"Nope.avi","steam_id":76561198396687651,"connected_time":3053000000000,"state":"active","ping":90},{"user_id":330,"name":"Kibby","steam_id":76561197990056450,"connected_time":2287000000000,"state":"active","ping":53},{"user_id":298,"name":"Aregularhuman","steam_id":76561198343319848,"connected_time":4028000000000,"state":"active","ping":55},{"user_id":364,"name":"Idc anymore","steam_id":76561198309739590,"connected_time":729000000000,"state":"active","ping":82},{"user_id":359,"name":"EastmoreRandoms.","steam_id":76561198048921203,"connected_time":904000000000,"state":"active","ping":65},{"user_id":340,"name":"tb","steam_id":76561198326153524,"connected_time":1466000000000,"state":"active","ping":60},{"user_id":367,"name":"magicman","steam_id":76561198067149184,"connected_time":278000000000,"state":"active","ping":125},{"user_id":325,"name":"Tink","steam_id":76561198118235443,"connected_time":2369000000000,"state":"active","ping":55},{"user_id":341,"name":"Doohickey mechanic","steam_id":76561198146180114,"connected_time":1463000000000,"state":"active","ping":87}]},{"server_id":321,"name":"Uncletopia | London | 4 | All Maps","name_short":"lon-4","host":"lon-1.uk.uncletopia.com","port":27045,"enabled":true,"region":"eu","cc":"gb","latitude":51.509865,"longitude":-0.118092,"reserved":0,"last_update":"0001-01-01T00:00:00Z","name_a2s":"Uncletopia | London | 4 | All Maps","protocol":17,"map":"pl_frontier_final","folder":"tf","game":"Team Fortress","app_id":440,"player_count":22,"max_players":24,"Bots":0,"server_type":"Dedicated","server_os":"Linux","password":true,"vac":true,"version":"7757534","steam_id":85568392924510193,"keywords":["nocrits","nodmgspread","payload","uncletopia"],"game_id":440,"stv_port":27046,"stv_name":"Uncletopia | London | 4 | All Maps | STV","players":[{"user_id":46,"name":"GMsU | Rebikas","steam_id":76561198077053764,"connected_time":1000000000,"state":"spawning","ping":35},{"user_id":11,"name":"UvuvwevwevweOnyetenyevweUgwe","steam_id":76561199118495669,"connected_time":3244000000000,"state":"active","ping":72},{"user_id":45,"name":"Acey","steam_id":76561198114457284,"connected_time":75000000000,"state":"spawning","ping":65},{"user_id":43,"name":"Derexas","steam_id":76561198010438489,"connected_time":107000000000,"state":"active","ping":142},{"user_id":24,"name":"dajrap_Masakrator Virtus.pro","steam_id":76561199045231812,"connected_time":1174000000000,"state":"spawning","ping":67},{"user_id":23,"name":"Zappron","steam_id":76561198058014558,"connected_time":1238000000000,"state":"active","ping":74},{"user_id":28,"name":"Zulutron1800","steam_id":76561199169607968,"connected_time":376000000000,"state":"spawning","ping":35},{"user_id":22,"name":"Anonymous47007","steam_id":76561199005211417,"connected_time":1498000000000,"state":"spawning","ping":78},{"user_id":26,"name":"Danin Civilnetworks.net","steam_id":76561198197542067,"connected_time":389000000000,"state":"spawning","ping":81},{"user_id":27,"name":"Mirage","steam_id":76561199013190566,"connected_time":386000000000,"state":"spawning","ping":29},{"user_id":29,"name":"BoltSive","steam_id":76561199084631869,"connected_time":373000000000,"state":"spawning","ping":36},{"user_id":30,"name":"John Nuts","steam_id":76561199079951047,"connected_time":341000000000,"state":"spawning","ping":172},{"user_id":34,"name":"padillacampos","steam_id":76561198161923970,"connected_time":295000000000,"state":"spawning","ping":50},{"user_id":32,"name":"gallagahero1986","steam_id":76561198353190902,"connected_time":313000000000,"state":"spawning","ping":44},{"user_id":33,"name":"UnknownHero","steam_id":76561198864766392,"connected_time":303000000000,"state":"active","ping":121},{"user_id":35,"name":"Auburn | CivilNetworks.net","steam_id":76561198132236975,"connected_time":275000000000,"state":"active","ping":84},{"user_id":36,"name":"David Random","steam_id":76561198144497918,"connected_time":275000000000,"state":"active","ping":75},{"user_id":37,"name":"Sybille Sirky","steam_id":76561198082407725,"connected_time":273000000000,"state":"spawning","ping":55},{"user_id":38,"name":"sturdy femboy","steam_id":76561198053640157,"connected_time":267000000000,"state":"spawning","ping":47},{"user_id":39,"name":"Jesse on cocainer","steam_id":76561198355545012,"connected_time":128000000000,"state":"spawning","ping":77},{"user_id":42,"name":"The_Jaystone","steam_id":76561198126280691,"connected_time":117000000000,"state":"active","ping":41},{"user_id":44,"name":"GGabe","steam_id":76561198117199068,"connected_time":99000000000,"state":"active","ping":106}]},{"server_id":21,"name":"Uncletopia | London | 5 | All Maps","name_short":"lon-5","host":"lon-1.uk.uncletopia.com","port":27055,"enabled":true,"region":"eu","cc":"gb","latitude":51.509865,"longitude":-0.118092,"reserved":0,"last_update":"0001-01-01T00:00:00Z","name_a2s":"Uncletopia | London | 5 | All Maps","protocol":17,"map":"koth_harvest_final","folder":"tf","game":"Team Fortress","app_id":440,"player_count":23,"max_players":24,"Bots":0,"server_type":"Dedicated","server_os":"Linux","password":true,"vac":true,"version":"7757534","steam_id":85568392924742829,"keywords":["cp","nocrits","nodmgspread","uncletopia"],"game_id":440,"stv_port":27056,"stv_name":"Uncletopia | London | 5 | All Maps | STV","players":[{"user_id":264,"name":"ye","steam_id":76561198110452167,"connected_time":1153000000000,"state":"active","ping":81},{"user_id":274,"name":"john fortress","steam_id":76561198013237629,"connected_time":725000000000,"state":"active","ping":92},{"user_id":275,"name":"Totalfet","steam_id":76561198979468432,"connected_time":693000000000,"state":"active","ping":101},{"user_id":213,"name":"sareena","steam_id":76561198810194062,"connected_time":4592000000000,"state":"active","ping":71},{"user_id":280,"name":"Quite Above Average Scout","steam_id":76561199403752637,"connected_time":318000000000,"state":"active","ping":73},{"user_id":248,"name":"Homosapien","steam_id":76561197972035953,"connected_time":1963000000000,"state":"active","ping":60},{"user_id":250,"name":"sAmasam","steam_id":76561198114953928,"connected_time":1909000000000,"state":"active","ping":74},{"user_id":284,"name":"Egg Lemon Soup","steam_id":76561198068328154,"connected_time":269000000000,"state":"active","ping":117},{"user_id":259,"name":"Elix","steam_id":76561199072306920,"connected_time":1265000000000,"state":"active","ping":103},{"user_id":279,"name":"RocketBoy08","steam_id":76561198833978944,"connected_time":337000000000,"state":"active","ping":108},{"user_id":285,"name":"midlpsyzl47","steam_id":76561199475972637,"connected_time":228000000000,"state":"active","ping":63},{"user_id":271,"name":"who is gavin?","steam_id":76561198069415057,"connected_time":867000000000,"state":"active","ping":105},{"user_id":267,"name":"cotroD","steam_id":76561198130063938,"connected_time":1003000000000,"state":"active","ping":97},{"user_id":223,"name":"CalzoneCarl456","steam_id":76561198846982793,"connected_time":3768000000000,"state":"active","ping":46},{"user_id":276,"name":"colourdvd","steam_id":76561197999450210,"connected_time":692000000000,"state":"active","ping":96},{"user_id":286,"name":"Parado no Bailão","steam_id":76561199481391567,"connected_time":41000000000,"state":"active","ping":508},{"user_id":200,"name":"wooper","steam_id":76561198953870572,"connected_time":5646000000000,"state":"active","ping":161},{"user_id":270,"name":"TheMightyOppressor","steam_id":76561198047461974,"connected_time":947000000000,"state":"active","ping":44},{"user_id":278,"name":"Audiofall","steam_id":76561198208814216,"connected_time":459000000000,"state":"active","ping":47},{"user_id":217,"name":"hora","steam_id":76561198404470526,"connected_time":4328000000000,"state":"active","ping":97},{"user_id":215,"name":".::[SerafeTTiN]::.","steam_id":76561198009471724,"connected_time":4446000000000,"state":"active","ping":92},{"user_id":282,"name":"Sea Poo","steam_id":76561198125649544,"connected_time":299000000000,"state":"active","ping":57},{"user_id":283,"name":"quickfast","steam_id":76561199438900919,"connected_time":295000000000,"state":"active","ping":45}]},{"server_id":22,"name":"Uncletopia | London | 6 | All Maps","name_short":"lon-6","host":"lon-1.uk.uncletopia.com","port":27065,"enabled":true,"region":"eu","cc":"gb","latitude":51.509865,"longitude":-0.118092,"reserved":0,"last_update":"0001-01-01T00:00:00Z","name_a2s":"Uncletopia | London | 6 | All Maps","protocol":17,"map":"cp_steel","folder":"tf","game":"Team Fortress","app_id":440,"player_count":24,"max_players":24,"Bots":0,"server_type":"Dedicated","server_os":"Linux","password":true,"vac":true,"version":"7757534","steam_id":85568392924742830,"keywords":["cp","nocrits","nodmgspread","uncletopia"],"game_id":440,"stv_port":27066,"stv_name":"Uncletopia | London | 6 | All Maps | STV","players":[{"user_id":71,"name":"metamikko","steam_id":76561198324704234,"connected_time":7781000000000,"state":"active","ping":136},{"user_id":183,"name":"Lessoz","steam_id":76561199211572036,"connected_time":389000000000,"state":"active","ping":90},{"user_id":187,"name":"󠀡󠀡⁧⁧爪卂Ꮆ乇","steam_id":76561198353389145,"connected_time":232000000000,"state":"active","ping":57},{"user_id":132,"name":"Dracob Omrog","steam_id":76561197984661199,"connected_time":3840000000000,"state":"active","ping":54},{"user_id":156,"name":"Wardruna96","steam_id":76561199057083828,"connected_time":2219000000000,"state":"active","ping":75},{"user_id":174,"name":"DrExplosive","steam_id":76561198063678579,"connected_time":697000000000,"state":"active","ping":48},{"user_id":188,"name":"ThePigKing","steam_id":76561198124945814,"connected_time":73000000000,"state":"active","ping":59},{"user_id":167,"name":"i AM the medic gf","steam_id":76561198247284680,"connected_time":1364000000000,"state":"active","ping":77},{"user_id":175,"name":"SaltyCupcakes","steam_id":76561198256386417,"connected_time":673000000000,"state":"active","ping":42},{"user_id":184,"name":"minn","steam_id":76561198099101232,"connected_time":389000000000,"state":"active","ping":59},{"user_id":78,"name":"Pico","steam_id":76561198063552545,"connected_time":7142000000000,"state":"active","ping":134},{"user_id":159,"name":"Swimpz","steam_id":76561198137479945,"connected_time":2182000000000,"state":"active","ping":89},{"user_id":145,"name":"Caliban","steam_id":76561197999696839,"connected_time":3135000000000,"state":"active","ping":111},{"user_id":151,"name":"Sylvanas","steam_id":76561198154904165,"connected_time":2758000000000,"state":"active","ping":109},{"user_id":176,"name":"Gekoloniseerd","steam_id":76561198819871606,"connected_time":644000000000,"state":"active","ping":97},{"user_id":177,"name":"Lukas","steam_id":76561198009118452,"connected_time":601000000000,"state":"active","ping":69},{"user_id":178,"name":"lambrusco di sorbara","steam_id":76561198066071855,"connected_time":541000000000,"state":"active","ping":72},{"user_id":179,"name":"Gorogaz","steam_id":76561198207157679,"connected_time":524000000000,"state":"active","ping":59},{"user_id":110,"name":"ayecodex","steam_id":76561199477598858,"connected_time":5166000000000,"state":"active","ping":118},{"user_id":186,"name":"grim reaper god","steam_id":76561199394194512,"connected_time":249000000000,"state":"active","ping":63},{"user_id":160,"name":"Shovelhalfrusty","steam_id":76561198346447513,"connected_time":2178000000000,"state":"active","ping":72},{"user_id":155,"name":"Flash","steam_id":76561198067379855,"connected_time":2509000000000,"state":"active","ping":46},{"user_id":180,"name":"philippoliverCat","steam_id":76561198877008415,"connected_time":515000000000,"state":"active","ping":83},{"user_id":143,"name":"lizard","steam_id":76561199074653209,"connected_time":3575000000000,"state":"active","ping":71}]},{"server_id":40,"name":"Uncletopia | London | 7 | No Payload","name_short":"lon-7","host":"lon-1.uk.uncletopia.com","port":27075,"enabled":true,"region":"eu","cc":"gb","latitude":51.509865,"longitude":-0.118092,"reserved":0,"last_update":"0001-01-01T00:00:00Z","name_a2s":"Uncletopia | London | 7 | No Payload","protocol":17,"map":"koth_harvest_final","folder":"tf","game":"Team Fortress","app_id":440,"player_count":0,"max_players":24,"Bots":0,"server_type":"Dedicated","server_os":"Linux","password":true,"vac":true,"version":"7757534","steam_id":85568392924964314,"keywords":["cp","nocrits","nodmgspread","uncletopia"],"game_id":440,"stv_port":27076,"stv_name":"Uncletopia | London | 7 | No Payload | STV","players":null},{"server_id":41,"name":"Uncletopia | London | 8 | Community","name_short":"lon-8","host":"lon-1.uk.uncletopia.com","port":27085,"enabled":true,"region":"eu","cc":"gb","latitude":51.509865,"longitude":-0.118092,"reserved":0,"last_update":"0001-01-01T00:00:00Z","name_a2s":"Uncletopia | London | 8 | Community","protocol":17,"map":"workshop/koth_ramjam_rc1.ugc459778887","folder":"tf","game":"Team Fortress","app_id":440,"player_count":1,"max_players":24,"Bots":0,"server_type":"Dedicated","server_os":"Linux","password":true,"vac":true,"version":"7757534","steam_id":85568392924964315,"keywords":["cp","nocrits","nodmgspread","uncletopia"],"game_id":440,"stv_port":27086,"stv_name":"Uncletopia | London | 8 | Community | STV","players":[{"user_id":7,"name":"maxomen","steam_id":76561199219374017,"connected_time":15000000000,"state":"spawning","ping":186}]},{"server_id":300,"name":"Uncletopia | Montréal | 1 | All Maps","name_short":"mtl-1","host":"mtl-1.ca.uncletopia.com","port":27015,"enabled":true,"region":"us-east","cc":"ca","latitude":45.50889,"longitude":-73.56167,"reserved":0,"last_update":"0001-01-01T00:00:00Z","name_a2s":"Uncletopia | Montréal | 1 | All Maps","protocol":17,"map":"pl_upward","folder":"tf","game":"Team Fortress","app_id":440,"player_count":0,"max_players":24,"Bots":0,"server_type":"Dedicated","server_os":"Linux","password":true,"vac":true,"version":"7757534","steam_id":85568392924500087,"keywords":["nocrits","nodmgspread","payload","uncletopia"],"game_id":440,"stv_port":27016,"stv_name":"Uncletopia | Montréal | 1 | All Maps | STV","players":null},{"server_id":301,"name":"Uncletopia | Montréal | 2 | All Maps","name_short":"mtl-2","host":"mtl-1.ca.uncletopia.com","port":27025,"enabled":true,"region":"us-east","cc":"ca","latitude":45.50889,"longitude":-73.56167,"reserved":0,"last_update":"0001-01-01T00:00:00Z","name_a2s":"Uncletopia | Montréal | 2 | All Maps","protocol":17,"map":"pl_snowycoast","folder":"tf","game":"Team Fortress","app_id":440,"player_count":0,"max_players":24,"Bots":0,"server_type":"Dedicated","server_os":"Linux","password":true,"vac":true,"version":"7757534","steam_id":85568392924500088,"keywords":["nocrits","nodmgspread","payload","uncletopia"],"game_id":440,"stv_port":27026,"stv_name":"Uncletopia | Montréal | 2 | All Maps | STV","players":null},{"server_id":302,"name":"Uncletopia | Montréal | 3 | All Maps","name_short":"mtl-3","host":"mtl-1.ca.uncletopia.com","port":27035,"enabled":true,"region":"us-east","cc":"ca","latitude":45.50889,"longitude":-73.56167,"reserved":0,"last_update":"0001-01-01T00:00:00Z","name_a2s":"Uncletopia | Montréal | 3 | All Maps","protocol":17,"map":"pl_swiftwater_final1","folder":"tf","game":"Team Fortress","app_id":440,"player_count":0,"max_players":24,"Bots":0,"server_type":"Dedicated","server_os":"Linux","password":true,"vac":true,"version":"7757534","steam_id":85568392924500089,"keywords":["nocrits","nodmgspread","payload","uncletopia"],"game_id":440,"stv_port":27036,"stv_name":"Uncletopia | Montréal | 3 | All Maps | STV","players":null},{"server_id":303,"name":"Uncletopia | Montréal | 4 | No Payload","name_short":"mtl-4","host":"mtl-1.ca.uncletopia.com","port":27045,"enabled":true,"region":"us-east","cc":"ca","latitude":45.50889,"longitude":-73.56167,"reserved":0,"last_update":"0001-01-01T00:00:00Z","name_a2s":"Uncletopia | Montréal | 4 | No Payload","protocol":17,"map":"pl_pier","folder":"tf","game":"Team Fortress","app_id":440,"player_count":0,"max_players":24,"Bots":0,"server_type":"Dedicated","server_os":"Linux","password":true,"vac":true,"version":"7757534","steam_id":85568392924500090,"keywords":["nocrits","nodmgspread","payload","uncletopia"],"game_id":440,"stv_port":27046,"stv_name":"Uncletopia | Montréal | 4 | No Payload | STV","players":null},{"server_id":13,"name":"Uncletopia | New York City | 1 | All Maps","name_short":"nyc-1","host":"nyc-1.us.uncletopia.com","port":27015,"enabled":true,"region":"us-east","cc":"us","latitude":40.73061,"longitude":-73.93524,"reserved":0,"last_update":"0001-01-01T00:00:00Z","name_a2s":"Uncletopia | New York City | 1 | All Maps","protocol":17,"map":"pl_borneo","folder":"tf","game":"Team Fortress","app_id":440,"player_count":23,"max_players":24,"Bots":0,"server_type":"Dedicated","server_os":"Linux","password":true,"vac":true,"version":"7757534","steam_id":85568392924469993,"keywords":["nocrits","nodmgspread","payload","uncletopia"],"game_id":440,"stv_port":27016,"stv_name":"Uncletopia | New York City | 1 | All Maps | STV","players":[{"user_id":11,"name":"Wattle","steam_id":76561198036756626,"connected_time":1557000000000,"state":"active","ping":53},{"user_id":12,"name":"penny :]","steam_id":76561198040848362,"connected_time":1486000000000,"state":"active","ping":68},{"user_id":42,"name":"sassy loli","steam_id":76561198402316065,"connected_time":2000000000,"state":"spawning","ping":115},{"user_id":14,"name":"SPOOKY_","steam_id":76561198073395404,"connected_time":1437000000000,"state":"active","ping":136},{"user_id":15,"name":"ROGUE-PLANET","steam_id":76561198116023052,"connected_time":1257000000000,"state":"active","ping":76},{"user_id":17,"name":"M16A1Sauce","steam_id":76561199058049384,"connected_time":1140000000000,"state":"active","ping":61},{"user_id":20,"name":"KaasKrans","steam_id":76561198240451972,"connected_time":679000000000,"state":"active","ping":128},{"user_id":21,"name":"feenman","steam_id":76561199383834799,"connected_time":665000000000,"state":"active","ping":113},{"user_id":22,"name":"Communist Killing Candy Cactus\ufffd","steam_id":76561198074980635,"connected_time":593000000000,"state":"active","ping":138},{"user_id":40,"name":"(no monitor) ayylien","steam_id":76561198042127970,"connected_time":130000000000,"state":"active","ping":70},{"user_id":35,"name":"A Shiny Meat Bicycle","steam_id":76561198358757709,"connected_time":370000000000,"state":"active","ping":84},{"user_id":25,"name":"Shoe™","steam_id":76561199114397881,"connected_time":542000000000,"state":"active","ping":60},{"user_id":26,"name":"Average Kanye Fan (2023)","steam_id":76561198976821898,"connected_time":503000000000,"state":"active","ping":109},{"user_id":27,"name":"ツCloudsu Visioncs.de","steam_id":76561199074245825,"connected_time":499000000000,"state":"active","ping":114},{"user_id":28,"name":"Stoa","steam_id":76561198332519926,"connected_time":498000000000,"state":"active","ping":95},{"user_id":33,"name":"DomTheBomb07","steam_id":76561199153949548,"connected_time":439000000000,"state":"active","ping":85},{"user_id":30,"name":"Bubz","steam_id":76561199013499631,"connected_time":470000000000,"state":"active","ping":78},{"user_id":31,"name":"orlando","steam_id":76561198128347876,"connected_time":452000000000,"state":"active","ping":54},{"user_id":32,"name":"Hashyterps Visioncs.de","steam_id":76561198110563958,"connected_time":448000000000,"state":"active","ping":103},{"user_id":34,"name":"Take the L","steam_id":76561198379223875,"connected_time":382000000000,"state":"active","ping":74},{"user_id":36,"name":"I Vore Friendlies","steam_id":76561198980062131,"connected_time":323000000000,"state":"active","ping":63},{"user_id":37,"name":"originalakalil","steam_id":76561199481172481,"connected_time":319000000000,"state":"active","ping":99},{"user_id":41,"name":"Poi","steam_id":76561198176914898,"connected_time":96000000000,"state":"active","ping":74}]},{"server_id":14,"name":"Uncletopia | New York City | 2 | All Maps","name_short":"nyc-2","host":"nyc-1.us.uncletopia.com","port":27025,"enabled":true,"region":"us-east","cc":"us","latitude":40.73061,"longitude":-73.93524,"reserved":0,"last_update":"0001-01-01T00:00:00Z","name_a2s":"Uncletopia | New York City | 2 | All Maps","protocol":17,"map":"cp_process_final","folder":"tf","game":"Team Fortress","app_id":440,"player_count":0,"max_players":24,"Bots":0,"server_type":"Dedicated","server_os":"Linux","password":true,"vac":true,"version":"7757534","steam_id":85568392924469994,"keywords":["cp","nocrits","nodmgspread","uncletopia"],"game_id":440,"stv_port":27026,"stv_name":"Uncletopia | New York City | 2 | All Maps | STV","players":null},{"server_id":15,"name":"Uncletopia | New York City | 3 | Stopwatch Beta","name_short":"nyc-3","host":"nyc-1.us.uncletopia.com","port":27035,"enabled":true,"region":"us-east","cc":"us","latitude":40.73061,"longitude":-73.93524,"reserved":0,"last_update":"0001-01-01T00:00:00Z","name_a2s":"Uncletopia | New York City | 3 | Stopwatch Beta","protocol":17,"map":"workshop/koth_product_final.ugc454272353","folder":"tf","game":"Team Fortress","app_id":440,"player_count":24,"max_players":24,"Bots":0,"server_type":"Dedicated","server_os":"Linux","password":true,"vac":true,"version":"7757534","steam_id":85568392924742820,"keywords":["cp","nocrits","nodmgspread","uncletopia"],"game_id":440,"stv_port":27036,"stv_name":"Uncletopia | New York City | 3 | Stopwatch Beta | STV","players":[{"user_id":30,"name":"skille","steam_id":76561198005794325,"connected_time":1322000000000,"state":"active","ping":144},{"user_id":31,"name":"ribbonborn","steam_id":76561198001195423,"connected_time":1271000000000,"state":"active","ping":92},{"user_id":32,"name":"Night-o EVP","steam_id":76561198166640022,"connected_time":1221000000000,"state":"active","ping":80},{"user_id":9,"name":"will’s extra large baguette\ufffd\ufffd","steam_id":76561199095395177,"connected_time":2500000000000,"state":"active","ping":99},{"user_id":33,"name":"FrostBurn","steam_id":76561198847259953,"connected_time":1197000000000,"state":"active","ping":97},{"user_id":13,"name":"madi's sexy and crunchy pickle\ufffd","steam_id":76561198361917585,"connected_time":2310000000000,"state":"active","ping":110},{"user_id":14,"name":"A Lost CAWs","steam_id":76561198127120212,"connected_time":2292000000000,"state":"active","ping":86},{"user_id":49,"name":"beerinabox","steam_id":76561198070614450,"connected_time":312000000000,"state":"active","ping":84},{"user_id":34,"name":"hightower npc","steam_id":76561198097588802,"connected_time":1145000000000,"state":"active","ping":72},{"user_id":20,"name":"Mr. Call You Back","steam_id":76561198025172811,"connected_time":1756000000000,"state":"active","ping":41},{"user_id":51,"name":"Starblizt","steam_id":76561198838941408,"connected_time":294000000000,"state":"active","ping":67},{"user_id":28,"name":"CJAIME01345","steam_id":76561199091599141,"connected_time":1521000000000,"state":"active","ping":111},{"user_id":35,"name":"Kiwimpediment","steam_id":76561198322781400,"connected_time":1116000000000,"state":"active","ping":98},{"user_id":36,"name":"frying pan gaming","steam_id":76561199097866312,"connected_time":1089000000000,"state":"active","ping":113},{"user_id":37,"name":"zzz","steam_id":76561198302976864,"connected_time":1075000000000,"state":"active","ping":75},{"user_id":38,"name":"E^2","steam_id":76561198815644949,"connected_time":1044000000000,"state":"active","ping":59},{"user_id":39,"name":"ark","steam_id":76561198041066271,"connected_time":1025000000000,"state":"active","ping":89},{"user_id":40,"name":"FellowGamer","steam_id":76561198089600392,"connected_time":1004000000000,"state":"active","ping":83},{"user_id":52,"name":"Osrio","steam_id":76561198083428069,"connected_time":282000000000,"state":"active","ping":87},{"user_id":43,"name":"Fuzzy","steam_id":76561199100612353,"connected_time":870000000000,"state":"active","ping":69},{"user_id":45,"name":"The Gremlin","steam_id":76561198419066993,"connected_time":856000000000,"state":"active","ping":132},{"user_id":46,"name":"spud stealer 2000","steam_id":76561199264293695,"connected_time":788000000000,"state":"active","ping":74},{"user_id":47,"name":"SanitysEdge","steam_id":76561198130732813,"connected_time":683000000000,"state":"active","ping":111},{"user_id":48,"name":"Recursive Gamer","steam_id":76561198042102952,"connected_time":648000000000,"state":"active","ping":94}]},{"server_id":16,"name":"Uncletopia | New York City | 4 | Community","name_short":"nyc-4","host":"nyc-1.us.uncletopia.com","port":27045,"enabled":true,"region":"us-east","cc":"us","latitude":40.73061,"longitude":-73.93524,"reserved":0,"last_update":"0001-01-01T00:00:00Z","name_a2s":"Uncletopia | New York City | 4 | Community","protocol":17,"map":"workshop/rd_asteroid_redux_b1.ugc2154902912","folder":"tf","game":"Team Fortress","app_id":440,"player_count":0,"max_players":24,"Bots":0,"server_type":"Dedicated","server_os":"Linux","password":true,"vac":true,"version":"7757534","steam_id":85568392924742821,"keywords":["beta","nocrits","nodmgspread","rd","uncletopia"],"game_id":440,"stv_port":27046,"stv_name":"Uncletopia | New York City | 4 | Community | STV","players":null},{"server_id":142,"name":"Uncletopia | São Paulo | 1 | All Maps","name_short":"sao-1","host":"sao-1.br.uncletopia.com","port":27015,"enabled":true,"region":"sa","cc":"br","latitude":-23.533773,"longitude":-46.62529,"reserved":0,"last_update":"0001-01-01T00:00:00Z","name_a2s":"Uncletopia | São Paulo | 1 | All Maps","protocol":17,"map":"koth_lakeside_final","folder":"tf","game":"Team Fortress","app_id":440,"player_count":0,"max_players":24,"Bots":0,"server_type":"Dedicated","server_os":"Linux","password":true,"vac":true,"version":"7757534","steam_id":85568392924469996,"keywords":["cp","nocrits","nodmgspread","uncletopia"],"game_id":440,"stv_port":27016,"stv_name":"Uncletopia | São Paulo | 1 | All Maps | STV","players":null},{"server_id":143,"name":"Uncletopia | São Paulo | 2 | All Maps","name_short":"sao-2","host":"sao-2.br.uncletopia.com","port":27015,"enabled":true,"region":"sa","cc":"br","latitude":-23.533773,"longitude":-46.62529,"reserved":0,"last_update":"0001-01-01T00:00:00Z","name_a2s":"Uncletopia | São Paulo | 2 | All Maps","protocol":17,"map":"koth_viaduct","folder":"tf","game":"Team Fortress","app_id":440,"player_count":0,"max_players":24,"Bots":0,"server_type":"Dedicated","server_os":"Linux","password":true,"vac":true,"version":"7757534","steam_id":85568392924485349,"keywords":["cp","nocrits","nodmgspread","uncletopia"],"game_id":440,"stv_port":27016,"stv_name":"Uncletopia | São Paulo | 2 | All Maps | STV","players":null},{"server_id":7,"name":"Uncletopia | Seattle | 1 | All Maps","name_short":"sea-1","host":"sea-1.us.uncletopia.com","port":27015,"enabled":true,"region":"us-west","cc":"us","latitude":47.608013,"longitude":-122.33517,"reserved":0,"last_update":"0001-01-01T00:00:00Z","name_a2s":"Uncletopia | Seattle | 1 | All Maps","protocol":17,"map":"pl_borneo","folder":"tf","game":"Team Fortress","app_id":440,"player_count":24,"max_players":24,"Bots":0,"server_type":"Dedicated","server_os":"Linux","password":true,"vac":true,"version":"7757534","steam_id":85568392924469997,"keywords":["nocrits","nodmgspread","payload","uncletopia"],"game_id":440,"stv_port":27016,"stv_name":"Uncletopia | Seattle | 1 | All Maps | STV","players":[{"user_id":212,"name":"Gibus Man","steam_id":76561198257241062,"connected_time":899000000000,"state":"active","ping":44},{"user_id":195,"name":"Prof. Eggnog","steam_id":76561198193389166,"connected_time":2520000000000,"state":"active","ping":130},{"user_id":70,"name":"HiFivr","steam_id":76561198285190162,"connected_time":10561000000000,"state":"active","ping":67},{"user_id":213,"name":"Illusionism","steam_id":76561198167878499,"connected_time":833000000000,"state":"active","ping":74},{"user_id":217,"name":"Snorgdarf","steam_id":76561198047962582,"connected_time":211000000000,"state":"active","ping":48},{"user_id":216,"name":"Natura","steam_id":76561198035698704,"connected_time":626000000000,"state":"active","ping":66},{"user_id":218,"name":"Obelix","steam_id":76561198274715109,"connected_time":181000000000,"state":"active","ping":101},{"user_id":198,"name":"Oopsie Daisy ❋","steam_id":76561198042144492,"connected_time":2222000000000,"state":"active","ping":124},{"user_id":211,"name":"SeaBass","steam_id":76561197982949108,"connected_time":1037000000000,"state":"active","ping":128},{"user_id":219,"name":"🅜🅔🅔🅚🅢🅣🅔\ufffd\ufffd\ufffd","steam_id":76561197999748343,"connected_time":169000000000,"state":"active","ping":90},{"user_id":194,"name":"Beebons","steam_id":76561198170091433,"connected_time":2529000000000,"state":"active","ping":60},{"user_id":221,"name":"Dry","steam_id":76561198124135416,"connected_time":118000000000,"state":"active","ping":97},{"user_id":214,"name":"Derosian","steam_id":76561197966878168,"connected_time":681000000000,"state":"active","ping":89},{"user_id":196,"name":"DIGGY","steam_id":76561198991238982,"connected_time":2519000000000,"state":"active","ping":51},{"user_id":177,"name":"joji fan fr","steam_id":76561198975706117,"connected_time":3822000000000,"state":"active","ping":77},{"user_id":197,"name":"RagingBagon","steam_id":76561198255453127,"connected_time":2517000000000,"state":"active","ping":75},{"user_id":222,"name":"BoxBoy","steam_id":76561198389904009,"connected_time":104000000000,"state":"active","ping":66},{"user_id":144,"name":"KeZ","steam_id":76561198275364564,"connected_time":6095000000000,"state":"active","ping":53},{"user_id":208,"name":"resting neutral face","steam_id":76561197999259502,"connected_time":1304000000000,"state":"active","ping":60},{"user_id":192,"name":"bear1boss fan","steam_id":76561198047850813,"connected_time":2637000000000,"state":"active","ping":55},{"user_id":193,"name":"Tyler\u0026Fingers","steam_id":76561198085154485,"connected_time":2555000000000,"state":"active","ping":135},{"user_id":215,"name":"Kafuka","steam_id":76561198014404374,"connected_time":673000000000,"state":"active","ping":39},{"user_id":207,"name":"Mikmoomamimocki","steam_id":76561199077167536,"connected_time":1398000000000,"state":"active","ping":115},{"user_id":206,"name":"Kenny","steam_id":76561198120364727,"connected_time":1456000000000,"state":"active","ping":104}]},{"server_id":119,"name":"Uncletopia | Seattle | 2 | All Maps","name_short":"sea-2","host":"sea-1.us.uncletopia.com","port":27025,"enabled":true,"region":"us-west","cc":"us","latitude":47.608013,"longitude":-122.33517,"reserved":0,"last_update":"0001-01-01T00:00:00Z","name_a2s":"Uncletopia | Seattle | 2 | All Maps","protocol":17,"map":"pl_pier","folder":"tf","game":"Team Fortress","app_id":440,"player_count":0,"max_players":24,"Bots":0,"server_type":"Dedicated","server_os":"Linux","password":true,"vac":true,"version":"7757534","steam_id":85568392924469998,"keywords":["nocrits","nodmgspread","payload","uncletopia"],"game_id":440,"stv_port":27026,"stv_name":"Uncletopia | Seattle | 2 | All Maps | STV","players":null},{"server_id":406,"name":"Uncletopia | Seattle | 3 | Stopwatch Beta","name_short":"sea-3","host":"sea-1.us.uncletopia.com","port":27035,"enabled":true,"region":"us-west","cc":"us","latitude":47.608013,"longitude":-122.33517,"reserved":0,"last_update":"0001-01-01T00:00:00Z","name_a2s":"Uncletopia | Seattle | 3 | Stopwatch Beta","protocol":17,"map":"cp_dustbowl","folder":"tf","game":"Team Fortress","app_id":440,"player_count":0,"max_players":24,"Bots":0,"server_type":"Dedicated","server_os":"Linux","password":true,"vac":true,"version":"7757534","steam_id":85568392924515217,"keywords":["cp","nocrits","nodmgspread","uncletopia"],"game_id":440,"stv_port":27036,"stv_name":"Uncletopia | Seattle | 3 | Stopwatch Beta | STV","players":null},{"server_id":17,"name":"Uncletopia | San Francisco | 1 | All Maps","name_short":"sfo-1","host":"sfo-1.us.uncletopia.com","port":27015,"enabled":true,"region":"us-west","cc":"us","latitude":37.77397,"longitude":-122.4313,"reserved":0,"last_update":"0001-01-01T00:00:00Z","name_a2s":"Uncletopia | San Francisco | 1 | All Maps","protocol":17,"map":"pl_frontier_final","folder":"tf","game":"Team Fortress","app_id":440,"player_count":0,"max_players":24,"Bots":0,"server_type":"Dedicated","server_os":"Linux","password":true,"vac":true,"version":"7757534","steam_id":85568392924469999,"keywords":["nocrits","nodmgspread","payload","uncletopia"],"game_id":440,"stv_port":27016,"stv_name":"Uncletopia | San Francisco | 1 | All Maps | STV","players":null},{"server_id":18,"name":"Uncletopia | San Francisco | 2 | All Maps","name_short":"sfo-2","host":"sfo-1.us.uncletopia.com","port":27025,"enabled":true,"region":"us-west","cc":"us","latitude":37.77397,"longitude":-122.4313,"reserved":0,"last_update":"0001-01-01T00:00:00Z","name_a2s":"Uncletopia | San Francisco | 2 | All Maps","protocol":17,"map":"koth_highpass","folder":"tf","game":"Team Fortress","app_id":440,"player_count":0,"max_players":24,"Bots":0,"server_type":"Dedicated","server_os":"Linux","password":true,"vac":true,"version":"7757534","steam_id":85568392924470000,"keywords":["cp","nocrits","nodmgspread","uncletopia"],"game_id":440,"stv_port":27026,"stv_name":"Uncletopia | San Francisco | 2 | All Maps | STV","players":null},{"server_id":19,"name":"Uncletopia | San Francisco | 3 | Stopwatch Beta","name_short":"sfo-3","host":"sfo-1.us.uncletopia.com","port":27035,"enabled":true,"region":"us-west","cc":"us","latitude":37.77397,"longitude":-122.4313,"reserved":0,"last_update":"0001-01-01T00:00:00Z","name_a2s":"Uncletopia | San Francisco | 3 | Stopwatch Beta","protocol":17,"map":"koth_lakeside_final","folder":"tf","game":"Team Fortress","app_id":440,"player_count":0,"max_players":24,"Bots":0,"server_type":"Dedicated","server_os":"Linux","password":true,"vac":true,"version":"7757534","steam_id":85568392924742824,"keywords":["cp","nocrits","nodmgspread","uncletopia"],"game_id":440,"stv_port":27036,"stv_name":"Uncletopia | San Francisco | 3 | Stopwatch Beta | STV","players":null},{"server_id":20,"name":"Uncletopia | San Francisco | 4 | Community","name_short":"sfo-4","host":"sfo-1.us.uncletopia.com","port":27045,"enabled":true,"region":"us-west","cc":"us","latitude":37.77397,"longitude":-122.4313,"reserved":0,"last_update":"0001-01-01T00:00:00Z","name_a2s":"Uncletopia | San Francisco | 4 | Community","protocol":17,"map":"cp_altitude","folder":"tf","game":"Team Fortress","app_id":440,"player_count":0,"max_players":24,"Bots":0,"server_type":"Dedicated","server_os":"Linux","password":true,"vac":true,"version":"7757534","steam_id":85568392924742826,"keywords":["cp","nocrits","nodmgspread","uncletopia"],"game_id":440,"stv_port":27046,"stv_name":"Uncletopia | San Francisco | 4 | Community | STV","players":null},{"server_id":141,"name":"Uncletopia | Sydney | 1 | All Maps","name_short":"syd-1","host":"syd-1.au.uncletopia.com","port":27015,"enabled":true,"region":"au","cc":"au","latitude":-33.865143,"longitude":151.2099,"reserved":0,"last_update":"0001-01-01T00:00:00Z","name_a2s":"Uncletopia | Sydney | 1 | All Maps","protocol":17,"map":"pl_badwater","folder":"tf","game":"Team Fortress","app_id":440,"player_count":0,"max_players":24,"Bots":0,"server_type":"Dedicated","server_os":"Linux","password":true,"vac":true,"version":"7757534","steam_id":85568392924470001,"keywords":["nocrits","nodmgspread","payload","uncletopia"],"game_id":440,"stv_port":27016,"stv_name":"Uncletopia | Sydney | 1 | All Maps | STV","players":null},{"server_id":123,"name":"Uncletopia | Sydney | 2 | All Maps","name_short":"syd-2","host":"syd-1.au.uncletopia.com","port":27025,"enabled":true,"region":"au","cc":"au","latitude":-33.865143,"longitude":151.2099,"reserved":0,"last_update":"0001-01-01T00:00:00Z","name_a2s":"Uncletopia | Sydney | 2 | All Maps","protocol":17,"map":"cp_snakewater_final1","folder":"tf","game":"Team Fortress","app_id":440,"player_count":0,"max_players":24,"Bots":0,"server_type":"Dedicated","server_os":"Linux","password":true,"vac":true,"version":"7757534","steam_id":85568392924470002,"keywords":["cp","nocrits","nodmgspread","uncletopia"],"game_id":440,"stv_port":27026,"stv_name":"Uncletopia | Sydney | 2 | All Maps | STV","players":null},{"server_id":395,"name":"Uncletopia | Sydney | 3 | All Maps","name_short":"syd-3","host":"syd-1.au.uncletopia.com","port":27035,"enabled":true,"region":"au","cc":"au","latitude":-33.865143,"longitude":151.2099,"reserved":0,"last_update":"0001-01-01T00:00:00Z","name_a2s":"Uncletopia | Sydney | 3 | All Maps","protocol":17,"map":"koth_cascade","folder":"tf","game":"Team Fortress","app_id":440,"player_count":0,"max_players":24,"Bots":0,"server_type":"Dedicated","server_os":"Linux","password":true,"vac":true,"version":"7757534","steam_id":85568392925194467,"keywords":["cp","nocrits","nodmgspread","uncletopia"],"game_id":440,"stv_port":27036,"stv_name":"Uncletopia | Sydney | 3 | All Maps | STV","players":null},{"server_id":396,"name":"Uncletopia | Sydney | 4 | All Maps","name_short":"syd-4","host":"syd-1.au.uncletopia.com","port":27045,"enabled":true,"region":"au","cc":"au","latitude":-33.865143,"longitude":151.2099,"reserved":0,"last_update":"0001-01-01T00:00:00Z","name_a2s":"Uncletopia | Sydney | 4 | All Maps","protocol":17,"map":"koth_highpass","folder":"tf","game":"Team Fortress","app_id":440,"player_count":0,"max_players":24,"Bots":0,"server_type":"Dedicated","server_os":"Linux","password":true,"vac":true,"version":"7757534","steam_id":85568392925397958,"keywords":["cp","nocrits","nodmgspread","uncletopia"],"game_id":440,"stv_port":27046,"stv_name":"Uncletopia | Sydney | 4 | All Maps | STV","players":null},{"server_id":58,"name":"Uncletopia | Sydney | 5 | Stopwatch Beta","name_short":"syd-5","host":"syd-1.au.uncletopia.com","port":27055,"enabled":true,"region":"au","cc":"au","latitude":-33.865143,"longitude":151.2099,"reserved":0,"last_update":"0001-01-01T00:00:00Z","name_a2s":"Uncletopia | Sydney | 5 | Stopwatch Beta","protocol":17,"map":"workshop/pl_badwater_pro_v12.ugc2142942074","folder":"tf","game":"Team Fortress","app_id":440,"player_count":0,"max_players":24,"Bots":0,"server_type":"Dedicated","server_os":"Linux","password":true,"vac":true,"version":"7757534","steam_id":85568392925397959,"keywords":["nocrits","nodmgspread","payload","uncletopia"],"game_id":440,"stv_port":27056,"stv_name":"Uncletopia | Sydney | 5 | Stopwatch Beta | STV","players":null},{"server_id":59,"name":"Uncletopia | Sydney | 6 | Community","name_short":"syd-6","host":"syd-1.au.uncletopia.com","port":27065,"enabled":true,"region":"au","cc":"au","latitude":-33.865143,"longitude":151.2099,"reserved":0,"last_update":"0001-01-01T00:00:00Z","name_a2s":"Uncletopia | Sydney | 6 | Community","protocol":17,"map":"workshop/koth_trenchfoot_b1a.ugc731436616","folder":"tf","game":"Team Fortress","app_id":440,"player_count":0,"max_players":24,"Bots":0,"server_type":"Dedicated","server_os":"Linux","password":true,"vac":true,"version":"7757534","steam_id":85568392925397960,"keywords":["cp","nocrits","nodmgspread","uncletopia"],"game_id":440,"stv_port":27066,"stv_name":"Uncletopia | Sydney | 6 | Community | STV","players":null},{"server_id":49,"name":"Uncletopia | Warsaw | 1 | All Maps","name_short":"waw-1","host":"waw-1.pl.uncletopia.com","port":27015,"enabled":true,"region":"eu","cc":"pl","latitude":52.2297,"longitude":21.017532,"reserved":0,"last_update":"0001-01-01T00:00:00Z","name_a2s":"","protocol":0,"map":"","folder":"","game":"","app_id":0,"player_count":0,"max_players":0,"Bots":0,"server_type":"","server_os":"","password":false,"vac":false,"version":"","steam_id":0,"keywords":null,"game_id":0,"stv_port":0,"stv_name":"","players":null},{"server_id":50,"name":"Uncletopia | Warsaw | 2 | All Maps","name_short":"waw-2","host":"waw-1.pl.uncletopia.com","port":27025,"enabled":true,"region":"eu","cc":"pl","latitude":52.2297,"longitude":21.017532,"reserved":0,"last_update":"0001-01-01T00:00:00Z","name_a2s":"Uncletopia | Warsaw | 2 | All Maps","protocol":17,"map":"koth_highpass","folder":"tf","game":"Team Fortress","app_id":440,"player_count":2,"max_players":24,"Bots":0,"server_type":"Dedicated","server_os":"Linux","password":true,"vac":true,"version":"7757534","steam_id":85568392925397851,"keywords":["cp","nocrits","nodmgspread","uncletopia"],"game_id":440,"stv_port":27026,"stv_name":"Uncletopia | Warsaw | 2 | All Maps | STV","players":[{"user_id":18,"name":"Poleeyan","steam_id":76561198885522435,"connected_time":1510000000000,"state":"active","ping":48},{"user_id":15,"name":"_RAJU (can i have smthg im f2p?","steam_id":76561198870155327,"connected_time":3757000000000,"state":"active","ping":56}]},{"server_id":51,"name":"Uncletopia | Warsaw | 3 | All Maps","name_short":"waw-3","host":"waw-1.pl.uncletopia.com","port":27035,"enabled":true,"region":"eu","cc":"pl","latitude":52.2297,"longitude":21.017532,"reserved":0,"last_update":"0001-01-01T00:00:00Z","name_a2s":"Uncletopia | Warsaw | 3 | All Maps","protocol":17,"map":"koth_viaduct","folder":"tf","game":"Team Fortress","app_id":440,"player_count":0,"max_players":24,"Bots":0,"server_type":"Dedicated","server_os":"Linux","password":true,"vac":true,"version":"7757534","steam_id":85568392925397852,"keywords":["cp","nocrits","nodmgspread","uncletopia"],"game_id":440,"stv_port":27036,"stv_name":"Uncletopia | Warsaw | 3 | All Maps | STV","players":null},{"server_id":52,"name":"Uncletopia | Warsaw | 4 | All Maps","name_short":"waw-4","host":"waw-1.pl.uncletopia.com","port":27045,"enabled":true,"region":"eu","cc":"pl","latitude":52.2297,"longitude":21.017532,"reserved":0,"last_update":"0001-01-01T00:00:00Z","name_a2s":"Uncletopia | Warsaw | 4 | All Maps","protocol":17,"map":"koth_lakeside_final","folder":"tf","game":"Team Fortress","app_id":440,"player_count":0,"max_players":24,"Bots":0,"server_type":"Dedicated","server_os":"Linux","password":true,"vac":true,"version":"7757534","steam_id":85568392925397853,"keywords":["cp","nocrits","nodmgspread","uncletopia"],"game_id":440,"stv_port":27046,"stv_name":"Uncletopia | Warsaw | 4 | All Maps | STV","players":null},{"server_id":53,"name":"Uncletopia | Warsaw | 5 | Stopwatch Beta","name_short":"waw-5","host":"waw-1.pl.uncletopia.com","port":27055,"enabled":true,"region":"eu","cc":"pl","latitude":52.2297,"longitude":21.017532,"reserved":0,"last_update":"0001-01-01T00:00:00Z","name_a2s":"Uncletopia | Warsaw | 5 | Stopwatch Beta","protocol":17,"map":"workshop/koth_clearcut_b15.ugc2107050255","folder":"tf","game":"Team Fortress","app_id":440,"player_count":0,"max_players":24,"Bots":0,"server_type":"Dedicated","server_os":"Linux","password":true,"vac":true,"version":"7757534","steam_id":85568392925397854,"keywords":["cp","nocrits","nodmgspread","uncletopia"],"game_id":440,"stv_port":27056,"stv_name":"Uncletopia | Warsaw | 5 | Stopwatch Beta | STV","players":null},{"server_id":54,"name":"Uncletopia | Warsaw | 6 | Community","name_short":"waw-6","host":"waw-1.pl.uncletopia.com","port":27065,"enabled":true,"region":"eu","cc":"pl","latitude":52.2297,"longitude":21.017532,"reserved":0,"last_update":"0001-01-01T00:00:00Z","name_a2s":"Uncletopia | Warsaw | 6 | Community","protocol":17,"map":"koth_lakeside_final","folder":"tf","game":"Team Fortress","app_id":440,"player_count":0,"max_players":24,"Bots":0,"server_type":"Dedicated","server_os":"Linux","password":true,"vac":true,"version":"7757534","steam_id":85568392925397856,"keywords":["cp","nocrits","nodmgspread","uncletopia"],"game_id":440,"stv_port":27066,"stv_name":"Uncletopia | Warsaw | 6 | Community | STV","players":null}]}