{"status":true,"message":"","result":[{"server_id":9,"name":"Uncletopia | Atlanta | 1 | All Maps","name_short":"atl-1","host":"atl-1.us.uncletopia.com","port":27015,"enabled":true,"region":"us-east","cc":"us","latitude":33.753746,"longitude":-84.38633,"reserved":0,"last_update":"0001-01-01T00:00:00Z","name_a2s":"Uncletopia | Atlanta | 1 | All Maps","protocol":17,"map":"pl_pier","folder":"tf","game":"Team Fortress","app_id":440,"player_count":25,"max_players":24,"Bots":0,"server_type":"Dedicated","server_os":"Linux","password":true,"vac":true,"version":"7757534","steam_id":85568392924469982,"keywords":["nocrits","nodmgspread","payload","uncletopia"],"game_id":440,"stv_port":27016,"stv_name":"Uncletopia | Atlanta | 1 | All Maps | STV","players":[{"user_id":313,"name":"astrophobic","steam_id":76561198838757422,"connected_time":477000000000,"state":"active","ping":91},{"user_id":302,"name":"ATL1 | Sunny004","steam_id":76561198105397410,"connected_time":1054000000000,"state":"active","ping":48},{"user_id":298,"name":"Ultimis the TBH Creature","steam_id":76561198217182993,"connected_time":1183000000000,"state":"active","ping":169},{"user_id":269,"name":"Blashcorp","steam_id":76561199122593964,"connected_time":2006000000000,"state":"active","ping":82},{"user_id":203,"name":"com lag","steam_id":76561198019019392,"connected_time":3662000000000,"state":"active","ping":62},{"user_id":106,"name":"8,000,000 merged Chihuahuas","steam_id":76561198130772096,"connected_time":11506000000000,"state":"active","ping":52},{"user_id":307,"name":"LunarrD","steam_id":76561198811220107,"connected_time":649000000000,"state":"active","ping":87},{"user_id":176,"name":"‚ô•Noble‚ô•","steam_id":76561198427370124,"connected_time":5922000000000,"state":"active","ping":95},{"user_id":276,"name":"Fred","steam_id":76561198070042255,"connected_time":1722000000000,"state":"active","ping":183},{"user_id":318,"name":"crzyhomer","steam_id":76561197961358414,"connected_time":15000000000,"state":"spawning","ping":44},{"user_id":271,"name":"Motreir","steam_id":76561198151717946,"connected_time":1919000000000,"state":"active","ping":77},{"user_id":286,"name":"ChebJeb","steam_id":76561198981377081,"connected_time":1444000000000,"state":"active","ping":82},{"user_id":275,"name":"Neocherry","steam_id":76561198137036962,"connected_time":1824000000000,"state":"active","ping":77},{"user_id":282,"name":"KooKooKachue","steam_id":76561198391195262,"connected_time":1477000000000,"state":"active","ping":76},{"user_id":315,"name":"Grandpa¬¥s Last Drop of Cum","steam_id":76561198079516696,"connected_time":102000000000,"state":"active","ping":93},{"user_id":316,"name":"Dr.Zarann","steam_id":76561198163952958,"connected_time":79000000000,"state":"active","ping":56},{"user_id":304,"name":"firetamer2","steam_id":76561198040886980,"connected_time":877000000000,"state":"active","ping":55},{"user_id":295,"name":"M@verick","steam_id":76561198006363519,"connected_time":1294000000000,"state":"active","ping":81},{"user_id":299,"name":"Khailby","steam_id":76561198811728410,"connected_time":1167000000000,"state":"active","ping":56},{"user_id":314,"name":"Intro Bonito","steam_id":76561198119478838,"connected_time":371000000000,"state":"active","ping":51},{"user_id":294,"name":"ally of big tobacco","steam_id":76561198169927835,"connected_time":1316000000000,"state":"active","ping":86},{"user_id":309,"name":"mcdoubble","steam_id":76561198089126832,"connected_time":620000000000,"state":"active","ping":94},{"user_id":279,"name":"Deltaco","steam_id":76561198094572694,"connected_time":1641000000000,"state":"active","ping":104},{"user_id":310,"name":"mrcatman","steam_id":76561198358434883,"connected_time":619000000000,"state":"active","ping":74}]},{"server_id":400,"name":"Uncletopia | Atlanta | 3 | Community","name_short":"atl-3","host":"atl-1.us.uncletopia.com","port":27035,"enabled":true,"region":"us-east","cc":"us","latitude":33.753746,"longitude":-84.38633,"reserved":0,"last_update":"0001-01-01T00:00:00Z","name_a2s":"Uncletopia | Atlanta | 3 | Community","protocol":17,"map":"workshop/koth_product_final.ugc454272353","folder":"tf","game":"Team Fortress","app_id":440,"player_count":23,"max_players":24,"Bots":0,"server_type":"Dedicated","server_os":"Linux","password":true,"vac":true,"version":"7757534","steam_id":85568392924515187,"keywords":["cp","nocrits","nodmgspread","uncletopia"],"game_id":440,"stv_port":27036,"stv_name":"Uncletopia | Atlanta | 3 | Community | STV","players":[{"user_id":141,"name":"‚ù§‚ô°ÔΩ•ÔæüBubblesÔΩ•Ôæü‚ô°‚ù§","steam_id":76561198041057042,"connected_time":3385000000000,"state":"active","ping":84},{"user_id":179,"name":"Zhenaj","steam_id":76561199209016136,"connected_time":1208000000000,"state":"active","ping":83},{"user_id":148,"name":"your–¥—Ä—É–≥","steam_id":76561198317927140,"connected_time":2297000000000,"state":"active","ping":69},{"user_id":195,"name":"ribbonborn","steam_id":76561198001195423,"connected_time":151000000000,"state":"active","ping":70},{"user_id":136,"name":"gerbniak","steam_id":76561199412109852,"connected_time":3976000000000,"state":"active","ping":126},{"user_id":174,"name":"Lost CS player","steam_id":76561198892387723,"connected_time":1545000000000,"state":"active","ping":70},{"user_id":192,"name":"„ÇØ„Ç±„Ç§","steam_id":76561198215122444,"connected_time":437000000000,"state":"active","ping":55},{"user_id":168,"name":"mel","steam_id":76561198097124190,"connected_time":1730000000000,"state":"active","ping":70},{"user_id":163,"name":"Shathe","steam_id":76561198061268044,"connected_time":2001000000000,"state":"active","ping":80},{"user_id":180,"name":"bash -lc ./asshat.sh","steam_id":76561198004584315,"connected_time":1057000000000,"state":"active","ping":83},{"user_id":126,"name":"jzplr üé∑üêõ","steam_id":76561198091901520,"connected_time":4256000000000,"state":"active","ping":60},{"user_id":181,"name":"Mad Cow ‚Äª","steam_id":76561199470707812,"connected_time":936000000000,"state":"active","ping":76},{"user_id":187,"name":"50 Cent","steam_id":76561199023726004,"connected_time":686000000000,"state":"active","ping":80},{"user_id":190,"name":"VioletSpecs","steam_id":76561198089366466,"connected_time":555000000000,"state":"active","ping":79},{"user_id":143,"name":"PISSF****T","steam_id":76561199062570438,"connected_time":2830000000000,"state":"active","ping":52},{"user_id":154,"name":"Shuual","steam_id":76561198004395256,"connected_time":2235000000000,"state":"active","ping":63},{"user_id":182,"name":"MrrPickle","steam_id":76561198122046514,"connected_time":933000000000,"state":"active","ping":69},{"user_id":193,"name":"fruitlogic","steam_id":76561198071251588,"connected_time":424000000000,"state":"active","ping":65},{"user_id":157,"name":"Dragonofponies","steam_id":76561199016800803,"connected_time":2214000000000,"state":"active","ping":78},{"user_id":186,"name":"Gourm","steam_id":76561198892036159,"connected_time":714000000000,"state":"active","ping":47},{"user_id":158,"name":"CHINESE SPY BALLOON OF DEATH","steam_id":76561197975975364,"connected_time":2209000000000,"state":"active","ping":78},{"user_id":159,"name":"IPlayGamez","steam_id":76561198041387508,"connected_time":2177000000000,"state":"active","ping":49},{"user_id":162,"name":"Scottie Drippin","steam_id":76561198089691679,"connected_time":2086000000000,"state":"active","ping":62}]},{"server_id":401,"name":"Uncletopia | Atlanta | 4 | No Payload","name_short":"atl-4","host":"atl-1.us.uncletopia.com","port":27045,"enabled":true,"region":"us-east","cc":"us","latitude":33.753746,"longitude":-84.38633,"reserved":0,"last_update":"0001-01-01T00:00:00Z","name_a2s":"","protocol":0,"map":"","folder":"","game":"","app_id":0,"player_count":0,"max_players":0,"Bots":0,"server_type":"","server_os":"","password":false,"vac":false,"version":"","steam_id":0,"keywords":null,"game_id":0,"stv_port":0,"stv_name":"","players":null},{"server_id":2,"name":"Uncletopia | Chicago | 1 | All Maps","name_short":"chi-1","host":"chi-1.us.uncletopia.com","port":27015,"enabled":true,"region":"us-central","cc":"us","latitude":41.881832,"longitude":-87.62318,"reserved":0,"last_update":"0001-01-01T00:00:00Z","name_a2s":"Uncletopia | Chicago | 1 | All Maps","protocol":17,"map":"cp_altitude","folder":"tf","game":"Team Fortress","app_id":440,"player_count":20,"max_players":24,"Bots":0,"server_type":"Dedicated","server_os":"Linux","password":true,"vac":true,"version":"7757534","steam_id":85568392924469984,"keywords":["cp","nocrits","nodmgspread","uncletopia"],"game_id":440,"stv_port":27016,"stv_name":"Uncletopia | Chicago | 1 | All Maps | STV","players":[{"user_id":310,"name":"(TWoN Adric)","steam_id":76561197999304024,"connected_time":46000000000,"state":"active","ping":65},{"user_id":264,"name":"Astoriae!","steam_id":76561199090168858,"connected_time":3513000000000,"state":"active","ping":68},{"user_id":308,"name":"XLMasterBlaster","steam_id":76561198106966397,"connected_time":99000000000,"state":"active","ping":62},{"user_id":311,"name":"shake","steam_id":76561199064204750,"connected_time":29000000000,"state":"active","ping":79},{"user_id":305,"name":"moose","steam_id":76561198248625526,"connected_time":410000000000,"state":"active","ping":100},{"user_id":306,"name":"loudpisser","steam_id":76561198078802110,"connected_time":200000000000,"state":"active","ping":64},{"user_id":272,"name":"Chemo","steam_id":76561197961308370,"connected_time":3163000000000,"state":"active","ping":70},{"user_id":297,"name":"Big Phony","steam_id":76561199092395311,"connected_time":1261000000000,"state":"active","ping":64},{"user_id":299,"name":"Sebi","steam_id":76561198182090858,"connected_time":917000000000,"state":"active","ping":50},{"user_id":302,"name":"SL164","steam_id":76561197970800276,"connected_time":813000000000,"state":"active","ping":50},{"user_id":303,"name":"CopperBox","steam_id":76561198068217248,"connected_time":795000000000,"state":"active","ping":87},{"user_id":278,"name":"ItDoobie","steam_id":76561198094947910,"connected_time":3123000000000,"state":"active","ping":69},{"user_id":293,"name":"Goober","steam_id":76561198988863807,"connected_time":1740000000000,"state":"active","ping":76},{"user_id":279,"name":"Yoyo","steam_id":76561199122577289,"connected_time":3093000000000,"state":"active","ping":63},{"user_id":300,"name":"Veir≈´ Viseris","steam_id":76561197989857176,"connected_time":851000000000,"state":"active","ping":168},{"user_id":198,"name":"Adam (Cursed Confetti Creature)","steam_id":76561198317690197,"connected_time":8741000000000,"state":"active","ping":45},{"user_id":309,"name":"raidlps","steam_id":76561199208003679,"connected_time":68000000000,"state":"active","ping":84},{"user_id":280,"name":"Inquisitribble","steam_id":76561198022402409,"connected_time":3062000000000,"state":"active","ping":47},{"user_id":221,"name":"hi","steam_id":76561198809577048,"connected_time":6847000000000,"state":"active","ping":105},{"user_id":254,"name":"Training Arc","steam_id":76561198038832034,"connected_time":4068000000000,"state":"active","ping":109}]},{"server_id":106,"name":"Uncletopia | Chicago | 2 | All Maps","name_short":"chi-2","host":"chi-1.us.uncletopia.com","port":27025,"enabled":true,"region":"us-central","cc":"us","latitude":41.881832,"longitude":-87.62318,"reserved":0,"last_update":"0001-01-01T00:00:00Z","name_a2s":"Uncletopia | Chicago | 2 | All Maps","protocol":17,"map":"pl_frontier_final","folder":"tf","game":"Team Fortress","app_id":440,"player_count":0,"max_players":24,"Bots":0,"server_type":"Dedicated","server_os":"Linux","password":true,"vac":true,"version":"7757534","steam_id":85568392924469985,"keywords":["nocrits","nodmgspread","payload","uncletopia"],"game_id":440,"stv_port":27026,"stv_name":"Uncletopia | Chicago | 2 | All Maps | STV","players":null},{"server_id":402,"name":"Uncletopia | Chicago | 3 | All Maps","name_short":"chi-3","host":"chi-1.us.uncletopia.com","port":27035,"enabled":true,"region":"us-central","cc":"us","latitude":41.881832,"longitude":-87.62318,"reserved":0,"last_update":"0001-01-01T00:00:00Z","name_a2s":"Uncletopia | Chicago | 3 | All Maps","protocol":17,"map":"cp_process_final","folder":"tf","game":"Team Fortress","app_id":440,"player_count":24,"max_players":24,"Bots":0,"server_type":"Dedicated","server_os":"Linux","password":true,"vac":true,"version":"7757534","steam_id":85568392924515191,"keywords":["cp","nocrits","nodmgspread","uncletopia"],"game_id":440,"stv_port":27036,"stv_name":"Uncletopia | Chicago | 3 | All Maps | STV","players":[{"user_id":137,"name":"Bread Baker","steam_id":76561198185335103,"connected_time":670000000000,"state":"active","ping":51},{"user_id":108,"name":"bubblebathgod873","steam_id":76561198083463877,"connected_time":2728000000000,"state":"active","ping":53},{"user_id":13,"name":"katryna","steam_id":76561198023440304,"connected_time":8419000000000,"state":"active","ping":57},{"user_id":110,"name":"he drove a series ten cadillac","steam_id":76561198142756572,"connected_time":2422000000000,"state":"active","ping":63},{"user_id":125,"name":"coolguy782","steam_id":76561198165212575,"connected_time":1790000000000,"state":"active","ping":170},{"user_id":145,"name":"Evolution","steam_id":76561198144767370,"connected_time":428000000000,"state":"active","ping":45},{"user_id":111,"name":"astronomy","steam_id":76561198110661425,"connected_time":2412000000000,"state":"active","ping":45},{"user_id":129,"name":"Dukie4life123","steam_id":76561198131014098,"connected_time":1435000000000,"state":"active","ping":74},{"user_id":148,"name":"one tricked","steam_id":76561198165230503,"connected_time":148000000000,"state":"active","ping":72},{"user_id":149,"name":"gaming for fun","steam_id":76561198062410522,"connected_time":81000000000,"state":"active","ping":47},{"user_id":130,"name":"banana man","steam_id":76561199385170644,"connected_time":1416000000000,"state":"active","ping":60},{"user_id":139,"name":"TeriyakiDynamite","steam_id":76561198050049346,"connected_time":471000000000,"state":"active","ping":114},{"user_id":124,"name":"threethree","steam_id":76561198177354155,"connected_time":1938000000000,"state":"active","ping":46},{"user_id":135,"name":"LegendaryMister151","steam_id":76561198064890524,"connected_time":1073000000000,"state":"active","ping":88},{"user_id":81,"name":"tasty","steam_id":76561198083839061,"connected_time":5271000000000,"state":"active","ping":74},{"user_id":85,"name":"PaP√° Soulzune„ÉÖ","steam_id":76561198139615052,"connected_time":5190000000000,"state":"active","ping":111},{"user_id":140,"name":"Some dude who plays tf2","steam_id":76561199257287496,"connected_time":470000000000,"state":"active","ping":70},{"user_id":141,"name":"They could be starlings","steam_id":76561198441020995,"connected_time":464000000000,"state":"active","ping":105},{"user_id":126,"name":"Xtra","steam_id":76561198355594088,"connected_time":1498000000000,"state":"active","ping":55},{"user_id":136,"name":"Riis","steam_id":76561199345210632,"connected_time":1027000000000,"state":"active","ping":84},{"user_id":142,"name":"Cyberbrunk","steam_id":76561198034163103,"connected_time":460000000000,"state":"active","ping":73},{"user_id":105,"name":"gps","steam_id":76561198067492304,"connected_time":3078000000000,"state":"active","ping":80},{"user_id":116,"name":"83 DPM medic","steam_id":76561198067994868,"connected_time":2386000000000,"state":"active","ping":64},{"user_id":144,"name":"Dispenser (aflyingmouse)","steam_id":76561198058134934,"connected_time":456000000000,"state":"active","ping":127}]},{"server_id":403,"name":"Uncletopia | Chicago | 4 | All Maps","name_short":"chi-4","host":"chi-1.us.uncletopia.com","port":27045,"enabled":true,"region":"us-central","cc":"us","latitude":41.881832,"longitude":-87.62318,"reserved":0,"last_update":"0001-01-01T00:00:00Z","name_a2s":"Uncletopia | Chicago | 4 | All Maps","protocol":17,"map":"koth_cascade","folder":"tf","game":"Team Fortress","app_id":440,"player_count":0,"max_players":24,"Bots":0,"server_type":"Dedicated","server_os":"Linux","password":true,"vac":true,"version":"7757534","steam_id":85568392924515193,"keywords":["cp","nocrits","nodmgspread","uncletopia"],"game_id":440,"stv_port":27046,"stv_name":"Uncletopia | Chicago | 4 | All Maps | STV","players":null},{"server_id":36,"name":"Uncletopia | Chicago | 5 | All Maps","name_short":"chi-5","host":"chi-2.us.uncletopia.com","port":27015,"enabled":true,"region":"us-central","cc":"us","latitude":41.881832,"longitude":-87.62318,"reserved":0,"last_update":"0001-01-01T00:00:00Z","name_a2s":"Uncletopia | Chicago | 5 | All Maps","protocol":17,"map":"koth_lakeside_final","folder":"tf","game":"Team Fortress","app_id":440,"player_count":0,"max_players":24,"Bots":0,"server_type":"Dedicated","server_os":"Linux","password":true,"vac":true,"version":"7757534","steam_id":85568392924866362,"keywords":["cp","nocrits","nodmgspread","uncletopia"],"game_id":440,"stv_port":27016,"stv_name":"Uncletopia | Chicago | 5 | All Maps | STV","players":null},{"server_id":37,"name":"Uncletopia | Chicago | 6 | All Maps","name_short":"chi-6","host":"chi-2.us.uncletopia.com","port":27025,"enabled":true,"region":"us-central","cc":"us","latitude":41.881832,"longitude":-87.62318,"reserved":0,"last_update":"0001-01-01T00:00:00Z","name_a2s":"Uncletopia | Chicago | 6 | All Maps","protocol":17,"map":"koth_cascade","folder":"tf","game":"Team Fortress","app_id":440,"player_count":0,"max_players":24,"Bots":0,"server_type":"Dedicated","server_os":"Linux","password":true,"vac":true,"version":"7757534","steam_id":85568392924866363,"keywords":["cp","nocrits","nodmgspread","uncletopia"],"game_id":440,"stv_port":27026,"stv_name":"Uncletopia | Chicago | 6 | All Maps | STV","players":null},{"server_id":38,"name":"Uncletopia | Chicago | 7 | Stopwatch Beta","name_short":"chi-7","host":"chi-2.us.uncletopia.com","port":27035,"enabled":true,"region":"us-central","cc":"us","latitude":41.881832,"longitude":-87.62318,"reserved":0,"last_update":"0001-01-01T00:00:00Z","name_a2s":"Uncletopia | Chicago | 7 | Stopwatch Beta","protocol":17,"map":"koth_viaduct","folder":"tf","game":"Team Fortress","app_id":440,"player_count":5,"max_players":24,"Bots":0,"server_type":"Dedicated","server_os":"Linux","password":true,"vac":true,"version":"7757534","steam_id":85568392924866364,"keywords":["cp","nocrits","nodmgspread","uncletopia"],"game_id":440,"stv_port":27036,"stv_name":"Uncletopia | Chicago | 7 | Stopwatch Beta | STV","players":[{"user_id":8,"name":"Bern","steam_id":76561198294032289,"connected_time":1311000000000,"state":"active","ping":48},{"user_id":12,"name":"GaleForce","steam_id":76561198196531122,"connected_time":505000000000,"state":"active","ping":61},{"user_id":13,"name":"Thomas Goblin-man Yorke","steam_id":76561197999658755,"connected_time":367000000000,"state":"active","ping":55},{"user_id":11,"name":"the cake","steam_id":76561198405346572,"connected_time":935000000000,"state":"active","ping":66},{"user_id":14,"name":"Unwavering Flavor","steam_id":76561198053306065,"connected_time":211000000000,"state":"active","ping":69}]},{"server_id":39,"name":"Uncletopia | Chicago | 8 | Community","name_short":"chi-8","host":"chi-2.us.uncletopia.com","port":27045,"enabled":true,"region":"us-central","cc":"us","latitude":41.881832,"longitude":-87.62318,"reserved":0,"last_update":"0001-01-01T00:00:00Z","name_a2s":"Uncletopia | Chicago | 8 | Community","protocol":17,"map":"koth_lakeside_final","folder":"tf","game":"Team Fortress","app_id":440,"player_count":0,"max_players":24,"Bots":0,"server_type":"Dedicated","server_os":"Linux","password":true,"vac":true,"version":"7757534","steam_id":85568392924866365,"keywords":["cp","nocrits","nodmgspread","uncletopia"],"game_id":440,"stv_port":27046,"stv_name":"Uncletopia | Chicago | 8 | Community | STV","players":null},{"server_id":8,"name":"Uncletopia | Dallas | 1 | All Maps","name_short":"dal-1","host":"dal-1.us.uncletopia.com","port":27015,"enabled":true,"region":"us-central","cc":"us","latitude":32.779167,"longitude":-96.80889,"reserved":0,"last_update":"0001-01-01T00:00:00Z","name_a2s":"Uncletopia | Dallas | 1 | All Maps","protocol":17,"map":"koth_highpass","folder":"tf","game":"Team Fortress","app_id":440,"player_count":0,"max_players":24,"Bots":0,"server_type":"Dedicated","server_os":"Linux","password":true,"vac":true,"version":"7757534","steam_id":85568392924469986,"keywords":["cp","nocrits","nodmgspread","uncletopia"],"game_id":440,"stv_port":27016,"stv_name":"Uncletopia | Dallas | 1 | All Maps | STV","players":null},{"server_id":108,"name":"Uncletopia | Dallas | 2 | All Maps","name_short":"dal-2","host":"dal-1.us.uncletopia.com","port":27025,"enabled":true,"region":"us-central","cc":"us","latitude":32.779167,"longitude":-96.80889,"reserved":0,"last_update":"0001-01-01T00:00:00Z","name_a2s":"Uncletopia | Dallas | 2 | All Maps","protocol":17,"map":"pl_badwater","folder":"tf","game":"Team Fortress","app_id":440,"player_count":24,"max_players":24,"Bots":0,"server_type":"Dedicated","server_os":"Linux","password":true,"vac":true,"version":"7757534","steam_id":85568392924469988,"keywords":["nocrits","nodmgspread","payload","uncletopia"],"game_id":440,"stv_port":27026,"stv_name":"Uncletopia | Dallas | 2 | All Maps | STV","players":[{"user_id":550,"name":"Fresh Lychee","steam_id":76561198045399559,"connected_time":1457000000000,"state":"active","ping":74},{"user_id":527,"name":"CapnKris22","steam_id":76561198049010994,"connected_time":3649000000000,"state":"active","ping":76},{"user_id":566,"name":"Treeckogeek","steam_id":76561198453328078,"connected_time":601000000000,"state":"active","ping":72},{"user_id":534,"name":"Cresant Ape","steam_id":76561198127425559,"connected_time":3184000000000,"state":"active","ping":44},{"user_id":548,"name":"jturner1nm","steam_id":76561198344493652,"connected_time":1780000000000,"state":"active","ping":98},{"user_id":520,"name":"Tax","steam_id":76561198335683534,"connected_time":3896000000000,"state":"active","ping":86},{"user_id":560,"name":"pinhead larry","steam_id":76561199078518364,"connected_time":669000000000,"state":"active","ping":75},{"user_id":516,"name":"Antonpirulero10","steam_id":76561198253036781,"connected_time":4593000000000,"state":"active","ping":107},{"user_id":546,"name":"tekan","steam_id":76561199077174231,"connected_time":1942000000000,"state":"active","ping":108},{"user_id":568,"name":"ajplays28","steam_id":76561199023537026,"connected_time":261000000000,"state":"active","ping":103},{"user_id":544,"name":"The World's Softest Sandwich","steam_id":76561198015577707,"connected_time":2459000000000,"state":"active","ping":73},{"user_id":563,"name":"Ros","steam_id":76561199055963822,"connected_time":630000000000,"state":"active","ping":70},{"user_id":567,"name":"banana97286","steam_id":76561199367847817,"connected_time":598000000000,"state":"active","ping":76},{"user_id":559,"name":"hud_saytext_time 0","steam_id":76561198010327228,"connected_time":673000000000,"state":"active","ping":182},{"user_id":532,"name":"Shaquille Oatmeal","steam_id":76561198186835074,"connected_time":3432000000000,"state":"active","ping":70},{"user_id":569,"name":"Mr.Z","steam_id":76561199251422541,"connected_time":53000000000,"state":"active","ping":93},{"user_id":549,"name":"Lolxdloldx","steam_id":76561198136887125,"connected_time":1673000000000,"state":"active","ping":79},{"user_id":552,"name":"ChottoAMinute","steam_id":76561198873157775,"connected_time":1427000000000,"state":"active","ping":41},{"user_id":556,"name":"Leo","steam_id":76561198309760791,"connected_time":708000000000,"state":"active","ping":125},{"user_id":555,"name":"dysesthesia","steam_id":76561198027159018,"connected_time":758000000000,"state":"active","ping":93},{"user_id":553,"name":"King Baldski","steam_id":76561198359568400,"connected_time":1408000000000,"state":"active","ping":157},{"user_id":564,"name":"rollsroycekibby","steam_id":76561198991982630,"connected_time":626000000000,"state":"active","ping":74},{"user_id":558,"name":"John Arbuckle","steam_id":76561199016285746,"connected_time":702000000000,"state":"active","ping":76},{"user_id":565,"name":"bencw2020","steam_id":76561199444758049,"connected_time":625000000000,"state":"active","ping":109}]},{"server_id":5,"name":"Uncletopia | Frankfurt | 1 | All Maps","name_short":"frk-1","host":"frk-1.de.uncletopia.com","port":27015,"enabled":true,"region":"eu","cc":"de","latitude":50.110924,"longitude":8.682127,"reserved":0,"last_update":"0001-01-01T00:00:00Z","name_a2s":"Uncletopia | Frankfurt | 1 | All Maps","protocol":17,"map":"pl_pier","folder":"tf","game":"Team Fortress","app_id":440,"player_count":24,"max_players":24,"Bots":0,"server_type":"Dedicated","server_os":"Linux","password":true,"vac":true,"version":"7757534","steam_id":85568392924469989,"keywords":["nocrits","nodmgspread","payload","uncletopia"],"game_id":440,"stv_port":27016,"stv_name":"Uncletopia | Frankfurt | 1 | All Maps | STV","players":[{"user_id":471,"name":"ldshwt","steam_id":76561198090364357,"connected_time":391000000000,"state":"active","ping":54},{"user_id":467,"name":"Haha?","steam_id":76561198056882245,"connected_time":649000000000,"state":"active","ping":47},{"user_id":430,"name":"jukseb√∏llesnillmaker","steam_id":76561199060683386,"connected_time":1823000000000,"state":"active","ping":73},{"user_id":431,"name":"Bock","steam_id":76561198020195322,"connected_time":1803000000000,"state":"active","ping":88},{"user_id":473,"name":"Stachu","steam_id":76561198127485162,"connected_time":256000000000,"state":"active","ping":115},{"user_id":433,"name":"HIDEOUS DISFIGUREMENTS","steam_id":76561198036730191,"connected_time":1780000000000,"state":"active","ping":45},{"user_id":435,"name":"Trebox78","steam_id":76561198071963357,"connected_time":1711000000000,"state":"active","ping":86},{"user_id":465,"name":"Leugim Sotnas","steam_id":76561198955711094,"connected_time":665000000000,"state":"active","ping":74},{"user_id":437,"name":"jonny derp","steam_id":76561198066287297,"connected_time":1661000000000,"state":"active","ping":53},{"user_id":438,"name":"Grand ChouFleur","steam_id":76561198010329501,"connected_time":1517000000000,"state":"active","ping":65},{"user_id":439,"name":"UnknownHero","steam_id":76561198864766392,"connected_time":1509000000000,"state":"active","ping":84},{"user_id":466,"name":"jones","steam_id":76561198044434971,"connected_time":659000000000,"state":"active","ping":60},{"user_id":441,"name":"The real Postal Dude","steam_id":76561198799097492,"connected_time":1503000000000,"state":"active","ping":46},{"user_id":442,"name":"Hegyi tah√≥ F2P","steam_id":76561199219150356,"connected_time":1491000000000,"state":"active","ping":73},{"user_id":443,"name":"Menty","steam_id":76561198036748212,"connected_time":1469000000000,"state":"active","ping":45},{"user_id":458,"name":"Kakograf","steam_id":76561198148375639,"connected_time":1009000000000,"state":"active","ping":86},{"user_id":460,"name":"„ÉÜ„Ç§„É´„Çπ","steam_id":76561198022403271,"connected_time":956000000000,"state":"active","ping":45},{"user_id":446,"name":"The Mechanist","steam_id":76561198046637436,"connected_time":1402000000000,"state":"active","ping":69},{"user_id":447,"name":"Gabys","steam_id":76561198282892553,"connected_time":1394000000000,"state":"active","ping":73},{"user_id":474,"name":"M4R1O","steam_id":76561198050528464,"connected_time":138000000000,"state":"active","ping":59},{"user_id":469,"name":"jovi_","steam_id":76561198449280552,"connected_time":624000000000,"state":"active","ping":67},{"user_id":457,"name":"LoneWolf","steam_id":76561198067866619,"connected_time":1020000000000,"state":"active","ping":72},{"user_id":463,"name":"Nut With Potential","steam_id":76561198293297458,"connected_time":800000000000,"state":"active","ping":58},{"user_id":461,"name":"Lux","steam_id":76561198060417740,"connected_time":956000000000,"state":"active","ping":49}]},{"server_id":110,"name":"Uncletopia | Frankfurt | 2 | All Maps","name_short":"frk-2","host":"frk-1.de.uncletopia.com","port":27025,"enabled":true,"region":"eu","cc":"de","latitude":50.110924,"longitude":8.682127,"reserved":0,"last_update":"0001-01-01T00:00:00Z","name_a2s":"Uncletopia | Frankfurt | 2 | All Maps","protocol":17,"map":"koth_lakeside_final","folder":"tf","game":"Team Fortress","app_id":440,"player_count":0,"max_players":24,"Bots":0,"server_type":"Dedicated","server_os":"Linux","password":true,"vac":true,"version":"7757534","steam_id":85568392924469990,"keywords":["cp","nocrits","nodmgspread","uncletopia"],"game_id":440,"stv_port":27026,"stv_name":"Uncletopia | Frankfurt | 2 | All Maps | STV","players":null},{"server_id":308,"name":"Uncletopia | Frankfurt | 3 | All Maps","name_short":"frk-3","host":"frk-1.de.uncletopia.com","port":27035,"enabled":true,"region":"eu","cc":"de","latitude":50.110924,"longitude":8.682127,"reserved":0,"last_update":"0001-01-01T00:00:00Z","name_a2s":"Uncletopia | Frankfurt | 3 | All Maps","protocol":17,"map":"koth_highpass","folder":"tf","game":"Team Fortress","app_id":440,"player_count":3,"max_players":24,"Bots":0,"server_type":"Dedicated","server_os":"Linux","password":true,"vac":true,"version":"7757534","steam_id":85568392924504274,"keywords":["cp","nocrits","nodmgspread","uncletopia"],"game_id":440,"stv_port":27036,"stv_name":"Uncletopia | Frankfurt | 3 | All Maps | STV","players":[{"user_id":246,"name":"Kiritomato","steam_id":76561199097495303,"connected_time":603000000000,"state":"active","ping":61},{"user_id":247,"name":"Walooygi","steam_id":76561199405355760,"connected_time":552000000000,"state":"active","ping":84},{"user_id":248,"name":"avielol052009","steam_id":76561199169774814,"connected_time":129000000000,"state":"active","ping":174}]},{"server_id":309,"name":"Uncletopia | Frankfurt | 4 | All Maps","name_short":"frk-4","host":"frk-1.de.uncletopia.com","port":27045,"enabled":true,"region":"eu","cc":"de","latitude":50.110924,"longitude":8.682127,"reserved":0,"last_update":"0001-01-01T00:00:00Z","name_a2s":"Uncletopia | Frankfurt | 4 | All Maps","protocol":17,"map":"koth_cascade","folder":"tf","game":"Team Fortress","app_id":440,"player_count":15,"max_players":24,"Bots":0,"server_type":"Dedicated","server_os":"Linux","password":true,"vac":true,"version":"7757534","steam_id":85568392924504275,"keywords":["cp","nocrits","nodmgspread","uncletopia"],"game_id":440,"stv_port":27046,"stv_name":"Uncletopia | Frankfurt | 4 | All Maps | STV","players":[{"user_id":41,"name":"Almaynax","steam_id":76561198039757994,"connected_time":199000000000,"state":"active","ping":87},{"user_id":42,"name":"Gety0","steam_id":76561198044387185,"connected_time":191000000000,"state":"active","ping":73},{"user_id":43,"name":"sudo","steam_id":76561198045575797,"connected_time":191000000000,"state":"active","ping":58},{"user_id":34,"name":"I eat plutonium cores","steam_id":76561198339480413,"connected_time":504000000000,"state":"active","ping":71},{"user_id":35,"name":"Ostara","steam_id":76561198200054489,"connected_time":493000000000,"state":"active","ping":67},{"user_id":44,"name":"POOTIS MAN","steam_id":76561199177886238,"connected_time":163000000000,"state":"active","ping":79},{"user_id":37,"name":"dRumata","steam_id":76561198022150210,"connected_time":450000000000,"state":"active","ping":111},{"user_id":38,"name":"TravIS","steam_id":76561198202115036,"connected_time":449000000000,"state":"active","ping":67},{"user_id":45,"name":"leonardini.w","steam_id":76561199097963071,"connected_time":161000000000,"state":"active","ping":84},{"user_id":46,"name":"vadim_kotler","steam_id":76561199016634369,"connected_time":139000000000,"state":"active","ping":100},{"user_id":47,"name":"curdate","steam_id":76561199147333761,"connected_time":72000000000,"state":"active","ping":113},{"user_id":48,"name":"Kvicha Kvaratskhelia","steam_id":76561198179339326,"connected_time":21000000000,"state":"active","ping":75},{"user_id":49,"name":"BlinkedUp","steam_id":76561198249985618,"connected_time":14000000000,"state":"spawning","ping":77},{"user_id":50,"name":"Industrial Revolution","steam_id":76561198230811124,"connected_time":2000000000,"state":"spawning","ping":53},{"user_id":51,"name":"Dr Doe Gaming","steam_id":76561199104748293,"connected_time":0,"state":"spawning","ping":0}]},{"server_id":310,"name":"Uncletopia | Frankfurt | 5 | All Maps","name_short":"frk-5","host":"frk-1.de.uncletopia.com","port":27055,"enabled":true,"region":"eu","cc":"de","latitude":50.110924,"longitude":8.682127,"reserved":0,"last_update":"0001-01-01T00:00:00Z","name_a2s":"Uncletopia | Frankfurt | 5 | All Maps","protocol":17,"map":"pl_snowycoast","folder":"tf","game":"Team Fortress","app_id":440,"player_count":0,"max_players":24,"Bots":0,"server_type":"Dedicated","server_os":"Linux","password":true,"vac":true,"version":"7757534","steam_id":85568392924504277,"keywords":["nocrits","nodmgspread","payload","uncletopia"],"game_id":440,"stv_port":27056,"stv_name":"Uncletopia | Frankfurt | 5 | All Maps | STV","players":null},{"server_id":311,"name":"Uncletopia | Frankfurt | 6 | All Maps","name_short":"frk-6","host":"frk-1.de.uncletopia.com","port":27065,"enabled":true,"region":"eu","cc":"de","latitude":50.110924,"longitude":8.682127,"reserved":0,"last_update":"0001-01-01T00:00:00Z","name_a2s":"Uncletopia | Frankfurt | 6 | All Maps","protocol":17,"map":"ctf_2fort","folder":"tf","game":"Team Fortress","app_id":440,"player_count":0,"max_players":24,"Bots":0,"server_type":"Dedicated","server_os":"Linux","password":true,"vac":true,"version":"7757534","steam_id":85568392924504278,"keywords":["ctf","nocrits","nodmgspread","uncletopia"],"game_id":440,"stv_port":27066,"stv_name":"Uncletopia | Frankfurt | 6 | All Maps | STV","players":null},{"server_id":23,"name":"Uncletopia | Frankfurt | 7 | Stopwatch Beta","name_short":"frk-7","host":"frk-1.de.uncletopia.com","port":27075,"enabled":true,"region":"eu","cc":"de","latitude":50.110924,"longitude":8.682127,"reserved":0,"last_update":"0001-01-01T00:00:00Z","name_a2s":"Uncletopia | Frankfurt | 7 | Stopwatch Beta","protocol":17,"map":"pl_borneo","folder":"tf","game":"Team Fortress","app_id":440,"player_count":0,"max_players":24,"Bots":0,"server_type":"Dedicated","server_os":"Linux","password":true,"vac":true,"version":"7757534","steam_id":85568392924742827,"keywords":["nocrits","nodmgspread","payload","uncletopia"],"game_id":440,"stv_port":27076,"stv_name":"Uncletopia | Frankfurt | 7 | Stopwatch Beta | STV","players":null},{"server_id":24,"name":"Uncletopia | Frankfurt | 8 | Community","name_short":"frk-8","host":"frk-1.de.uncletopia.com","port":27085,"enabled":true,"region":"eu","cc":"de","latitude":50.110924,"longitude":8.682127,"reserved":0,"last_update":"0001-01-01T00:00:00Z","name_a2s":"Uncletopia | Frankfurt | 8 | Community","protocol":17,"map":"workshop/koth_product_final.ugc454272353","folder":"tf","game":"Team Fortress","app_id":440,"player_count":0,"max_players":24,"Bots":0,"server_type":"Dedicated","server_os":"Linux","password":true,"vac":true,"version":"7757534","steam_id":85568392924742828,"keywords":["cp","nocrits","nodmgspread","uncletopia"],"game_id":440,"stv_port":27086,"stv_name":"Uncletopia | Frankfurt | 8 | Community | STV","players":null},{"server_id":202,"name":"Uncletopia | Hong Kong | 1 | All Maps","name_short":"hgk-1","host":"hgk-1.hk.uncletopia.com","port":27015,"enabled":true,"region":"asia","cc":"hk","latitude":22.302711,"longitude":114.177216,"reserved":0,"last_update":"0001-01-01T00:00:00Z","name_a2s":"Uncletopia | Hong Kong | 1 | All Maps","protocol":17,"map":"cp_process_final","folder":"tf","game":"Team Fortress","app_id":440,"player_count":0,"max_players":24,"Bots":0,"server_type":"Dedicated","server_os":"Linux","password":true,"vac":true,"version":"7757534","steam_id":85568392924494504,"keywords":["cp","nocrits","nodmgspread","uncletopia"],"game_id":440,"stv_port":27016,"stv_name":"Uncletopia | Hong Kong | 1 | All Maps | STV","players":null},{"server_id":1,"name":"Uncletopia | Los Angeles | 1 | All Maps","name_short":"lax-1","host":"lax-1.us.uncletopia.com","port":27015,"enabled":true,"region":"us-west","cc":"us","latitude":33.94279,"longitude":-118.41004,"reserved":0,"last_update":"0001-01-01T00:00:00Z","name_a2s":"Uncletopia | Los Angeles | 1 | All Maps","protocol":17,"map":"koth_cascade","folder":"tf","game":"Team Fortress","app_id":440,"player_count":0,"max_players":24,"Bots":0,"server_type":"Dedicated","server_os":"Linux","password":true,"vac":true,"version":"7757534","steam_id":85568392924469991,"keywords":["cp","nocrits","nodmgspread","uncletopia"],"game_id":440,"stv_port":27016,"stv_name":"Uncletopia | Los Angeles | 1 | All Maps | STV","players":null},{"server_id":112,"name":"Uncletopia | Los Angeles | 2 | All Maps","name_short":"lax-2","host":"lax-1.us.uncletopia.com","port":27025,"enabled":true,"region":"us-west","cc":"us","latitude":33.94279,"longitude":-118.41004,"reserved":0,"last_update":"0001-01-01T00:00:00Z","name_a2s":"Uncletopia | Los Angeles | 2 | All Maps","protocol":17,"map":"koth_viaduct","folder":"tf","game":"Team Fortress","app_id":440,"player_count":0,"max_players":24,"Bots":0,"server_type":"Dedicated","server_os":"Linux","password":true,"vac":true,"version":"7757534","steam_id":85568392924469992,"keywords":["cp","nocrits","nodmgspread","uncletopia"],"game_id":440,"stv_port":27026,"stv_name":"Uncletopia | Los Angeles | 2 | All Maps | STV","players":null},{"server_id":324,"name":"Uncletopia | Los Angeles | 3 | All Maps","name_short":"lax-3","host":"lax-1.us.uncletopia.com","port":27035,"enabled":true,"region":"us-west","cc":"us","latitude":33.94279,"longitude":-118.41004,"reserved":0,"last_update":"0001-01-01T00:00:00Z","name_a2s":"Uncletopia | Los Angeles | 3 | All Maps","protocol":17,"map":"cp_altitude","folder":"tf","game":"Team Fortress","app_id":440,"player_count":0,"max_players":24,"Bots":0,"server_type":"Dedicated","server_os":"Linux","password":true,"vac":true,"version":"7757534","steam_id":85568392924510198,"keywords":["cp","nocrits","nodmgspread","uncletopia"],"game_id":440,"stv_port":27036,"stv_name":"Uncletopia | Los Angeles | 3 | All Maps | STV","players":null},{"server_id":25,"name":"Uncletopia | Los Angeles | 4 | Stopwatch Beta","name_short":"lax-4","host":"lax-1.us.uncletopia.com","port":27045,"enabled":true,"region":"us-west","cc":"us","latitude":33.94279,"longitude":-118.41004,"reserved":0,"last_update":"0001-01-01T00:00:00Z","name_a2s":"Uncletopia | Los Angeles | 4 | Stopwatch Beta","protocol":17,"map":"cp_dustbowl","folder":"tf","game":"Team Fortress","app_id":440,"player_count":0,"max_players":24,"Bots":0,"server_type":"Dedicated","server_os":"Linux","password":true,"vac":true,"version":"7757534","steam_id":85568392924510199,"keywords":["cp","nocrits","nodmgspread","uncletopia"],"game_id":440,"stv_port":27046,"stv_name":"Uncletopia | Los Angeles | 4 | Stopwatch Beta | STV","players":null},{"server_id":11,"name":"Uncletopia | London | 1 | All Maps","name_short":"lon-1","host":"lon-1.uk.uncletopia.com","port":27015,"enabled":true,"region":"eu","cc":"gb","latitude":51.509865,"longitude":-0.118092,"reserved":0,"last_update":"0001-01-01T00:00:00Z","name_a2s":"Uncletopia | London | 1 | All Maps","protocol":17,"map":"pl_badwater","folder":"tf","game":"Team Fortress","app_id":440,"player_count":24,"max_players":24,"Bots":0,"server_type":"Dedicated","server_os":"Linux","password":true,"vac":true,"version":"7757534","steam_id":85568392924367362,"keywords":["nocrits","nodmgspread","payload","uncletopia"],"game_id":440,"stv_port":27016,"stv_name":"Uncletopia | London | 1 | All Maps | STV","players":[{"user_id":441,"name":"Vitamin Weee","steam_id":76561199183937747,"connected_time":979000000000,"state":"active","ping":86},{"user_id":442,"name":"walking sentry","steam_id":76561199225363633,"connected_time":921000000000,"state":"active","ping":112},{"user_id":468,"name":"Big Knoxy","steam_id":76561198291107227,"connected_time":614000000000,"state":"active","ping":70},{"user_id":443,"name":"Frutskopuk","steam_id":76561199066821121,"connected_time":890000000000,"state":"active","ping":91},{"user_id":470,"name":"SKFBoge","steam_id":76561198269038278,"connected_time":588000000000,"state":"active","ping":65},{"user_id":474,"name":"Solymr ibn Wali Barad","steam_id":76561198044008976,"connected_time":320000000000,"state":"active","ping":64},{"user_id":416,"name":"dane uncle","steam_id":76561199374351531,"connected_time":3174000000000,"state":"active","ping":59},{"user_id":445,"name":"Skitnikaa","steam_id":76561199088674327,"connected_time":888000000000,"state":"active","ping":83},{"user_id":439,"name":"Raymus","steam_id":76561198021330407,"connected_time":1254000000000,"state":"active","ping":50},{"user_id":472,"name":"Digio","steam_id":76561199065101964,"connected_time":417000000000,"state":"active","ping":98},{"user_id":451,"name":"panziemniak466","steam_id":76561199140876865,"connected_time":762000000000,"state":"active","ping":189},{"user_id":466,"name":"MGE Bro","steam_id":76561198796600155,"connected_time":630000000000,"state":"active","ping":95},{"user_id":452,"name":"\u003eSix in swedish + y","steam_id":76561198372971096,"connected_time":759000000000,"state":"active","ping":73},{"user_id":453,"name":"Kurage","steam_id":76561198021221288,"connected_time":757000000000,"state":"active","ping":147},{"user_id":454,"name":"medicinal man","steam_id":76561198202668788,"connected_time":756000000000,"state":"active","ping":71},{"user_id":456,"name":"holykyckling","steam_id":76561198040661615,"connected_time":739000000000,"state":"active","ping":75},{"user_id":471,"name":"milikicz","steam_id":76561198050626103,"connected_time":520000000000,"state":"active","ping":63},{"user_id":464,"name":"Big Benn","steam_id":76561199024168373,"connected_time":658000000000,"state":"active","ping":70},{"user_id":458,"name":"Pottery Knight","steam_id":76561198094455814,"connected_time":725000000000,"state":"active","ping":91},{"user_id":460,"name":"dkosciotrupa2","steam_id":76561199474923376,"connected_time":695000000000,"state":"active","ping":86},{"user_id":473,"name":"Caerot","steam_id":76561198839000676,"connected_time":410000000000,"state":"active","ping":73},{"user_id":432,"name":"pibel","steam_id":76561199139066133,"connected_time":1878000000000,"state":"active","ping":71},{"user_id":462,"name":"After8","steam_id":76561198090750865,"connected_time":689000000000,"state":"active","ping":66},{"user_id":463,"name":"Bgm_","steam_id":76561198056452044,"connected_time":687000000000,"state":"active","ping":74}]},{"server_id":114,"name":"Uncletopia | London | 2 | All Maps","name_short":"lon-2","host":"lon-1.uk.uncletopia.com","port":27025,"enabled":true,"region":"eu","cc":"gb","latitude":51.509865,"longitude":-0.118092,"reserved":0,"last_update":"0001-01-01T00:00:00Z","name_a2s":"Uncletopia | London | 2 | All Maps","protocol":17,"map":"pl_upward","folder":"tf","game":"Team Fortress","app_id":440,"player_count":24,"max_players":24,"Bots":0,"server_type":"Dedicated","server_os":"Linux","password":true,"vac":true,"version":"7757534","steam_id":85568392924470941,"keywords":["nocrits","nodmgspread","payload","uncletopia"],"game_id":440,"stv_port":27026,"stv_name":"Uncletopia | London | 2 | All Maps | STV","players":[{"user_id":676,"name":"Nifi","steam_id":76561198102682566,"connected_time":2539000000000,"state":"active","ping":74},{"user_id":701,"name":"ghost","steam_id":76561198189940229,"connected_time":1222000000000,"state":"active","ping":59},{"user_id":677,"name":"Jnyu","steam_id":76561198070532575,"connected_time":2528000000000,"state":"active","ping":85},{"user_id":678,"name":"Ark-e","steam_id":76561198261870909,"connected_time":2507000000000,"state":"active","ping":33},{"user_id":711,"name":"a dollop of bird","steam_id":76561198089003514,"connected_time":84000000000,"state":"active","ping":45},{"user_id":673,"name":"Jeeworth","steam_id":76561198797972504,"connected_time":2714000000000,"state":"active","ping":75},{"user_id":702,"name":"Scutchy","steam_id":76561198104431220,"connected_time":1040000000000,"state":"active","ping":59},{"user_id":700,"name":"jt7","steam_id":76561198073655162,"connected_time":1638000000000,"state":"active","ping":78},{"user_id":685,"name":"Thalgorock","steam_id":76561198195315022,"connected_time":2441000000000,"state":"active","ping":70},{"user_id":668,"name":"CumbustiblePunda","steam_id":76561197974274677,"connected_time":2896000000000,"state":"active","ping":60},{"user_id":704,"name":"Flying bottleman","steam_id":76561198241772340,"connected_time":954000000000,"state":"active","ping":114},{"user_id":708,"name":"generic alias","steam_id":76561198271607226,"connected_time":835000000000,"state":"active","ping":96},{"user_id":680,"name":"quickfast","steam_id":76561199438900919,"connected_time":2479000000000,"state":"active","ping":45},{"user_id":688,"name":"homeinvasion$","steam_id":76561199111905021,"connected_time":2358000000000,"state":"active","ping":119},{"user_id":695,"name":"TheBeardedM1G","steam_id":76561198040208946,"connected_time":2033000000000,"state":"active","ping":46},{"user_id":639,"name":"Serton‚ôù","steam_id":76561198011061126,"connected_time":4996000000000,"state":"active","ping":74},{"user_id":623,"name":"Wiki","steam_id":76561198106666604,"connected_time":5573000000000,"state":"active","ping":72},{"user_id":580,"name":"EdSuedi","steam_id":76561199387956486,"connected_time":7875000000000,"state":"active","ping":63},{"user_id":709,"name":"Scout Sex","steam_id":76561199074844829,"connected_time":759000000000,"state":"active","ping":61},{"user_id":618,"name":"plepek","steam_id":76561198042959598,"connected_time":5697000000000,"state":"active","ping":85},{"user_id":710,"name":"Sloneczku","steam_id":76561198032886890,"connected_time":249000000000,"state":"active","ping":87},{"user_id":674,"name":"‚ú™ qua ‚ú™","steam_id":76561198066408333,"connected_time":2633000000000,"state":"active","ping":85},{"user_id":713,"name":"Ansari","steam_id":76561198074982971,"connected_time":43000000000,"state":"spawning","ping":57},{"user_id":691,"name":"m4 rah rah rasputin","steam_id":76561198025389851,"connected_time":2109000000000,"state":"active","ping":129}]},{"server_id":320,"name":"Uncletopia | London | 3 | All Maps","name_short":"lon-3","host":"lon-1.uk.uncletopia.com","port":27035,"enabled":true,"region":"eu","cc":"gb","latitude":51.509865,"longitude":-0.118092,"reserved":0,"last_update":"0001-01-01T00:00:00Z","name_a2s":"Uncletopia | London | 3 | All Maps","protocol":17,"map":"cp_dustbowl","folder":"tf","game":"Team Fortress","app_id":440,"player_count":24,"max_players":24,"Bots":0,"server_type":"Dedicated","server_os":"Linux","password":true,"vac":true,"version":"7757534","steam_id":85568392924510192,"keywords":["cp","nocrits","nodmgspread","uncletopia"],"game_id":440,"stv_port":27036,"stv_name":"Uncletopia | London | 3 | All Maps | STV","players":[{"user_id":353,"name":"Ross from F.R.I.E.N.D.S.","steam_id":76561198008511665,"connected_time":2160000000000,"state":"active","ping":57},{"user_id":376,"name":"Fridge","steam_id":76561198071665589,"connected_time":605000000000,"state":"active","ping":99},{"user_id":368,"name":"Sch","steam_id":76561198071341689,"connected_time":1268000000000,"state":"active","ping":66},{"user_id":359,"name":"bAdmon","steam_id":76561197961785793,"connected_time":1665000000000,"state":"active","ping":60},{"user_id":373,"name":"KFC Enjoyer","steam_id":76561198840259819,"connected_time":994000000000,"state":"active","ping":59},{"user_id":375,"name":"kallerannar","steam_id":76561199095701143,"connected_time":744000000000,"state":"active","ping":91},{"user_id":361,"name":"lord-carlos","steam_id":76561198025150761,"connected_time":1618000000000,"state":"active","ping":61},{"user_id":360,"name":"tralalaOuiOui","steam_id":76561197963471507,"connected_time":1651000000000,"state":"active","ping":51},{"user_id":351,"name":"I'm Pain","steam_id":76561199167781869,"connected_time":2301000000000,"state":"active","ping":73},{"user_id":363,"name":"–ù—ñ–∫—ñ—Ç—Ä–æ–Ω","steam_id":76561198044401080,"connected_time":1595000000000,"state":"active","ping":61},{"user_id":343,"name":"owlsie","steam_id":76561198094883280,"connected_time":2655000000000,"state":"active","ping":67},{"user_id":377,"name":"porridge","steam_id":76561198044585737,"connected_time":559000000000,"state":"active","ping":42},{"user_id":324,"name":"New","steam_id":76561198402195911,"connected_time":3449000000000,"state":"active","ping":117},{"user_id":326,"name":"sputnik-666","steam_id":76561199125992135,"connected_time":3434000000000,"state":"active","ping":104},{"user_id":327,"name":"za0za_0","steam_id":76561198043601838,"connected_time":3430000000000,"state":"active","ping":75},{"user_id":338,"name":"boot kla","steam_id":76561198106049954,"connected_time":3084000000000,"state":"active","ping":75},{"user_id":364,"name":"Smiffsmiffwild3","steam_id":76561199097073780,"connected_time":1585000000000,"state":"active","ping":79},{"user_id":371,"name":"Florida Man","steam_id":76561198418116040,"connected_time":1134000000000,"state":"active","ping":180},{"user_id":329,"name":"i make you my b*tch","steam_id":76561198190583242,"connected_time":3424000000000,"state":"active","ping":87},{"user_id":366,"name":"Xydran","steam_id":76561198042397402,"connected_time":1542000000000,"state":"active","ping":74},{"user_id":330,"name":"Waltcha","steam_id":76561198007691468,"connected_time":3419000000000,"state":"active","ping":67},{"user_id":374,"name":"al.koll1212","steam_id":76561198410670217,"connected_time":971000000000,"state":"active","ping":62},{"user_id":339,"name":"d00bie","steam_id":76561198025295218,"connected_time":2997000000000,"state":"active","ping":78},{"user_id":311,"name":"a straight white male","steam_id":76561198381120660,"connected_time":5185000000000,"state":"active","ping":93}]},{"server_id":321,"name":"Uncletopia | London | 4 | All Maps","name_short":"lon-4","host":"lon-1.uk.uncletopia.com","port":27045,"enabled":true,"region":"eu","cc":"gb","latitude":51.509865,"longitude":-0.118092,"reserved":0,"last_update":"0001-01-01T00:00:00Z","name_a2s":"Uncletopia | London | 4 | All Maps","protocol":17,"map":"pl_snowycoast","folder":"tf","game":"Team Fortress","app_id":440,"player_count":23,"max_players":24,"Bots":0,"server_type":"Dedicated","server_os":"Linux","password":true,"vac":true,"version":"7757534","steam_id":85568392924510193,"keywords":["nocrits","nodmgspread","payload","uncletopia"],"game_id":440,"stv_port":27046,"stv_name":"Uncletopia | London | 4 | All Maps | STV","players":[{"user_id":549,"name":"CosminSL","steam_id":76561198055827684,"connected_time":1239000000000,"state":"active","ping":86},{"user_id":550,"name":"Cyan","steam_id":76561198090433914,"connected_time":1162000000000,"state":"active","ping":161},{"user_id":489,"name":"LordTrap.exe","steam_id":76561198318089716,"connected_time":5573000000000,"state":"active","ping":45},{"user_id":566,"name":"Pinkchup","steam_id":76561198106802803,"connected_time":42000000000,"state":"active","ping":80},{"user_id":551,"name":"Rifguard","steam_id":76561198868692591,"connected_time":1147000000000,"state":"active","ping":161},{"user_id":541,"name":"Big Trader","steam_id":76561197992364667,"connected_time":1940000000000,"state":"active","ping":79},{"user_id":544,"name":"GEP Gun","steam_id":76561197981821003,"connected_time":1658000000000,"state":"active","ping":59},{"user_id":553,"name":"R0mulone","steam_id":76561198352513792,"connected_time":1069000000000,"state":"active","ping":61},{"user_id":492,"name":"Piteras","steam_id":76561198858532207,"connected_time":5567000000000,"state":"active","ping":83},{"user_id":563,"name":"Ray","steam_id":76561199476086311,"connected_time":196000000000,"state":"active","ping":69},{"user_id":555,"name":"Mlanky","steam_id":76561198047796778,"connected_time":1068000000000,"state":"active","ping":41},{"user_id":524,"name":"Kotlet schabowy","steam_id":76561198048983509,"connected_time":3001000000000,"state":"active","ping":85},{"user_id":494,"name":"Jackriz","steam_id":76561198024882111,"connected_time":5565000000000,"state":"active","ping":74},{"user_id":556,"name":"Backup","steam_id":76561197999557567,"connected_time":1055000000000,"state":"active","ping":59},{"user_id":540,"name":"KLDJVHZJVHBALKDJHG","steam_id":76561198827624126,"connected_time":1999000000000,"state":"active","ping":71},{"user_id":526,"name":"Koli","steam_id":76561197992428783,"connected_time":2979000000000,"state":"active","ping":60},{"user_id":565,"name":"Minimi","steam_id":76561198873850443,"connected_time":110000000000,"state":"active","ping":45},{"user_id":486,"name":"Eggcracker","steam_id":76561199274850641,"connected_time":5753000000000,"state":"active","ping":85},{"user_id":558,"name":"Koi-Koi","steam_id":76561198045527771,"connected_time":1001000000000,"state":"active","ping":56},{"user_id":531,"name":"√ÉNVS DR√ÉNVS","steam_id":76561198138733015,"connected_time":2891000000000,"state":"active","ping":118},{"user_id":547,"name":"Gandhi the Grater","steam_id":76561198051198555,"connected_time":1367000000000,"state":"active","ping":55},{"user_id":561,"name":"stinkyshitass","steam_id":76561198816594501,"connected_time":754000000000,"state":"active","ping":81},{"user_id":514,"name":"Anonymous47007","steam_id":76561199005211417,"connected_time":4059000000000,"state":"active","ping":80}]},{"server_id":21,"name":"Uncletopia | London | 5 | All Maps","name_short":"lon-5","host":"lon-1.uk.uncletopia.com","port":27055,"enabled":true,"region":"eu","cc":"gb","latitude":51.509865,"longitude":-0.118092,"reserved":0,"last_update":"0001-01-01T00:00:00Z","name_a2s":"Uncletopia | London | 5 | All Maps","protocol":17,"map":"pl_snowycoast","folder":"tf","game":"Team Fortress","app_id":440,"player_count":24,"max_players":24,"Bots":0,"server_type":"Dedicated","server_os":"Linux","password":true,"vac":true,"version":"7757534","steam_id":85568392924742829,"keywords":["nocrits","nodmgspread","payload","uncletopia"],"game_id":440,"stv_port":27056,"stv_name":"Uncletopia | London | 5 | All Maps | STV","players":[{"user_id":216,"name":"GoatLord1","steam_id":76561198157964544,"connected_time":1309000000000,"state":"active","ping":54},{"user_id":215,"name":"static","steam_id":76561198836825741,"connected_time":1467000000000,"state":"active","ping":38},{"user_id":223,"name":"WAPtrick star","steam_id":76561198133532980,"connected_time":1050000000000,"state":"active","ping":45},{"user_id":218,"name":"Pingutaro","steam_id":76561198112803718,"connected_time":1259000000000,"state":"active","ping":52},{"user_id":229,"name":"Taskyy","steam_id":76561198134901175,"connected_time":414000000000,"state":"active","ping":84},{"user_id":165,"name":"NotFionn","steam_id":76561198890525176,"connected_time":5126000000000,"state":"active","ping":77},{"user_id":117,"name":"PizzaPete123","steam_id":76561198089478290,"connected_time":9785000000000,"state":"active","ping":44},{"user_id":222,"name":"Jonathan","steam_id":76561198087988880,"connected_time":1070000000000,"state":"active","ping":57},{"user_id":226,"name":"Lyell","steam_id":76561198350329389,"connected_time":831000000000,"state":"active","ping":69},{"user_id":224,"name":"Fat Pigeon","steam_id":76561198817940142,"connected_time":1040000000000,"state":"active","ping":45},{"user_id":221,"name":"Modulus X","steam_id":76561198178430222,"connected_time":1160000000000,"state":"active","ping":38},{"user_id":230,"name":"Milca_11 [Wrench Aficionado]","steam_id":76561198848650365,"connected_time":412000000000,"state":"active","ping":94},{"user_id":207,"name":"wouris","steam_id":76561198876188003,"connected_time":2589000000000,"state":"active","ping":66},{"user_id":219,"name":"Explosive_kink","steam_id":76561198998702838,"connected_time":1252000000000,"state":"active","ping":56},{"user_id":187,"name":"hora","steam_id":76561198404470526,"connected_time":3603000000000,"state":"active","ping":93},{"user_id":204,"name":"Udinese Dion","steam_id":76561198067931573,"connected_time":2598000000000,"state":"active","ping":55},{"user_id":180,"name":"lettuce at 58p","steam_id":76561199401283123,"connected_time":4378000000000,"state":"active","ping":48},{"user_id":220,"name":"fl1p","steam_id":76561198148565659,"connected_time":1251000000000,"state":"active","ping":75},{"user_id":233,"name":"Kremete","steam_id":76561198047984096,"connected_time":17000000000,"state":"active","ping":59},{"user_id":157,"name":"player","steam_id":76561198054474684,"connected_time":5792000000000,"state":"active","ping":84},{"user_id":214,"name":"Ash","steam_id":76561198110133179,"connected_time":1909000000000,"state":"active","ping":49},{"user_id":195,"name":"mark the shot misser","steam_id":76561198309246388,"connected_time":2976000000000,"state":"active","ping":59},{"user_id":193,"name":"TheShooter","steam_id":76561198274105878,"connected_time":3234000000000,"state":"active","ping":90},{"user_id":197,"name":"Tyra","steam_id":76561198043739064,"connected_time":2901000000000,"state":"active","ping":62}]},{"server_id":22,"name":"Uncletopia | London | 6 | All Maps","name_short":"lon-6","host":"lon-1.uk.uncletopia.com","port":27065,"enabled":true,"region":"eu","cc":"gb","latitude":51.509865,"longitude":-0.118092,"reserved":0,"last_update":"0001-01-01T00:00:00Z","name_a2s":"Uncletopia | London | 6 | All Maps","protocol":17,"map":"pl_swiftwater_final1","folder":"tf","game":"Team Fortress","app_id":440,"player_count":24,"max_players":24,"Bots":0,"server_type":"Dedicated","server_os":"Linux","password":true,"vac":true,"version":"7757534","steam_id":85568392924742830,"keywords":["nocrits","nodmgspread","payload","uncletopia"],"game_id":440,"stv_port":27066,"stv_name":"Uncletopia | London | 6 | All Maps | STV","players":[{"user_id":458,"name":"buko","steam_id":76561198349648942,"connected_time":4936000000000,"state":"active","ping":76},{"user_id":378,"name":"Hexagon","steam_id":76561198151205758,"connected_time":7203000000000,"state":"active","ping":59},{"user_id":500,"name":"Wardruna96","steam_id":76561199057083828,"connected_time":721000000000,"state":"active","ping":84},{"user_id":295,"name":"Spajro","steam_id":76561198257383813,"connected_time":13336000000000,"state":"active","ping":51},{"user_id":497,"name":"The One (and only)","steam_id":76561198827193499,"connected_time":1415000000000,"state":"active","ping":81},{"user_id":445,"name":"Hookiest Owler","steam_id":76561198872013525,"connected_time":5148000000000,"state":"active","ping":150},{"user_id":501,"name":"Enda","steam_id":76561198202980164,"connected_time":473000000000,"state":"active","ping":236},{"user_id":488,"name":"cheriberry","steam_id":76561198093577036,"connected_time":1748000000000,"state":"active","ping":68},{"user_id":361,"name":"Ablativus","steam_id":76561198025698470,"connected_time":8293000000000,"state":"active","ping":77},{"user_id":506,"name":"RazorsEdge","steam_id":76561198006549279,"connected_time":185000000000,"state":"active","ping":59},{"user_id":323,"name":"hokey","steam_id":76561198046921199,"connected_time":11423000000000,"state":"active","ping":65},{"user_id":505,"name":"DrExplosive","steam_id":76561198063678579,"connected_time":252000000000,"state":"active","ping":57},{"user_id":463,"name":"Arcader","steam_id":76561198109860110,"connected_time":4685000000000,"state":"active","ping":65},{"user_id":328,"name":"issues","steam_id":76561197994492154,"connected_time":10994000000000,"state":"active","ping":75},{"user_id":486,"name":"nedilya","steam_id":76561198039692077,"connected_time":2305000000000,"state":"active","ping":65},{"user_id":487,"name":"Carl","steam_id":76561198045638738,"connected_time":1802000000000,"state":"active","ping":76},{"user_id":489,"name":"lulu","steam_id":76561199147764133,"connected_time":1646000000000,"state":"active","ping":79},{"user_id":494,"name":"konkubino","steam_id":76561198028756615,"connected_time":1600000000000,"state":"active","ping":88},{"user_id":499,"name":"---","steam_id":76561198027463207,"connected_time":1157000000000,"state":"active","ping":85},{"user_id":503,"name":"charlie","steam_id":76561198086924689,"connected_time":437000000000,"state":"active","ping":57},{"user_id":476,"name":"gibb (official)","steam_id":76561198074097655,"connected_time":3579000000000,"state":"active","ping":44},{"user_id":399,"name":"Mr. Mundy","steam_id":76561198132008918,"connected_time":6327000000000,"state":"active","ping":90},{"user_id":466,"name":"Largo","steam_id":76561198844368927,"connected_time":4204000000000,"state":"active","ping":75},{"user_id":485,"name":"gŒ±–≤—î Œ∑œÉ√´‚Ñì","steam_id":76561198067342352,"connected_time":2428000000000,"state":"active","ping":60}]},{"server_id":40,"name":"Uncletopia | London | 7 | No Payload","name_short":"lon-7","host":"lon-1.uk.uncletopia.com","port":27075,"enabled":true,"region":"eu","cc":"gb","latitude":51.509865,"longitude":-0.118092,"reserved":0,"last_update":"0001-01-01T00:00:00Z","name_a2s":"Uncletopia | London | 7 | No Payload","protocol":17,"map":"plr_pipeline","folder":"tf","game":"Team Fortress","app_id":440,"player_count":0,"max_players":24,"Bots":0,"server_type":"Dedicated","server_os":"Linux","password":true,"vac":true,"version":"7757534","steam_id":85568392924964314,"keywords":["nocrits","nodmgspread","payload","uncletopia"],"game_id":440,"stv_port":27076,"stv_name":"Uncletopia | London | 7 | No Payload | STV","players":null},{"server_id":41,"name":"Uncletopia | London | 8 | Community","name_short":"lon-8","host":"lon-1.uk.uncletopia.com","port":27085,"enabled":true,"region":"eu","cc":"gb","latitude":51.509865,"longitude":-0.118092,"reserved":0,"last_update":"0001-01-01T00:00:00Z","name_a2s":"Uncletopia | London | 8 | Community","protocol":17,"map":"workshop/cp_croissant_final.ugc458840209","folder":"tf","game":"Team Fortress","app_id":440,"player_count":19,"max_players":24,"Bots":0,"server_type":"Dedicated","server_os":"Linux","password":true,"vac":true,"version":"7757534","steam_id":85568392924964315,"keywords":["cp","nocrits","nodmgspread","uncletopia"],"game_id":440,"stv_port":27086,"stv_name":"Uncletopia | London | 8 | Community | STV","players":[{"user_id":94,"name":"midlpsyzl47","steam_id":76561199475972637,"connected_time":89000000000,"state":"active","ping":63},{"user_id":96,"name":"Frog","steam_id":76561198131977071,"connected_time":78000000000,"state":"active","ping":75},{"user_id":68,"name":"happy","steam_id":76561198053141766,"connected_time":2676000000000,"state":"active","ping":107},{"user_id":90,"name":"NOTWALTER","steam_id":76561198125464744,"connected_time":450000000000,"state":"active","ping":125},{"user_id":44,"name":"TSx* Osa__PL","steam_id":76561198027016799,"connected_time":3428000000000,"state":"active","ping":76},{"user_id":97,"name":"IJN Amagi","steam_id":76561198090874324,"connected_time":68000000000,"state":"active","ping":103},{"user_id":46,"name":"TSx* Dante","steam_id":76561198139309331,"connected_time":3421000000000,"state":"active","ping":71},{"user_id":47,"name":"TSx* Naxer","steam_id":76561198011986779,"connected_time":3391000000000,"state":"active","ping":75},{"user_id":91,"name":"Andreus","steam_id":76561199403926001,"connected_time":433000000000,"state":"active","ping":75},{"user_id":98,"name":"Dandelion","steam_id":76561198190302694,"connected_time":56000000000,"state":"active","ping":43},{"user_id":99,"name":"Rob_Duxk","steam_id":76561198966203087,"connected_time":54000000000,"state":"spawning","ping":370},{"user_id":92,"name":"Dor_atar","steam_id":76561198973980542,"connected_time":288000000000,"state":"active","ping":71},{"user_id":100,"name":"Michael","steam_id":76561198003146906,"connected_time":30000000000,"state":"active","ping":45},{"user_id":70,"name":"akakez","steam_id":76561198095432821,"connected_time":2502000000000,"state":"active","ping":116},{"user_id":75,"name":"Benzo Fury","steam_id":76561198025259336,"connected_time":1764000000000,"state":"active","ping":34},{"user_id":80,"name":"B0r–µ–∞l","steam_id":76561198268369013,"connected_time":1434000000000,"state":"active","ping":90},{"user_id":59,"name":"UltraDavid42","steam_id":76561198103908668,"connected_time":2864000000000,"state":"active","ping":75},{"user_id":60,"name":"REDZED","steam_id":76561198419203843,"connected_time":2848000000000,"state":"active","ping":107},{"user_id":63,"name":"nemelex","steam_id":76561198958005865,"connected_time":2825000000000,"state":"active","ping":51}]},{"server_id":300,"name":"Uncletopia | Montr√©al | 1 | All Maps","name_short":"mtl-1","host":"mtl-1.ca.uncletopia.com","port":27015,"enabled":true,"region":"us-east","cc":"ca","latitude":45.50889,"longitude":-73.56167,"reserved":0,"last_update":"0001-01-01T00:00:00Z","name_a2s":"Uncletopia | Montr√©al | 1 | All Maps","protocol":17,"map":"cp_mountainlab","folder":"tf","game":"Team Fortress","app_id":440,"player_count":0,"max_players":24,"Bots":0,"server_type":"Dedicated","server_os":"Linux","password":true,"vac":true,"version":"7757534","steam_id":85568392924500087,"keywords":["cp","nocrits","nodmgspread","uncletopia"],"game_id":440,"stv_port":27016,"stv_name":"Uncletopia | Montr√©al | 1 | All Maps | STV","players":null},{"server_id":301,"name":"Uncletopia | Montr√©al | 2 | All Maps","name_short":"mtl-2","host":"mtl-1.ca.uncletopia.com","port":27025,"enabled":true,"region":"us-east","cc":"ca","latitude":45.50889,"longitude":-73.56167,"reserved":0,"last_update":"0001-01-01T00:00:00Z","name_a2s":"Uncletopia | Montr√©al | 2 | All Maps","protocol":17,"map":"cp_sunshine","folder":"tf","game":"Team Fortress","app_id":440,"player_count":0,"max_players":24,"Bots":0,"server_type":"Dedicated","server_os":"Linux","password":true,"vac":true,"version":"7757534","steam_id":85568392924500088,"keywords":["cp","nocrits","nodmgspread","uncletopia"],"game_id":440,"stv_port":27026,"stv_name":"Uncletopia | Montr√©al | 2 | All Maps | STV","players":null},{"server_id":302,"name":"Uncletopia | Montr√©al | 3 | All Maps","name_short":"mtl-3","host":"mtl-1.ca.uncletopia.com","port":27035,"enabled":true,"region":"us-east","cc":"ca","latitude":45.50889,"longitude":-73.56167,"reserved":0,"last_update":"0001-01-01T00:00:00Z","name_a2s":"Uncletopia | Montr√©al | 3 | All Maps","protocol":17,"map":"pl_frontier_final","folder":"tf","game":"Team Fortress","app_id":440,"player_count":0,"max_players":24,"Bots":0,"server_type":"Dedicated","server_os":"Linux","password":true,"vac":true,"version":"7757534","steam_id":85568392924500089,"keywords":["nocrits","nodmgspread","payload","uncletopia"],"game_id":440,"stv_port":27036,"stv_name":"Uncletopia | Montr√©al | 3 | All Maps | STV","players":null},{"server_id":303,"name":"Uncletopia | Montr√©al | 4 | No Payload","name_short":"mtl-4","host":"mtl-1.ca.uncletopia.com","port":27045,"enabled":true,"region":"us-east","cc":"ca","latitude":45.50889,"longitude":-73.56167,"reserved":0,"last_update":"0001-01-01T00:00:00Z","name_a2s":"Uncletopia | Montr√©al | 4 | No Payload","protocol":17,"map":"cp_well","folder":"tf","game":"Team Fortress","app_id":440,"player_count":0,"max_players":24,"Bots":0,"server_type":"Dedicated","server_os":"Linux","password":true,"vac":true,"version":"7757534","steam_id":85568392924500090,"keywords":["cp","nocrits","nodmgspread","uncletopia"],"game_id":440,"stv_port":27046,"stv_name":"Uncletopia | Montr√©al | 4 | No Payload | STV","players":null},{"server_id":13,"name":"Uncletopia | New York City | 1 | All Maps","name_short":"nyc-1","host":"nyc-1.us.uncletopia.com","port":27015,"enabled":true,"region":"us-east","cc":"us","latitude":40.73061,"longitude":-73.93524,"reserved":0,"last_update":"0001-01-01T00:00:00Z","name_a2s":"Uncletopia | New York City | 1 | All Maps","protocol":17,"map":"pl_borneo","folder":"tf","game":"Team Fortress","app_id":440,"player_count":24,"max_players":24,"Bots":0,"server_type":"Dedicated","server_os":"Linux","password":true,"vac":true,"version":"7757534","steam_id":85568392924469993,"keywords":["nocrits","nodmgspread","payload","uncletopia"],"game_id":440,"stv_port":27016,"stv_name":"Uncletopia | New York City | 1 | All Maps | STV","players":[{"user_id":133,"name":"kivee","steam_id":76561198838223023,"connected_time":1209000000000,"state":"active","ping":59},{"user_id":151,"name":"wayker","steam_id":76561198796473953,"connected_time":513000000000,"state":"active","ping":93},{"user_id":115,"name":"Hank","steam_id":76561198094830509,"connected_time":3470000000000,"state":"active","ping":55},{"user_id":142,"name":"DeKoY","steam_id":76561197982512986,"connected_time":933000000000,"state":"active","ping":81},{"user_id":136,"name":"Gopofas","steam_id":76561199227999157,"connected_time":1060000000000,"state":"active","ping":163},{"user_id":145,"name":"dairy","steam_id":76561198117033273,"connected_time":827000000000,"state":"active","ping":122},{"user_id":137,"name":"Semi-Sentient Non-Mini Sentry","steam_id":76561198150532531,"connected_time":1023000000000,"state":"active","ping":60},{"user_id":139,"name":"Female Gamer","steam_id":76561199366482682,"connected_time":1008000000000,"state":"active","ping":129},{"user_id":152,"name":"[BBW] Justario","steam_id":76561198016095410,"connected_time":344000000000,"state":"active","ping":44},{"user_id":138,"name":"Claw Finger","steam_id":76561198116408865,"connected_time":1013000000000,"state":"active","ping":56},{"user_id":154,"name":"Vivid Hut 64","steam_id":76561198170050059,"connected_time":290000000000,"state":"active","ping":55},{"user_id":153,"name":"dingding2","steam_id":76561198278895127,"connected_time":325000000000,"state":"active","ping":57},{"user_id":127,"name":"k3ramb1t","steam_id":76561198097880352,"connected_time":1912000000000,"state":"active","ping":55},{"user_id":128,"name":"Egpta","steam_id":76561198237840238,"connected_time":1808000000000,"state":"active","ping":57},{"user_id":156,"name":"Maukator","steam_id":76561198095460953,"connected_time":183000000000,"state":"active","ping":124},{"user_id":141,"name":"SuperFresh","steam_id":76561198200723198,"connected_time":989000000000,"state":"active","ping":56},{"user_id":157,"name":"Zacdatmat","steam_id":76561198369172364,"connected_time":57000000000,"state":"active","ping":63},{"user_id":100,"name":"Adventurematt","steam_id":76561199302420877,"connected_time":4679000000000,"state":"active","ping":63},{"user_id":150,"name":"Charlie","steam_id":76561199098209171,"connected_time":563000000000,"state":"active","ping":75},{"user_id":149,"name":"St. Arnold of Soissons","steam_id":76561197974133892,"connected_time":599000000000,"state":"active","ping":66},{"user_id":148,"name":"Indigolake","steam_id":76561198202215807,"connected_time":737000000000,"state":"active","ping":70},{"user_id":158,"name":"whoopsydoodle","steam_id":76561198045145360,"connected_time":6000000000,"state":"spawning","ping":38},{"user_id":126,"name":"jazaniac","steam_id":76561198059955588,"connected_time":2151000000000,"state":"active","ping":83},{"user_id":124,"name":"exsre`m","steam_id":76561199249121659,"connected_time":2553000000000,"state":"active","ping":88}]},{"server_id":14,"name":"Uncletopia | New York City | 2 | All Maps","name_short":"nyc-2","host":"nyc-1.us.uncletopia.com","port":27025,"enabled":true,"region":"us-east","cc":"us","latitude":40.73061,"longitude":-73.93524,"reserved":0,"last_update":"0001-01-01T00:00:00Z","name_a2s":"Uncletopia | New York City | 2 | All Maps","protocol":17,"map":"pl_swiftwater_final1","folder":"tf","game":"Team Fortress","app_id":440,"player_count":22,"max_players":24,"Bots":0,"server_type":"Dedicated","server_os":"Linux","password":true,"vac":true,"version":"7757534","steam_id":85568392924469994,"keywords":["nocrits","nodmgspread","payload","uncletopia"],"game_id":440,"stv_port":27026,"stv_name":"Uncletopia | New York City | 2 | All Maps | STV","players":[{"user_id":76,"name":"noisetank","steam_id":76561199086731683,"connected_time":673000000000,"state":"active","ping":55},{"user_id":82,"name":"magotago","steam_id":76561198013650292,"connected_time":387000000000,"state":"active","ping":106},{"user_id":84,"name":"Lemur","steam_id":76561198065300466,"connected_time":177000000000,"state":"active","ping":46},{"user_id":81,"name":"FOOL","steam_id":76561198370866973,"connected_time":533000000000,"state":"active","ping":128},{"user_id":77,"name":"glitch","steam_id":76561197979495589,"connected_time":671000000000,"state":"active","ping":46},{"user_id":18,"name":"‚úøFemboy Goblin‚úø","steam_id":76561199200969139,"connected_time":4305000000000,"state":"active","ping":120},{"user_id":19,"name":"Chechens Spotted","steam_id":76561199028910893,"connected_time":4150000000000,"state":"active","ping":66},{"user_id":87,"name":"D","steam_id":76561198157104673,"connected_time":32000000000,"state":"active","ping":73},{"user_id":65,"name":"Quansen","steam_id":76561198151594550,"connected_time":1072000000000,"state":"active","ping":61},{"user_id":74,"name":"Tockbird","steam_id":76561199437964594,"connected_time":746000000000,"state":"active","ping":134},{"user_id":31,"name":"Dr. Nobotnik","steam_id":76561198357339092,"connected_time":3239000000000,"state":"active","ping":90},{"user_id":78,"name":"Normalux","steam_id":76561198293891426,"connected_time":636000000000,"state":"active","ping":88},{"user_id":55,"name":"B","steam_id":76561198015740144,"connected_time":2387000000000,"state":"active","ping":71},{"user_id":34,"name":"Sparky","steam_id":76561198114574421,"connected_time":3120000000000,"state":"active","ping":90},{"user_id":85,"name":"tinkercrab11","steam_id":76561198881792140,"connected_time":57000000000,"state":"spawning","ping":47},{"user_id":36,"name":"Viokik","steam_id":76561198408846602,"connected_time":3111000000000,"state":"active","ping":50},{"user_id":79,"name":"Fantastibad","steam_id":76561199087329262,"connected_time":626000000000,"state":"active","ping":60},{"user_id":38,"name":"radiohead enjoyer","steam_id":76561198397662124,"connected_time":3053000000000,"state":"active","ping":94},{"user_id":86,"name":"Candy Sparkles","steam_id":76561198126871264,"connected_time":39000000000,"state":"active","ping":75},{"user_id":80,"name":"SalTev","steam_id":76561198350069373,"connected_time":611000000000,"state":"active","ping":93},{"user_id":47,"name":"/Floes/","steam_id":76561198022270876,"connected_time":2751000000000,"state":"active","ping":158},{"user_id":44,"name":"toastman","steam_id":76561198207073088,"connected_time":2830000000000,"state":"active","ping":100}]},{"server_id":15,"name":"Uncletopia | New York City | 3 | Stopwatch Beta","name_short":"nyc-3","host":"nyc-1.us.uncletopia.com","port":27035,"enabled":true,"region":"us-east","cc":"us","latitude":40.73061,"longitude":-73.93524,"reserved":0,"last_update":"0001-01-01T00:00:00Z","name_a2s":"Uncletopia | New York City | 3 | Stopwatch Beta","protocol":17,"map":"workshop/koth_ashville_final.ugc2130459942","folder":"tf","game":"Team Fortress","app_id":440,"player_count":4,"max_players":24,"Bots":0,"server_type":"Dedicated","server_os":"Linux","password":true,"vac":true,"version":"7757534","steam_id":85568392924742820,"keywords":["cp","nocrits","nodmgspread","uncletopia"],"game_id":440,"stv_port":27036,"stv_name":"Uncletopia | New York City | 3 | Stopwatch Beta | STV","players":[{"user_id":6,"name":"zanealcannon","steam_id":76561198409950668,"connected_time":1006000000000,"state":"active","ping":67},{"user_id":7,"name":"Sailor Sodium","steam_id":76561198808205021,"connected_time":973000000000,"state":"active","ping":137},{"user_id":9,"name":"Tyrannical Birate","steam_id":76561198109746316,"connected_time":471000000000,"state":"active","ping":89},{"user_id":10,"name":"Engineer is Engihere","steam_id":76561199315167502,"connected_time":184000000000,"state":"active","ping":61}]},{"server_id":16,"name":"Uncletopia | New York City | 4 | Community","name_short":"nyc-4","host":"nyc-1.us.uncletopia.com","port":27045,"enabled":true,"region":"us-east","cc":"us","latitude":40.73061,"longitude":-73.93524,"reserved":0,"last_update":"0001-01-01T00:00:00Z","name_a2s":"Uncletopia | New York City | 4 | Community","protocol":17,"map":"workshop/cp_snowbase_b18.ugc2081770490","folder":"tf","game":"Team Fortress","app_id":440,"player_count":0,"max_players":24,"Bots":0,"server_type":"Dedicated","server_os":"Linux","password":true,"vac":true,"version":"7757534","steam_id":85568392924742821,"keywords":["cp","nocrits","nodmgspread","uncletopia"],"game_id":440,"stv_port":27046,"stv_name":"Uncletopia | New York City | 4 | Community | STV","players":null},{"server_id":142,"name":"Uncletopia | S√£o Paulo | 1 | All Maps","name_short":"sao-1","host":"sao-1.br.uncletopia.com","port":27015,"enabled":true,"region":"sa","cc":"br","latitude":-23.533773,"longitude":-46.62529,"reserved":0,"last_update":"0001-01-01T00:00:00Z","name_a2s":"Uncletopia | S√£o Paulo | 1 | All Maps","protocol":17,"map":"cp_mountainlab","folder":"tf","game":"Team Fortress","app_id":440,"player_count":3,"max_players":24,"Bots":0,"server_type":"Dedicated","server_os":"Linux","password":true,"vac":true,"version":"7757534","steam_id":85568392924469996,"keywords":["cp","nocrits","nodmgspread","uncletopia"],"game_id":440,"stv_port":27016,"stv_name":"Uncletopia | S√£o Paulo | 1 | All Maps | STV","players":[{"user_id":6,"name":"https://youtu.be/RvVdFXOFcjw","steam_id":76561198844048672,"connected_time":1196000000000,"state":"active","ping":34},{"user_id":7,"name":"ORSI","steam_id":76561199445038412,"connected_time":1109000000000,"state":"active","ping":53},{"user_id":8,"name":"seu cu 2000","steam_id":76561199212649021,"connected_time":845000000000,"state":"active","ping":50}]},{"server_id":143,"name":"Uncletopia | S√£o Paulo | 2 | All Maps","name_short":"sao-2","host":"sao-2.br.uncletopia.com","port":27015,"enabled":true,"region":"sa","cc":"br","latitude":-23.533773,"longitude":-46.62529,"reserved":0,"last_update":"0001-01-01T00:00:00Z","name_a2s":"Uncletopia | S√£o Paulo | 2 | All Maps","protocol":17,"map":"koth_viaduct","folder":"tf","game":"Team Fortress","app_id":440,"player_count":4,"max_players":24,"Bots":0,"server_type":"Dedicated","server_os":"Linux","password":true,"vac":true,"version":"7757534","steam_id":85568392924485349,"keywords":["cp","nocrits","nodmgspread","uncletopia"],"game_id":440,"stv_port":27016,"stv_name":"Uncletopia | S√£o Paulo | 2 | All Maps | STV","players":[{"user_id":12,"name":"dramilos","steam_id":76561199103481922,"connected_time":975000000000,"state":"active","ping":65},{"user_id":13,"name":"Consumidor de suco profissional","steam_id":76561198935892698,"connected_time":853000000000,"state":"active","ping":68},{"user_id":19,"name":"Grinch","steam_id":76561198322765783,"connected_time":17000000000,"state":"spawning","ping":51}]},{"server_id":7,"name":"Uncletopia | Seattle | 1 | All Maps","name_short":"sea-1","host":"sea-1.us.uncletopia.com","port":27015,"enabled":true,"region":"us-west","cc":"us","latitude":47.608013,"longitude":-122.33517,"reserved":0,"last_update":"0001-01-01T00:00:00Z","name_a2s":"Uncletopia | Seattle | 1 | All Maps","protocol":17,"map":"pl_upward","folder":"tf","game":"Team Fortress","app_id":440,"player_count":24,"max_players":24,"Bots":0,"server_type":"Dedicated","server_os":"Linux","password":true,"vac":true,"version":"7757534","steam_id":85568392924469997,"keywords":["nocrits","nodmgspread","payload","uncletopia"],"game_id":440,"stv_port":27016,"stv_name":"Uncletopia | Seattle | 1 | All Maps | STV","players":[{"user_id":188,"name":"oo","steam_id":76561198119626492,"connected_time":2199000000000,"state":"active","ping":64},{"user_id":210,"name":"EEBIGAA","steam_id":76561198056535988,"connected_time":152000000000,"state":"active","ping":76},{"user_id":209,"name":"ArchmageF","steam_id":76561197992246851,"connected_time":328000000000,"state":"active","ping":50},{"user_id":212,"name":"Doivan Ivan","steam_id":76561199096260479,"connected_time":49000000000,"state":"active","ping":159},{"user_id":7,"name":"Little Linguine","steam_id":76561198816986370,"connected_time":16370000000000,"state":"active","ping":56},{"user_id":202,"name":"Flat Eric","steam_id":76561198114922735,"connected_time":871000000000,"state":"active","ping":115},{"user_id":161,"name":"Dill","steam_id":76561197995325198,"connected_time":3819000000000,"state":"active","ping":92},{"user_id":178,"name":"Shuu","steam_id":76561199199180558,"connected_time":2548000000000,"state":"active","ping":114},{"user_id":204,"name":"APOTATO","steam_id":76561198118199858,"connected_time":742000000000,"state":"active","ping":89},{"user_id":201,"name":"MeteoSerpent","steam_id":76561198174387141,"connected_time":904000000000,"state":"active","ping":47},{"user_id":196,"name":"DoctorHa","steam_id":76561198044026008,"connected_time":1346000000000,"state":"active","ping":89},{"user_id":132,"name":"0r161n4lj0k3","steam_id":76561198127328235,"connected_time":7260000000000,"state":"active","ping":104},{"user_id":175,"name":"blizz","steam_id":76561199139715539,"connected_time":2980000000000,"state":"active","ping":73},{"user_id":199,"name":"suns","steam_id":76561198079583278,"connected_time":1095000000000,"state":"active","ping":97},{"user_id":211,"name":"Bergmann MP18","steam_id":76561198218417512,"connected_time":71000000000,"state":"active","ping":91},{"user_id":181,"name":"HappyHitchhiker","steam_id":76561198080228697,"connected_time":2537000000000,"state":"active","ping":132},{"user_id":206,"name":"Agent86","steam_id":76561198046794593,"connected_time":610000000000,"state":"active","ping":93},{"user_id":195,"name":"Is this the guy?","steam_id":76561198051910084,"connected_time":1386000000000,"state":"active","ping":60},{"user_id":208,"name":"Mignyanne :3","steam_id":76561198048754056,"connected_time":477000000000,"state":"active","ping":63},{"user_id":186,"name":"iamsohardrn","steam_id":76561199147510427,"connected_time":2306000000000,"state":"active","ping":88},{"user_id":174,"name":"dust | she/it","steam_id":76561198045218909,"connected_time":3093000000000,"state":"active","ping":41},{"user_id":187,"name":"WaterWorks","steam_id":76561198801899310,"connected_time":2274000000000,"state":"active","ping":85},{"user_id":200,"name":"ttv_shingo_is_live","steam_id":76561198998571073,"connected_time":1088000000000,"state":"active","ping":71},{"user_id":167,"name":"AmiableNebula","steam_id":76561198094306627,"connected_time":3724000000000,"state":"active","ping":76}]},{"server_id":119,"name":"Uncletopia | Seattle | 2 | All Maps","name_short":"sea-2","host":"sea-1.us.uncletopia.com","port":27025,"enabled":true,"region":"us-west","cc":"us","latitude":47.608013,"longitude":-122.33517,"reserved":0,"last_update":"0001-01-01T00:00:00Z","name_a2s":"Uncletopia | Seattle | 2 | All Maps","protocol":17,"map":"cp_mercenarypark","folder":"tf","game":"Team Fortress","app_id":440,"player_count":24,"max_players":24,"Bots":0,"server_type":"Dedicated","server_os":"Linux","password":true,"vac":true,"version":"7757534","steam_id":85568392924469998,"keywords":["cp","nocrits","nodmgspread","uncletopia"],"game_id":440,"stv_port":27026,"stv_name":"Uncletopia | Seattle | 2 | All Maps | STV","players":[{"user_id":139,"name":"LProduct","steam_id":76561199442139670,"connected_time":145000000000,"state":"active","ping":71},{"user_id":87,"name":"Uso","steam_id":76561198012093238,"connected_time":3668000000000,"state":"active","ping":104},{"user_id":105,"name":"TheCowledWiz","steam_id":76561198016735868,"connected_time":3145000000000,"state":"active","ping":45},{"user_id":80,"name":"Destroyer1004","steam_id":76561199367685913,"connected_time":4235000000000,"state":"active","ping":55},{"user_id":140,"name":"hectillious","steam_id":76561199034215138,"connected_time":115000000000,"state":"active","ping":85},{"user_id":91,"name":"FREE IPAD (Click to Download)","steam_id":76561199012771039,"connected_time":3612000000000,"state":"active","ping":114},{"user_id":130,"name":"weegeebad","steam_id":76561198280841437,"connected_time":1131000000000,"state":"active","ping":114},{"user_id":61,"name":"2023 Chinese Balloon Incident","steam_id":76561197995927883,"connected_time":5502000000000,"state":"active","ping":58},{"user_id":138,"name":"dearender","steam_id":76561199427644498,"connected_time":191000000000,"state":"active","ping":67},{"user_id":131,"name":"toad ass bitch","steam_id":76561198042941628,"connected_time":862000000000,"state":"active","ping":78},{"user_id":119,"name":"Bunny_Box1","steam_id":76561199056904550,"connected_time":2185000000000,"state":"active","ping":133},{"user_id":107,"name":"Dosario","steam_id":76561198298095535,"connected_time":3084000000000,"state":"active","ping":56},{"user_id":128,"name":"I THINK COOLSVILLE SUCKS","steam_id":76561198066855998,"connected_time":1226000000000,"state":"active","ping":46},{"user_id":124,"name":"ejschild745","steam_id":76561199013388867,"connected_time":1617000000000,"state":"active","ping":68},{"user_id":141,"name":"Foxtrot Uniform","steam_id":76561199236576844,"connected_time":107000000000,"state":"active","ping":129},{"user_id":125,"name":"What are you doing?!","steam_id":76561198405248691,"connected_time":1587000000000,"state":"active","ping":81},{"user_id":102,"name":"theOGjunit","steam_id":76561198368940954,"connected_time":3247000000000,"state":"active","ping":70},{"user_id":135,"name":"Buswolley","steam_id":76561197995205571,"connected_time":661000000000,"state":"active","ping":64},{"user_id":133,"name":"toad ass punk","steam_id":76561198117113848,"connected_time":751000000000,"state":"active","ping":113},{"user_id":137,"name":"Barack Obama Gaming","steam_id":76561198129242016,"connected_time":470000000000,"state":"active","ping":45},{"user_id":69,"name":"QueenPinharam","steam_id":76561199015626409,"connected_time":4935000000000,"state":"active","ping":106},{"user_id":142,"name":"sKIZ","steam_id":76561197983860881,"connected_time":52000000000,"state":"active","ping":75},{"user_id":118,"name":"Optimore","steam_id":76561198047662990,"connected_time":2629000000000,"state":"active","ping":75},{"user_id":120,"name":"RysN Yeen ‚ô•","steam_id":76561198105359319,"connected_time":2092000000000,"state":"active","ping":78}]},{"server_id":406,"name":"Uncletopia | Seattle | 3 | Stopwatch Beta","name_short":"sea-3","host":"sea-1.us.uncletopia.com","port":27035,"enabled":true,"region":"us-west","cc":"us","latitude":47.608013,"longitude":-122.33517,"reserved":0,"last_update":"0001-01-01T00:00:00Z","name_a2s":"Uncletopia | Seattle | 3 | Stopwatch Beta","protocol":17,"map":"workshop/pl_barnblitz_pro7.ugc582280235","folder":"tf","game":"Team Fortress","app_id":440,"player_count":0,"max_players":24,"Bots":0,"server_type":"Dedicated","server_os":"Linux","password":true,"vac":true,"version":"7757534","steam_id":85568392924515217,"keywords":["nocrits","nodmgspread","payload","uncletopia"],"game_id":440,"stv_port":27036,"stv_name":"Uncletopia | Seattle | 3 | Stopwatch Beta | STV","players":null},{"server_id":17,"name":"Uncletopia | San Francisco | 1 | All Maps","name_short":"sfo-1","host":"sfo-1.us.uncletopia.com","port":27015,"enabled":true,"region":"us-west","cc":"us","latitude":37.77397,"longitude":-122.4313,"reserved":0,"last_update":"0001-01-01T00:00:00Z","name_a2s":"Uncletopia | San Francisco | 1 | All Maps","protocol":17,"map":"pl_frontier_final","folder":"tf","game":"Team Fortress","app_id":440,"player_count":20,"max_players":24,"Bots":0,"server_type":"Dedicated","server_os":"Linux","password":true,"vac":true,"version":"7757534","steam_id":85568392924469999,"keywords":["nocrits","nodmgspread","payload","uncletopia"],"game_id":440,"stv_port":27016,"stv_name":"Uncletopia | San Francisco | 1 | All Maps | STV","players":[{"user_id":88,"name":"chaos","steam_id":76561198055462404,"connected_time":303000000000,"state":"active","ping":45},{"user_id":68,"name":"Reaper","steam_id":76561198435826103,"connected_time":1542000000000,"state":"active","ping":92},{"user_id":91,"name":"Bony","steam_id":76561199001748822,"connected_time":197000000000,"state":"active","ping":59},{"user_id":12,"name":"Vand","steam_id":76561199016300216,"connected_time":4619000000000,"state":"active","ping":95},{"user_id":75,"name":"HuntBunt","steam_id":76561199055381357,"connected_time":551000000000,"state":"active","ping":97},{"user_id":66,"name":"Serene Salamander","steam_id":76561198001094770,"connected_time":1797000000000,"state":"active","ping":69},{"user_id":57,"name":"Enforcer Enthusiast","steam_id":76561199124102271,"connected_time":2530000000000,"state":"active","ping":73},{"user_id":36,"name":"Sal In Haiti","steam_id":76561198055452939,"connected_time":3305000000000,"state":"active","ping":70},{"user_id":72,"name":"chanoc","steam_id":76561198026734746,"connected_time":593000000000,"state":"active","ping":45},{"user_id":76,"name":"An00bis","steam_id":76561198044084508,"connected_time":549000000000,"state":"active","ping":60},{"user_id":33,"name":"Arrow_9","steam_id":76561198260631611,"connected_time":3407000000000,"state":"active","ping":111},{"user_id":48,"name":"Nen","steam_id":76561198893347370,"connected_time":2834000000000,"state":"active","ping":66},{"user_id":74,"name":"hersheybargame","steam_id":76561199162003623,"connected_time":581000000000,"state":"active","ping":50},{"user_id":77,"name":"Mr.Kevin120","steam_id":76561199186919096,"connected_time":535000000000,"state":"active","ping":136},{"user_id":78,"name":"A Lost CAWs","steam_id":76561198127120212,"connected_time":525000000000,"state":"active","ping":128},{"user_id":71,"name":"CSharp","steam_id":76561199185191710,"connected_time":1046000000000,"state":"active","ping":114},{"user_id":79,"name":"Fishfriends","steam_id":76561199061152827,"connected_time":516000000000,"state":"active","ping":107},{"user_id":53,"name":"UnsettlingVoice","steam_id":76561198036614583,"connected_time":2641000000000,"state":"active","ping":99},{"user_id":83,"name":"CherriKat (She/Her)","steam_id":76561198821297512,"connected_time":389000000000,"state":"active","ping":48},{"user_id":67,"name":"SneekiCheekiQbone","steam_id":76561198045077980,"connected_time":1797000000000,"state":"active","ping":52}]},{"server_id":18,"name":"Uncletopia | San Francisco | 2 | All Maps","name_short":"sfo-2","host":"sfo-1.us.uncletopia.com","port":27025,"enabled":true,"region":"us-west","cc":"us","latitude":37.77397,"longitude":-122.4313,"reserved":0,"last_update":"0001-01-01T00:00:00Z","name_a2s":"Uncletopia | San Francisco | 2 | All Maps","protocol":17,"map":"koth_viaduct","folder":"tf","game":"Team Fortress","app_id":440,"player_count":0,"max_players":24,"Bots":0,"server_type":"Dedicated","server_os":"Linux","password":true,"vac":true,"version":"7757534","steam_id":85568392924470000,"keywords":["cp","nocrits","nodmgspread","uncletopia"],"game_id":440,"stv_port":27026,"stv_name":"Uncletopia | San Francisco | 2 | All Maps | STV","players":null},{"server_id":19,"name":"Uncletopia | San Francisco | 3 | Stopwatch Beta","name_short":"sfo-3","host":"sfo-1.us.uncletopia.com","port":27035,"enabled":true,"region":"us-west","cc":"us","latitude":37.77397,"longitude":-122.4313,"reserved":0,"last_update":"0001-01-01T00:00:00Z","name_a2s":"Uncletopia | San Francisco | 3 | Stopwatch Beta","protocol":17,"map":"cp_snakewater_final1","folder":"tf","game":"Team Fortress","app_id":440,"player_count":0,"max_players":24,"Bots":0,"server_type":"Dedicated","server_os":"Linux","password":true,"vac":true,"version":"7757534","steam_id":85568392924742824,"keywords":["cp","nocrits","nodmgspread","uncletopia"],"game_id":440,"stv_port":27036,"stv_name":"Uncletopia | San Francisco | 3 | Stopwatch Beta | STV","players":null},{"server_id":20,"name":"Uncletopia | San Francisco | 4 | Community","name_short":"sfo-4","host":"sfo-1.us.uncletopia.com","port":27045,"enabled":true,"region":"us-west","cc":"us","latitude":37.77397,"longitude":-122.4313,"reserved":0,"last_update":"0001-01-01T00:00:00Z","name_a2s":"Uncletopia | San Francisco | 4 | Community","protocol":17,"map":"workshop/pl_divulgence_b4b.ugc2884808746","folder":"tf","game":"Team Fortress","app_id":440,"player_count":0,"max_players":24,"Bots":0,"server_type":"Dedicated","server_os":"Linux","password":true,"vac":true,"version":"7757534","steam_id":85568392924742826,"keywords":["nocrits","nodmgspread","payload","uncletopia"],"game_id":440,"stv_port":27046,"stv_name":"Uncletopia | San Francisco | 4 | Community | STV","players":null},{"server_id":141,"name":"Uncletopia | Sydney | 1 | All Maps","name_short":"syd-1","host":"syd-1.au.uncletopia.com","port":27015,"enabled":true,"region":"au","cc":"au","latitude":-33.865143,"longitude":151.2099,"reserved":0,"last_update":"0001-01-01T00:00:00Z","name_a2s":"Uncletopia | Sydney | 1 | All Maps","protocol":17,"map":"pl_swiftwater_final1","folder":"tf","game":"Team Fortress","app_id":440,"player_count":0,"max_players":24,"Bots":0,"server_type":"Dedicated","server_os":"Linux","password":true,"vac":true,"version":"7757534","steam_id":85568392924470001,"keywords":["nocrits","nodmgspread","payload","uncletopia"],"game_id":440,"stv_port":27016,"stv_name":"Uncletopia | Sydney | 1 | All Maps | STV","players":null},{"server_id":123,"name":"Uncletopia | Sydney | 2 | All Maps","name_short":"syd-2","host":"syd-1.au.uncletopia.com","port":27025,"enabled":true,"region":"au","cc":"au","latitude":-33.865143,"longitude":151.2099,"reserved":0,"last_update":"0001-01-01T00:00:00Z","name_a2s":"Uncletopia | Sydney | 2 | All Maps","protocol":17,"map":"pl_badwater","folder":"tf","game":"Team Fortress","app_id":440,"player_count":0,"max_players":24,"Bots":0,"server_type":"Dedicated","server_os":"Linux","password":true,"vac":true,"version":"7757534","steam_id":85568392924470002,"keywords":["nocrits","nodmgspread","payload","uncletopia"],"game_id":440,"stv_port":27026,"stv_name":"Uncletopia | Sydney | 2 | All Maps | STV","players":null},{"server_id":395,"name":"Uncletopia | Sydney | 3 | All Maps","name_short":"syd-3","host":"syd-1.au.uncletopia.com","port":27035,"enabled":true,"region":"au","cc":"au","latitude":-33.865143,"longitude":151.2099,"reserved":0,"last_update":"0001-01-01T00:00:00Z","name_a2s":"Uncletopia | Sydney | 3 | All Maps","protocol":17,"map":"cp_mountainlab","folder":"tf","game":"Team Fortress","app_id":440,"player_count":0,"max_players":24,"Bots":0,"server_type":"Dedicated","server_os":"Linux","password":true,"vac":true,"version":"7757534","steam_id":85568392925194467,"keywords":["cp","nocrits","nodmgspread","uncletopia"],"game_id":440,"stv_port":27036,"stv_name":"Uncletopia | Sydney | 3 | All Maps | STV","players":null},{"server_id":396,"name":"Uncletopia | Sydney | 4 | All Maps","name_short":"syd-4","host":"syd-1.au.uncletopia.com","port":27045,"enabled":true,"region":"au","cc":"au","latitude":-33.865143,"longitude":151.2099,"reserved":0,"last_update":"0001-01-01T00:00:00Z","name_a2s":"Uncletopia | Sydney | 4 | All Maps","protocol":17,"map":"pl_swiftwater_final1","folder":"tf","game":"Team Fortress","app_id":440,"player_count":0,"max_players":24,"Bots":0,"server_type":"Dedicated","server_os":"Linux","password":true,"vac":true,"version":"7757534","steam_id":85568392925397958,"keywords":["nocrits","nodmgspread","payload","uncletopia"],"game_id":440,"stv_port":27046,"stv_name":"Uncletopia | Sydney | 4 | All Maps | STV","players":null},{"server_id":58,"name":"Uncletopia | Sydney | 5 | Stopwatch Beta","name_short":"syd-5","host":"syd-1.au.uncletopia.com","port":27055,"enabled":true,"region":"au","cc":"au","latitude":-33.865143,"longitude":151.2099,"reserved":0,"last_update":"0001-01-01T00:00:00Z","name_a2s":"Uncletopia | Sydney | 5 | Stopwatch Beta","protocol":17,"map":"workshop/koth_bagel_rc6.ugc2514036946","folder":"tf","game":"Team Fortress","app_id":440,"player_count":0,"max_players":24,"Bots":0,"server_type":"Dedicated","server_os":"Linux","password":true,"vac":true,"version":"7757534","steam_id":85568392925397959,"keywords":["cp","nocrits","nodmgspread","uncletopia"],"game_id":440,"stv_port":27056,"stv_name":"Uncletopia | Sydney | 5 | Stopwatch Beta | STV","players":null},{"server_id":59,"name":"Uncletopia | Sydney | 6 | Community","name_short":"syd-6","host":"syd-1.au.uncletopia.com","port":27065,"enabled":true,"region":"au","cc":"au","latitude":-33.865143,"longitude":151.2099,"reserved":0,"last_update":"0001-01-01T00:00:00Z","name_a2s":"Uncletopia | Sydney | 6 | Community","protocol":17,"map":"workshop/pl_divulgence_b4b.ugc2884808746","folder":"tf","game":"Team Fortress","app_id":440,"player_count":0,"max_players":24,"Bots":0,"server_type":"Dedicated","server_os":"Linux","password":true,"vac":true,"version":"7757534","steam_id":85568392925397960,"keywords":["nocrits","nodmgspread","payload","uncletopia"],"game_id":440,"stv_port":27066,"stv_name":"Uncletopia | Sydney | 6 | Community | STV","players":null},{"server_id":49,"name":"Uncletopia | Warsaw | 1 | All Maps","name_short":"waw-1","host":"waw-1.pl.uncletopia.com","port":27015,"enabled":true,"region":"eu","cc":"pl","latitude":52.2297,"longitude":21.017532,"reserved":0,"last_update":"0001-01-01T00:00:00Z","name_a2s":"","protocol":0,"map":"","folder":"","game":"","app_id":0,"player_count":0,"max_players":0,"Bots":0,"server_type":"","server_os":"","password":false,"vac":false,"version":"","steam_id":0,"keywords":null,"game_id":0,"stv_port":0,"stv_name":"","players":null},{"server_id":50,"name":"Uncletopia | Warsaw | 2 | All Maps","name_short":"waw-2","host":"waw-1.pl.uncletopia.com","port":27025,"enabled":true,"region":"eu","cc":"pl","latitude":52.2297,"longitude":21.017532,"reserved":0,"last_update":"0001-01-01T00:00:00Z","name_a2s":"Uncletopia | Warsaw | 2 | All Maps","protocol":17,"map":"cp_powerhouse","folder":"tf","game":"Team Fortress","app_id":440,"player_count":19,"max_players":24,"Bots":0,"server_type":"Dedicated","server_os":"Linux","password":true,"vac":true,"version":"7757534","steam_id":85568392925397851,"keywords":["cp","nocrits","nodmgspread","uncletopia"],"game_id":440,"stv_port":27026,"stv_name":"Uncletopia | Warsaw | 2 | All Maps | STV","players":[{"user_id":93,"name":"hocku","steam_id":76561198204610040,"connected_time":1421000000000,"state":"active","ping":105},{"user_id":58,"name":"Clitorina","steam_id":76561198077570815,"connected_time":3109000000000,"state":"active","ping":76},{"user_id":76,"name":"nyanezt","steam_id":76561198253734265,"connected_time":2571000000000,"state":"active","ping":71},{"user_id":94,"name":"balanced diet","steam_id":76561198240320806,"connected_time":1398000000000,"state":"active","ping":88},{"user_id":101,"name":"Utkunator","steam_id":76561198967463151,"connected_time":733000000000,"state":"active","ping":111},{"user_id":110,"name":"lagzer","steam_id":76561198029295449,"connected_time":464000000000,"state":"active","ping":53},{"user_id":103,"name":"No Oesophagus Boi","steam_id":76561198121310718,"connected_time":647000000000,"state":"active","ping":90},{"user_id":41,"name":"s a i","steam_id":76561197970379754,"connected_time":3739000000000,"state":"active","ping":76},{"user_id":112,"name":"khey","steam_id":76561198035380064,"connected_time":366000000000,"state":"active","ping":74},{"user_id":97,"name":"Evil weed wizard","steam_id":76561198076137526,"connected_time":789000000000,"state":"active","ping":90},{"user_id":104,"name":"Naginacz","steam_id":76561199099232534,"connected_time":572000000000,"state":"active","ping":47},{"user_id":105,"name":"ÁãôÂáªÊâã ! ! ! BODY","steam_id":76561198324357479,"connected_time":553000000000,"state":"active","ping":99},{"user_id":111,"name":"Industrial Revolution","steam_id":76561198230811124,"connected_time":385000000000,"state":"active","ping":40},{"user_id":106,"name":"Pills","steam_id":76561198163561677,"connected_time":549000000000,"state":"active","ping":81},{"user_id":98,"name":"a Regurar Barroon","steam_id":76561198834913692,"connected_time":777000000000,"state":"active","ping":51},{"user_id":99,"name":"T1 (ted1)","steam_id":76561199229022826,"connected_time":772000000000,"state":"active","ping":128},{"user_id":113,"name":"Armo","steam_id":76561198138789964,"connected_time":321000000000,"state":"active","ping":94},{"user_id":81,"name":"LOBZIK","steam_id":76561198114830120,"connected_time":1905000000000,"state":"active","ping":55}]},{"server_id":51,"name":"Uncletopia | Warsaw | 3 | All Maps","name_short":"waw-3","host":"waw-1.pl.uncletopia.com","port":27035,"enabled":true,"region":"eu","cc":"pl","latitude":52.2297,"longitude":21.017532,"reserved":0,"last_update":"0001-01-01T00:00:00Z","name_a2s":"Uncletopia | Warsaw | 3 | All Maps","protocol":17,"map":"cp_mountainlab","folder":"tf","game":"Team Fortress","app_id":440,"player_count":0,"max_players":24,"Bots":0,"server_type":"Dedicated","server_os":"Linux","password":true,"vac":true,"version":"7757534","steam_id":85568392925397852,"keywords":["cp","nocrits","nodmgspread","uncletopia"],"game_id":440,"stv_port":27036,"stv_name":"Uncletopia | Warsaw | 3 | All Maps | STV","players":null},{"server_id":52,"name":"Uncletopia | Warsaw | 4 | All Maps","name_short":"waw-4","host":"waw-1.pl.uncletopia.com","port":27045,"enabled":true,"region":"eu","cc":"pl","latitude":52.2297,"longitude":21.017532,"reserved":0,"last_update":"0001-01-01T00:00:00Z","name_a2s":"Uncletopia | Warsaw | 4 | All Maps","protocol":17,"map":"pl_borneo","folder":"tf","game":"Team Fortress","app_id":440,"player_count":0,"max_players":24,"Bots":0,"server_type":"Dedicated","server_os":"Linux","password":true,"vac":true,"version":"7757534","steam_id":85568392925397853,"keywords":["nocrits","nodmgspread","payload","uncletopia"],"game_id":440,"stv_port":27046,"stv_name":"Uncletopia | Warsaw | 4 | All Maps | STV","players":null},{"server_id":53,"name":"Uncletopia | Warsaw | 5 | Stopwatch Beta","name_short":"waw-5","host":"waw-1.pl.uncletopia.com","port":27055,"enabled":true,"region":"eu","cc":"pl","latitude":52.2297,"longitude":21.017532,"reserved":0,"last_update":"0001-01-01T00:00:00Z","name_a2s":"Uncletopia | Warsaw | 5 | Stopwatch Beta","protocol":17,"map":"pl_pier","folder":"tf","game":"Team Fortress","app_id":440,"player_count":0,"max_players":24,"Bots":0,"server_type":"Dedicated","server_os":"Linux","password":true,"vac":true,"version":"7757534","steam_id":85568392925397854,"keywords":["nocrits","nodmgspread","payload","uncletopia"],"game_id":440,"stv_port":27056,"stv_name":"Uncletopia | Warsaw | 5 | Stopwatch Beta | STV","players":null},{"server_id":54,"name":"Uncletopia | Warsaw | 6 | Community","name_short":"waw-6","host":"waw-1.pl.uncletopia.com","port":27065,"enabled":true,"region":"eu","cc":"pl","latitude":52.2297,"longitude":21.017532,"reserved":0,"last_update":"0001-01-01T00:00:00Z","name_a2s":"Uncletopia | Warsaw | 6 | Community","protocol":17,"map":"koth_highpass","folder":"tf","game":"Team Fortress","app_id":440,"player_count":3,"max_players":24,"Bots":0,"server_type":"Dedicated","server_os":"Linux","password":true,"vac":true,"version":"7757534","steam_id":85568392925397856,"keywords":["cp","nocrits","nodmgspread","uncletopia"],"game_id":440,"stv_port":27066,"stv_name":"Uncletopia | Warsaw | 6 | Community | STV","players":[{"user_id":14,"name":"Truegr","steam_id":76561198811912339,"connected_time":331000000000,"state":"active","ping":94},{"user_id":15,"name":"fried","steam_id":76561198307522022,"connected_time":318000000000,"state":"active","ping":72},{"user_id":16,"name":"cast iron skillet","steam_id":76561199105861570,"connected_time":250000000000,"state":"active","ping":88}]}]}