{"status":true,"message":"","result":[{"server_id":9,"name":"Uncletopia | Atlanta | 1 | All Maps","name_short":"atl-1","host":"atl-1.us.uncletopia.com","port":27015,"enabled":true,"region":"us-east","cc":"us","latitude":33.753746,"longitude":-84.38633,"reserved":0,"last_update":"0001-01-01T00:00:00Z","name_a2s":"Uncletopia | Atlanta | 1 | All Maps","protocol":17,"map":"koth_lakeside_final","folder":"tf","game":"Team Fortress","app_id":440,"player_count":18,"max_players":24,"Bots":0,"server_type":"Dedicated","server_os":"Linux","password":true,"vac":true,"version":"7742253","steam_id":85568392924469982,"keywords":["cp","nocrits","nodmgspread","uncletopia"],"game_id":440,"stv_port":27016,"stv_name":"Uncletopia | Atlanta | 1 | All Maps | STV","players":[{"user_id":832,"name":"FemboyNate","steam_id":76561198146636410,"connected_time":92000000000,"state":"active","ping":60},{"user_id":815,"name":"Dill","steam_id":76561197985091914,"connected_time":1235000000000,"state":"active","ping":60},{"user_id":826,"name":"ATL1 | Kramer","steam_id":76561198083595936,"connected_time":492000000000,"state":"active","ping":72},{"user_id":749,"name":"nickleodeonfan449","steam_id":76561198073967747,"connected_time":4845000000000,"state":"active","ping":89},{"user_id":827,"name":"i love nature","steam_id":76561198248636560,"connected_time":487000000000,"state":"active","ping":65},{"user_id":783,"name":"COOL.HAMMER !!","steam_id":76561198013652313,"connected_time":3215000000000,"state":"active","ping":82},{"user_id":828,"name":"MIKESAVAGE","steam_id":76561198996777622,"connected_time":433000000000,"state":"active","ping":79},{"user_id":829,"name":"Atomic Waffles","steam_id":76561197970935570,"connected_time":423000000000,"state":"active","ping":85},{"user_id":800,"name":"Dannnnnn","steam_id":76561198442700385,"connected_time":2598000000000,"state":"active","ping":145},{"user_id":830,"name":"ATL1 | Psionic Present","steam_id":76561198151019322,"connected_time":290000000000,"state":"active","ping":70},{"user_id":825,"name":"psy·cho·so·cial","steam_id":76561197962696818,"connected_time":512000000000,"state":"active","ping":66},{"user_id":831,"name":"Paladin Roselia","steam_id":76561198001584041,"connected_time":228000000000,"state":"active","ping":50},{"user_id":833,"name":"Red","steam_id":76561197998285162,"connected_time":61000000000,"state":"active","ping":79},{"user_id":812,"name":"Lord Jenk","steam_id":76561198148896133,"connected_time":1465000000000,"state":"active","ping":55},{"user_id":819,"name":"merty","steam_id":76561198067874268,"connected_time":1035000000000,"state":"active","ping":61},{"user_id":784,"name":"theo","steam_id":76561198246006026,"connected_time":3214000000000,"state":"active","ping":75},{"user_id":823,"name":"stolen loot","steam_id":76561198069954956,"connected_time":566000000000,"state":"active","ping":45},{"user_id":818,"name":"glug slug","steam_id":76561197988690273,"connected_time":1165000000000,"state":"active","ping":60}]},{"server_id":400,"name":"Uncletopia | Atlanta | 3 | Stopwatch Beta","name_short":"atl-3","host":"atl-1.us.uncletopia.com","port":27035,"enabled":true,"region":"us-east","cc":"us","latitude":33.753746,"longitude":-84.38633,"reserved":0,"last_update":"0001-01-01T00:00:00Z","name_a2s":"Uncletopia | Atlanta | 3 | Stopwatch Beta","protocol":17,"map":"workshop/koth_product_final.ugc454272353","folder":"tf","game":"Team Fortress","app_id":440,"player_count":0,"max_players":24,"Bots":0,"server_type":"Dedicated","server_os":"Linux","password":true,"vac":true,"version":"7742253","steam_id":85568392924515187,"keywords":["cp","nocrits","nodmgspread","uncletopia"],"game_id":440,"stv_port":27036,"stv_name":"Uncletopia | Atlanta | 3 | Stopwatch Beta | STV","players":null},{"server_id":401,"name":"Uncletopia | Atlanta | 4 | No Payload","name_short":"atl-4","host":"atl-1.us.uncletopia.com","port":27045,"enabled":true,"region":"us-east","cc":"us","latitude":33.753746,"longitude":-84.38633,"reserved":0,"last_update":"0001-01-01T00:00:00Z","name_a2s":"Uncletopia | Atlanta | 4 | No Payload","protocol":17,"map":"pl_pier","folder":"tf","game":"Team Fortress","app_id":440,"player_count":0,"max_players":24,"Bots":0,"server_type":"Dedicated","server_os":"Linux","password":true,"vac":true,"version":"7723704","steam_id":85568392924515188,"keywords":["nocrits","nodmgspread","payload","uncletopia"],"game_id":440,"stv_port":27046,"stv_name":"Uncletopia | Atlanta | 4 | No Payload | STV","players":null},{"server_id":2,"name":"Uncletopia | Chicago | 1 | All Maps","name_short":"chi-1","host":"chi-1.us.uncletopia.com","port":27015,"enabled":true,"region":"us-central","cc":"us","latitude":41.881832,"longitude":-87.62318,"reserved":0,"last_update":"0001-01-01T00:00:00Z","name_a2s":"Uncletopia | Chicago | 1 | All Maps","protocol":17,"map":"cp_egypt_final","folder":"tf","game":"Team Fortress","app_id":440,"player_count":24,"max_players":24,"Bots":0,"server_type":"Dedicated","server_os":"Linux","password":true,"vac":true,"version":"7742253","steam_id":85568392924469984,"keywords":["cp","nocrits","nodmgspread","uncletopia"],"game_id":440,"stv_port":27016,"stv_name":"Uncletopia | Chicago | 1 | All Maps | STV","players":[{"user_id":864,"name":"Timmy Rigs","steam_id":76561198040743777,"connected_time":300000000000,"state":"active","ping":60},{"user_id":854,"name":"Myracle","steam_id":76561198070916920,"connected_time":759000000000,"state":"active","ping":50},{"user_id":849,"name":"zoiboi","steam_id":76561198069598590,"connected_time":1575000000000,"state":"active","ping":107},{"user_id":839,"name":"Stormz64 (but festive)","steam_id":76561198239036482,"connected_time":2434000000000,"state":"active","ping":54},{"user_id":847,"name":"CoconutRice","steam_id":76561198114909164,"connected_time":1837000000000,"state":"active","ping":52},{"user_id":764,"name":"goober","steam_id":76561198943598378,"connected_time":8290000000000,"state":"active","ping":49},{"user_id":840,"name":"Hamster","steam_id":76561198079599992,"connected_time":2400000000000,"state":"active","ping":33},{"user_id":856,"name":"Poggares","steam_id":76561198113064908,"connected_time":704000000000,"state":"active","ping":61},{"user_id":863,"name":"Violet","steam_id":76561198055860134,"connected_time":484000000000,"state":"active","ping":76},{"user_id":818,"name":"Legion","steam_id":76561199036242643,"connected_time":4947000000000,"state":"active","ping":63},{"user_id":843,"name":"Prince","steam_id":76561198077359444,"connected_time":2284000000000,"state":"active","ping":57},{"user_id":825,"name":"swift","steam_id":76561198082496000,"connected_time":3405000000000,"state":"active","ping":80},{"user_id":858,"name":"A Can of Arizona Green Tea","steam_id":76561198062481133,"connected_time":675000000000,"state":"active","ping":77},{"user_id":860,"name":"howtobepker","steam_id":76561198115053865,"connected_time":616000000000,"state":"active","ping":76},{"user_id":861,"name":"IZISOO","steam_id":76561198970380577,"connected_time":601000000000,"state":"active","ping":91},{"user_id":852,"name":"triangleman","steam_id":76561198972733542,"connected_time":1257000000000,"state":"active","ping":62},{"user_id":846,"name":"Tsuchinoko","steam_id":76561198083175190,"connected_time":2104000000000,"state":"active","ping":62},{"user_id":832,"name":"Merchants of Misery","steam_id":76561199188142396,"connected_time":2993000000000,"state":"active","ping":85},{"user_id":833,"name":"[K.Y.L.L.]Pup (she/they)","steam_id":76561198027321950,"connected_time":2959000000000,"state":"active","ping":93},{"user_id":841,"name":"E1M1","steam_id":76561198165542681,"connected_time":2318000000000,"state":"active","ping":52},{"user_id":848,"name":"HoaroBatty","steam_id":76561198120361221,"connected_time":1720000000000,"state":"active","ping":74},{"user_id":834,"name":"Be Gay, Do Crimes, Smoke Weed!","steam_id":76561198092419868,"connected_time":2950000000000,"state":"active","ping":96},{"user_id":862,"name":"viagra addict","steam_id":76561198017705248,"connected_time":589000000000,"state":"active","ping":47},{"user_id":837,"name":"dispenser (exotic.balls)","steam_id":76561198126466112,"connected_time":2796000000000,"state":"active","ping":47}]},{"server_id":106,"name":"Uncletopia | Chicago | 2 | All Maps","name_short":"chi-2","host":"chi-1.us.uncletopia.com","port":27025,"enabled":true,"region":"us-central","cc":"us","latitude":41.881832,"longitude":-87.62318,"reserved":0,"last_update":"0001-01-01T00:00:00Z","name_a2s":"Uncletopia | Chicago | 2 | All Maps","protocol":17,"map":"pl_barnblitz","folder":"tf","game":"Team Fortress","app_id":440,"player_count":20,"max_players":24,"Bots":0,"server_type":"Dedicated","server_os":"Linux","password":true,"vac":true,"version":"7742253","steam_id":85568392924469985,"keywords":["nocrits","nodmgspread","payload","uncletopia"],"game_id":440,"stv_port":27026,"stv_name":"Uncletopia | Chicago | 2 | All Maps | STV","players":[{"user_id":1076,"name":"Satori Komeiji","steam_id":76561198158211423,"connected_time":389000000000,"state":"active","ping":96},{"user_id":1077,"name":"Kim Kitsuragi","steam_id":76561198057374871,"connected_time":134000000000,"state":"active","ping":60},{"user_id":1060,"name":"Yakul","steam_id":76561198100040013,"connected_time":2249000000000,"state":"active","ping":84},{"user_id":1075,"name":"Quietsharp","steam_id":76561198277968438,"connected_time":436000000000,"state":"active","ping":99},{"user_id":1064,"name":"Newt","steam_id":76561198842909288,"connected_time":1912000000000,"state":"active","ping":127},{"user_id":1074,"name":"kezia","steam_id":76561198059815894,"connected_time":497000000000,"state":"active","ping":46},{"user_id":1065,"name":"road4567","steam_id":76561198089982839,"connected_time":1904000000000,"state":"active","ping":199},{"user_id":1056,"name":"reis","steam_id":76561199232952016,"connected_time":3022000000000,"state":"active","ping":177},{"user_id":1070,"name":"dotquack","steam_id":76561198353783512,"connected_time":1323000000000,"state":"active","ping":73},{"user_id":1072,"name":"DoctorBodacious","steam_id":76561198258784171,"connected_time":933000000000,"state":"active","ping":71},{"user_id":936,"name":"Killroy NQP ❤","steam_id":76561198006983771,"connected_time":12182000000000,"state":"active","ping":75},{"user_id":1080,"name":"Tesla","steam_id":76561198368825422,"connected_time":67000000000,"state":"active","ping":72},{"user_id":1078,"name":"Mad dog of Shimano","steam_id":76561198797266817,"connected_time":116000000000,"state":"active","ping":83},{"user_id":1079,"name":"orangj","steam_id":76561198026604607,"connected_time":111000000000,"state":"active","ping":57},{"user_id":1081,"name":"Kaizrin","steam_id":76561198214635985,"connected_time":2000000000,"state":"spawning","ping":43},{"user_id":1058,"name":"Tzigon","steam_id":76561198045300405,"connected_time":2332000000000,"state":"active","ping":47},{"user_id":1007,"name":"Breezy","steam_id":76561198046903890,"connected_time":7502000000000,"state":"active","ping":56},{"user_id":1053,"name":"Decot","steam_id":76561198042016967,"connected_time":3195000000000,"state":"active","ping":73},{"user_id":1063,"name":"festive klevin","steam_id":76561198799106535,"connected_time":1987000000000,"state":"active","ping":70},{"user_id":1057,"name":"St4pps","steam_id":76561198449842958,"connected_time":2916000000000,"state":"active","ping":65}]},{"server_id":402,"name":"Uncletopia | Chicago | 3 | All Maps","name_short":"chi-3","host":"chi-1.us.uncletopia.com","port":27035,"enabled":true,"region":"us-central","cc":"us","latitude":41.881832,"longitude":-87.62318,"reserved":0,"last_update":"0001-01-01T00:00:00Z","name_a2s":"Uncletopia | Chicago | 3 | All Maps","protocol":17,"map":"koth_viaduct","folder":"tf","game":"Team Fortress","app_id":440,"player_count":23,"max_players":24,"Bots":0,"server_type":"Dedicated","server_os":"Linux","password":true,"vac":true,"version":"7742253","steam_id":85568392924515191,"keywords":["cp","nocrits","nodmgspread","uncletopia"],"game_id":440,"stv_port":27036,"stv_name":"Uncletopia | Chicago | 3 | All Maps | STV","players":[{"user_id":806,"name":"[TF2Apples] Intense Green Apple","steam_id":76561198803561622,"connected_time":553000000000,"state":"active","ping":82},{"user_id":763,"name":"gerg","steam_id":76561197997127387,"connected_time":2009000000000,"state":"active","ping":103},{"user_id":803,"name":"slimeyphusion","steam_id":76561198042300721,"connected_time":794000000000,"state":"active","ping":62},{"user_id":807,"name":"Derpydude2002 #SaveTf2","steam_id":76561198811719519,"connected_time":450000000000,"state":"active","ping":60},{"user_id":770,"name":"Judge Dad (Proud)","steam_id":76561198071473697,"connected_time":1845000000000,"state":"active","ping":65},{"user_id":810,"name":"claire","steam_id":76561198127525888,"connected_time":366000000000,"state":"active","ping":67},{"user_id":809,"name":"Animekey","steam_id":76561198024883917,"connected_time":414000000000,"state":"active","ping":60},{"user_id":812,"name":"Riske","steam_id":76561198115840568,"connected_time":282000000000,"state":"active","ping":74},{"user_id":737,"name":"TÖZI","steam_id":76561198045268695,"connected_time":4133000000000,"state":"active","ping":57},{"user_id":764,"name":"Chiaki Nanami","steam_id":76561198164782653,"connected_time":2006000000000,"state":"active","ping":63},{"user_id":813,"name":"P E C K","steam_id":76561198065753890,"connected_time":262000000000,"state":"active","ping":114},{"user_id":740,"name":"Gian","steam_id":76561198041434512,"connected_time":4098000000000,"state":"active","ping":112},{"user_id":765,"name":"social distance warrior","steam_id":76561198128992994,"connected_time":2004000000000,"state":"active","ping":83},{"user_id":741,"name":"The Assistant Regional Manager","steam_id":76561199221484936,"connected_time":4081000000000,"state":"active","ping":108},{"user_id":802,"name":"Ashric","steam_id":76561198044655935,"connected_time":812000000000,"state":"active","ping":45},{"user_id":814,"name":"Plasmabolt","steam_id":76561198210609169,"connected_time":262000000000,"state":"active","ping":108},{"user_id":668,"name":"Glass Joe","steam_id":76561198317365741,"connected_time":9790000000000,"state":"active","ping":60},{"user_id":769,"name":"Going Postal","steam_id":76561198211892779,"connected_time":1916000000000,"state":"active","ping":64},{"user_id":815,"name":"Dreday543","steam_id":76561198085289103,"connected_time":107000000000,"state":"active","ping":92},{"user_id":772,"name":"Majestic-A","steam_id":76561198988062101,"connected_time":1803000000000,"state":"active","ping":93},{"user_id":778,"name":"gristle","steam_id":76561198046815360,"connected_time":1497000000000,"state":"active","ping":90},{"user_id":779,"name":"FiveHoursLater...","steam_id":76561198092608339,"connected_time":1470000000000,"state":"active","ping":84},{"user_id":754,"name":"Cornelius","steam_id":76561198123447388,"connected_time":2483000000000,"state":"active","ping":65}]},{"server_id":403,"name":"Uncletopia | Chicago | 4 | All Maps","name_short":"chi-4","host":"chi-1.us.uncletopia.com","port":27045,"enabled":true,"region":"us-central","cc":"us","latitude":41.881832,"longitude":-87.62318,"reserved":0,"last_update":"0001-01-01T00:00:00Z","name_a2s":"Uncletopia | Chicago | 4 | All Maps","protocol":17,"map":"pl_snowycoast","folder":"tf","game":"Team Fortress","app_id":440,"player_count":19,"max_players":24,"Bots":0,"server_type":"Dedicated","server_os":"Linux","password":true,"vac":true,"version":"7742253","steam_id":85568392924515193,"keywords":["nocrits","nodmgspread","payload","uncletopia"],"game_id":440,"stv_port":27046,"stv_name":"Uncletopia | Chicago | 4 | All Maps | STV","players":[{"user_id":419,"name":"Fantastic","steam_id":76561198079088978,"connected_time":4493000000000,"state":"active","ping":44},{"user_id":460,"name":"1 0 0 . m i l ‘","steam_id":76561198255308129,"connected_time":1240000000000,"state":"active","ping":121},{"user_id":462,"name":"dylban","steam_id":76561198965665751,"connected_time":1230000000000,"state":"active","ping":61},{"user_id":476,"name":"Willy","steam_id":76561199240618325,"connected_time":117000000000,"state":"active","ping":55},{"user_id":479,"name":"Adolf The Toast Jesus™","steam_id":76561198024553767,"connected_time":38000000000,"state":"active","ping":63},{"user_id":359,"name":"C papi","steam_id":76561198027779564,"connected_time":9921000000000,"state":"active","ping":51},{"user_id":464,"name":"Shred Kaczynski","steam_id":76561199015501117,"connected_time":1198000000000,"state":"active","ping":55},{"user_id":477,"name":"flamingo dad","steam_id":76561198211062267,"connected_time":95000000000,"state":"active","ping":53},{"user_id":420,"name":"Yeshie the Dragon Layer","steam_id":76561198080214214,"connected_time":4482000000000,"state":"active","ping":42},{"user_id":453,"name":"lili.winters","steam_id":76561199391478575,"connected_time":1701000000000,"state":"active","ping":99},{"user_id":472,"name":"pablo","steam_id":76561198395577807,"connected_time":632000000000,"state":"active","ping":60},{"user_id":478,"name":"Psychosis","steam_id":76561198078659070,"connected_time":74000000000,"state":"active","ping":71},{"user_id":382,"name":"Hameas","steam_id":76561198195620918,"connected_time":7720000000000,"state":"active","ping":112},{"user_id":363,"name":"Jeremy","steam_id":76561198286240347,"connected_time":9065000000000,"state":"active","ping":56},{"user_id":454,"name":"new years rizzolution","steam_id":76561198086193212,"connected_time":1672000000000,"state":"active","ping":60},{"user_id":455,"name":"Volkan, Pervert Extraordinaire","steam_id":76561198004569575,"connected_time":1632000000000,"state":"active","ping":63},{"user_id":444,"name":"Brown $keez","steam_id":76561198053621664,"connected_time":2563000000000,"state":"active","ping":45},{"user_id":471,"name":"Vladikr1","steam_id":76561198401495362,"connected_time":898000000000,"state":"active","ping":58},{"user_id":470,"name":"Bacon Stripper","steam_id":76561198012828731,"connected_time":966000000000,"state":"active","ping":47}]},{"server_id":36,"name":"Uncletopia | Chicago | 5 | All Maps","name_short":"chi-5","host":"chi-2.us.uncletopia.com","port":27015,"enabled":true,"region":"us-central","cc":"us","latitude":41.881832,"longitude":-87.62318,"reserved":0,"last_update":"0001-01-01T00:00:00Z","name_a2s":"Uncletopia | Chicago | 5 | All Maps","protocol":17,"map":"pl_pier","folder":"tf","game":"Team Fortress","app_id":440,"player_count":24,"max_players":24,"Bots":0,"server_type":"Dedicated","server_os":"Linux","password":true,"vac":true,"version":"7742253","steam_id":85568392924866362,"keywords":["nocrits","nodmgspread","payload","uncletopia"],"game_id":440,"stv_port":27016,"stv_name":"Uncletopia | Chicago | 5 | All Maps | STV","players":[{"user_id":572,"name":"I like Aidan","steam_id":76561198056869760,"connected_time":469000000000,"state":"active","ping":101},{"user_id":518,"name":"Nobuunga","steam_id":76561198100614981,"connected_time":4700000000000,"state":"active","ping":67},{"user_id":563,"name":"Fdhou☭","steam_id":76561198881020399,"connected_time":859000000000,"state":"active","ping":153},{"user_id":556,"name":"drezzo","steam_id":76561198028444359,"connected_time":1025000000000,"state":"active","ping":157},{"user_id":567,"name":"christmas larguu","steam_id":76561197994336210,"connected_time":751000000000,"state":"active","ping":54},{"user_id":565,"name":"brian emo","steam_id":76561198109901138,"connected_time":790000000000,"state":"active","ping":73},{"user_id":545,"name":"Jamendithas","steam_id":76561198119537716,"connected_time":1793000000000,"state":"active","ping":62},{"user_id":547,"name":"defenselessmotherof4","steam_id":76561199009913306,"connected_time":1522000000000,"state":"active","ping":62},{"user_id":548,"name":"Kamin","steam_id":76561198255299559,"connected_time":1504000000000,"state":"active","ping":77},{"user_id":520,"name":"Soap Man","steam_id":76561198000490235,"connected_time":4673000000000,"state":"active","ping":114},{"user_id":575,"name":"The Animated Gamer","steam_id":76561198120639995,"connected_time":325000000000,"state":"active","ping":109},{"user_id":528,"name":"miles","steam_id":76561199029019040,"connected_time":3959000000000,"state":"active","ping":79},{"user_id":576,"name":"aqua","steam_id":76561199407709552,"connected_time":168000000000,"state":"active","ping":49},{"user_id":549,"name":"BBQ","steam_id":76561198437297853,"connected_time":1491000000000,"state":"active","ping":63},{"user_id":551,"name":"Sir Iasis","steam_id":76561198035666760,"connected_time":1444000000000,"state":"active","ping":62},{"user_id":573,"name":"OldManHenderson1976","steam_id":76561198148713751,"connected_time":459000000000,"state":"active","ping":93},{"user_id":553,"name":"tylerhowlter","steam_id":76561199013586520,"connected_time":1389000000000,"state":"active","ping":65},{"user_id":569,"name":"Mr.Dies a lot","steam_id":76561199061602946,"connected_time":698000000000,"state":"active","ping":175},{"user_id":560,"name":"peachy","steam_id":76561198026664629,"connected_time":977000000000,"state":"active","ping":54},{"user_id":555,"name":"superdude999123","steam_id":76561198871985644,"connected_time":1352000000000,"state":"active","ping":84},{"user_id":571,"name":"pew pew user","steam_id":76561198307845869,"connected_time":548000000000,"state":"active","ping":57},{"user_id":535,"name":"Passes the Bungus","steam_id":76561198040647717,"connected_time":2868000000000,"state":"active","ping":82},{"user_id":539,"name":"InfernoFlower64","steam_id":76561198181097391,"connected_time":2442000000000,"state":"active","ping":113},{"user_id":574,"name":"pizzaguy4","steam_id":76561198058821622,"connected_time":445000000000,"state":"active","ping":74}]},{"server_id":37,"name":"Uncletopia | Chicago | 6 | All Maps","name_short":"chi-6","host":"chi-2.us.uncletopia.com","port":27025,"enabled":true,"region":"us-central","cc":"us","latitude":41.881832,"longitude":-87.62318,"reserved":0,"last_update":"0001-01-01T00:00:00Z","name_a2s":"Uncletopia | Chicago | 6 | All Maps","protocol":17,"map":"cp_dustbowl","folder":"tf","game":"Team Fortress","app_id":440,"player_count":0,"max_players":24,"Bots":0,"server_type":"Dedicated","server_os":"Linux","password":true,"vac":true,"version":"7742253","steam_id":85568392924866363,"keywords":["cp","nocrits","nodmgspread","uncletopia"],"game_id":440,"stv_port":27026,"stv_name":"Uncletopia | Chicago | 6 | All Maps | STV","players":null},{"server_id":38,"name":"Uncletopia | Chicago | 7 | Stopwatch Beta","name_short":"chi-7","host":"chi-2.us.uncletopia.com","port":27035,"enabled":true,"region":"us-central","cc":"us","latitude":41.881832,"longitude":-87.62318,"reserved":0,"last_update":"0001-01-01T00:00:00Z","name_a2s":"Uncletopia | Chicago | 7 | Stopwatch Beta","protocol":17,"map":"workshop/pl_barnblitz_pro7.ugc582280235","folder":"tf","game":"Team Fortress","app_id":440,"player_count":0,"max_players":24,"Bots":0,"server_type":"Dedicated","server_os":"Linux","password":true,"vac":true,"version":"7742253","steam_id":85568392924866364,"keywords":["nocrits","nodmgspread","payload","uncletopia"],"game_id":440,"stv_port":27036,"stv_name":"Uncletopia | Chicago | 7 | Stopwatch Beta | STV","players":null},{"server_id":39,"name":"Uncletopia | Chicago | 8 | Community","name_short":"chi-8","host":"chi-2.us.uncletopia.com","port":27045,"enabled":true,"region":"us-central","cc":"us","latitude":41.881832,"longitude":-87.62318,"reserved":0,"last_update":"0001-01-01T00:00:00Z","name_a2s":"Uncletopia | Chicago | 8 | Community","protocol":17,"map":"workshop/koth_bagel_rc5.ugc2514036946","folder":"tf","game":"Team Fortress","app_id":440,"player_count":0,"max_players":24,"Bots":0,"server_type":"Dedicated","server_os":"Linux","password":true,"vac":true,"version":"7742253","steam_id":85568392924866365,"keywords":["cp","nocrits","nodmgspread","uncletopia"],"game_id":440,"stv_port":27046,"stv_name":"Uncletopia | Chicago | 8 | Community | STV","players":null},{"server_id":8,"name":"Uncletopia | Dallas | 1 | All Maps","name_short":"dal-1","host":"dal-1.us.uncletopia.com","port":27015,"enabled":true,"region":"us-central","cc":"us","latitude":32.779167,"longitude":-96.80889,"reserved":0,"last_update":"0001-01-01T00:00:00Z","name_a2s":"Uncletopia | Dallas | 1 | All Maps","protocol":17,"map":"pl_upward","folder":"tf","game":"Team Fortress","app_id":440,"player_count":24,"max_players":24,"Bots":0,"server_type":"Dedicated","server_os":"Linux","password":true,"vac":true,"version":"7742253","steam_id":85568392924469986,"keywords":["nocrits","nodmgspread","payload","uncletopia"],"game_id":440,"stv_port":27016,"stv_name":"Uncletopia | Dallas | 1 | All Maps | STV","players":[{"user_id":387,"name":"|Ruco Sama|","steam_id":76561198408593857,"connected_time":3173000000000,"state":"active","ping":61},{"user_id":419,"name":"Peak","steam_id":76561198118772175,"connected_time":1174000000000,"state":"active","ping":75},{"user_id":433,"name":"canine defecation","steam_id":76561198115656778,"connected_time":241000000000,"state":"active","ping":74},{"user_id":424,"name":"Medic","steam_id":76561198067869016,"connected_time":1018000000000,"state":"active","ping":72},{"user_id":421,"name":"ӋԼן.maS","steam_id":76561198114953928,"connected_time":1085000000000,"state":"active","ping":181},{"user_id":406,"name":"ATL1 | Rat","steam_id":76561198137925582,"connected_time":2704000000000,"state":"active","ping":88},{"user_id":413,"name":"Jello","steam_id":76561198890633732,"connected_time":1593000000000,"state":"active","ping":60},{"user_id":435,"name":"King Cotton","steam_id":76561198292444376,"connected_time":184000000000,"state":"active","ping":61},{"user_id":428,"name":"Bruce Leeroy","steam_id":76561198010708247,"connected_time":775000000000,"state":"active","ping":87},{"user_id":426,"name":"Shipmunk","steam_id":76561198063062670,"connected_time":851000000000,"state":"active","ping":73},{"user_id":390,"name":"Zorlovo","steam_id":76561198006443283,"connected_time":3167000000000,"state":"active","ping":70},{"user_id":432,"name":"white woman","steam_id":76561199116679777,"connected_time":274000000000,"state":"active","ping":65},{"user_id":418,"name":"Ap1hw","steam_id":76561199122883466,"connected_time":1211000000000,"state":"active","ping":41},{"user_id":431,"name":"SALEM","steam_id":76561198116281100,"connected_time":281000000000,"state":"active","ping":53},{"user_id":379,"name":"Brainfreezzzzz","steam_id":76561198068496884,"connected_time":3918000000000,"state":"active","ping":87},{"user_id":399,"name":"Who's Sandar?","steam_id":76561198097160898,"connected_time":3003000000000,"state":"active","ping":61},{"user_id":434,"name":"Yu Plush","steam_id":76561198800891125,"connected_time":220000000000,"state":"active","ping":95},{"user_id":251,"name":"DocDankDandy","steam_id":76561197999440195,"connected_time":16419000000000,"state":"active","ping":69},{"user_id":430,"name":"ZUZU","steam_id":76561197969622110,"connected_time":637000000000,"state":"active","ping":117},{"user_id":401,"name":"Sol","steam_id":76561198803824764,"connected_time":2975000000000,"state":"active","ping":120},{"user_id":381,"name":"Aldinach","steam_id":76561198079912615,"connected_time":3912000000000,"state":"active","ping":75},{"user_id":412,"name":"disasters are gone after the de","steam_id":76561198119536224,"connected_time":1627000000000,"state":"active","ping":82},{"user_id":409,"name":"akirajimbo","steam_id":76561197979960008,"connected_time":2169000000000,"state":"active","ping":79},{"user_id":405,"name":"mahik","steam_id":76561198012270322,"connected_time":2805000000000,"state":"active","ping":88}]},{"server_id":108,"name":"Uncletopia | Dallas | 2 | All Maps","name_short":"dal-2","host":"dal-1.us.uncletopia.com","port":27025,"enabled":true,"region":"us-central","cc":"us","latitude":32.779167,"longitude":-96.80889,"reserved":0,"last_update":"0001-01-01T00:00:00Z","name_a2s":"Uncletopia | Dallas | 2 | All Maps","protocol":17,"map":"ctf_2fort","folder":"tf","game":"Team Fortress","app_id":440,"player_count":0,"max_players":24,"Bots":0,"server_type":"Dedicated","server_os":"Linux","password":true,"vac":true,"version":"7742253","steam_id":85568392924469988,"keywords":["ctf","nocrits","nodmgspread","uncletopia"],"game_id":440,"stv_port":27026,"stv_name":"Uncletopia | Dallas | 2 | All Maps | STV","players":null},{"server_id":5,"name":"Uncletopia | Frankfurt | 1 | All Maps","name_short":"frk-1","host":"frk-1.de.uncletopia.com","port":27015,"enabled":true,"region":"eu","cc":"de","latitude":50.110924,"longitude":8.682127,"reserved":0,"last_update":"0001-01-01T00:00:00Z","name_a2s":"Uncletopia | Frankfurt | 1 | All Maps","protocol":17,"map":"pl_pier","folder":"tf","game":"Team Fortress","app_id":440,"player_count":3,"max_players":24,"Bots":0,"server_type":"Dedicated","server_os":"Linux","password":true,"vac":true,"version":"7742253","steam_id":85568392924469989,"keywords":["nocrits","nodmgspread","payload","uncletopia"],"game_id":440,"stv_port":27016,"stv_name":"Uncletopia | Frankfurt | 1 | All Maps | STV","players":[{"user_id":6,"name":"leminsc8","steam_id":76561198825084995,"connected_time":3415000000000,"state":"active","ping":41},{"user_id":7,"name":"Vol't","steam_id":76561198808294219,"connected_time":2559000000000,"state":"active","ping":152},{"user_id":12,"name":"peruna","steam_id":76561198000721196,"connected_time":1061000000000,"state":"active","ping":90}]},{"server_id":110,"name":"Uncletopia | Frankfurt | 2 | All Maps","name_short":"frk-2","host":"frk-1.de.uncletopia.com","port":27025,"enabled":true,"region":"eu","cc":"de","latitude":50.110924,"longitude":8.682127,"reserved":0,"last_update":"0001-01-01T00:00:00Z","name_a2s":"Uncletopia | Frankfurt | 2 | All Maps","protocol":17,"map":"pl_upward","folder":"tf","game":"Team Fortress","app_id":440,"player_count":0,"max_players":24,"Bots":0,"server_type":"Dedicated","server_os":"Linux","password":true,"vac":true,"version":"7742253","steam_id":85568392924469990,"keywords":["nocrits","nodmgspread","payload","uncletopia"],"game_id":440,"stv_port":27026,"stv_name":"Uncletopia | Frankfurt | 2 | All Maps | STV","players":null},{"server_id":308,"name":"Uncletopia | Frankfurt | 3 | All Maps","name_short":"frk-3","host":"frk-1.de.uncletopia.com","port":27035,"enabled":true,"region":"eu","cc":"de","latitude":50.110924,"longitude":8.682127,"reserved":0,"last_update":"0001-01-01T00:00:00Z","name_a2s":"Uncletopia | Frankfurt | 3 | All Maps","protocol":17,"map":"koth_viaduct","folder":"tf","game":"Team Fortress","app_id":440,"player_count":0,"max_players":24,"Bots":0,"server_type":"Dedicated","server_os":"Linux","password":true,"vac":true,"version":"7742253","steam_id":85568392924504274,"keywords":["cp","nocrits","nodmgspread","uncletopia"],"game_id":440,"stv_port":27036,"stv_name":"Uncletopia | Frankfurt | 3 | All Maps | STV","players":null},{"server_id":309,"name":"Uncletopia | Frankfurt | 4 | All Maps","name_short":"frk-4","host":"frk-1.de.uncletopia.com","port":27045,"enabled":true,"region":"eu","cc":"de","latitude":50.110924,"longitude":8.682127,"reserved":0,"last_update":"0001-01-01T00:00:00Z","name_a2s":"Uncletopia | Frankfurt | 4 | All Maps","protocol":17,"map":"pl_frontier_final","folder":"tf","game":"Team Fortress","app_id":440,"player_count":0,"max_players":24,"Bots":0,"server_type":"Dedicated","server_os":"Linux","password":true,"vac":true,"version":"7742253","steam_id":85568392924504275,"keywords":["nocrits","nodmgspread","payload","uncletopia"],"game_id":440,"stv_port":27046,"stv_name":"Uncletopia | Frankfurt | 4 | All Maps | STV","players":null},{"server_id":310,"name":"Uncletopia | Frankfurt | 5 | All Maps","name_short":"frk-5","host":"frk-1.de.uncletopia.com","port":27055,"enabled":true,"region":"eu","cc":"de","latitude":50.110924,"longitude":8.682127,"reserved":0,"last_update":"0001-01-01T00:00:00Z","name_a2s":"Uncletopia | Frankfurt | 5 | All Maps","protocol":17,"map":"cp_sunshine","folder":"tf","game":"Team Fortress","app_id":440,"player_count":0,"max_players":24,"Bots":0,"server_type":"Dedicated","server_os":"Linux","password":true,"vac":true,"version":"7742253","steam_id":85568392924504277,"keywords":["cp","nocrits","nodmgspread","uncletopia"],"game_id":440,"stv_port":27056,"stv_name":"Uncletopia | Frankfurt | 5 | All Maps | STV","players":null},{"server_id":311,"name":"Uncletopia | Frankfurt | 6 | All Maps","name_short":"frk-6","host":"frk-1.de.uncletopia.com","port":27065,"enabled":true,"region":"eu","cc":"de","latitude":50.110924,"longitude":8.682127,"reserved":0,"last_update":"0001-01-01T00:00:00Z","name_a2s":"Uncletopia | Frankfurt | 6 | All Maps","protocol":17,"map":"koth_highpass","folder":"tf","game":"Team Fortress","app_id":440,"player_count":0,"max_players":24,"Bots":0,"server_type":"Dedicated","server_os":"Linux","password":true,"vac":true,"version":"7742253","steam_id":85568392924504278,"keywords":["cp","nocrits","nodmgspread","uncletopia"],"game_id":440,"stv_port":27066,"stv_name":"Uncletopia | Frankfurt | 6 | All Maps | STV","players":null},{"server_id":23,"name":"Uncletopia | Frankfurt | 7 | Stopwatch Beta","name_short":"frk-7","host":"frk-1.de.uncletopia.com","port":27075,"enabled":true,"region":"eu","cc":"de","latitude":50.110924,"longitude":8.682127,"reserved":0,"last_update":"0001-01-01T00:00:00Z","name_a2s":"Uncletopia | Frankfurt | 7 | Stopwatch Beta","protocol":17,"map":"koth_lakeside_final","folder":"tf","game":"Team Fortress","app_id":440,"player_count":0,"max_players":24,"Bots":0,"server_type":"Dedicated","server_os":"Linux","password":true,"vac":true,"version":"7742253","steam_id":85568392924742827,"keywords":["cp","nocrits","nodmgspread","uncletopia"],"game_id":440,"stv_port":27076,"stv_name":"Uncletopia | Frankfurt | 7 | Stopwatch Beta | STV","players":null},{"server_id":24,"name":"Uncletopia | Frankfurt | 8 | Community","name_short":"frk-8","host":"frk-1.de.uncletopia.com","port":27085,"enabled":true,"region":"eu","cc":"de","latitude":50.110924,"longitude":8.682127,"reserved":0,"last_update":"0001-01-01T00:00:00Z","name_a2s":"Uncletopia | Frankfurt | 8 | Community","protocol":17,"map":"workshop/cp_villa_b19.ugc2113052569","folder":"tf","game":"Team Fortress","app_id":440,"player_count":0,"max_players":24,"Bots":0,"server_type":"Dedicated","server_os":"Linux","password":true,"vac":true,"version":"7742253","steam_id":85568392924742828,"keywords":["cp","nocrits","nodmgspread","uncletopia"],"game_id":440,"stv_port":27086,"stv_name":"Uncletopia | Frankfurt | 8 | Community | STV","players":null},{"server_id":202,"name":"Uncletopia | Hong Kong | 1 | All Maps","name_short":"hgk-1","host":"hgk-1.hk.uncletopia.com","port":27015,"enabled":true,"region":"asia","cc":"hk","latitude":22.302711,"longitude":114.177216,"reserved":0,"last_update":"0001-01-01T00:00:00Z","name_a2s":"Uncletopia | Hong Kong | 1 | All Maps","protocol":17,"map":"pl_upward","folder":"tf","game":"Team Fortress","app_id":440,"player_count":24,"max_players":24,"Bots":0,"server_type":"Dedicated","server_os":"Linux","password":true,"vac":true,"version":"7742253","steam_id":85568392924494504,"keywords":["nocrits","nodmgspread","payload","uncletopia"],"game_id":440,"stv_port":27016,"stv_name":"Uncletopia | Hong Kong | 1 | All Maps | STV","players":[{"user_id":256,"name":"Corn_Archer","steam_id":76561199185044554,"connected_time":801000000000,"state":"active","ping":57},{"user_id":258,"name":"DUDE","steam_id":76561198017159562,"connected_time":559000000000,"state":"active","ping":68},{"user_id":239,"name":"hog","steam_id":76561199206816701,"connected_time":2004000000000,"state":"active","ping":72},{"user_id":233,"name":"raguspchennai","steam_id":76561199153121364,"connected_time":2684000000000,"state":"active","ping":102},{"user_id":250,"name":"Vintage Spehy","steam_id":76561198967821432,"connected_time":1216000000000,"state":"active","ping":60},{"user_id":252,"name":"예린","steam_id":76561199075190238,"connected_time":1142000000000,"state":"active","ping":77},{"user_id":259,"name":"Bisuto","steam_id":76561199019233291,"connected_time":538000000000,"state":"active","ping":112},{"user_id":267,"name":"Urotsuki","steam_id":76561198074339034,"connected_time":199000000000,"state":"active","ping":76},{"user_id":263,"name":"god of cum (gold cum arc)","steam_id":76561199161406614,"connected_time":267000000000,"state":"active","ping":131},{"user_id":237,"name":"can we get much higher","steam_id":76561199390507975,"connected_time":2037000000000,"state":"active","ping":48},{"user_id":222,"name":"water tastes good","steam_id":76561199375947670,"connected_time":4110000000000,"state":"active","ping":79},{"user_id":213,"name":"'","steam_id":76561198413116920,"connected_time":4396000000000,"state":"active","ping":79},{"user_id":262,"name":"Dumbledore asked calmly","steam_id":76561198164137234,"connected_time":303000000000,"state":"active","ping":178},{"user_id":248,"name":"QuickStick","steam_id":76561198377845045,"connected_time":1281000000000,"state":"active","ping":126},{"user_id":265,"name":"novice","steam_id":76561197998916345,"connected_time":248000000000,"state":"active","ping":104},{"user_id":261,"name":"goofy goober","steam_id":76561199010558927,"connected_time":464000000000,"state":"active","ping":126},{"user_id":135,"name":"lilla laxum","steam_id":76561198230213828,"connected_time":11153000000000,"state":"active","ping":61},{"user_id":268,"name":"Bertengkar","steam_id":76561198213031155,"connected_time":53000000000,"state":"active","ping":303},{"user_id":269,"name":"Ville","steam_id":76561199077881472,"connected_time":47000000000,"state":"active","ping":69},{"user_id":270,"name":"Republic of China","steam_id":76561199075999857,"connected_time":16000000000,"state":"active","ping":180},{"user_id":244,"name":"brizzard","steam_id":76561198048438653,"connected_time":1602000000000,"state":"active","ping":47},{"user_id":245,"name":"Kore","steam_id":76561198308975624,"connected_time":1577000000000,"state":"active","ping":64},{"user_id":271,"name":"Saggle","steam_id":76561198056075147,"connected_time":3000000000,"state":"spawning","ping":131},{"user_id":179,"name":"Michael Scott","steam_id":76561198023082794,"connected_time":6887000000000,"state":"active","ping":46}]},{"server_id":1,"name":"Uncletopia | Los Angeles | 1 | All Maps","name_short":"lax-1","host":"lax-1.us.uncletopia.com","port":27015,"enabled":true,"region":"us-west","cc":"us","latitude":33.94279,"longitude":-118.41004,"reserved":0,"last_update":"0001-01-01T00:00:00Z","name_a2s":"Uncletopia | Los Angeles | 1 | All Maps","protocol":17,"map":"pl_barnblitz","folder":"tf","game":"Team Fortress","app_id":440,"player_count":24,"max_players":24,"Bots":0,"server_type":"Dedicated","server_os":"Linux","password":true,"vac":true,"version":"7742253","steam_id":85568392924469991,"keywords":["nocrits","nodmgspread","payload","uncletopia"],"game_id":440,"stv_port":27016,"stv_name":"Uncletopia | Los Angeles | 1 | All Maps | STV","players":[{"user_id":377,"name":"Rainbow_Slime","steam_id":76561199070025962,"connected_time":487000000000,"state":"active","ping":108},{"user_id":304,"name":"The Flavor Savior","steam_id":76561198430508592,"connected_time":5632000000000,"state":"active","ping":105},{"user_id":296,"name":"Bostrash641","steam_id":76561199447225685,"connected_time":6057000000000,"state":"active","ping":81},{"user_id":367,"name":"plutonium isotope","steam_id":76561198319442494,"connected_time":1674000000000,"state":"active","ping":50},{"user_id":335,"name":"Sewer","steam_id":76561198803732690,"connected_time":3805000000000,"state":"active","ping":38},{"user_id":366,"name":"resh","steam_id":76561198239598834,"connected_time":1753000000000,"state":"active","ping":104},{"user_id":332,"name":"Bob the Minion","steam_id":76561197972389354,"connected_time":4108000000000,"state":"active","ping":45},{"user_id":345,"name":"SirJameston","steam_id":76561198035674306,"connected_time":3203000000000,"state":"active","ping":87},{"user_id":365,"name":"goldsrc","steam_id":76561198332694127,"connected_time":1762000000000,"state":"active","ping":111},{"user_id":364,"name":"Perididdle","steam_id":76561198056864606,"connected_time":1775000000000,"state":"active","ping":73},{"user_id":344,"name":"33","steam_id":76561198894676484,"connected_time":3241000000000,"state":"active","ping":45},{"user_id":306,"name":"Left 4 Life","steam_id":76561198080820057,"connected_time":5602000000000,"state":"active","ping":108},{"user_id":359,"name":"The Caretaker","steam_id":76561198125241411,"connected_time":2424000000000,"state":"active","ping":66},{"user_id":369,"name":"2 Point Tom","steam_id":76561198087617008,"connected_time":1529000000000,"state":"active","ping":89},{"user_id":348,"name":"doobiebob","steam_id":76561198071963742,"connected_time":3152000000000,"state":"active","ping":47},{"user_id":376,"name":":3 | ph0va_ \u003c3 sab","steam_id":76561198309010627,"connected_time":502000000000,"state":"active","ping":69},{"user_id":326,"name":"BurningPride","steam_id":76561198080592800,"connected_time":4557000000000,"state":"active","ping":47},{"user_id":312,"name":"SLJhammer","steam_id":76561198236320848,"connected_time":5498000000000,"state":"active","ping":90},{"user_id":327,"name":"autistic disney princes","steam_id":76561199045901994,"connected_time":4421000000000,"state":"active","ping":46},{"user_id":375,"name":"big car","steam_id":76561198067082350,"connected_time":529000000000,"state":"active","ping":52},{"user_id":350,"name":"Woody","steam_id":76561198055842769,"connected_time":3099000000000,"state":"active","ping":47},{"user_id":361,"name":"azureglxy","steam_id":76561198861388315,"connected_time":1814000000000,"state":"active","ping":36},{"user_id":352,"name":"bananaland","steam_id":76561198263004448,"connected_time":3026000000000,"state":"active","ping":49},{"user_id":356,"name":"Stboxnard","steam_id":76561198089888887,"connected_time":2760000000000,"state":"active","ping":83}]},{"server_id":112,"name":"Uncletopia | Los Angeles | 2 | All Maps","name_short":"lax-2","host":"lax-1.us.uncletopia.com","port":27025,"enabled":true,"region":"us-west","cc":"us","latitude":33.94279,"longitude":-118.41004,"reserved":0,"last_update":"0001-01-01T00:00:00Z","name_a2s":"Uncletopia | Los Angeles | 2 | All Maps","protocol":17,"map":"koth_cascade","folder":"tf","game":"Team Fortress","app_id":440,"player_count":0,"max_players":24,"Bots":0,"server_type":"Dedicated","server_os":"Linux","password":true,"vac":true,"version":"7742253","steam_id":85568392924469992,"keywords":["cp","nocrits","nodmgspread","uncletopia"],"game_id":440,"stv_port":27026,"stv_name":"Uncletopia | Los Angeles | 2 | All Maps | STV","players":null},{"server_id":324,"name":"Uncletopia | Los Angeles | 3 | All Maps","name_short":"lax-3","host":"lax-1.us.uncletopia.com","port":27035,"enabled":true,"region":"us-west","cc":"us","latitude":33.94279,"longitude":-118.41004,"reserved":0,"last_update":"0001-01-01T00:00:00Z","name_a2s":"Uncletopia | Los Angeles | 3 | All Maps","protocol":17,"map":"koth_lakeside_final","folder":"tf","game":"Team Fortress","app_id":440,"player_count":0,"max_players":24,"Bots":0,"server_type":"Dedicated","server_os":"Linux","password":true,"vac":true,"version":"7742253","steam_id":85568392924510198,"keywords":["cp","nocrits","nodmgspread","uncletopia"],"game_id":440,"stv_port":27036,"stv_name":"Uncletopia | Los Angeles | 3 | All Maps | STV","players":null},{"server_id":25,"name":"Uncletopia | Los Angeles | 4 | Stopwatch Beta","name_short":"lax-4","host":"lax-1.us.uncletopia.com","port":27045,"enabled":true,"region":"us-west","cc":"us","latitude":33.94279,"longitude":-118.41004,"reserved":0,"last_update":"0001-01-01T00:00:00Z","name_a2s":"Uncletopia | Los Angeles | 4 | Stopwatch Beta","protocol":17,"map":"cp_process_final","folder":"tf","game":"Team Fortress","app_id":440,"player_count":0,"max_players":24,"Bots":0,"server_type":"Dedicated","server_os":"Linux","password":true,"vac":true,"version":"7742253","steam_id":85568392924510199,"keywords":["cp","nocrits","nodmgspread","uncletopia"],"game_id":440,"stv_port":27046,"stv_name":"Uncletopia | Los Angeles | 4 | Stopwatch Beta | STV","players":null},{"server_id":11,"name":"Uncletopia | London | 1 | All Maps","name_short":"lon-1","host":"lon-1.uk.uncletopia.com","port":27015,"enabled":true,"region":"eu","cc":"gb","latitude":51.509865,"longitude":-0.118092,"reserved":0,"last_update":"0001-01-01T00:00:00Z","name_a2s":"Uncletopia | London | 1 | All Maps","protocol":17,"map":"cp_dustbowl","folder":"tf","game":"Team Fortress","app_id":440,"player_count":0,"max_players":24,"Bots":0,"server_type":"Dedicated","server_os":"Linux","password":true,"vac":true,"version":"7742253","steam_id":85568392924367362,"keywords":["cp","nocrits","nodmgspread","uncletopia"],"game_id":440,"stv_port":27016,"stv_name":"Uncletopia | London | 1 | All Maps | STV","players":null},{"server_id":114,"name":"Uncletopia | London | 2 | All Maps","name_short":"lon-2","host":"lon-1.uk.uncletopia.com","port":27025,"enabled":true,"region":"eu","cc":"gb","latitude":51.509865,"longitude":-0.118092,"reserved":0,"last_update":"0001-01-01T00:00:00Z","name_a2s":"Uncletopia | London | 2 | All Maps","protocol":17,"map":"cp_altitude","folder":"tf","game":"Team Fortress","app_id":440,"player_count":0,"max_players":24,"Bots":0,"server_type":"Dedicated","server_os":"Linux","password":true,"vac":true,"version":"7742253","steam_id":85568392924470941,"keywords":["cp","nocrits","nodmgspread","uncletopia"],"game_id":440,"stv_port":27026,"stv_name":"Uncletopia | London | 2 | All Maps | STV","players":null},{"server_id":320,"name":"Uncletopia | London | 3 | All Maps","name_short":"lon-3","host":"lon-1.uk.uncletopia.com","port":27035,"enabled":true,"region":"eu","cc":"gb","latitude":51.509865,"longitude":-0.118092,"reserved":0,"last_update":"0001-01-01T00:00:00Z","name_a2s":"Uncletopia | London | 3 | All Maps","protocol":17,"map":"cp_mountainlab","folder":"tf","game":"Team Fortress","app_id":440,"player_count":0,"max_players":24,"Bots":0,"server_type":"Dedicated","server_os":"Linux","password":true,"vac":true,"version":"7742253","steam_id":85568392924510192,"keywords":["cp","nocrits","nodmgspread","uncletopia"],"game_id":440,"stv_port":27036,"stv_name":"Uncletopia | London | 3 | All Maps | STV","players":null},{"server_id":321,"name":"Uncletopia | London | 4 | All Maps","name_short":"lon-4","host":"lon-1.uk.uncletopia.com","port":27045,"enabled":true,"region":"eu","cc":"gb","latitude":51.509865,"longitude":-0.118092,"reserved":0,"last_update":"0001-01-01T00:00:00Z","name_a2s":"Uncletopia | London | 4 | All Maps","protocol":17,"map":"pl_borneo","folder":"tf","game":"Team Fortress","app_id":440,"player_count":0,"max_players":24,"Bots":0,"server_type":"Dedicated","server_os":"Linux","password":true,"vac":true,"version":"7742253","steam_id":85568392924510193,"keywords":["nocrits","nodmgspread","payload","uncletopia"],"game_id":440,"stv_port":27046,"stv_name":"Uncletopia | London | 4 | All Maps | STV","players":null},{"server_id":21,"name":"Uncletopia | London | 5 | All Maps","name_short":"lon-5","host":"lon-1.uk.uncletopia.com","port":27055,"enabled":true,"region":"eu","cc":"gb","latitude":51.509865,"longitude":-0.118092,"reserved":0,"last_update":"0001-01-01T00:00:00Z","name_a2s":"Uncletopia | London | 5 | All Maps","protocol":17,"map":"cp_process_final","folder":"tf","game":"Team Fortress","app_id":440,"player_count":0,"max_players":24,"Bots":0,"server_type":"Dedicated","server_os":"Linux","password":true,"vac":true,"version":"7742253","steam_id":85568392924742829,"keywords":["cp","nocrits","nodmgspread","uncletopia"],"game_id":440,"stv_port":27056,"stv_name":"Uncletopia | London | 5 | All Maps | STV","players":null},{"server_id":22,"name":"Uncletopia | London | 6 | All Maps","name_short":"lon-6","host":"lon-1.uk.uncletopia.com","port":27065,"enabled":true,"region":"eu","cc":"gb","latitude":51.509865,"longitude":-0.118092,"reserved":0,"last_update":"0001-01-01T00:00:00Z","name_a2s":"Uncletopia | London | 6 | All Maps","protocol":17,"map":"pl_badwater","folder":"tf","game":"Team Fortress","app_id":440,"player_count":0,"max_players":24,"Bots":0,"server_type":"Dedicated","server_os":"Linux","password":true,"vac":true,"version":"7742253","steam_id":85568392924742830,"keywords":["nocrits","nodmgspread","payload","uncletopia"],"game_id":440,"stv_port":27066,"stv_name":"Uncletopia | London | 6 | All Maps | STV","players":null},{"server_id":40,"name":"Uncletopia | London | 7 | No Payload","name_short":"lon-7","host":"lon-1.uk.uncletopia.com","port":27075,"enabled":true,"region":"eu","cc":"gb","latitude":51.509865,"longitude":-0.118092,"reserved":0,"last_update":"0001-01-01T00:00:00Z","name_a2s":"Uncletopia | London | 7 | No Payload","protocol":17,"map":"pl_borneo","folder":"tf","game":"Team Fortress","app_id":440,"player_count":0,"max_players":24,"Bots":0,"server_type":"Dedicated","server_os":"Linux","password":true,"vac":true,"version":"7742253","steam_id":85568392924964314,"keywords":["nocrits","nodmgspread","payload","uncletopia"],"game_id":440,"stv_port":27076,"stv_name":"Uncletopia | London | 7 | No Payload | STV","players":null},{"server_id":41,"name":"Uncletopia | London | 8 | Community","name_short":"lon-8","host":"lon-1.uk.uncletopia.com","port":27085,"enabled":true,"region":"eu","cc":"gb","latitude":51.509865,"longitude":-0.118092,"reserved":0,"last_update":"0001-01-01T00:00:00Z","name_a2s":"Uncletopia | London | 8 | Community","protocol":17,"map":"cp_process_final","folder":"tf","game":"Team Fortress","app_id":440,"player_count":0,"max_players":24,"Bots":0,"server_type":"Dedicated","server_os":"Linux","password":true,"vac":true,"version":"7742253","steam_id":85568392924964315,"keywords":["cp","nocrits","nodmgspread","uncletopia"],"game_id":440,"stv_port":27086,"stv_name":"Uncletopia | London | 8 | Community | STV","players":null},{"server_id":300,"name":"Uncletopia | Montréal | 1 | All Maps","name_short":"mtl-1","host":"mtl-1.ca.uncletopia.com","port":27015,"enabled":true,"region":"us-east","cc":"ca","latitude":45.50889,"longitude":-73.56167,"reserved":0,"last_update":"0001-01-01T00:00:00Z","name_a2s":"Uncletopia | Montréal | 1 | All Maps","protocol":17,"map":"koth_lakeside_final","folder":"tf","game":"Team Fortress","app_id":440,"player_count":0,"max_players":24,"Bots":0,"server_type":"Dedicated","server_os":"Linux","password":true,"vac":true,"version":"7742253","steam_id":85568392924500087,"keywords":["cp","nocrits","nodmgspread","uncletopia"],"game_id":440,"stv_port":27016,"stv_name":"Uncletopia | Montréal | 1 | All Maps | STV","players":null},{"server_id":301,"name":"Uncletopia | Montréal | 2 | All Maps","name_short":"mtl-2","host":"mtl-1.ca.uncletopia.com","port":27025,"enabled":true,"region":"us-east","cc":"ca","latitude":45.50889,"longitude":-73.56167,"reserved":0,"last_update":"0001-01-01T00:00:00Z","name_a2s":"Uncletopia | Montréal | 2 | All Maps","protocol":17,"map":"koth_lakeside_final","folder":"tf","game":"Team Fortress","app_id":440,"player_count":0,"max_players":24,"Bots":0,"server_type":"Dedicated","server_os":"Linux","password":true,"vac":true,"version":"7742253","steam_id":85568392924500088,"keywords":["cp","nocrits","nodmgspread","uncletopia"],"game_id":440,"stv_port":27026,"stv_name":"Uncletopia | Montréal | 2 | All Maps | STV","players":null},{"server_id":302,"name":"Uncletopia | Montréal | 3 | All Maps","name_short":"mtl-3","host":"mtl-1.ca.uncletopia.com","port":27035,"enabled":true,"region":"us-east","cc":"ca","latitude":45.50889,"longitude":-73.56167,"reserved":0,"last_update":"0001-01-01T00:00:00Z","name_a2s":"Uncletopia | Montréal | 3 | All Maps","protocol":17,"map":"cp_altitude","folder":"tf","game":"Team Fortress","app_id":440,"player_count":0,"max_players":24,"Bots":0,"server_type":"Dedicated","server_os":"Linux","password":true,"vac":true,"version":"7742253","steam_id":85568392924500089,"keywords":["cp","nocrits","nodmgspread","uncletopia"],"game_id":440,"stv_port":27036,"stv_name":"Uncletopia | Montréal | 3 | All Maps | STV","players":null},{"server_id":303,"name":"Uncletopia | Montréal | 4 | No Payload","name_short":"mtl-4","host":"mtl-1.ca.uncletopia.com","port":27045,"enabled":true,"region":"us-east","cc":"ca","latitude":45.50889,"longitude":-73.56167,"reserved":0,"last_update":"0001-01-01T00:00:00Z","name_a2s":"Uncletopia | Montréal | 4 | No Payload","protocol":17,"map":"koth_highpass","folder":"tf","game":"Team Fortress","app_id":440,"player_count":0,"max_players":24,"Bots":0,"server_type":"Dedicated","server_os":"Linux","password":true,"vac":true,"version":"7742253","steam_id":85568392924500090,"keywords":["cp","nocrits","nodmgspread","uncletopia"],"game_id":440,"stv_port":27046,"stv_name":"Uncletopia | Montréal | 4 | No Payload | STV","players":null},{"server_id":13,"name":"Uncletopia | New York City | 1 | All Maps","name_short":"nyc-1","host":"nyc-1.us.uncletopia.com","port":27015,"enabled":true,"region":"us-east","cc":"us","latitude":40.73061,"longitude":-73.93524,"reserved":0,"last_update":"0001-01-01T00:00:00Z","name_a2s":"Uncletopia | New York City | 1 | All Maps","protocol":17,"map":"cp_sunshine","folder":"tf","game":"Team Fortress","app_id":440,"player_count":0,"max_players":24,"Bots":0,"server_type":"Dedicated","server_os":"Linux","password":true,"vac":true,"version":"7742253","steam_id":85568392924469993,"keywords":["cp","nocrits","nodmgspread","uncletopia"],"game_id":440,"stv_port":27016,"stv_name":"Uncletopia | New York City | 1 | All Maps | STV","players":null},{"server_id":14,"name":"Uncletopia | New York City | 2 | All Maps","name_short":"nyc-2","host":"nyc-1.us.uncletopia.com","port":27025,"enabled":true,"region":"us-east","cc":"us","latitude":40.73061,"longitude":-73.93524,"reserved":0,"last_update":"0001-01-01T00:00:00Z","name_a2s":"Uncletopia | New York City | 2 | All Maps","protocol":17,"map":"pl_barnblitz","folder":"tf","game":"Team Fortress","app_id":440,"player_count":15,"max_players":24,"Bots":0,"server_type":"Dedicated","server_os":"Linux","password":true,"vac":true,"version":"7742253","steam_id":85568392924469994,"keywords":["nocrits","nodmgspread","payload","uncletopia"],"game_id":440,"stv_port":27026,"stv_name":"Uncletopia | New York City | 2 | All Maps | STV","players":[{"user_id":932,"name":"Wolfie","steam_id":76561199081625951,"connected_time":889000000000,"state":"active","ping":148},{"user_id":918,"name":"M249 | Spectre","steam_id":76561198118334485,"connected_time":2212000000000,"state":"active","ping":63},{"user_id":929,"name":"The Funny Cat-Heaby","steam_id":76561198439978112,"connected_time":1104000000000,"state":"active","ping":164},{"user_id":937,"name":"u/unhinged_person","steam_id":76561198085839920,"connected_time":639000000000,"state":"active","ping":71},{"user_id":939,"name":"terrible ancient weasel","steam_id":76561198067487745,"connected_time":499000000000,"state":"active","ping":77},{"user_id":940,"name":"Nota","steam_id":76561198834155434,"connected_time":383000000000,"state":"active","ping":66},{"user_id":927,"name":"Spinch","steam_id":76561198296224166,"connected_time":1193000000000,"state":"active","ping":95},{"user_id":942,"name":"Pizza Party","steam_id":76561198165730754,"connected_time":96000000000,"state":"active","ping":57},{"user_id":943,"name":"beees?","steam_id":76561198024549500,"connected_time":78000000000,"state":"active","ping":128},{"user_id":893,"name":"Uncle Majic the Hip Hop Magicia","steam_id":76561198107924303,"connected_time":3859000000000,"state":"active","ping":52},{"user_id":830,"name":"Dark Saturday","steam_id":76561198152056777,"connected_time":5151000000000,"state":"active","ping":61},{"user_id":936,"name":"Shakaman","steam_id":76561198039829758,"connected_time":741000000000,"state":"active","ping":46},{"user_id":899,"name":"DAG","steam_id":76561198219508244,"connected_time":3620000000000,"state":"active","ping":47},{"user_id":920,"name":"Dragonmitri","steam_id":76561198144683775,"connected_time":2151000000000,"state":"active","ping":137},{"user_id":908,"name":"Don'tTestMe POGB4NNY149","steam_id":76561198033351858,"connected_time":3119000000000,"state":"active","ping":48}]},{"server_id":15,"name":"Uncletopia | New York City | 3 | Stopwatch Beta","name_short":"nyc-3","host":"nyc-1.us.uncletopia.com","port":27035,"enabled":true,"region":"us-east","cc":"us","latitude":40.73061,"longitude":-73.93524,"reserved":0,"last_update":"0001-01-01T00:00:00Z","name_a2s":"Uncletopia | New York City | 3 | Stopwatch Beta","protocol":17,"map":"koth_lakeside_final","folder":"tf","game":"Team Fortress","app_id":440,"player_count":0,"max_players":24,"Bots":0,"server_type":"Dedicated","server_os":"Linux","password":true,"vac":true,"version":"7742253","steam_id":85568392924742820,"keywords":["cp","nocrits","nodmgspread","uncletopia"],"game_id":440,"stv_port":27036,"stv_name":"Uncletopia | New York City | 3 | Stopwatch Beta | STV","players":null},{"server_id":16,"name":"Uncletopia | New York City | 4 | Community","name_short":"nyc-4","host":"nyc-1.us.uncletopia.com","port":27045,"enabled":true,"region":"us-east","cc":"us","latitude":40.73061,"longitude":-73.93524,"reserved":0,"last_update":"0001-01-01T00:00:00Z","name_a2s":"Uncletopia | New York City | 4 | Community","protocol":17,"map":"workshop/koth_product_final.ugc454272353","folder":"tf","game":"Team Fortress","app_id":440,"player_count":0,"max_players":24,"Bots":0,"server_type":"Dedicated","server_os":"Linux","password":true,"vac":true,"version":"7742253","steam_id":85568392924742821,"keywords":["cp","nocrits","nodmgspread","uncletopia"],"game_id":440,"stv_port":27046,"stv_name":"Uncletopia | New York City | 4 | Community | STV","players":null},{"server_id":142,"name":"Uncletopia | São Paulo | 1 | All Maps","name_short":"sao-1","host":"sao-1.br.uncletopia.com","port":27015,"enabled":true,"region":"sa","cc":"br","latitude":-23.533773,"longitude":-46.62529,"reserved":0,"last_update":"0001-01-01T00:00:00Z","name_a2s":"Uncletopia | São Paulo | 1 | All Maps","protocol":17,"map":"pl_borneo","folder":"tf","game":"Team Fortress","app_id":440,"player_count":0,"max_players":24,"Bots":0,"server_type":"Dedicated","server_os":"Linux","password":true,"vac":true,"version":"7742253","steam_id":85568392924469996,"keywords":["nocrits","nodmgspread","payload","uncletopia"],"game_id":440,"stv_port":27016,"stv_name":"Uncletopia | São Paulo | 1 | All Maps | STV","players":null},{"server_id":143,"name":"Uncletopia | São Paulo | 2 | All Maps","name_short":"sao-2","host":"sao-2.br.uncletopia.com","port":27015,"enabled":true,"region":"sa","cc":"br","latitude":-23.533773,"longitude":-46.62529,"reserved":0,"last_update":"0001-01-01T00:00:00Z","name_a2s":"Uncletopia | São Paulo | 2 | All Maps","protocol":17,"map":"pl_badwater","folder":"tf","game":"Team Fortress","app_id":440,"player_count":0,"max_players":24,"Bots":0,"server_type":"Dedicated","server_os":"Linux","password":true,"vac":true,"version":"7742253","steam_id":85568392924485349,"keywords":["nocrits","nodmgspread","payload","uncletopia"],"game_id":440,"stv_port":27016,"stv_name":"Uncletopia | São Paulo | 2 | All Maps | STV","players":null},{"server_id":7,"name":"Uncletopia | Seattle | 1 | All Maps","name_short":"sea-1","host":"sea-1.us.uncletopia.com","port":27015,"enabled":true,"region":"us-west","cc":"us","latitude":47.608013,"longitude":-122.33517,"reserved":0,"last_update":"0001-01-01T00:00:00Z","name_a2s":"Uncletopia | Seattle | 1 | All Maps","protocol":17,"map":"pl_badwater","folder":"tf","game":"Team Fortress","app_id":440,"player_count":24,"max_players":24,"Bots":0,"server_type":"Dedicated","server_os":"Linux","password":true,"vac":true,"version":"7742253","steam_id":85568392924469997,"keywords":["nocrits","nodmgspread","payload","uncletopia"],"game_id":440,"stv_port":27016,"stv_name":"Uncletopia | Seattle | 1 | All Maps | STV","players":[{"user_id":557,"name":"Defeat","steam_id":76561198065203818,"connected_time":4902000000000,"state":"active","ping":37},{"user_id":601,"name":"грустный","steam_id":76561198274550638,"connected_time":1414000000000,"state":"active","ping":105},{"user_id":593,"name":"AtomSQRRL","steam_id":76561199151951364,"connected_time":2534000000000,"state":"active","ping":72},{"user_id":568,"name":"Lambchop","steam_id":76561198043900363,"connected_time":4518000000000,"state":"active","ping":79},{"user_id":552,"name":"hotdog every meal","steam_id":76561198392514273,"connected_time":5633000000000,"state":"active","ping":59},{"user_id":616,"name":"a spider monkey trying his best","steam_id":76561198165473340,"connected_time":255000000000,"state":"active","ping":99},{"user_id":579,"name":"smeasly","steam_id":76561198028718812,"connected_time":3762000000000,"state":"active","ping":42},{"user_id":574,"name":"Idontknow","steam_id":76561199207044048,"connected_time":4168000000000,"state":"active","ping":48},{"user_id":620,"name":"Bobby Ray","steam_id":76561198044131188,"connected_time":111000000000,"state":"active","ping":82},{"user_id":549,"name":"BolognaWithOlives","steam_id":76561198101262668,"connected_time":5971000000000,"state":"active","ping":104},{"user_id":605,"name":"Mak","steam_id":76561198089197922,"connected_time":1220000000000,"state":"active","ping":52},{"user_id":617,"name":"Shah","steam_id":76561198047508851,"connected_time":150000000000,"state":"active","ping":54},{"user_id":621,"name":"Bootstrap","steam_id":76561199110353614,"connected_time":12000000000,"state":"active","ping":43},{"user_id":611,"name":"Tom","steam_id":76561198258980884,"connected_time":939000000000,"state":"active","ping":62},{"user_id":598,"name":"Mudkip","steam_id":76561198164192160,"connected_time":1989000000000,"state":"active","ping":74},{"user_id":588,"name":"SolarusD","steam_id":76561198029279861,"connected_time":2641000000000,"state":"active","ping":66},{"user_id":483,"name":"Reagan Grey","steam_id":76561199244000976,"connected_time":11469000000000,"state":"active","ping":74},{"user_id":597,"name":"gorlab","steam_id":76561198025089694,"connected_time":2364000000000,"state":"active","ping":61},{"user_id":578,"name":"cyra","steam_id":76561198025454291,"connected_time":3866000000000,"state":"active","ping":36},{"user_id":612,"name":"roger roger","steam_id":76561198130032444,"connected_time":835000000000,"state":"active","ping":56},{"user_id":615,"name":"pizza","steam_id":76561199389584938,"connected_time":551000000000,"state":"active","ping":43},{"user_id":619,"name":"squid game","steam_id":76561199248960166,"connected_time":136000000000,"state":"active","ping":45},{"user_id":618,"name":"SmallErection","steam_id":76561198071770147,"connected_time":150000000000,"state":"active","ping":60},{"user_id":587,"name":"Soap","steam_id":76561197994893383,"connected_time":2842000000000,"state":"active","ping":76}]},{"server_id":119,"name":"Uncletopia | Seattle | 2 | All Maps","name_short":"sea-2","host":"sea-1.us.uncletopia.com","port":27025,"enabled":true,"region":"us-west","cc":"us","latitude":47.608013,"longitude":-122.33517,"reserved":0,"last_update":"0001-01-01T00:00:00Z","name_a2s":"Uncletopia | Seattle | 2 | All Maps","protocol":17,"map":"cp_dustbowl","folder":"tf","game":"Team Fortress","app_id":440,"player_count":18,"max_players":24,"Bots":0,"server_type":"Dedicated","server_os":"Linux","password":true,"vac":true,"version":"7742253","steam_id":85568392924469998,"keywords":["cp","nocrits","nodmgspread","uncletopia"],"game_id":440,"stv_port":27026,"stv_name":"Uncletopia | Seattle | 2 | All Maps | STV","players":[{"user_id":567,"name":"PopcornNinja101","steam_id":76561198330680181,"connected_time":2156000000000,"state":"active","ping":46},{"user_id":533,"name":"enchilada9","steam_id":76561198043696755,"connected_time":4188000000000,"state":"active","ping":73},{"user_id":507,"name":"General Fisticuffs","steam_id":76561198255721392,"connected_time":5799000000000,"state":"active","ping":95},{"user_id":557,"name":"Mom","steam_id":76561198207936000,"connected_time":2688000000000,"state":"active","ping":75},{"user_id":539,"name":"Biznickel","steam_id":76561199422511230,"connected_time":3885000000000,"state":"active","ping":45},{"user_id":570,"name":"Cosykoala","steam_id":76561199194539536,"connected_time":1548000000000,"state":"active","ping":87},{"user_id":583,"name":"Steve Harvey","steam_id":76561198129988457,"connected_time":274000000000,"state":"active","ping":68},{"user_id":577,"name":"Big Jackalicious","steam_id":76561199135213338,"connected_time":655000000000,"state":"active","ping":45},{"user_id":584,"name":"OLE SAINTE NICKE HIMSELVE","steam_id":76561198103331056,"connected_time":156000000000,"state":"active","ping":76},{"user_id":578,"name":"KingToaster","steam_id":76561198007903802,"connected_time":558000000000,"state":"active","ping":43},{"user_id":579,"name":"York","steam_id":76561198139501696,"connected_time":534000000000,"state":"active","ping":102},{"user_id":581,"name":"rE_d0","steam_id":76561198975450630,"connected_time":442000000000,"state":"active","ping":56},{"user_id":561,"name":"PersonMan","steam_id":76561198153426326,"connected_time":2517000000000,"state":"active","ping":60},{"user_id":586,"name":"BoomieMcBoomPants","steam_id":76561198144516828,"connected_time":138000000000,"state":"active","ping":75},{"user_id":587,"name":"Google","steam_id":76561198857237473,"connected_time":94000000000,"state":"active","ping":45},{"user_id":463,"name":"MS Paint Gamer","steam_id":76561198964527916,"connected_time":8634000000000,"state":"active","ping":58},{"user_id":536,"name":"qt wavyz","steam_id":76561199060668138,"connected_time":4100000000000,"state":"active","ping":106},{"user_id":552,"name":"ena - d","steam_id":76561198072329335,"connected_time":3365000000000,"state":"active","ping":132}]},{"server_id":406,"name":"Uncletopia | Seattle | 3 | Stopwatch Beta","name_short":"sea-3","host":"sea-1.us.uncletopia.com","port":27035,"enabled":true,"region":"us-west","cc":"us","latitude":47.608013,"longitude":-122.33517,"reserved":0,"last_update":"0001-01-01T00:00:00Z","name_a2s":"Uncletopia | Seattle | 3 | Stopwatch Beta","protocol":17,"map":"pl_upward","folder":"tf","game":"Team Fortress","app_id":440,"player_count":2,"max_players":24,"Bots":0,"server_type":"Dedicated","server_os":"Linux","password":true,"vac":false,"version":"7742253","steam_id":0,"keywords":["nocrits","nodmgspread","payload","uncletopia"],"game_id":440,"stv_port":27036,"stv_name":"Uncletopia | Seattle | 3 | Stopwatch Beta | STV","players":[{"user_id":8,"name":"Luke","steam_id":76561198335956790,"connected_time":394000000000,"state":"active","ping":125},{"user_id":9,"name":"Morse","steam_id":76561198039944542,"connected_time":220000000000,"state":"active","ping":45}]},{"server_id":17,"name":"Uncletopia | San Francisco | 1 | All Maps","name_short":"sfo-1","host":"sfo-1.us.uncletopia.com","port":27015,"enabled":true,"region":"us-west","cc":"us","latitude":37.77397,"longitude":-122.4313,"reserved":0,"last_update":"0001-01-01T00:00:00Z","name_a2s":"Uncletopia | San Francisco | 1 | All Maps","protocol":17,"map":"koth_cascade","folder":"tf","game":"Team Fortress","app_id":440,"player_count":0,"max_players":24,"Bots":0,"server_type":"Dedicated","server_os":"Linux","password":true,"vac":true,"version":"7742253","steam_id":85568392924469999,"keywords":["cp","nocrits","nodmgspread","uncletopia"],"game_id":440,"stv_port":27016,"stv_name":"Uncletopia | San Francisco | 1 | All Maps | STV","players":null},{"server_id":18,"name":"Uncletopia | San Francisco | 2 | All Maps","name_short":"sfo-2","host":"sfo-1.us.uncletopia.com","port":27025,"enabled":true,"region":"us-west","cc":"us","latitude":37.77397,"longitude":-122.4313,"reserved":0,"last_update":"0001-01-01T00:00:00Z","name_a2s":"Uncletopia | San Francisco | 2 | All Maps","protocol":17,"map":"cp_process_final","folder":"tf","game":"Team Fortress","app_id":440,"player_count":0,"max_players":24,"Bots":0,"server_type":"Dedicated","server_os":"Linux","password":true,"vac":true,"version":"7742253","steam_id":85568392924470000,"keywords":["cp","nocrits","nodmgspread","uncletopia"],"game_id":440,"stv_port":27026,"stv_name":"Uncletopia | San Francisco | 2 | All Maps | STV","players":null},{"server_id":19,"name":"Uncletopia | San Francisco | 3 | Stopwatch Beta","name_short":"sfo-3","host":"sfo-1.us.uncletopia.com","port":27035,"enabled":true,"region":"us-west","cc":"us","latitude":37.77397,"longitude":-122.4313,"reserved":0,"last_update":"0001-01-01T00:00:00Z","name_a2s":"Uncletopia | San Francisco | 3 | Stopwatch Beta","protocol":17,"map":"cp_snakewater_final1","folder":"tf","game":"Team Fortress","app_id":440,"player_count":0,"max_players":24,"Bots":0,"server_type":"Dedicated","server_os":"Linux","password":true,"vac":true,"version":"7742253","steam_id":85568392924742824,"keywords":["cp","nocrits","nodmgspread","uncletopia"],"game_id":440,"stv_port":27036,"stv_name":"Uncletopia | San Francisco | 3 | Stopwatch Beta | STV","players":null},{"server_id":20,"name":"Uncletopia | San Francisco | 4 | Community","name_short":"sfo-4","host":"sfo-1.us.uncletopia.com","port":27045,"enabled":true,"region":"us-west","cc":"us","latitude":37.77397,"longitude":-122.4313,"reserved":0,"last_update":"0001-01-01T00:00:00Z","name_a2s":"Uncletopia | San Francisco | 4 | Community","protocol":17,"map":"workshop/koth_bagel_rc5.ugc2514036946","folder":"tf","game":"Team Fortress","app_id":440,"player_count":0,"max_players":24,"Bots":0,"server_type":"Dedicated","server_os":"Linux","password":true,"vac":true,"version":"7742253","steam_id":85568392924742826,"keywords":["cp","nocrits","nodmgspread","uncletopia"],"game_id":440,"stv_port":27046,"stv_name":"Uncletopia | San Francisco | 4 | Community | STV","players":null},{"server_id":141,"name":"Uncletopia | Sydney | 1 | All Maps","name_short":"syd-1","host":"syd-1.au.uncletopia.com","port":27015,"enabled":true,"region":"au","cc":"au","latitude":-33.865143,"longitude":151.2099,"reserved":0,"last_update":"0001-01-01T00:00:00Z","name_a2s":"Uncletopia | Sydney | 1 | All Maps","protocol":17,"map":"pl_badwater","folder":"tf","game":"Team Fortress","app_id":440,"player_count":24,"max_players":24,"Bots":0,"server_type":"Dedicated","server_os":"Linux","password":true,"vac":true,"version":"7742253","steam_id":85568392924470001,"keywords":["nocrits","nodmgspread","payload","uncletopia"],"game_id":440,"stv_port":27016,"stv_name":"Uncletopia | Sydney | 1 | All Maps | STV","players":[{"user_id":375,"name":"nojnosbod11","steam_id":76561199176012151,"connected_time":2762000000000,"state":"active","ping":62},{"user_id":392,"name":"Nugget","steam_id":76561197961747465,"connected_time":1612000000000,"state":"active","ping":76},{"user_id":393,"name":"dc","steam_id":76561198040993425,"connected_time":1596000000000,"state":"active","ping":74},{"user_id":394,"name":"DEMACLIO","steam_id":76561198046654525,"connected_time":1566000000000,"state":"active","ping":61},{"user_id":413,"name":"Gamma","steam_id":76561198281131757,"connected_time":399000000000,"state":"active","ping":48},{"user_id":395,"name":"shucks","steam_id":76561198260357417,"connected_time":1554000000000,"state":"active","ping":51},{"user_id":344,"name":"zise","steam_id":76561198079210881,"connected_time":5495000000000,"state":"active","ping":52},{"user_id":374,"name":"hobo","steam_id":76561199046481213,"connected_time":2998000000000,"state":"active","ping":70},{"user_id":409,"name":"Ne1son","steam_id":76561198085020252,"connected_time":776000000000,"state":"active","ping":92},{"user_id":397,"name":"Crazy Diamond","steam_id":76561197988678841,"connected_time":1530000000000,"state":"active","ping":44},{"user_id":414,"name":"Sinister80s","steam_id":76561198343540472,"connected_time":365000000000,"state":"active","ping":73},{"user_id":410,"name":"AfroNinja","steam_id":76561198120372011,"connected_time":727000000000,"state":"active","ping":60},{"user_id":405,"name":"SUCC MY DUCC","steam_id":76561198127068703,"connected_time":852000000000,"state":"active","ping":63},{"user_id":417,"name":"Hot Yoga Instructor","steam_id":76561199163801558,"connected_time":238000000000,"state":"active","ping":50},{"user_id":404,"name":"ziah","steam_id":76561198159375596,"connected_time":1178000000000,"state":"active","ping":55},{"user_id":406,"name":"Teags","steam_id":76561198310870519,"connected_time":824000000000,"state":"active","ping":44},{"user_id":419,"name":"idahs","steam_id":76561198073097952,"connected_time":4000000000,"state":"spawning","ping":88},{"user_id":408,"name":"Coffee","steam_id":76561198072414195,"connected_time":808000000000,"state":"active","ping":75},{"user_id":401,"name":"l.ion","steam_id":76561198261172910,"connected_time":1449000000000,"state":"active","ping":42},{"user_id":354,"name":"Rant","steam_id":76561198949751771,"connected_time":5083000000000,"state":"active","ping":30},{"user_id":403,"name":"cudder","steam_id":76561198378391506,"connected_time":1404000000000,"state":"active","ping":39},{"user_id":411,"name":"SuperNinja1273","steam_id":76561199447087375,"connected_time":658000000000,"state":"active","ping":75},{"user_id":379,"name":"Paula","steam_id":76561198010688399,"connected_time":2497000000000,"state":"active","ping":74},{"user_id":412,"name":"pixerler2point0","steam_id":76561199102787464,"connected_time":641000000000,"state":"active","ping":58}]},{"server_id":123,"name":"Uncletopia | Sydney | 2 | All Maps","name_short":"syd-2","host":"syd-1.au.uncletopia.com","port":27025,"enabled":true,"region":"au","cc":"au","latitude":-33.865143,"longitude":151.2099,"reserved":0,"last_update":"0001-01-01T00:00:00Z","name_a2s":"Uncletopia | Sydney | 2 | All Maps","protocol":17,"map":"koth_viaduct","folder":"tf","game":"Team Fortress","app_id":440,"player_count":5,"max_players":24,"Bots":0,"server_type":"Dedicated","server_os":"Linux","password":true,"vac":true,"version":"7742253","steam_id":85568392924470002,"keywords":["cp","nocrits","nodmgspread","uncletopia"],"game_id":440,"stv_port":27026,"stv_name":"Uncletopia | Sydney | 2 | All Maps | STV","players":[{"user_id":68,"name":"Qwerty","steam_id":76561199157092367,"connected_time":1428000000000,"state":"active","ping":74},{"user_id":72,"name":"Nyda","steam_id":76561198152311904,"connected_time":953000000000,"state":"active","ping":66},{"user_id":67,"name":"fluffie","steam_id":76561198827252976,"connected_time":1731000000000,"state":"active","ping":72},{"user_id":71,"name":"Pak'n'Save","steam_id":76561199199754055,"connected_time":1105000000000,"state":"active","ping":58},{"user_id":75,"name":"Evojr","steam_id":76561198211512664,"connected_time":70000000000,"state":"active","ping":44}]},{"server_id":395,"name":"Uncletopia | Sydney | 3 | All Maps","name_short":"syd-3","host":"syd-1.au.uncletopia.com","port":27035,"enabled":true,"region":"au","cc":"au","latitude":-33.865143,"longitude":151.2099,"reserved":0,"last_update":"0001-01-01T00:00:00Z","name_a2s":"Uncletopia | Sydney | 3 | All Maps","protocol":17,"map":"cp_dustbowl","folder":"tf","game":"Team Fortress","app_id":440,"player_count":0,"max_players":24,"Bots":0,"server_type":"Dedicated","server_os":"Linux","password":true,"vac":true,"version":"7742253","steam_id":85568392925194467,"keywords":["cp","nocrits","nodmgspread","uncletopia"],"game_id":440,"stv_port":27036,"stv_name":"Uncletopia | Sydney | 3 | All Maps | STV","players":null},{"server_id":396,"name":"Uncletopia | Sydney | 4 | All Maps","name_short":"syd-4","host":"syd-1.au.uncletopia.com","port":27045,"enabled":true,"region":"au","cc":"au","latitude":-33.865143,"longitude":151.2099,"reserved":0,"last_update":"0001-01-01T00:00:00Z","name_a2s":"Uncletopia | Sydney | 4 | All Maps","protocol":17,"map":"pl_borneo","folder":"tf","game":"Team Fortress","app_id":440,"player_count":0,"max_players":24,"Bots":0,"server_type":"Dedicated","server_os":"Linux","password":true,"vac":true,"version":"7742253","steam_id":85568392925397958,"keywords":["nocrits","nodmgspread","payload","uncletopia"],"game_id":440,"stv_port":27046,"stv_name":"Uncletopia | Sydney | 4 | All Maps | STV","players":null},{"server_id":58,"name":"Uncletopia | Sydney | 5 | Stopwatch Beta","name_short":"syd-5","host":"syd-1.au.uncletopia.com","port":27055,"enabled":true,"region":"au","cc":"au","latitude":-33.865143,"longitude":151.2099,"reserved":0,"last_update":"0001-01-01T00:00:00Z","name_a2s":"Uncletopia | Sydney | 5 | Stopwatch Beta","protocol":17,"map":"workshop/koth_ashville_final.ugc2130459942","folder":"tf","game":"Team Fortress","app_id":440,"player_count":5,"max_players":24,"Bots":0,"server_type":"Dedicated","server_os":"Linux","password":true,"vac":true,"version":"7742253","steam_id":85568392925397959,"keywords":["cp","nocrits","nodmgspread","uncletopia"],"game_id":440,"stv_port":27056,"stv_name":"Uncletopia | Sydney | 5 | Stopwatch Beta | STV","players":[{"user_id":16,"name":"Dark Knight","steam_id":76561198250889884,"connected_time":3383000000000,"state":"active","ping":47},{"user_id":23,"name":"Rajab","steam_id":76561198236077918,"connected_time":888000000000,"state":"active","ping":56},{"user_id":18,"name":"Stinke","steam_id":76561198973797001,"connected_time":1222000000000,"state":"active","ping":52},{"user_id":22,"name":"dudepooter","steam_id":76561198256765153,"connected_time":930000000000,"state":"active","ping":69},{"user_id":25,"name":"RACE","steam_id":76561198872521195,"connected_time":606000000000,"state":"active","ping":60}]},{"server_id":59,"name":"Uncletopia | Sydney | 6 | Community","name_short":"syd-6","host":"syd-1.au.uncletopia.com","port":27065,"enabled":true,"region":"au","cc":"au","latitude":-33.865143,"longitude":151.2099,"reserved":0,"last_update":"0001-01-01T00:00:00Z","name_a2s":"Uncletopia | Sydney | 6 | Community","protocol":17,"map":"workshop/pl_fifthcurve_rc1.ugc648227046","folder":"tf","game":"Team Fortress","app_id":440,"player_count":0,"max_players":24,"Bots":0,"server_type":"Dedicated","server_os":"Linux","password":true,"vac":true,"version":"7742253","steam_id":85568392925397960,"keywords":["nocrits","nodmgspread","payload","uncletopia"],"game_id":440,"stv_port":27066,"stv_name":"Uncletopia | Sydney | 6 | Community | STV","players":null},{"server_id":49,"name":"Uncletopia | Warsaw | 1 | All Maps","name_short":"waw-1","host":"waw-1.pl.uncletopia.com","port":27015,"enabled":true,"region":"eu","cc":"pl","latitude":52.2297,"longitude":21.017532,"reserved":0,"last_update":"0001-01-01T00:00:00Z","name_a2s":"Uncletopia | Warsaw | 1 | All Maps","protocol":17,"map":"koth_lakeside_final","folder":"tf","game":"Team Fortress","app_id":440,"player_count":0,"max_players":24,"Bots":0,"server_type":"Dedicated","server_os":"Linux","password":true,"vac":true,"version":"7723704","steam_id":85568392925397850,"keywords":["cp","nocrits","nodmgspread","uncletopia"],"game_id":440,"stv_port":27016,"stv_name":"Uncletopia | Warsaw | 1 | All Maps | STV","players":null},{"server_id":50,"name":"Uncletopia | Warsaw | 2 | All Maps","name_short":"waw-2","host":"waw-1.pl.uncletopia.com","port":27025,"enabled":true,"region":"eu","cc":"pl","latitude":52.2297,"longitude":21.017532,"reserved":0,"last_update":"0001-01-01T00:00:00Z","name_a2s":"Uncletopia | Warsaw | 2 | All Maps","protocol":17,"map":"koth_harvest_final","folder":"tf","game":"Team Fortress","app_id":440,"player_count":0,"max_players":24,"Bots":0,"server_type":"Dedicated","server_os":"Linux","password":true,"vac":true,"version":"7742253","steam_id":85568392925397851,"keywords":["cp","nocrits","nodmgspread","uncletopia"],"game_id":440,"stv_port":27026,"stv_name":"Uncletopia | Warsaw | 2 | All Maps | STV","players":null},{"server_id":51,"name":"Uncletopia | Warsaw | 3 | All Maps","name_short":"waw-3","host":"waw-1.pl.uncletopia.com","port":27035,"enabled":true,"region":"eu","cc":"pl","latitude":52.2297,"longitude":21.017532,"reserved":0,"last_update":"0001-01-01T00:00:00Z","name_a2s":"Uncletopia | Warsaw | 3 | All Maps","protocol":17,"map":"pl_frontier_final","folder":"tf","game":"Team Fortress","app_id":440,"player_count":0,"max_players":24,"Bots":0,"server_type":"Dedicated","server_os":"Linux","password":true,"vac":true,"version":"7742253","steam_id":85568392925397852,"keywords":["nocrits","nodmgspread","payload","uncletopia"],"game_id":440,"stv_port":27036,"stv_name":"Uncletopia | Warsaw | 3 | All Maps | STV","players":null},{"server_id":52,"name":"Uncletopia | Warsaw | 4 | All Maps","name_short":"waw-4","host":"waw-1.pl.uncletopia.com","port":27045,"enabled":true,"region":"eu","cc":"pl","latitude":52.2297,"longitude":21.017532,"reserved":0,"last_update":"0001-01-01T00:00:00Z","name_a2s":"Uncletopia | Warsaw | 4 | All Maps","protocol":17,"map":"pl_swiftwater_final1","folder":"tf","game":"Team Fortress","app_id":440,"player_count":0,"max_players":24,"Bots":0,"server_type":"Dedicated","server_os":"Linux","password":true,"vac":true,"version":"7742253","steam_id":85568392925397853,"keywords":["nocrits","nodmgspread","payload","uncletopia"],"game_id":440,"stv_port":27046,"stv_name":"Uncletopia | Warsaw | 4 | All Maps | STV","players":null},{"server_id":53,"name":"Uncletopia | Warsaw | 5 | Stopwatch Beta","name_short":"waw-5","host":"waw-1.pl.uncletopia.com","port":27055,"enabled":true,"region":"eu","cc":"pl","latitude":52.2297,"longitude":21.017532,"reserved":0,"last_update":"0001-01-01T00:00:00Z","name_a2s":"Uncletopia | Warsaw | 5 | Stopwatch Beta","protocol":17,"map":"pl_pier","folder":"tf","game":"Team Fortress","app_id":440,"player_count":0,"max_players":24,"Bots":0,"server_type":"Dedicated","server_os":"Linux","password":true,"vac":true,"version":"7742253","steam_id":85568392925397854,"keywords":["nocrits","nodmgspread","payload","uncletopia"],"game_id":440,"stv_port":27056,"stv_name":"Uncletopia | Warsaw | 5 | Stopwatch Beta | STV","players":null},{"server_id":54,"name":"Uncletopia | Warsaw | 6 | Community","name_short":"waw-6","host":"waw-1.pl.uncletopia.com","port":27065,"enabled":true,"region":"eu","cc":"pl","latitude":52.2297,"longitude":21.017532,"reserved":0,"last_update":"0001-01-01T00:00:00Z","name_a2s":"Uncletopia | Warsaw | 6 | Community","protocol":17,"map":"workshop/koth_slaughter_rc1.ugc1712845210","folder":"tf","game":"Team Fortress","app_id":440,"player_count":0,"max_players":24,"Bots":0,"server_type":"Dedicated","server_os":"Linux","password":true,"vac":true,"version":"7742253","steam_id":85568392925397856,"keywords":["cp","nocrits","nodmgspread","uncletopia"],"game_id":440,"stv_port":27066,"stv_name":"Uncletopia | Warsaw | 6 | Community | STV","players":null}]}