{"status":true,"message":"","result":[{"server_id":9,"name":"Uncletopia | Atlanta | 1 | All Maps","name_short":"atl-1","host":"atl-1.us.uncletopia.com","port":27015,"enabled":true,"region":"us-east","cc":"us","latitude":33.753746,"longitude":-84.38633,"reserved":0,"last_update":"0001-01-01T00:00:00Z","name_a2s":"Uncletopia | Atlanta | 1 | All Maps","protocol":17,"map":"koth_highpass","folder":"tf","game":"Team Fortress","app_id":440,"player_count":0,"max_players":24,"Bots":0,"server_type":"Dedicated","server_os":"Linux","password":true,"vac":true,"version":"7757534","steam_id":85568392924469982,"keywords":["cp","nocrits","nodmgspread","uncletopia"],"game_id":440,"stv_port":27016,"stv_name":"Uncletopia | Atlanta | 1 | All Maps | STV","players":null},{"server_id":400,"name":"Uncletopia | Atlanta | 3 | Community","name_short":"atl-3","host":"atl-1.us.uncletopia.com","port":27035,"enabled":true,"region":"us-east","cc":"us","latitude":33.753746,"longitude":-84.38633,"reserved":0,"last_update":"0001-01-01T00:00:00Z","name_a2s":"Uncletopia | Atlanta | 3 | Community","protocol":17,"map":"pl_swiftwater_final1","folder":"tf","game":"Team Fortress","app_id":440,"player_count":0,"max_players":32,"Bots":0,"server_type":"Dedicated","server_os":"Linux","password":true,"vac":true,"version":"7757534","steam_id":85568392924515187,"keywords":["increased_maxplayers","nocrits","nodmgspread","payload","uncletopia"],"game_id":440,"stv_port":27036,"stv_name":"Uncletopia | Atlanta | 3 | Community | STV","players":null},{"server_id":401,"name":"Uncletopia | Atlanta | 4 | No Payload","name_short":"atl-4","host":"atl-1.us.uncletopia.com","port":27045,"enabled":true,"region":"us-east","cc":"us","latitude":33.753746,"longitude":-84.38633,"reserved":0,"last_update":"0001-01-01T00:00:00Z","name_a2s":"","protocol":0,"map":"","folder":"","game":"","app_id":0,"player_count":0,"max_players":0,"Bots":0,"server_type":"","server_os":"","password":false,"vac":false,"version":"","steam_id":0,"keywords":null,"game_id":0,"stv_port":0,"stv_name":"","players":null},{"server_id":2,"name":"Uncletopia | Chicago | 1 | All Maps","name_short":"chi-1","host":"chi-1.us.uncletopia.com","port":27015,"enabled":true,"region":"us-central","cc":"us","latitude":41.881832,"longitude":-87.62318,"reserved":0,"last_update":"0001-01-01T00:00:00Z","name_a2s":"Uncletopia | Chicago | 1 | All Maps","protocol":17,"map":"cp_powerhouse","folder":"tf","game":"Team Fortress","app_id":440,"player_count":24,"max_players":24,"Bots":0,"server_type":"Dedicated","server_os":"Linux","password":true,"vac":true,"version":"7757534","steam_id":85568392924469984,"keywords":["cp","nocrits","nodmgspread","uncletopia"],"game_id":440,"stv_port":27016,"stv_name":"Uncletopia | Chicago | 1 | All Maps | STV","players":[{"user_id":58,"name":"Sol","steam_id":76561199008085020,"connected_time":610000000000,"state":"active","ping":60},{"user_id":5,"name":"magickxanadu","steam_id":76561199117360103,"connected_time":5008000000000,"state":"active","ping":92},{"user_id":9,"name":"catbf","steam_id":76561198096347625,"connected_time":3846000000000,"state":"active","ping":81},{"user_id":73,"name":"wire-guided","steam_id":76561198055407168,"connected_time":61000000000,"state":"active","ping":61},{"user_id":66,"name":"BLU1 | Pango","steam_id":76561198069811545,"connected_time":450000000000,"state":"active","ping":60},{"user_id":71,"name":"freak ya nature","steam_id":76561198310502474,"connected_time":72000000000,"state":"active","ping":50},{"user_id":51,"name":"Reaper","steam_id":76561198435826103,"connected_time":1902000000000,"state":"active","ping":63},{"user_id":68,"name":"♥dumb bimbo♥","steam_id":76561198054925421,"connected_time":440000000000,"state":"active","ping":50},{"user_id":15,"name":"tyg","steam_id":76561198056246867,"connected_time":3561000000000,"state":"active","ping":74},{"user_id":17,"name":"God of bread","steam_id":76561198373688035,"connected_time":3488000000000,"state":"active","ping":66},{"user_id":41,"name":"your colonoscopy results","steam_id":76561198017705248,"connected_time":2680000000000,"state":"active","ping":45},{"user_id":54,"name":"Lifial","steam_id":76561198271885819,"connected_time":1692000000000,"state":"active","ping":76},{"user_id":75,"name":"Skillz","steam_id":76561198054746727,"connected_time":0,"state":"spawning","ping":31},{"user_id":38,"name":"LightBulbGlue #SaveTF2","steam_id":76561198329573529,"connected_time":2799000000000,"state":"active","ping":66},{"user_id":74,"name":"Veirū Viseris","steam_id":76561197989857176,"connected_time":60000000000,"state":"active","ping":160},{"user_id":45,"name":"Ricochet","steam_id":76561199107117533,"connected_time":2421000000000,"state":"active","ping":57},{"user_id":60,"name":"McDumDum","steam_id":76561198040738807,"connected_time":595000000000,"state":"active","ping":84},{"user_id":55,"name":"cat","steam_id":76561198035654490,"connected_time":1019000000000,"state":"active","ping":70},{"user_id":61,"name":"Gotta get my ammo fix","steam_id":76561198039763676,"connected_time":592000000000,"state":"active","ping":66},{"user_id":29,"name":"Sock #NEWTF2Hunt","steam_id":76561198069090237,"connected_time":3067000000000,"state":"active","ping":83},{"user_id":36,"name":"⋆","steam_id":76561198328109873,"connected_time":2926000000000,"state":"active","ping":63},{"user_id":57,"name":"larguu","steam_id":76561197994336210,"connected_time":654000000000,"state":"active","ping":46},{"user_id":50,"name":"yomommasabitch","steam_id":76561198323217150,"connected_time":1911000000000,"state":"active","ping":60},{"user_id":65,"name":"pilbo winklater","steam_id":76561198867130576,"connected_time":582000000000,"state":"active","ping":71}]},{"server_id":106,"name":"Uncletopia | Chicago | 2 | All Maps","name_short":"chi-2","host":"chi-1.us.uncletopia.com","port":27025,"enabled":true,"region":"us-central","cc":"us","latitude":41.881832,"longitude":-87.62318,"reserved":0,"last_update":"0001-01-01T00:00:00Z","name_a2s":"Uncletopia | Chicago | 2 | All Maps","protocol":17,"map":"koth_viaduct","folder":"tf","game":"Team Fortress","app_id":440,"player_count":0,"max_players":24,"Bots":0,"server_type":"Dedicated","server_os":"Linux","password":true,"vac":true,"version":"7757534","steam_id":85568392924469985,"keywords":["cp","nocrits","nodmgspread","uncletopia"],"game_id":440,"stv_port":27026,"stv_name":"Uncletopia | Chicago | 2 | All Maps | STV","players":null},{"server_id":402,"name":"Uncletopia | Chicago | 3 | All Maps","name_short":"chi-3","host":"chi-1.us.uncletopia.com","port":27035,"enabled":true,"region":"us-central","cc":"us","latitude":41.881832,"longitude":-87.62318,"reserved":0,"last_update":"0001-01-01T00:00:00Z","name_a2s":"Uncletopia | Chicago | 3 | All Maps","protocol":17,"map":"koth_lakeside_final","folder":"tf","game":"Team Fortress","app_id":440,"player_count":0,"max_players":24,"Bots":0,"server_type":"Dedicated","server_os":"Linux","password":true,"vac":true,"version":"7757534","steam_id":85568392924515191,"keywords":["cp","nocrits","nodmgspread","uncletopia"],"game_id":440,"stv_port":27036,"stv_name":"Uncletopia | Chicago | 3 | All Maps | STV","players":null},{"server_id":403,"name":"Uncletopia | Chicago | 4 | All Maps","name_short":"chi-4","host":"chi-1.us.uncletopia.com","port":27045,"enabled":true,"region":"us-central","cc":"us","latitude":41.881832,"longitude":-87.62318,"reserved":0,"last_update":"0001-01-01T00:00:00Z","name_a2s":"Uncletopia | Chicago | 4 | All Maps","protocol":17,"map":"koth_highpass","folder":"tf","game":"Team Fortress","app_id":440,"player_count":0,"max_players":24,"Bots":0,"server_type":"Dedicated","server_os":"Linux","password":true,"vac":true,"version":"7757534","steam_id":85568392924515193,"keywords":["cp","nocrits","nodmgspread","uncletopia"],"game_id":440,"stv_port":27046,"stv_name":"Uncletopia | Chicago | 4 | All Maps | STV","players":null},{"server_id":36,"name":"Uncletopia | Chicago | 5 | All Maps","name_short":"chi-5","host":"chi-2.us.uncletopia.com","port":27015,"enabled":true,"region":"us-central","cc":"us","latitude":41.881832,"longitude":-87.62318,"reserved":0,"last_update":"0001-01-01T00:00:00Z","name_a2s":"Uncletopia | Chicago | 5 | All Maps","protocol":17,"map":"koth_cascade","folder":"tf","game":"Team Fortress","app_id":440,"player_count":0,"max_players":24,"Bots":0,"server_type":"Dedicated","server_os":"Linux","password":true,"vac":true,"version":"7757534","steam_id":85568392924866362,"keywords":["cp","nocrits","nodmgspread","uncletopia"],"game_id":440,"stv_port":27016,"stv_name":"Uncletopia | Chicago | 5 | All Maps | STV","players":null},{"server_id":37,"name":"Uncletopia | Chicago | 6 | All Maps","name_short":"chi-6","host":"chi-2.us.uncletopia.com","port":27025,"enabled":true,"region":"us-central","cc":"us","latitude":41.881832,"longitude":-87.62318,"reserved":0,"last_update":"0001-01-01T00:00:00Z","name_a2s":"Uncletopia | Chicago | 6 | All Maps","protocol":17,"map":"koth_cascade","folder":"tf","game":"Team Fortress","app_id":440,"player_count":0,"max_players":24,"Bots":0,"server_type":"Dedicated","server_os":"Linux","password":true,"vac":true,"version":"7757534","steam_id":85568392924866363,"keywords":["cp","nocrits","nodmgspread","uncletopia"],"game_id":440,"stv_port":27026,"stv_name":"Uncletopia | Chicago | 6 | All Maps | STV","players":null},{"server_id":38,"name":"Uncletopia | Chicago | 7 | Stopwatch Beta","name_short":"chi-7","host":"chi-2.us.uncletopia.com","port":27035,"enabled":true,"region":"us-central","cc":"us","latitude":41.881832,"longitude":-87.62318,"reserved":0,"last_update":"0001-01-01T00:00:00Z","name_a2s":"Uncletopia | Chicago | 7 | Stopwatch Beta","protocol":17,"map":"pl_upward","folder":"tf","game":"Team Fortress","app_id":440,"player_count":0,"max_players":24,"Bots":0,"server_type":"Dedicated","server_os":"Linux","password":true,"vac":true,"version":"7757534","steam_id":85568392924866364,"keywords":["nocrits","nodmgspread","payload","uncletopia"],"game_id":440,"stv_port":27036,"stv_name":"Uncletopia | Chicago | 7 | Stopwatch Beta | STV","players":null},{"server_id":39,"name":"Uncletopia | Chicago | 8 | Community","name_short":"chi-8","host":"chi-2.us.uncletopia.com","port":27045,"enabled":true,"region":"us-central","cc":"us","latitude":41.881832,"longitude":-87.62318,"reserved":0,"last_update":"0001-01-01T00:00:00Z","name_a2s":"Uncletopia | Chicago | 8 | Community","protocol":17,"map":"pl_barnblitz","folder":"tf","game":"Team Fortress","app_id":440,"player_count":0,"max_players":24,"Bots":0,"server_type":"Dedicated","server_os":"Linux","password":true,"vac":true,"version":"7757534","steam_id":85568392924866365,"keywords":["nocrits","nodmgspread","payload","uncletopia"],"game_id":440,"stv_port":27046,"stv_name":"Uncletopia | Chicago | 8 | Community | STV","players":null},{"server_id":8,"name":"Uncletopia | Dallas | 1 | All Maps","name_short":"dal-1","host":"dal-1.us.uncletopia.com","port":27015,"enabled":true,"region":"us-central","cc":"us","latitude":32.779167,"longitude":-96.80889,"reserved":0,"last_update":"0001-01-01T00:00:00Z","name_a2s":"Uncletopia | Dallas | 1 | All Maps","protocol":17,"map":"koth_cascade","folder":"tf","game":"Team Fortress","app_id":440,"player_count":0,"max_players":24,"Bots":0,"server_type":"Dedicated","server_os":"Linux","password":true,"vac":true,"version":"7757534","steam_id":85568392924469986,"keywords":["cp","nocrits","nodmgspread","uncletopia"],"game_id":440,"stv_port":27016,"stv_name":"Uncletopia | Dallas | 1 | All Maps | STV","players":null},{"server_id":108,"name":"Uncletopia | Dallas | 2 | All Maps","name_short":"dal-2","host":"dal-1.us.uncletopia.com","port":27025,"enabled":true,"region":"us-central","cc":"us","latitude":32.779167,"longitude":-96.80889,"reserved":0,"last_update":"0001-01-01T00:00:00Z","name_a2s":"Uncletopia | Dallas | 2 | All Maps","protocol":17,"map":"ctf_well","folder":"tf","game":"Team Fortress","app_id":440,"player_count":0,"max_players":24,"Bots":0,"server_type":"Dedicated","server_os":"Linux","password":true,"vac":true,"version":"7757534","steam_id":85568392924469988,"keywords":["ctf","nocrits","nodmgspread","uncletopia"],"game_id":440,"stv_port":27026,"stv_name":"Uncletopia | Dallas | 2 | All Maps | STV","players":null},{"server_id":5,"name":"Uncletopia | Frankfurt | 1 | All Maps","name_short":"frk-1","host":"frk-1.de.uncletopia.com","port":27015,"enabled":true,"region":"eu","cc":"de","latitude":50.110924,"longitude":8.682127,"reserved":0,"last_update":"0001-01-01T00:00:00Z","name_a2s":"Uncletopia | Frankfurt | 1 | All Maps","protocol":17,"map":"pl_borneo","folder":"tf","game":"Team Fortress","app_id":440,"player_count":24,"max_players":24,"Bots":0,"server_type":"Dedicated","server_os":"Linux","password":true,"vac":true,"version":"7757534","steam_id":85568392924469989,"keywords":["nocrits","nodmgspread","payload","uncletopia"],"game_id":440,"stv_port":27016,"stv_name":"Uncletopia | Frankfurt | 1 | All Maps | STV","players":[{"user_id":339,"name":"GMsU | DaLuigi","steam_id":76561198054486188,"connected_time":362000000000,"state":"active","ping":43},{"user_id":301,"name":"jmp","steam_id":76561198168283286,"connected_time":1784000000000,"state":"active","ping":67},{"user_id":322,"name":"Minotaur milking","steam_id":76561198799097492,"connected_time":1072000000000,"state":"active","ping":46},{"user_id":323,"name":"PedophileGaming","steam_id":76561199305327096,"connected_time":1070000000000,"state":"active","ping":56},{"user_id":300,"name":"Gromov","steam_id":76561198407644131,"connected_time":1800000000000,"state":"active","ping":66},{"user_id":302,"name":"Velvet","steam_id":76561198220345580,"connected_time":1777000000000,"state":"active","ping":91},{"user_id":288,"name":"frenchie","steam_id":76561198178298931,"connected_time":2625000000000,"state":"active","ping":56},{"user_id":316,"name":"Fine","steam_id":76561198015551404,"connected_time":1381000000000,"state":"active","ping":83},{"user_id":304,"name":"cheetofinger","steam_id":76561198064052251,"connected_time":1766000000000,"state":"active","ping":47},{"user_id":305,"name":"[Sheep] Tomco","steam_id":76561198388549261,"connected_time":1723000000000,"state":"active","ping":78},{"user_id":326,"name":"Snortman","steam_id":76561199012566222,"connected_time":913000000000,"state":"active","ping":56},{"user_id":338,"name":"Crazy Monkey","steam_id":76561197984691223,"connected_time":384000000000,"state":"active","ping":172},{"user_id":314,"name":"Dolcelatte","steam_id":76561198038501770,"connected_time":1450000000000,"state":"active","ping":52},{"user_id":237,"name":"aeee","steam_id":76561199149307190,"connected_time":5681000000000,"state":"active","ping":75},{"user_id":341,"name":"Dale TF2","steam_id":76561199144302768,"connected_time":229000000000,"state":"active","ping":135},{"user_id":328,"name":"Dr. Le Quack","steam_id":76561197995711176,"connected_time":862000000000,"state":"active","ping":89},{"user_id":309,"name":"silicon based life form","steam_id":76561199127121346,"connected_time":1607000000000,"state":"active","ping":68},{"user_id":337,"name":"Spetse","steam_id":76561197990649972,"connected_time":425000000000,"state":"active","ping":86},{"user_id":330,"name":"thekoolest88","steam_id":76561199022415672,"connected_time":837000000000,"state":"active","ping":147},{"user_id":311,"name":"on1on (pickled)","steam_id":76561197995304137,"connected_time":1573000000000,"state":"active","ping":63},{"user_id":331,"name":"HimpoX","steam_id":76561198043946778,"connected_time":770000000000,"state":"active","ping":109},{"user_id":312,"name":"M4 SOPMOD II Enjoyer","steam_id":76561198155176802,"connected_time":1495000000000,"state":"active","ping":144},{"user_id":332,"name":"daanvanliempt05","steam_id":76561198355398948,"connected_time":765000000000,"state":"active","ping":51},{"user_id":340,"name":"GMsU | Rebikas","steam_id":76561198077053764,"connected_time":361000000000,"state":"active","ping":49}]},{"server_id":110,"name":"Uncletopia | Frankfurt | 2 | All Maps","name_short":"frk-2","host":"frk-1.de.uncletopia.com","port":27025,"enabled":true,"region":"eu","cc":"de","latitude":50.110924,"longitude":8.682127,"reserved":0,"last_update":"0001-01-01T00:00:00Z","name_a2s":"Uncletopia | Frankfurt | 2 | All Maps","protocol":17,"map":"cp_process_final","folder":"tf","game":"Team Fortress","app_id":440,"player_count":20,"max_players":24,"Bots":0,"server_type":"Dedicated","server_os":"Linux","password":true,"vac":true,"version":"7757534","steam_id":85568392924469990,"keywords":["cp","nocrits","nodmgspread","uncletopia"],"game_id":440,"stv_port":27026,"stv_name":"Uncletopia | Frankfurt | 2 | All Maps | STV","players":[{"user_id":184,"name":"Prox","steam_id":76561198351490981,"connected_time":2928000000000,"state":"active","ping":45},{"user_id":225,"name":"madacid","steam_id":76561198212315885,"connected_time":10000000000,"state":"active","ping":83},{"user_id":209,"name":"Medic","steam_id":76561198072321620,"connected_time":962000000000,"state":"active","ping":71},{"user_id":186,"name":"peter gaming","steam_id":76561198984102084,"connected_time":2661000000000,"state":"active","ping":127},{"user_id":190,"name":"Mawnster","steam_id":76561198023392404,"connected_time":2161000000000,"state":"active","ping":56},{"user_id":192,"name":"Plain Toast","steam_id":76561198451580251,"connected_time":1872000000000,"state":"active","ping":159},{"user_id":226,"name":"SomethingDeveloper","steam_id":76561198369567080,"connected_time":0,"state":"spawning","ping":0},{"user_id":223,"name":"X-tis","steam_id":76561198043837480,"connected_time":441000000000,"state":"active","ping":60},{"user_id":195,"name":"Shortyyy","steam_id":76561198059005030,"connected_time":1611000000000,"state":"active","ping":82},{"user_id":196,"name":"galaxy","steam_id":76561198164819022,"connected_time":1545000000000,"state":"active","ping":63},{"user_id":197,"name":"Fat Pigeon","steam_id":76561198817940142,"connected_time":1395000000000,"state":"active","ping":45},{"user_id":199,"name":"Tre3","steam_id":76561198054795379,"connected_time":1339000000000,"state":"active","ping":58},{"user_id":220,"name":"akakez","steam_id":76561198095432821,"connected_time":614000000000,"state":"active","ping":119},{"user_id":206,"name":"Syringe Gun","steam_id":76561198097789669,"connected_time":1111000000000,"state":"active","ping":59},{"user_id":208,"name":"Donkey Kong the rock poder","steam_id":76561198812424933,"connected_time":1037000000000,"state":"active","ping":72},{"user_id":212,"name":"The_Code_Mage","steam_id":76561198163396606,"connected_time":920000000000,"state":"active","ping":128},{"user_id":217,"name":"DonD","steam_id":76561198061496731,"connected_time":733000000000,"state":"active","ping":72},{"user_id":214,"name":"Owli","steam_id":76561198220516632,"connected_time":894000000000,"state":"active","ping":75},{"user_id":215,"name":"Dr. Cox","steam_id":76561198246629218,"connected_time":881000000000,"state":"active","ping":74},{"user_id":216,"name":"VanillaWoof","steam_id":76561198158343951,"connected_time":874000000000,"state":"active","ping":48}]},{"server_id":308,"name":"Uncletopia | Frankfurt | 3 | All Maps","name_short":"frk-3","host":"frk-1.de.uncletopia.com","port":27035,"enabled":true,"region":"eu","cc":"de","latitude":50.110924,"longitude":8.682127,"reserved":0,"last_update":"0001-01-01T00:00:00Z","name_a2s":"Uncletopia | Frankfurt | 3 | All Maps","protocol":17,"map":"cp_altitude","folder":"tf","game":"Team Fortress","app_id":440,"player_count":0,"max_players":24,"Bots":0,"server_type":"Dedicated","server_os":"Linux","password":true,"vac":true,"version":"7757534","steam_id":85568392924504274,"keywords":["cp","nocrits","nodmgspread","uncletopia"],"game_id":440,"stv_port":27036,"stv_name":"Uncletopia | Frankfurt | 3 | All Maps | STV","players":null},{"server_id":309,"name":"Uncletopia | Frankfurt | 4 | All Maps","name_short":"frk-4","host":"frk-1.de.uncletopia.com","port":27045,"enabled":true,"region":"eu","cc":"de","latitude":50.110924,"longitude":8.682127,"reserved":0,"last_update":"0001-01-01T00:00:00Z","name_a2s":"Uncletopia | Frankfurt | 4 | All Maps","protocol":17,"map":"pl_upward","folder":"tf","game":"Team Fortress","app_id":440,"player_count":24,"max_players":24,"Bots":0,"server_type":"Dedicated","server_os":"Linux","password":true,"vac":true,"version":"7757534","steam_id":85568392924504275,"keywords":["nocrits","nodmgspread","payload","uncletopia"],"game_id":440,"stv_port":27046,"stv_name":"Uncletopia | Frankfurt | 4 | All Maps | STV","players":[{"user_id":68,"name":"System","steam_id":76561199442503973,"connected_time":1310000000000,"state":"active","ping":49},{"user_id":44,"name":"Andrew","steam_id":76561198971073720,"connected_time":3315000000000,"state":"active","ping":72},{"user_id":65,"name":"Maske","steam_id":76561198078100812,"connected_time":1530000000000,"state":"active","ping":58},{"user_id":62,"name":":)","steam_id":76561198103988618,"connected_time":1926000000000,"state":"active","ping":72},{"user_id":9,"name":"Hexagon","steam_id":76561198151205758,"connected_time":5334000000000,"state":"active","ping":54},{"user_id":10,"name":"sunny happy love","steam_id":76561198105028151,"connected_time":5303000000000,"state":"active","ping":45},{"user_id":75,"name":"KFC Enjoyer","steam_id":76561198840259819,"connected_time":395000000000,"state":"active","ping":56},{"user_id":12,"name":"Cosmetic brain","steam_id":76561198055936410,"connected_time":4979000000000,"state":"active","ping":84},{"user_id":77,"name":"Denialman (Muted)","steam_id":76561198309182092,"connected_time":222000000000,"state":"active","ping":51},{"user_id":38,"name":"Aregularhuman","steam_id":76561198343319848,"connected_time":3698000000000,"state":"active","ping":40},{"user_id":49,"name":"Solymr ibn Wali Barad","steam_id":76561198044008976,"connected_time":3055000000000,"state":"active","ping":73},{"user_id":31,"name":"Balls","steam_id":76561198086400484,"connected_time":4065000000000,"state":"active","ping":86},{"user_id":78,"name":"Bilaterial Newt","steam_id":76561198074655679,"connected_time":215000000000,"state":"active","ping":79},{"user_id":66,"name":"Ghostly","steam_id":76561199229629421,"connected_time":1389000000000,"state":"active","ping":226},{"user_id":26,"name":"Kron Krian","steam_id":76561198122541754,"connected_time":4257000000000,"state":"active","ping":74},{"user_id":79,"name":"Mijuuuuuuuu","steam_id":76561198056029274,"connected_time":211000000000,"state":"active","ping":45},{"user_id":70,"name":"day","steam_id":76561198260265302,"connected_time":1295000000000,"state":"active","ping":50},{"user_id":28,"name":"AleXandriX","steam_id":76561198035203950,"connected_time":4177000000000,"state":"active","ping":59},{"user_id":76,"name":"rummy","steam_id":76561197997573379,"connected_time":301000000000,"state":"active","ping":67},{"user_id":74,"name":"Sylbar","steam_id":76561198065379590,"connected_time":495000000000,"state":"active","ping":64},{"user_id":60,"name":"PrettyGoose","steam_id":76561198127439185,"connected_time":2695000000000,"state":"active","ping":54},{"user_id":73,"name":"Chambersite","steam_id":76561198197022399,"connected_time":1142000000000,"state":"active","ping":66},{"user_id":35,"name":"Tieria","steam_id":76561199206690292,"connected_time":3941000000000,"state":"active","ping":162},{"user_id":57,"name":"SantiThePug #ReviveTheCaber","steam_id":76561199049615996,"connected_time":2829000000000,"state":"active","ping":73}]},{"server_id":310,"name":"Uncletopia | Frankfurt | 5 | All Maps","name_short":"frk-5","host":"frk-1.de.uncletopia.com","port":27055,"enabled":true,"region":"eu","cc":"de","latitude":50.110924,"longitude":8.682127,"reserved":0,"last_update":"0001-01-01T00:00:00Z","name_a2s":"Uncletopia | Frankfurt | 5 | All Maps","protocol":17,"map":"cp_process_final","folder":"tf","game":"Team Fortress","app_id":440,"player_count":0,"max_players":24,"Bots":0,"server_type":"Dedicated","server_os":"Linux","password":true,"vac":true,"version":"7757534","steam_id":85568392924504277,"keywords":["cp","nocrits","nodmgspread","uncletopia"],"game_id":440,"stv_port":27056,"stv_name":"Uncletopia | Frankfurt | 5 | All Maps | STV","players":null},{"server_id":311,"name":"Uncletopia | Frankfurt | 6 | All Maps","name_short":"frk-6","host":"frk-1.de.uncletopia.com","port":27065,"enabled":true,"region":"eu","cc":"de","latitude":50.110924,"longitude":8.682127,"reserved":0,"last_update":"0001-01-01T00:00:00Z","name_a2s":"Uncletopia | Frankfurt | 6 | All Maps","protocol":17,"map":"pl_pier","folder":"tf","game":"Team Fortress","app_id":440,"player_count":24,"max_players":24,"Bots":0,"server_type":"Dedicated","server_os":"Linux","password":true,"vac":true,"version":"7757534","steam_id":85568392924504278,"keywords":["nocrits","nodmgspread","payload","uncletopia"],"game_id":440,"stv_port":27066,"stv_name":"Uncletopia | Frankfurt | 6 | All Maps | STV","players":[{"user_id":357,"name":"Kiwimpediment","steam_id":76561198322781400,"connected_time":187000000000,"state":"active","ping":166},{"user_id":298,"name":"MAKENTAKEN","steam_id":76561199127359587,"connected_time":4743000000000,"state":"active","ping":96},{"user_id":283,"name":"Doriian","steam_id":76561198071438810,"connected_time":6384000000000,"state":"active","ping":91},{"user_id":342,"name":"Zenos","steam_id":76561198212366199,"connected_time":1498000000000,"state":"active","ping":60},{"user_id":343,"name":"Creative","steam_id":76561198835034247,"connected_time":1479000000000,"state":"active","ping":80},{"user_id":356,"name":"Sophie","steam_id":76561198970075085,"connected_time":292000000000,"state":"active","ping":57},{"user_id":340,"name":"outlaw","steam_id":76561198323805289,"connected_time":1781000000000,"state":"active","ping":45},{"user_id":331,"name":"CumbustiblePunda","steam_id":76561197974274677,"connected_time":2613000000000,"state":"active","ping":46},{"user_id":324,"name":"flora","steam_id":76561197994492154,"connected_time":3263000000000,"state":"active","ping":64},{"user_id":353,"name":"öööö✪","steam_id":76561198181645822,"connected_time":488000000000,"state":"active","ping":86},{"user_id":319,"name":"fabacher","steam_id":76561198057905272,"connected_time":3530000000000,"state":"active","ping":60},{"user_id":316,"name":".::[SerafeTTiN]::.","steam_id":76561198009471724,"connected_time":3649000000000,"state":"active","ping":90},{"user_id":344,"name":"Booba Eater","steam_id":76561199111068188,"connected_time":1423000000000,"state":"active","ping":68},{"user_id":358,"name":"noobdog","steam_id":76561198036486671,"connected_time":179000000000,"state":"active","ping":59},{"user_id":327,"name":"Welder","steam_id":76561198355300561,"connected_time":3051000000000,"state":"active","ping":65},{"user_id":355,"name":"tiia (cold hends)","steam_id":76561198046196005,"connected_time":308000000000,"state":"active","ping":44},{"user_id":289,"name":"Ghost11","steam_id":76561198068892992,"connected_time":5939000000000,"state":"active","ping":109},{"user_id":346,"name":"Germanium_Ge","steam_id":76561198130561775,"connected_time":1395000000000,"state":"active","ping":54},{"user_id":334,"name":"jill valentine","steam_id":76561198075068529,"connected_time":2076000000000,"state":"active","ping":57},{"user_id":347,"name":"iki","steam_id":76561198119607160,"connected_time":1392000000000,"state":"active","ping":68},{"user_id":261,"name":"Dithmarschen","steam_id":76561198068917140,"connected_time":8071000000000,"state":"active","ping":94},{"user_id":348,"name":"Hÿlkje","steam_id":76561198998581449,"connected_time":1392000000000,"state":"active","ping":75},{"user_id":350,"name":"Dr.Sees [F2P]","steam_id":76561199219233587,"connected_time":1248000000000,"state":"active","ping":80},{"user_id":352,"name":"many thanks","steam_id":76561198089003514,"connected_time":1112000000000,"state":"active","ping":45}]},{"server_id":23,"name":"Uncletopia | Frankfurt | 7 | Stopwatch Beta","name_short":"frk-7","host":"frk-1.de.uncletopia.com","port":27075,"enabled":true,"region":"eu","cc":"de","latitude":50.110924,"longitude":8.682127,"reserved":0,"last_update":"0001-01-01T00:00:00Z","name_a2s":"Uncletopia | Frankfurt | 7 | Stopwatch Beta","protocol":17,"map":"pl_frontier_final","folder":"tf","game":"Team Fortress","app_id":440,"player_count":0,"max_players":24,"Bots":0,"server_type":"Dedicated","server_os":"Linux","password":true,"vac":true,"version":"7757534","steam_id":85568392924742827,"keywords":["nocrits","nodmgspread","payload","uncletopia"],"game_id":440,"stv_port":27076,"stv_name":"Uncletopia | Frankfurt | 7 | Stopwatch Beta | STV","players":null},{"server_id":24,"name":"Uncletopia | Frankfurt | 8 | Community","name_short":"frk-8","host":"frk-1.de.uncletopia.com","port":27085,"enabled":true,"region":"eu","cc":"de","latitude":50.110924,"longitude":8.682127,"reserved":0,"last_update":"0001-01-01T00:00:00Z","name_a2s":"Uncletopia | Frankfurt | 8 | Community","protocol":17,"map":"workshop/cp_reckoner_rc6.ugc674719999","folder":"tf","game":"Team Fortress","app_id":440,"player_count":0,"max_players":24,"Bots":0,"server_type":"Dedicated","server_os":"Linux","password":true,"vac":true,"version":"7757534","steam_id":85568392924742828,"keywords":["cp","nocrits","nodmgspread","uncletopia"],"game_id":440,"stv_port":27086,"stv_name":"Uncletopia | Frankfurt | 8 | Community | STV","players":null},{"server_id":202,"name":"Uncletopia | Hong Kong | 1 | All Maps","name_short":"hgk-1","host":"hgk-1.hk.uncletopia.com","port":27015,"enabled":true,"region":"asia","cc":"hk","latitude":22.302711,"longitude":114.177216,"reserved":0,"last_update":"0001-01-01T00:00:00Z","name_a2s":"Uncletopia | Hong Kong | 1 | All Maps","protocol":17,"map":"koth_highpass","folder":"tf","game":"Team Fortress","app_id":440,"player_count":0,"max_players":24,"Bots":0,"server_type":"Dedicated","server_os":"Linux","password":true,"vac":true,"version":"7757534","steam_id":85568392924494504,"keywords":["cp","nocrits","nodmgspread","uncletopia"],"game_id":440,"stv_port":27016,"stv_name":"Uncletopia | Hong Kong | 1 | All Maps | STV","players":null},{"server_id":1,"name":"Uncletopia | Los Angeles | 1 | All Maps","name_short":"lax-1","host":"lax-1.us.uncletopia.com","port":27015,"enabled":true,"region":"us-west","cc":"us","latitude":33.94279,"longitude":-118.41004,"reserved":0,"last_update":"0001-01-01T00:00:00Z","name_a2s":"Uncletopia | Los Angeles | 1 | All Maps","protocol":17,"map":"pl_borneo","folder":"tf","game":"Team Fortress","app_id":440,"player_count":0,"max_players":24,"Bots":0,"server_type":"Dedicated","server_os":"Linux","password":true,"vac":true,"version":"7757534","steam_id":85568392924469991,"keywords":["nocrits","nodmgspread","payload","uncletopia"],"game_id":440,"stv_port":27016,"stv_name":"Uncletopia | Los Angeles | 1 | All Maps | STV","players":null},{"server_id":112,"name":"Uncletopia | Los Angeles | 2 | All Maps","name_short":"lax-2","host":"lax-1.us.uncletopia.com","port":27025,"enabled":true,"region":"us-west","cc":"us","latitude":33.94279,"longitude":-118.41004,"reserved":0,"last_update":"0001-01-01T00:00:00Z","name_a2s":"Uncletopia | Los Angeles | 2 | All Maps","protocol":17,"map":"koth_cascade","folder":"tf","game":"Team Fortress","app_id":440,"player_count":0,"max_players":24,"Bots":0,"server_type":"Dedicated","server_os":"Linux","password":true,"vac":true,"version":"7757534","steam_id":85568392924469992,"keywords":["cp","nocrits","nodmgspread","uncletopia"],"game_id":440,"stv_port":27026,"stv_name":"Uncletopia | Los Angeles | 2 | All Maps | STV","players":null},{"server_id":324,"name":"Uncletopia | Los Angeles | 3 | All Maps","name_short":"lax-3","host":"lax-1.us.uncletopia.com","port":27035,"enabled":true,"region":"us-west","cc":"us","latitude":33.94279,"longitude":-118.41004,"reserved":0,"last_update":"0001-01-01T00:00:00Z","name_a2s":"Uncletopia | Los Angeles | 3 | All Maps","protocol":17,"map":"pl_pier","folder":"tf","game":"Team Fortress","app_id":440,"player_count":0,"max_players":24,"Bots":0,"server_type":"Dedicated","server_os":"Linux","password":true,"vac":true,"version":"7757534","steam_id":85568392924510198,"keywords":["nocrits","nodmgspread","payload","uncletopia"],"game_id":440,"stv_port":27036,"stv_name":"Uncletopia | Los Angeles | 3 | All Maps | STV","players":null},{"server_id":25,"name":"Uncletopia | Los Angeles | 4 | Stopwatch Beta","name_short":"lax-4","host":"lax-1.us.uncletopia.com","port":27045,"enabled":true,"region":"us-west","cc":"us","latitude":33.94279,"longitude":-118.41004,"reserved":0,"last_update":"0001-01-01T00:00:00Z","name_a2s":"Uncletopia | Los Angeles | 4 | Stopwatch Beta","protocol":17,"map":"pl_frontier_final","folder":"tf","game":"Team Fortress","app_id":440,"player_count":0,"max_players":24,"Bots":0,"server_type":"Dedicated","server_os":"Linux","password":true,"vac":true,"version":"7757534","steam_id":85568392924510199,"keywords":["nocrits","nodmgspread","payload","uncletopia"],"game_id":440,"stv_port":27046,"stv_name":"Uncletopia | Los Angeles | 4 | Stopwatch Beta | STV","players":null},{"server_id":11,"name":"Uncletopia | London | 1 | All Maps","name_short":"lon-1","host":"lon-1.uk.uncletopia.com","port":27015,"enabled":true,"region":"eu","cc":"gb","latitude":51.509865,"longitude":-0.118092,"reserved":0,"last_update":"0001-01-01T00:00:00Z","name_a2s":"Uncletopia | London | 1 | All Maps","protocol":17,"map":"koth_viaduct","folder":"tf","game":"Team Fortress","app_id":440,"player_count":10,"max_players":24,"Bots":0,"server_type":"Dedicated","server_os":"Linux","password":true,"vac":true,"version":"7757534","steam_id":85568392924367362,"keywords":["cp","nocrits","nodmgspread","uncletopia"],"game_id":440,"stv_port":27016,"stv_name":"Uncletopia | London | 1 | All Maps | STV","players":[{"user_id":19,"name":"el_ronia","steam_id":76561199203435546,"connected_time":618000000000,"state":"active","ping":71},{"user_id":20,"name":"I-I","steam_id":76561198267969436,"connected_time":601000000000,"state":"active","ping":64},{"user_id":23,"name":"Oliwer11","steam_id":76561198053237675,"connected_time":388000000000,"state":"active","ping":120},{"user_id":25,"name":"Na'vi Misato (by popular demand","steam_id":76561198130860698,"connected_time":263000000000,"state":"active","ping":56},{"user_id":26,"name":"Iron_Dave_Qc","steam_id":76561198159325213,"connected_time":252000000000,"state":"active","ping":121},{"user_id":33,"name":"dominus.","steam_id":76561199065917088,"connected_time":42000000000,"state":"active","ping":53},{"user_id":29,"name":"Burgoo_King","steam_id":76561198133572225,"connected_time":96000000000,"state":"active","ping":76},{"user_id":30,"name":"Kamakazie trade.tf","steam_id":76561198142323649,"connected_time":69000000000,"state":"active","ping":69},{"user_id":31,"name":"Ben UFO","steam_id":76561198001648348,"connected_time":68000000000,"state":"active","ping":45},{"user_id":32,"name":"kubaga00","steam_id":76561198141944554,"connected_time":66000000000,"state":"active","ping":69}]},{"server_id":114,"name":"Uncletopia | London | 2 | All Maps","name_short":"lon-2","host":"lon-1.uk.uncletopia.com","port":27025,"enabled":true,"region":"eu","cc":"gb","latitude":51.509865,"longitude":-0.118092,"reserved":0,"last_update":"0001-01-01T00:00:00Z","name_a2s":"Uncletopia | London | 2 | All Maps","protocol":17,"map":"cp_dustbowl","folder":"tf","game":"Team Fortress","app_id":440,"player_count":0,"max_players":24,"Bots":0,"server_type":"Dedicated","server_os":"Linux","password":true,"vac":true,"version":"7757534","steam_id":85568392924470941,"keywords":["cp","nocrits","nodmgspread","uncletopia"],"game_id":440,"stv_port":27026,"stv_name":"Uncletopia | London | 2 | All Maps | STV","players":null},{"server_id":320,"name":"Uncletopia | London | 3 | All Maps","name_short":"lon-3","host":"lon-1.uk.uncletopia.com","port":27035,"enabled":true,"region":"eu","cc":"gb","latitude":51.509865,"longitude":-0.118092,"reserved":0,"last_update":"0001-01-01T00:00:00Z","name_a2s":"Uncletopia | London | 3 | All Maps","protocol":17,"map":"pl_badwater","folder":"tf","game":"Team Fortress","app_id":440,"player_count":24,"max_players":24,"Bots":0,"server_type":"Dedicated","server_os":"Linux","password":true,"vac":true,"version":"7757534","steam_id":85568392924510192,"keywords":["nocrits","nodmgspread","payload","uncletopia"],"game_id":440,"stv_port":27036,"stv_name":"Uncletopia | London | 3 | All Maps | STV","players":[{"user_id":122,"name":"tactical783","steam_id":76561199051688560,"connected_time":2017000000000,"state":"active","ping":70},{"user_id":92,"name":"British Disapproval","steam_id":76561198001375260,"connected_time":4056000000000,"state":"active","ping":50},{"user_id":44,"name":"Tryrn","steam_id":76561198075487436,"connected_time":6789000000000,"state":"active","ping":89},{"user_id":153,"name":"wicked","steam_id":76561198164376035,"connected_time":161000000000,"state":"active","ping":78},{"user_id":152,"name":"Archie","steam_id":76561199073056124,"connected_time":221000000000,"state":"active","ping":68},{"user_id":150,"name":"You slumber","steam_id":76561198344639692,"connected_time":315000000000,"state":"active","ping":77},{"user_id":147,"name":"morlo^","steam_id":76561198249301650,"connected_time":390000000000,"state":"active","ping":51},{"user_id":138,"name":"I LOVE THE HIGH GROUND","steam_id":76561198989449047,"connected_time":760000000000,"state":"active","ping":169},{"user_id":130,"name":"Pepperonipizza","steam_id":76561198044471610,"connected_time":1346000000000,"state":"active","ping":63},{"user_id":142,"name":"Españaa","steam_id":76561198879587832,"connected_time":521000000000,"state":"active","ping":87},{"user_id":156,"name":"Tuxedo Terrorist","steam_id":76561198153510094,"connected_time":52000000000,"state":"active","ping":127},{"user_id":127,"name":"axl","steam_id":76561198991661832,"connected_time":1912000000000,"state":"active","ping":107},{"user_id":132,"name":"Mao Zedong","steam_id":76561198347020945,"connected_time":1288000000000,"state":"active","ping":92},{"user_id":151,"name":"Jon (alt)","steam_id":76561199380849468,"connected_time":273000000000,"state":"active","ping":62},{"user_id":143,"name":"quickfast","steam_id":76561199438900919,"connected_time":514000000000,"state":"active","ping":42},{"user_id":106,"name":"OutOfRage","steam_id":76561198211205791,"connected_time":3648000000000,"state":"active","ping":49},{"user_id":145,"name":"LukeLeal","steam_id":76561198049822995,"connected_time":461000000000,"state":"active","ping":179},{"user_id":135,"name":"Laru","steam_id":76561197998838438,"connected_time":1175000000000,"state":"active","ping":78},{"user_id":108,"name":"_zipfile","steam_id":76561198066133808,"connected_time":3376000000000,"state":"active","ping":60},{"user_id":112,"name":"dafydd","steam_id":76561198052200325,"connected_time":2740000000000,"state":"active","ping":87},{"user_id":146,"name":"AsuX","steam_id":76561197990333289,"connected_time":446000000000,"state":"active","ping":60},{"user_id":136,"name":"TallestPerson","steam_id":76561198097923550,"connected_time":987000000000,"state":"active","ping":60},{"user_id":126,"name":"Lessoz","steam_id":76561199211572036,"connected_time":1939000000000,"state":"active","ping":89},{"user_id":149,"name":"aura","steam_id":76561197991687793,"connected_time":361000000000,"state":"active","ping":74}]},{"server_id":321,"name":"Uncletopia | London | 4 | All Maps","name_short":"lon-4","host":"lon-1.uk.uncletopia.com","port":27045,"enabled":true,"region":"eu","cc":"gb","latitude":51.509865,"longitude":-0.118092,"reserved":0,"last_update":"0001-01-01T00:00:00Z","name_a2s":"Uncletopia | London | 4 | All Maps","protocol":17,"map":"koth_viaduct","folder":"tf","game":"Team Fortress","app_id":440,"player_count":0,"max_players":24,"Bots":0,"server_type":"Dedicated","server_os":"Linux","password":true,"vac":true,"version":"7757534","steam_id":85568392924510193,"keywords":["cp","nocrits","nodmgspread","uncletopia"],"game_id":440,"stv_port":27046,"stv_name":"Uncletopia | London | 4 | All Maps | STV","players":null},{"server_id":21,"name":"Uncletopia | London | 5 | All Maps","name_short":"lon-5","host":"lon-1.uk.uncletopia.com","port":27055,"enabled":true,"region":"eu","cc":"gb","latitude":51.509865,"longitude":-0.118092,"reserved":0,"last_update":"0001-01-01T00:00:00Z","name_a2s":"Uncletopia | London | 5 | All Maps","protocol":17,"map":"cp_process_final","folder":"tf","game":"Team Fortress","app_id":440,"player_count":0,"max_players":24,"Bots":0,"server_type":"Dedicated","server_os":"Linux","password":true,"vac":true,"version":"7757534","steam_id":85568392924742829,"keywords":["cp","nocrits","nodmgspread","uncletopia"],"game_id":440,"stv_port":27056,"stv_name":"Uncletopia | London | 5 | All Maps | STV","players":null},{"server_id":22,"name":"Uncletopia | London | 6 | All Maps","name_short":"lon-6","host":"lon-1.uk.uncletopia.com","port":27065,"enabled":true,"region":"eu","cc":"gb","latitude":51.509865,"longitude":-0.118092,"reserved":0,"last_update":"0001-01-01T00:00:00Z","name_a2s":"Uncletopia | London | 6 | All Maps","protocol":17,"map":"koth_cascade","folder":"tf","game":"Team Fortress","app_id":440,"player_count":0,"max_players":24,"Bots":0,"server_type":"Dedicated","server_os":"Linux","password":true,"vac":true,"version":"7757534","steam_id":85568392924742830,"keywords":["cp","nocrits","nodmgspread","uncletopia"],"game_id":440,"stv_port":27066,"stv_name":"Uncletopia | London | 6 | All Maps | STV","players":null},{"server_id":40,"name":"Uncletopia | London | 7 | No Payload","name_short":"lon-7","host":"lon-1.uk.uncletopia.com","port":27075,"enabled":true,"region":"eu","cc":"gb","latitude":51.509865,"longitude":-0.118092,"reserved":0,"last_update":"0001-01-01T00:00:00Z","name_a2s":"Uncletopia | London | 7 | No Payload","protocol":17,"map":"cp_mountainlab","folder":"tf","game":"Team Fortress","app_id":440,"player_count":0,"max_players":24,"Bots":0,"server_type":"Dedicated","server_os":"Linux","password":true,"vac":true,"version":"7757534","steam_id":85568392924964314,"keywords":["cp","nocrits","nodmgspread","uncletopia"],"game_id":440,"stv_port":27076,"stv_name":"Uncletopia | London | 7 | No Payload | STV","players":null},{"server_id":41,"name":"Uncletopia | London | 8 | Community","name_short":"lon-8","host":"lon-1.uk.uncletopia.com","port":27085,"enabled":true,"region":"eu","cc":"gb","latitude":51.509865,"longitude":-0.118092,"reserved":0,"last_update":"0001-01-01T00:00:00Z","name_a2s":"Uncletopia | London | 8 | Community","protocol":17,"map":"workshop/cp_bruhstbowl_b5.ugc2878604990","folder":"tf","game":"Team Fortress","app_id":440,"player_count":0,"max_players":24,"Bots":0,"server_type":"Dedicated","server_os":"Linux","password":true,"vac":true,"version":"7757534","steam_id":85568392924964315,"keywords":["cp","nocrits","nodmgspread","uncletopia"],"game_id":440,"stv_port":27086,"stv_name":"Uncletopia | London | 8 | Community | STV","players":null},{"server_id":300,"name":"Uncletopia | Montréal | 1 | All Maps","name_short":"mtl-1","host":"mtl-1.ca.uncletopia.com","port":27015,"enabled":true,"region":"us-east","cc":"ca","latitude":45.50889,"longitude":-73.56167,"reserved":0,"last_update":"0001-01-01T00:00:00Z","name_a2s":"Uncletopia | Montréal | 1 | All Maps","protocol":17,"map":"pl_snowycoast","folder":"tf","game":"Team Fortress","app_id":440,"player_count":0,"max_players":24,"Bots":0,"server_type":"Dedicated","server_os":"Linux","password":true,"vac":true,"version":"7757534","steam_id":85568392924500087,"keywords":["nocrits","nodmgspread","payload","uncletopia"],"game_id":440,"stv_port":27016,"stv_name":"Uncletopia | Montréal | 1 | All Maps | STV","players":null},{"server_id":301,"name":"Uncletopia | Montréal | 2 | All Maps","name_short":"mtl-2","host":"mtl-1.ca.uncletopia.com","port":27025,"enabled":true,"region":"us-east","cc":"ca","latitude":45.50889,"longitude":-73.56167,"reserved":0,"last_update":"0001-01-01T00:00:00Z","name_a2s":"Uncletopia | Montréal | 2 | All Maps","protocol":17,"map":"pl_snowycoast","folder":"tf","game":"Team Fortress","app_id":440,"player_count":0,"max_players":24,"Bots":0,"server_type":"Dedicated","server_os":"Linux","password":true,"vac":true,"version":"7757534","steam_id":85568392924500088,"keywords":["nocrits","nodmgspread","payload","uncletopia"],"game_id":440,"stv_port":27026,"stv_name":"Uncletopia | Montréal | 2 | All Maps | STV","players":null},{"server_id":302,"name":"Uncletopia | Montréal | 3 | All Maps","name_short":"mtl-3","host":"mtl-1.ca.uncletopia.com","port":27035,"enabled":true,"region":"us-east","cc":"ca","latitude":45.50889,"longitude":-73.56167,"reserved":0,"last_update":"0001-01-01T00:00:00Z","name_a2s":"Uncletopia | Montréal | 3 | All Maps","protocol":17,"map":"cp_dustbowl","folder":"tf","game":"Team Fortress","app_id":440,"player_count":0,"max_players":24,"Bots":0,"server_type":"Dedicated","server_os":"Linux","password":true,"vac":true,"version":"7757534","steam_id":85568392924500089,"keywords":["cp","nocrits","nodmgspread","uncletopia"],"game_id":440,"stv_port":27036,"stv_name":"Uncletopia | Montréal | 3 | All Maps | STV","players":null},{"server_id":303,"name":"Uncletopia | Montréal | 4 | No Payload","name_short":"mtl-4","host":"mtl-1.ca.uncletopia.com","port":27045,"enabled":true,"region":"us-east","cc":"ca","latitude":45.50889,"longitude":-73.56167,"reserved":0,"last_update":"0001-01-01T00:00:00Z","name_a2s":"Uncletopia | Montréal | 4 | No Payload","protocol":17,"map":"pl_borneo","folder":"tf","game":"Team Fortress","app_id":440,"player_count":0,"max_players":24,"Bots":0,"server_type":"Dedicated","server_os":"Linux","password":true,"vac":true,"version":"7757534","steam_id":85568392924500090,"keywords":["nocrits","nodmgspread","payload","uncletopia"],"game_id":440,"stv_port":27046,"stv_name":"Uncletopia | Montréal | 4 | No Payload | STV","players":null},{"server_id":13,"name":"Uncletopia | New York City | 1 | All Maps","name_short":"nyc-1","host":"nyc-1.us.uncletopia.com","port":27015,"enabled":true,"region":"us-east","cc":"us","latitude":40.73061,"longitude":-73.93524,"reserved":0,"last_update":"0001-01-01T00:00:00Z","name_a2s":"Uncletopia | New York City | 1 | All Maps","protocol":17,"map":"pl_pier","folder":"tf","game":"Team Fortress","app_id":440,"player_count":0,"max_players":24,"Bots":0,"server_type":"Dedicated","server_os":"Linux","password":true,"vac":true,"version":"7757534","steam_id":85568392924469993,"keywords":["nocrits","nodmgspread","payload","uncletopia"],"game_id":440,"stv_port":27016,"stv_name":"Uncletopia | New York City | 1 | All Maps | STV","players":null},{"server_id":14,"name":"Uncletopia | New York City | 2 | All Maps","name_short":"nyc-2","host":"nyc-1.us.uncletopia.com","port":27025,"enabled":true,"region":"us-east","cc":"us","latitude":40.73061,"longitude":-73.93524,"reserved":0,"last_update":"0001-01-01T00:00:00Z","name_a2s":"Uncletopia | New York City | 2 | All Maps","protocol":17,"map":"pl_pier","folder":"tf","game":"Team Fortress","app_id":440,"player_count":0,"max_players":24,"Bots":0,"server_type":"Dedicated","server_os":"Linux","password":true,"vac":true,"version":"7757534","steam_id":85568392924469994,"keywords":["nocrits","nodmgspread","payload","uncletopia"],"game_id":440,"stv_port":27026,"stv_name":"Uncletopia | New York City | 2 | All Maps | STV","players":null},{"server_id":15,"name":"Uncletopia | New York City | 3 | Stopwatch Beta","name_short":"nyc-3","host":"nyc-1.us.uncletopia.com","port":27035,"enabled":true,"region":"us-east","cc":"us","latitude":40.73061,"longitude":-73.93524,"reserved":0,"last_update":"0001-01-01T00:00:00Z","name_a2s":"Uncletopia | New York City | 3 | Stopwatch Beta","protocol":17,"map":"cp_mountainlab","folder":"tf","game":"Team Fortress","app_id":440,"player_count":0,"max_players":24,"Bots":0,"server_type":"Dedicated","server_os":"Linux","password":true,"vac":true,"version":"7757534","steam_id":85568392924742820,"keywords":["cp","nocrits","nodmgspread","uncletopia"],"game_id":440,"stv_port":27036,"stv_name":"Uncletopia | New York City | 3 | Stopwatch Beta | STV","players":null},{"server_id":16,"name":"Uncletopia | New York City | 4 | Community","name_short":"nyc-4","host":"nyc-1.us.uncletopia.com","port":27045,"enabled":true,"region":"us-east","cc":"us","latitude":40.73061,"longitude":-73.93524,"reserved":0,"last_update":"0001-01-01T00:00:00Z","name_a2s":"Uncletopia | New York City | 4 | Community","protocol":17,"map":"workshop/cp_overgrown_rc7b.ugc503939302","folder":"tf","game":"Team Fortress","app_id":440,"player_count":0,"max_players":24,"Bots":0,"server_type":"Dedicated","server_os":"Linux","password":true,"vac":true,"version":"7757534","steam_id":85568392924742821,"keywords":["cp","nocrits","nodmgspread","uncletopia"],"game_id":440,"stv_port":27046,"stv_name":"Uncletopia | New York City | 4 | Community | STV","players":null},{"server_id":142,"name":"Uncletopia | São Paulo | 1 | All Maps","name_short":"sao-1","host":"sao-1.br.uncletopia.com","port":27015,"enabled":true,"region":"sa","cc":"br","latitude":-23.533773,"longitude":-46.62529,"reserved":0,"last_update":"0001-01-01T00:00:00Z","name_a2s":"Uncletopia | São Paulo | 1 | All Maps","protocol":17,"map":"pl_badwater","folder":"tf","game":"Team Fortress","app_id":440,"player_count":0,"max_players":24,"Bots":0,"server_type":"Dedicated","server_os":"Linux","password":true,"vac":true,"version":"7757534","steam_id":85568392924469996,"keywords":["nocrits","nodmgspread","payload","uncletopia"],"game_id":440,"stv_port":27016,"stv_name":"Uncletopia | São Paulo | 1 | All Maps | STV","players":null},{"server_id":143,"name":"Uncletopia | São Paulo | 2 | All Maps","name_short":"sao-2","host":"sao-2.br.uncletopia.com","port":27015,"enabled":true,"region":"sa","cc":"br","latitude":-23.533773,"longitude":-46.62529,"reserved":0,"last_update":"0001-01-01T00:00:00Z","name_a2s":"Uncletopia | São Paulo | 2 | All Maps","protocol":17,"map":"pl_borneo","folder":"tf","game":"Team Fortress","app_id":440,"player_count":0,"max_players":24,"Bots":0,"server_type":"Dedicated","server_os":"Linux","password":true,"vac":true,"version":"7757534","steam_id":85568392924485349,"keywords":["nocrits","nodmgspread","payload","uncletopia"],"game_id":440,"stv_port":27016,"stv_name":"Uncletopia | São Paulo | 2 | All Maps | STV","players":null},{"server_id":7,"name":"Uncletopia | Seattle | 1 | All Maps","name_short":"sea-1","host":"sea-1.us.uncletopia.com","port":27015,"enabled":true,"region":"us-west","cc":"us","latitude":47.608013,"longitude":-122.33517,"reserved":0,"last_update":"0001-01-01T00:00:00Z","name_a2s":"Uncletopia | Seattle | 1 | All Maps","protocol":17,"map":"pl_snowycoast","folder":"tf","game":"Team Fortress","app_id":440,"player_count":23,"max_players":24,"Bots":0,"server_type":"Dedicated","server_os":"Linux","password":true,"vac":true,"version":"7757534","steam_id":85568392924469997,"keywords":["nocrits","nodmgspread","payload","uncletopia"],"game_id":440,"stv_port":27016,"stv_name":"Uncletopia | Seattle | 1 | All Maps | STV","players":[{"user_id":80,"name":"SanitysEdge","steam_id":76561198130732813,"connected_time":171000000000,"state":"active","ping":74},{"user_id":4,"name":"Bryguy","steam_id":76561198092096120,"connected_time":4473000000000,"state":"active","ping":94},{"user_id":49,"name":"Pinder","steam_id":76561198176708643,"connected_time":2390000000000,"state":"active","ping":91},{"user_id":81,"name":"spaceman_joe","steam_id":76561198103515747,"connected_time":87000000000,"state":"active","ping":62},{"user_id":71,"name":"Mury","steam_id":76561198069743049,"connected_time":900000000000,"state":"active","ping":147},{"user_id":54,"name":"gamer_hater","steam_id":76561198973306314,"connected_time":1890000000000,"state":"active","ping":73},{"user_id":77,"name":"caninable","steam_id":76561198124240407,"connected_time":244000000000,"state":"active","ping":56},{"user_id":10,"name":"THE NUT","steam_id":76561198067813626,"connected_time":4464000000000,"state":"active","ping":53},{"user_id":68,"name":"i´m actually naked #savetf2","steam_id":76561198100768221,"connected_time":962000000000,"state":"active","ping":129},{"user_id":12,"name":"AirMan121","steam_id":76561198042951349,"connected_time":4459000000000,"state":"active","ping":66},{"user_id":59,"name":"laszlo","steam_id":76561198141198352,"connected_time":1557000000000,"state":"active","ping":93},{"user_id":14,"name":"Little Linguine","steam_id":76561198816986370,"connected_time":4457000000000,"state":"active","ping":61},{"user_id":15,"name":"!! BRO IS FLABBERGASTED !!","steam_id":76561198135036396,"connected_time":4453000000000,"state":"active","ping":131},{"user_id":79,"name":"Padre Pat","steam_id":76561198392985381,"connected_time":199000000000,"state":"active","ping":98},{"user_id":36,"name":"GP","steam_id":76561198215438831,"connected_time":3709000000000,"state":"active","ping":126},{"user_id":73,"name":"inzang","steam_id":76561198088318074,"connected_time":849000000000,"state":"active","ping":102},{"user_id":74,"name":"lynks disease no sound","steam_id":76561198043465434,"connected_time":794000000000,"state":"active","ping":75},{"user_id":78,"name":"The Bone Zone","steam_id":76561199110815433,"connected_time":222000000000,"state":"active","ping":94},{"user_id":58,"name":"Hunger Force","steam_id":76561199100612353,"connected_time":1602000000000,"state":"active","ping":108},{"user_id":82,"name":"i cant hear u its too dark","steam_id":76561198142829053,"connected_time":46000000000,"state":"active","ping":70},{"user_id":48,"name":"cheeto dealer","steam_id":76561199243489976,"connected_time":2423000000000,"state":"active","ping":86},{"user_id":25,"name":"Malmart_Employee","steam_id":76561198320388704,"connected_time":4385000000000,"state":"active","ping":54},{"user_id":65,"name":"CrackedSanity","steam_id":76561198279841251,"connected_time":1125000000000,"state":"active","ping":79}]},{"server_id":119,"name":"Uncletopia | Seattle | 2 | All Maps","name_short":"sea-2","host":"sea-1.us.uncletopia.com","port":27025,"enabled":true,"region":"us-west","cc":"us","latitude":47.608013,"longitude":-122.33517,"reserved":0,"last_update":"0001-01-01T00:00:00Z","name_a2s":"Uncletopia | Seattle | 2 | All Maps","protocol":17,"map":"cp_dustbowl","folder":"tf","game":"Team Fortress","app_id":440,"player_count":24,"max_players":24,"Bots":0,"server_type":"Dedicated","server_os":"Linux","password":true,"vac":true,"version":"7757534","steam_id":85568392924469998,"keywords":["cp","nocrits","nodmgspread","uncletopia"],"game_id":440,"stv_port":27026,"stv_name":"Uncletopia | Seattle | 2 | All Maps | STV","players":[{"user_id":63,"name":"BIG HOG","steam_id":76561198079923652,"connected_time":845000000000,"state":"active","ping":107},{"user_id":13,"name":"miguelrodriguez2013","steam_id":76561198269253587,"connected_time":4320000000000,"state":"active","ping":60},{"user_id":14,"name":"The Great Eagle Scourge of 1822","steam_id":76561198325086209,"connected_time":4258000000000,"state":"active","ping":91},{"user_id":6,"name":"Super","steam_id":76561199179611350,"connected_time":4488000000000,"state":"active","ping":126},{"user_id":32,"name":"D0VE","steam_id":76561198151618566,"connected_time":3359000000000,"state":"active","ping":52},{"user_id":8,"name":"4 Itchy Tasty","steam_id":76561198009869383,"connected_time":4480000000000,"state":"active","ping":133},{"user_id":18,"name":"Atomic Waffles","steam_id":76561197970935570,"connected_time":4069000000000,"state":"active","ping":118},{"user_id":15,"name":"SlippyPunk","steam_id":76561198048551455,"connected_time":4247000000000,"state":"active","ping":110},{"user_id":27,"name":"JaminDamin","steam_id":76561199465916540,"connected_time":3714000000000,"state":"active","ping":130},{"user_id":40,"name":"Therealjuan23","steam_id":76561198400171971,"connected_time":3134000000000,"state":"active","ping":132},{"user_id":67,"name":"The Pope (Real)","steam_id":76561198045847782,"connected_time":481000000000,"state":"active","ping":95},{"user_id":33,"name":"UWBW","steam_id":76561198007524241,"connected_time":3341000000000,"state":"active","ping":116},{"user_id":62,"name":"GlitchGame","steam_id":76561198935134697,"connected_time":877000000000,"state":"active","ping":93},{"user_id":26,"name":"Milk","steam_id":76561199223021963,"connected_time":3725000000000,"state":"active","ping":81},{"user_id":60,"name":"Sheep","steam_id":76561198122705864,"connected_time":1078000000000,"state":"active","ping":89},{"user_id":45,"name":"itshuredoes","steam_id":76561199094108419,"connected_time":2696000000000,"state":"active","ping":116},{"user_id":65,"name":"Sacky Hack","steam_id":76561199091381775,"connected_time":676000000000,"state":"active","ping":92},{"user_id":47,"name":"TransWomanGaming","steam_id":76561198809645656,"connected_time":2597000000000,"state":"active","ping":161},{"user_id":48,"name":"Arachna.cadabra","steam_id":76561198039437427,"connected_time":2570000000000,"state":"active","ping":57},{"user_id":50,"name":"JazzMuted","steam_id":76561197974184265,"connected_time":2480000000000,"state":"active","ping":100},{"user_id":61,"name":"Seru","steam_id":76561199219827214,"connected_time":1059000000000,"state":"active","ping":135},{"user_id":66,"name":"dan","steam_id":76561197984998426,"connected_time":660000000000,"state":"active","ping":160},{"user_id":56,"name":"David.Smith.2009","steam_id":76561198309760791,"connected_time":1140000000000,"state":"active","ping":127},{"user_id":54,"name":"Zenn","steam_id":76561198032618254,"connected_time":2328000000000,"state":"active","ping":53}]},{"server_id":406,"name":"Uncletopia | Seattle | 3 | Stopwatch Beta","name_short":"sea-3","host":"sea-1.us.uncletopia.com","port":27035,"enabled":true,"region":"us-west","cc":"us","latitude":47.608013,"longitude":-122.33517,"reserved":0,"last_update":"0001-01-01T00:00:00Z","name_a2s":"Uncletopia | Seattle | 3 | Stopwatch Beta","protocol":17,"map":"pl_barnblitz","folder":"tf","game":"Team Fortress","app_id":440,"player_count":0,"max_players":24,"Bots":0,"server_type":"Dedicated","server_os":"Linux","password":true,"vac":true,"version":"7757534","steam_id":85568392924515217,"keywords":["nocrits","nodmgspread","payload","uncletopia"],"game_id":440,"stv_port":27036,"stv_name":"Uncletopia | Seattle | 3 | Stopwatch Beta | STV","players":null},{"server_id":17,"name":"Uncletopia | San Francisco | 1 | All Maps","name_short":"sfo-1","host":"sfo-1.us.uncletopia.com","port":27015,"enabled":true,"region":"us-west","cc":"us","latitude":37.77397,"longitude":-122.4313,"reserved":0,"last_update":"0001-01-01T00:00:00Z","name_a2s":"Uncletopia | San Francisco | 1 | All Maps","protocol":17,"map":"koth_highpass","folder":"tf","game":"Team Fortress","app_id":440,"player_count":0,"max_players":24,"Bots":0,"server_type":"Dedicated","server_os":"Linux","password":true,"vac":true,"version":"7757534","steam_id":85568392924469999,"keywords":["cp","nocrits","nodmgspread","uncletopia"],"game_id":440,"stv_port":27016,"stv_name":"Uncletopia | San Francisco | 1 | All Maps | STV","players":null},{"server_id":18,"name":"Uncletopia | San Francisco | 2 | All Maps","name_short":"sfo-2","host":"sfo-1.us.uncletopia.com","port":27025,"enabled":true,"region":"us-west","cc":"us","latitude":37.77397,"longitude":-122.4313,"reserved":0,"last_update":"0001-01-01T00:00:00Z","name_a2s":"Uncletopia | San Francisco | 2 | All Maps","protocol":17,"map":"cp_sunshine","folder":"tf","game":"Team Fortress","app_id":440,"player_count":0,"max_players":24,"Bots":0,"server_type":"Dedicated","server_os":"Linux","password":true,"vac":true,"version":"7757534","steam_id":85568392924470000,"keywords":["cp","nocrits","nodmgspread","uncletopia"],"game_id":440,"stv_port":27026,"stv_name":"Uncletopia | San Francisco | 2 | All Maps | STV","players":null},{"server_id":19,"name":"Uncletopia | San Francisco | 3 | Stopwatch Beta","name_short":"sfo-3","host":"sfo-1.us.uncletopia.com","port":27035,"enabled":true,"region":"us-west","cc":"us","latitude":37.77397,"longitude":-122.4313,"reserved":0,"last_update":"0001-01-01T00:00:00Z","name_a2s":"Uncletopia | San Francisco | 3 | Stopwatch Beta","protocol":17,"map":"pl_borneo","folder":"tf","game":"Team Fortress","app_id":440,"player_count":0,"max_players":24,"Bots":0,"server_type":"Dedicated","server_os":"Linux","password":true,"vac":true,"version":"7757534","steam_id":85568392924742824,"keywords":["nocrits","nodmgspread","payload","uncletopia"],"game_id":440,"stv_port":27036,"stv_name":"Uncletopia | San Francisco | 3 | Stopwatch Beta | STV","players":null},{"server_id":20,"name":"Uncletopia | San Francisco | 4 | Community","name_short":"sfo-4","host":"sfo-1.us.uncletopia.com","port":27045,"enabled":true,"region":"us-west","cc":"us","latitude":37.77397,"longitude":-122.4313,"reserved":0,"last_update":"0001-01-01T00:00:00Z","name_a2s":"Uncletopia | San Francisco | 4 | Community","protocol":17,"map":"koth_highpass","folder":"tf","game":"Team Fortress","app_id":440,"player_count":0,"max_players":24,"Bots":0,"server_type":"Dedicated","server_os":"Linux","password":true,"vac":true,"version":"7757534","steam_id":85568392924742826,"keywords":["cp","nocrits","nodmgspread","uncletopia"],"game_id":440,"stv_port":27046,"stv_name":"Uncletopia | San Francisco | 4 | Community | STV","players":null},{"server_id":141,"name":"Uncletopia | Sydney | 1 | All Maps","name_short":"syd-1","host":"syd-1.au.uncletopia.com","port":27015,"enabled":true,"region":"au","cc":"au","latitude":-33.865143,"longitude":151.2099,"reserved":0,"last_update":"0001-01-01T00:00:00Z","name_a2s":"Uncletopia | Sydney | 1 | All Maps","protocol":17,"map":"pl_borneo","folder":"tf","game":"Team Fortress","app_id":440,"player_count":24,"max_players":24,"Bots":0,"server_type":"Dedicated","server_os":"Linux","password":true,"vac":true,"version":"7757534","steam_id":85568392924470001,"keywords":["nocrits","nodmgspread","payload","uncletopia"],"game_id":440,"stv_port":27016,"stv_name":"Uncletopia | Sydney | 1 | All Maps | STV","players":[{"user_id":645,"name":"FinnMont","steam_id":76561198072340275,"connected_time":6551000000000,"state":"active","ping":62},{"user_id":709,"name":"I like outside.","steam_id":76561198143794788,"connected_time":1338000000000,"state":"active","ping":124},{"user_id":658,"name":"Morgenstern","steam_id":76561198253080474,"connected_time":5918000000000,"state":"active","ping":76},{"user_id":724,"name":"Soru","steam_id":76561198010844786,"connected_time":206000000000,"state":"active","ping":63},{"user_id":678,"name":"Dingo","steam_id":76561198315774295,"connected_time":3667000000000,"state":"active","ping":64},{"user_id":688,"name":"Branko","steam_id":76561199262196710,"connected_time":3059000000000,"state":"active","ping":42},{"user_id":629,"name":"Jiffy360","steam_id":76561198149550772,"connected_time":7719000000000,"state":"active","ping":91},{"user_id":692,"name":"poperdood","steam_id":76561198064553245,"connected_time":2974000000000,"state":"active","ping":99},{"user_id":680,"name":"bowser","steam_id":76561198271462646,"connected_time":3559000000000,"state":"active","ping":42},{"user_id":717,"name":"888","steam_id":76561197965566926,"connected_time":901000000000,"state":"active","ping":40},{"user_id":714,"name":"bird","steam_id":76561198258514103,"connected_time":1142000000000,"state":"active","ping":60},{"user_id":694,"name":"Pascoe","steam_id":76561198047969980,"connected_time":2888000000000,"state":"active","ping":113},{"user_id":695,"name":"Hardcase","steam_id":76561198124442611,"connected_time":2858000000000,"state":"active","ping":82},{"user_id":708,"name":"Nyk","steam_id":76561198125000580,"connected_time":1566000000000,"state":"active","ping":38},{"user_id":712,"name":"Cyro","steam_id":76561198115325995,"connected_time":1227000000000,"state":"active","ping":84},{"user_id":696,"name":"courtesy","steam_id":76561198248550514,"connected_time":2799000000000,"state":"active","ping":53},{"user_id":636,"name":"Tricka •","steam_id":76561197968440123,"connected_time":7178000000000,"state":"active","ping":45},{"user_id":713,"name":"KeeperOfBalance","steam_id":76561198028070089,"connected_time":1225000000000,"state":"active","ping":87},{"user_id":715,"name":"henry18k","steam_id":76561199466452074,"connected_time":1119000000000,"state":"active","ping":175},{"user_id":721,"name":"Mr.Deathclaw","steam_id":76561198025419320,"connected_time":759000000000,"state":"active","ping":51},{"user_id":639,"name":"Lincoln2603","steam_id":76561198170236666,"connected_time":7001000000000,"state":"active","ping":37},{"user_id":719,"name":"Aurora","steam_id":76561198453452672,"connected_time":847000000000,"state":"active","ping":152},{"user_id":720,"name":"TheDoctor30","steam_id":76561198433686866,"connected_time":836000000000,"state":"active","ping":99},{"user_id":655,"name":"Pew pew pew!","steam_id":76561198004120277,"connected_time":5932000000000,"state":"active","ping":44}]},{"server_id":123,"name":"Uncletopia | Sydney | 2 | All Maps","name_short":"syd-2","host":"syd-1.au.uncletopia.com","port":27025,"enabled":true,"region":"au","cc":"au","latitude":-33.865143,"longitude":151.2099,"reserved":0,"last_update":"0001-01-01T00:00:00Z","name_a2s":"Uncletopia | Sydney | 2 | All Maps","protocol":17,"map":"koth_cascade","folder":"tf","game":"Team Fortress","app_id":440,"player_count":0,"max_players":24,"Bots":0,"server_type":"Dedicated","server_os":"Linux","password":true,"vac":true,"version":"7757534","steam_id":85568392924470002,"keywords":["cp","nocrits","nodmgspread","uncletopia"],"game_id":440,"stv_port":27026,"stv_name":"Uncletopia | Sydney | 2 | All Maps | STV","players":null},{"server_id":395,"name":"Uncletopia | Sydney | 3 | All Maps","name_short":"syd-3","host":"syd-1.au.uncletopia.com","port":27035,"enabled":true,"region":"au","cc":"au","latitude":-33.865143,"longitude":151.2099,"reserved":0,"last_update":"0001-01-01T00:00:00Z","name_a2s":"Uncletopia | Sydney | 3 | All Maps","protocol":17,"map":"pl_barnblitz","folder":"tf","game":"Team Fortress","app_id":440,"player_count":0,"max_players":24,"Bots":0,"server_type":"Dedicated","server_os":"Linux","password":true,"vac":true,"version":"7757534","steam_id":85568392925194467,"keywords":["nocrits","nodmgspread","payload","uncletopia"],"game_id":440,"stv_port":27036,"stv_name":"Uncletopia | Sydney | 3 | All Maps | STV","players":null},{"server_id":396,"name":"Uncletopia | Sydney | 4 | All Maps","name_short":"syd-4","host":"syd-1.au.uncletopia.com","port":27045,"enabled":true,"region":"au","cc":"au","latitude":-33.865143,"longitude":151.2099,"reserved":0,"last_update":"0001-01-01T00:00:00Z","name_a2s":"Uncletopia | Sydney | 4 | All Maps","protocol":17,"map":"koth_badlands","folder":"tf","game":"Team Fortress","app_id":440,"player_count":0,"max_players":24,"Bots":0,"server_type":"Dedicated","server_os":"Linux","password":true,"vac":true,"version":"7757534","steam_id":85568392925397958,"keywords":["cp","nocrits","nodmgspread","uncletopia"],"game_id":440,"stv_port":27046,"stv_name":"Uncletopia | Sydney | 4 | All Maps | STV","players":null},{"server_id":58,"name":"Uncletopia | Sydney | 5 | Stopwatch Beta","name_short":"syd-5","host":"syd-1.au.uncletopia.com","port":27055,"enabled":true,"region":"au","cc":"au","latitude":-33.865143,"longitude":151.2099,"reserved":0,"last_update":"0001-01-01T00:00:00Z","name_a2s":"Uncletopia | Sydney | 5 | Stopwatch Beta","protocol":17,"map":"koth_highpass","folder":"tf","game":"Team Fortress","app_id":440,"player_count":0,"max_players":24,"Bots":0,"server_type":"Dedicated","server_os":"Linux","password":true,"vac":true,"version":"7757534","steam_id":85568392925397959,"keywords":["cp","nocrits","nodmgspread","uncletopia"],"game_id":440,"stv_port":27056,"stv_name":"Uncletopia | Sydney | 5 | Stopwatch Beta | STV","players":null},{"server_id":59,"name":"Uncletopia | Sydney | 6 | Community","name_short":"syd-6","host":"syd-1.au.uncletopia.com","port":27065,"enabled":true,"region":"au","cc":"au","latitude":-33.865143,"longitude":151.2099,"reserved":0,"last_update":"0001-01-01T00:00:00Z","name_a2s":"Uncletopia | Sydney | 6 | Community","protocol":17,"map":"workshop/koth_bagel_rc5.ugc2514036946","folder":"tf","game":"Team Fortress","app_id":440,"player_count":0,"max_players":24,"Bots":0,"server_type":"Dedicated","server_os":"Linux","password":true,"vac":true,"version":"7757534","steam_id":85568392925397960,"keywords":["cp","nocrits","nodmgspread","uncletopia"],"game_id":440,"stv_port":27066,"stv_name":"Uncletopia | Sydney | 6 | Community | STV","players":null},{"server_id":49,"name":"Uncletopia | Warsaw | 1 | All Maps","name_short":"waw-1","host":"waw-1.pl.uncletopia.com","port":27015,"enabled":true,"region":"eu","cc":"pl","latitude":52.2297,"longitude":21.017532,"reserved":0,"last_update":"0001-01-01T00:00:00Z","name_a2s":"","protocol":0,"map":"","folder":"","game":"","app_id":0,"player_count":0,"max_players":0,"Bots":0,"server_type":"","server_os":"","password":false,"vac":false,"version":"","steam_id":0,"keywords":null,"game_id":0,"stv_port":0,"stv_name":"","players":null},{"server_id":50,"name":"Uncletopia | Warsaw | 2 | All Maps","name_short":"waw-2","host":"waw-1.pl.uncletopia.com","port":27025,"enabled":true,"region":"eu","cc":"pl","latitude":52.2297,"longitude":21.017532,"reserved":0,"last_update":"0001-01-01T00:00:00Z","name_a2s":"Uncletopia | Warsaw | 2 | All Maps","protocol":17,"map":"pl_upward","folder":"tf","game":"Team Fortress","app_id":440,"player_count":12,"max_players":24,"Bots":0,"server_type":"Dedicated","server_os":"Linux","password":true,"vac":true,"version":"7757534","steam_id":85568392925397851,"keywords":["nocrits","nodmgspread","payload","uncletopia"],"game_id":440,"stv_port":27026,"stv_name":"Uncletopia | Warsaw | 2 | All Maps | STV","players":[{"user_id":48,"name":"Kumquat","steam_id":76561198200490386,"connected_time":787000000000,"state":"active","ping":91},{"user_id":49,"name":"Liten Jaevel","steam_id":76561198215876044,"connected_time":747000000000,"state":"active","ping":130},{"user_id":45,"name":"Lordware","steam_id":76561198022011299,"connected_time":861000000000,"state":"active","ping":95},{"user_id":50,"name":"Genie","steam_id":76561198113032929,"connected_time":535000000000,"state":"active","ping":74},{"user_id":51,"name":"nhstefanov","steam_id":76561198811811405,"connected_time":252000000000,"state":"active","ping":102},{"user_id":24,"name":"JUCK","steam_id":76561198148674342,"connected_time":2667000000000,"state":"active","ping":84},{"user_id":53,"name":"schorschili.bauer","steam_id":76561198060422037,"connected_time":68000000000,"state":"active","ping":76},{"user_id":22,"name":"vampgirl","steam_id":76561198026058502,"connected_time":2747000000000,"state":"active","ping":74},{"user_id":27,"name":"Rowan Atkinson","steam_id":76561199378865926,"connected_time":2601000000000,"state":"active","ping":96},{"user_id":28,"name":"Stock image basketball man","steam_id":76561198269549885,"connected_time":2600000000000,"state":"active","ping":70},{"user_id":29,"name":"VibeCheck","steam_id":76561198425961218,"connected_time":2598000000000,"state":"active","ping":121},{"user_id":31,"name":"sudo rm -rf /*","steam_id":76561199017901416,"connected_time":2538000000000,"state":"active","ping":104}]},{"server_id":51,"name":"Uncletopia | Warsaw | 3 | All Maps","name_short":"waw-3","host":"waw-1.pl.uncletopia.com","port":27035,"enabled":true,"region":"eu","cc":"pl","latitude":52.2297,"longitude":21.017532,"reserved":0,"last_update":"0001-01-01T00:00:00Z","name_a2s":"Uncletopia | Warsaw | 3 | All Maps","protocol":17,"map":"pl_barnblitz","folder":"tf","game":"Team Fortress","app_id":440,"player_count":1,"max_players":24,"Bots":0,"server_type":"Dedicated","server_os":"Linux","password":true,"vac":true,"version":"7757534","steam_id":85568392925397852,"keywords":["nocrits","nodmgspread","payload","uncletopia"],"game_id":440,"stv_port":27036,"stv_name":"Uncletopia | Warsaw | 3 | All Maps | STV","players":[{"user_id":3,"name":"kubakrason7322","steam_id":76561199105536808,"connected_time":24000000000,"state":"active","ping":47}]},{"server_id":52,"name":"Uncletopia | Warsaw | 4 | All Maps","name_short":"waw-4","host":"waw-1.pl.uncletopia.com","port":27045,"enabled":true,"region":"eu","cc":"pl","latitude":52.2297,"longitude":21.017532,"reserved":0,"last_update":"0001-01-01T00:00:00Z","name_a2s":"Uncletopia | Warsaw | 4 | All Maps","protocol":17,"map":"pl_snowycoast","folder":"tf","game":"Team Fortress","app_id":440,"player_count":0,"max_players":24,"Bots":0,"server_type":"Dedicated","server_os":"Linux","password":true,"vac":true,"version":"7757534","steam_id":85568392925397853,"keywords":["nocrits","nodmgspread","payload","uncletopia"],"game_id":440,"stv_port":27046,"stv_name":"Uncletopia | Warsaw | 4 | All Maps | STV","players":null},{"server_id":53,"name":"Uncletopia | Warsaw | 5 | Stopwatch Beta","name_short":"waw-5","host":"waw-1.pl.uncletopia.com","port":27055,"enabled":true,"region":"eu","cc":"pl","latitude":52.2297,"longitude":21.017532,"reserved":0,"last_update":"0001-01-01T00:00:00Z","name_a2s":"Uncletopia | Warsaw | 5 | Stopwatch Beta","protocol":17,"map":"pl_barnblitz","folder":"tf","game":"Team Fortress","app_id":440,"player_count":0,"max_players":24,"Bots":0,"server_type":"Dedicated","server_os":"Linux","password":true,"vac":true,"version":"7757534","steam_id":85568392925397854,"keywords":["nocrits","nodmgspread","payload","uncletopia"],"game_id":440,"stv_port":27056,"stv_name":"Uncletopia | Warsaw | 5 | Stopwatch Beta | STV","players":null},{"server_id":54,"name":"Uncletopia | Warsaw | 6 | Community","name_short":"waw-6","host":"waw-1.pl.uncletopia.com","port":27065,"enabled":true,"region":"eu","cc":"pl","latitude":52.2297,"longitude":21.017532,"reserved":0,"last_update":"0001-01-01T00:00:00Z","name_a2s":"Uncletopia | Warsaw | 6 | Community","protocol":17,"map":"pl_swiftwater_final1","folder":"tf","game":"Team Fortress","app_id":440,"player_count":0,"max_players":24,"Bots":0,"server_type":"Dedicated","server_os":"Linux","password":true,"vac":true,"version":"7757534","steam_id":85568392925397856,"keywords":["nocrits","nodmgspread","payload","uncletopia"],"game_id":440,"stv_port":27066,"stv_name":"Uncletopia | Warsaw | 6 | Community | STV","players":null}]}