{"status":true,"message":"","result":[{"server_id":9,"name":"Uncletopia | Atlanta | 1 | All Maps","name_short":"atl-1","host":"atl-1.us.uncletopia.com","port":27015,"enabled":true,"region":"us-east","cc":"us","latitude":33.753746,"longitude":-84.38633,"reserved":0,"last_update":"0001-01-01T00:00:00Z","name_a2s":"Uncletopia | Atlanta | 1 | All Maps","protocol":17,"map":"pl_barnblitz","folder":"tf","game":"Team Fortress","app_id":440,"player_count":24,"max_players":24,"Bots":0,"server_type":"Dedicated","server_os":"Linux","password":true,"vac":true,"version":"7961495","steam_id":85568392924469982,"keywords":["nocrits","nodmgspread","payload","uncletopia"],"game_id":440,"stv_port":27016,"stv_name":"Uncletopia | Atlanta | 1 | All Maps | STV","players":[{"user_id":108,"name":"under dale","steam_id":76561198081711979,"connected_time":1484000000000,"state":"active","ping":113},{"user_id":118,"name":"0","steam_id":76561199036099287,"connected_time":718000000000,"state":"active","ping":56},{"user_id":84,"name":"twitch.tv/Yoshi21 | TF2Pugs.com","steam_id":76561198002516729,"connected_time":3113000000000,"state":"active","ping":50},{"user_id":106,"name":"thomasdee725???","steam_id":76561199189526173,"connected_time":1496000000000,"state":"active","ping":60},{"user_id":103,"name":"Malarkey","steam_id":76561198844473584,"connected_time":1691000000000,"state":"active","ping":37},{"user_id":120,"name":"Clayhollywood","steam_id":76561198165494984,"connected_time":676000000000,"state":"active","ping":75},{"user_id":94,"name":"Pharaxer™","steam_id":76561198051236069,"connected_time":1845000000000,"state":"active","ping":153},{"user_id":115,"name":"Heathcliff","steam_id":76561198044288534,"connected_time":884000000000,"state":"active","ping":61},{"user_id":114,"name":"Ninja Steave","steam_id":76561197985884951,"connected_time":1147000000000,"state":"active","ping":79},{"user_id":35,"name":"Dixxy","steam_id":76561198010760019,"connected_time":5899000000000,"state":"active","ping":67},{"user_id":71,"name":"CoffeeZombi","steam_id":76561198172708053,"connected_time":4592000000000,"state":"active","ping":59},{"user_id":121,"name":"0T_Lake","steam_id":76561199503588427,"connected_time":538000000000,"state":"active","ping":89},{"user_id":113,"name":"Neptune˖⁺｡˚⋆˙♥","steam_id":76561199054203198,"connected_time":1248000000000,"state":"active","ping":68},{"user_id":80,"name":"lil hog","steam_id":76561199230929836,"connected_time":3477000000000,"state":"active","ping":92},{"user_id":89,"name":"Battery","steam_id":76561199053078059,"connected_time":2862000000000,"state":"active","ping":84},{"user_id":76,"name":"Witicka Dot Com","steam_id":76561198050361870,"connected_time":4163000000000,"state":"active","ping":61},{"user_id":110,"name":"Dr.Inkmix(femboy)","steam_id":76561198854070384,"connected_time":1475000000000,"state":"active","ping":116},{"user_id":124,"name":"SharpStabbyThing","steam_id":76561199059465912,"connected_time":54000000000,"state":"active","ping":60},{"user_id":72,"name":"HarryjusttHarry","steam_id":76561198982810452,"connected_time":4409000000000,"state":"active","ping":69},{"user_id":122,"name":"Zeetch","steam_id":76561198110579765,"connected_time":458000000000,"state":"active","ping":87},{"user_id":52,"name":"SHUSH nikoOS","steam_id":76561198180020521,"connected_time":5234000000000,"state":"active","ping":101},{"user_id":111,"name":"Kc","steam_id":76561198210734407,"connected_time":1471000000000,"state":"active","ping":54},{"user_id":100,"name":"Albino Jellyfish","steam_id":76561198208561097,"connected_time":1746000000000,"state":"active","ping":60},{"user_id":101,"name":"ATL1 | on my hunting trip","steam_id":76561198315341646,"connected_time":1739000000000,"state":"active","ping":65}]},{"server_id":104,"name":"Uncletopia | Atlanta | 2 | All Maps","name_short":"atl-2","host":"atl-1.us.uncletopia.com","port":27025,"enabled":true,"region":"us-east","cc":"us","latitude":33.753746,"longitude":-84.38633,"reserved":0,"last_update":"0001-01-01T00:00:00Z","name_a2s":"Uncletopia | Atlanta | 2 | All Maps","protocol":17,"map":"koth_cascade","folder":"tf","game":"Team Fortress","app_id":440,"player_count":0,"max_players":24,"Bots":0,"server_type":"Dedicated","server_os":"Linux","password":true,"vac":true,"version":"7961495","steam_id":85568392924469983,"keywords":["cp","nocrits","nodmgspread","uncletopia"],"game_id":440,"stv_port":27026,"stv_name":"Uncletopia | Atlanta | 2 | All Maps | STV","players":null},{"server_id":400,"name":"Uncletopia | Atlanta | 3 | Stopwatch","name_short":"atl-3","host":"atl-1.us.uncletopia.com","port":27035,"enabled":true,"region":"us-east","cc":"us","latitude":33.753746,"longitude":-84.38633,"reserved":0,"last_update":"0001-01-01T00:00:00Z","name_a2s":"Uncletopia | Atlanta | 3 | Stopwatch","protocol":17,"map":"cp_sunshine","folder":"tf","game":"Team Fortress","app_id":440,"player_count":0,"max_players":24,"Bots":0,"server_type":"Dedicated","server_os":"Linux","password":true,"vac":true,"version":"7961495","steam_id":85568392924515187,"keywords":["cp","nocrits","nodmgspread","uncletopia"],"game_id":440,"stv_port":27036,"stv_name":"Uncletopia | Atlanta | 3 | Stopwatch | STV","players":null},{"server_id":401,"name":"Uncletopia | Atlanta | 4 | Community","name_short":"atl-4","host":"atl-1.us.uncletopia.com","port":27045,"enabled":true,"region":"us-east","cc":"us","latitude":33.753746,"longitude":-84.38633,"reserved":0,"last_update":"0001-01-01T00:00:00Z","name_a2s":"Uncletopia | Atlanta | 4 | Community","protocol":17,"map":"workshop/koth_synthetic_rc6a.ugc1549817316","folder":"tf","game":"Team Fortress","app_id":440,"player_count":24,"max_players":24,"Bots":0,"server_type":"Dedicated","server_os":"Linux","password":true,"vac":true,"version":"7961495","steam_id":85568392924515188,"keywords":["cp","nocrits","nodmgspread","uncletopia"],"game_id":440,"stv_port":27046,"stv_name":"Uncletopia | Atlanta | 4 | Community | STV","players":[{"user_id":3,"name":"SnoweyPunk|has she headphon in","steam_id":76561199090324935,"connected_time":4964000000000,"state":"active","ping":50},{"user_id":61,"name":"Oni","steam_id":76561198112066584,"connected_time":848000000000,"state":"active","ping":51},{"user_id":72,"name":"most.epic.brony.2002","steam_id":76561198075510786,"connected_time":512000000000,"state":"active","ping":75},{"user_id":47,"name":"Junk","steam_id":76561198024382753,"connected_time":1402000000000,"state":"active","ping":57},{"user_id":38,"name":"A Dubious Egg","steam_id":76561199045537554,"connected_time":1952000000000,"state":"active","ping":56},{"user_id":44,"name":"Zhenaj","steam_id":76561199209016136,"connected_time":1452000000000,"state":"active","ping":76},{"user_id":88,"name":"Youngboy WNBA","steam_id":76561198171695729,"connected_time":195000000000,"state":"active","ping":75},{"user_id":74,"name":"The Nikocado Enjoyer","steam_id":76561198263154374,"connected_time":493000000000,"state":"active","ping":85},{"user_id":30,"name":"Herman Bavinck","steam_id":76561197993190216,"connected_time":2282000000000,"state":"active","ping":61},{"user_id":26,"name":"neet","steam_id":76561197968115168,"connected_time":2590000000000,"state":"active","ping":60},{"user_id":62,"name":"LANDOFTAWN","steam_id":76561199180861116,"connected_time":833000000000,"state":"active","ping":67},{"user_id":76,"name":"sock","steam_id":76561199117597830,"connected_time":485000000000,"state":"active","ping":51},{"user_id":81,"name":"rhsiegetank","steam_id":76561198359829118,"connected_time":405000000000,"state":"active","ping":101},{"user_id":82,"name":"Raptorsw0rd","steam_id":76561198042915697,"connected_time":376000000000,"state":"active","ping":62},{"user_id":78,"name":"d1nero","steam_id":76561198295578318,"connected_time":462000000000,"state":"active","ping":90},{"user_id":83,"name":"Brimstone Fury","steam_id":76561198359975690,"connected_time":374000000000,"state":"active","ping":45},{"user_id":87,"name":"bumrusherz","steam_id":76561198440658195,"connected_time":217000000000,"state":"active","ping":109},{"user_id":84,"name":"cyb3r","steam_id":76561198086851446,"connected_time":369000000000,"state":"active","ping":81},{"user_id":70,"name":"Serene Salamander","steam_id":76561198001094770,"connected_time":638000000000,"state":"active","ping":116},{"user_id":85,"name":"razuepic_","steam_id":76561199441039847,"connected_time":360000000000,"state":"active","ping":85},{"user_id":89,"name":"federal agent","steam_id":76561198136278172,"connected_time":15000000000,"state":"active","ping":82},{"user_id":68,"name":"TheTalentlessChicken","steam_id":76561198148390834,"connected_time":695000000000,"state":"active","ping":117},{"user_id":69,"name":"ambatukam","steam_id":76561198981135699,"connected_time":685000000000,"state":"active","ping":80},{"user_id":71,"name":"POPcornPlay89 | blw.tf","steam_id":76561198837437794,"connected_time":629000000000,"state":"active","ping":95}]},{"server_id":2,"name":"Uncletopia | Chicago | 1 | All Maps","name_short":"chi-1","host":"chi-1.us.uncletopia.com","port":27015,"enabled":true,"region":"us-central","cc":"us","latitude":41.881832,"longitude":-87.62318,"reserved":0,"last_update":"0001-01-01T00:00:00Z","name_a2s":"Uncletopia | Chicago | 1 | All Maps","protocol":17,"map":"pl_frontier_final","folder":"tf","game":"Team Fortress","app_id":440,"player_count":24,"max_players":24,"Bots":0,"server_type":"Dedicated","server_os":"Linux","password":true,"vac":true,"version":"7961495","steam_id":85568392924469984,"keywords":["nocrits","nodmgspread","payload","uncletopia"],"game_id":440,"stv_port":27016,"stv_name":"Uncletopia | Chicago | 1 | All Maps | STV","players":[{"user_id":231,"name":"icecxld","steam_id":76561198079018805,"connected_time":2116000000000,"state":"active","ping":56},{"user_id":243,"name":"Thingy","steam_id":76561198140161202,"connected_time":1789000000000,"state":"active","ping":74},{"user_id":252,"name":"kicks","steam_id":76561199228854923,"connected_time":1242000000000,"state":"active","ping":39},{"user_id":262,"name":"Dwanor","steam_id":76561198039571887,"connected_time":330000000000,"state":"active","ping":69},{"user_id":236,"name":"herb","steam_id":76561198185980055,"connected_time":1938000000000,"state":"active","ping":67},{"user_id":238,"name":"Ursus Ludius","steam_id":76561198025470722,"connected_time":1905000000000,"state":"active","ping":57},{"user_id":249,"name":"poot","steam_id":76561198095121758,"connected_time":1364000000000,"state":"active","ping":104},{"user_id":265,"name":"Firedust19","steam_id":76561198153238631,"connected_time":97000000000,"state":"active","ping":100},{"user_id":212,"name":"Poison","steam_id":76561198897783957,"connected_time":4091000000000,"state":"active","ping":135},{"user_id":211,"name":"Yam Jazzy Jim","steam_id":76561198000788950,"connected_time":4151000000000,"state":"active","ping":74},{"user_id":255,"name":"Bee","steam_id":76561198074681324,"connected_time":960000000000,"state":"active","ping":61},{"user_id":260,"name":"Rein","steam_id":76561198300340427,"connected_time":357000000000,"state":"active","ping":60},{"user_id":263,"name":"kyuss","steam_id":76561198194471251,"connected_time":239000000000,"state":"active","ping":60},{"user_id":158,"name":"Rode hard, put away wet","steam_id":76561198062764039,"connected_time":7181000000000,"state":"active","ping":58},{"user_id":170,"name":"Krypa","steam_id":76561198144307152,"connected_time":6635000000000,"state":"active","ping":44},{"user_id":261,"name":"c64guy","steam_id":76561198023022744,"connected_time":355000000000,"state":"active","ping":57},{"user_id":259,"name":"runescape legend","steam_id":76561198077791373,"connected_time":380000000000,"state":"active","ping":46},{"user_id":233,"name":"Chadmander","steam_id":76561197974136337,"connected_time":1986000000000,"state":"active","ping":45},{"user_id":221,"name":"Cyclops_672","steam_id":76561198080169497,"connected_time":3730000000000,"state":"active","ping":55},{"user_id":257,"name":"George McSteel","steam_id":76561198120365360,"connected_time":797000000000,"state":"active","ping":83},{"user_id":240,"name":"confield","steam_id":76561198004322265,"connected_time":1891000000000,"state":"active","ping":71},{"user_id":253,"name":"Pourpel","steam_id":76561198059125470,"connected_time":1220000000000,"state":"active","ping":66},{"user_id":264,"name":"DukeofNukem","steam_id":76561198044811526,"connected_time":168000000000,"state":"active","ping":86},{"user_id":245,"name":"Scribble","steam_id":76561198046115675,"connected_time":1780000000000,"state":"active","ping":66}]},{"server_id":106,"name":"Uncletopia | Chicago | 2 | All Maps","name_short":"chi-2","host":"chi-1.us.uncletopia.com","port":27025,"enabled":true,"region":"us-central","cc":"us","latitude":41.881832,"longitude":-87.62318,"reserved":0,"last_update":"0001-01-01T00:00:00Z","name_a2s":"Uncletopia | Chicago | 2 | All Maps","protocol":17,"map":"pl_swiftwater_final1","folder":"tf","game":"Team Fortress","app_id":440,"player_count":24,"max_players":24,"Bots":0,"server_type":"Dedicated","server_os":"Linux","password":true,"vac":true,"version":"7961495","steam_id":85568392924469985,"keywords":["nocrits","nodmgspread","payload","uncletopia"],"game_id":440,"stv_port":27026,"stv_name":"Uncletopia | Chicago | 2 | All Maps | STV","players":[{"user_id":355,"name":"Your dead Granmas yardloot","steam_id":76561198011675372,"connected_time":1040000000000,"state":"active","ping":93},{"user_id":305,"name":"Lae","steam_id":76561198185527278,"connected_time":5032000000000,"state":"active","ping":64},{"user_id":321,"name":"JohnFMX","steam_id":76561198175608097,"connected_time":4449000000000,"state":"active","ping":71},{"user_id":254,"name":"vv","steam_id":76561198134813102,"connected_time":7916000000000,"state":"active","ping":55},{"user_id":365,"name":"thejojomojo17","steam_id":76561199402929583,"connected_time":117000000000,"state":"active","ping":134},{"user_id":360,"name":"Provocator","steam_id":76561197961830410,"connected_time":456000000000,"state":"active","ping":60},{"user_id":361,"name":"Try Gardening","steam_id":76561198120311340,"connected_time":446000000000,"state":"active","ping":50},{"user_id":344,"name":"Letters","steam_id":76561198035508148,"connected_time":2312000000000,"state":"active","ping":62},{"user_id":342,"name":"beep","steam_id":76561199096448766,"connected_time":2380000000000,"state":"active","ping":71},{"user_id":345,"name":"subdromeda","steam_id":76561198884351860,"connected_time":2305000000000,"state":"active","ping":61},{"user_id":348,"name":"get scrongled, idiot","steam_id":76561198115874625,"connected_time":1810000000000,"state":"active","ping":69},{"user_id":329,"name":"Dokkibai","steam_id":76561198355935693,"connected_time":3932000000000,"state":"active","ping":58},{"user_id":224,"name":"The True Caniac","steam_id":76561198844434119,"connected_time":10071000000000,"state":"active","ping":104},{"user_id":304,"name":"TheGreythreat","steam_id":76561198021995538,"connected_time":5136000000000,"state":"active","ping":51},{"user_id":362,"name":"KingSteve42","steam_id":76561198409455888,"connected_time":430000000000,"state":"active","ping":101},{"user_id":327,"name":"Pigeon","steam_id":76561199232498885,"connected_time":4129000000000,"state":"active","ping":69},{"user_id":347,"name":"BurgerPizza","steam_id":76561198151256410,"connected_time":2128000000000,"state":"active","ping":142},{"user_id":356,"name":"Zonk","steam_id":76561198846893994,"connected_time":1036000000000,"state":"active","ping":83},{"user_id":332,"name":"mister slippery","steam_id":76561198057076267,"connected_time":3552000000000,"state":"active","ping":78},{"user_id":363,"name":"hamburger time","steam_id":76561198882758067,"connected_time":399000000000,"state":"active","ping":107},{"user_id":335,"name":"Paco ツ","steam_id":76561198084515903,"connected_time":3295000000000,"state":"active","ping":45},{"user_id":353,"name":"Quigi","steam_id":76561198144645874,"connected_time":1297000000000,"state":"active","ping":109},{"user_id":179,"name":"Lennu","steam_id":76561198060730154,"connected_time":13943000000000,"state":"active","ping":73},{"user_id":364,"name":"sedna24","steam_id":76561198310789338,"connected_time":214000000000,"state":"active","ping":105}]},{"server_id":402,"name":"Uncletopia | Chicago | 3 | All Maps","name_short":"chi-3","host":"chi-1.us.uncletopia.com","port":27035,"enabled":true,"region":"us-central","cc":"us","latitude":41.881832,"longitude":-87.62318,"reserved":0,"last_update":"0001-01-01T00:00:00Z","name_a2s":"Uncletopia | Chicago | 3 | All Maps","protocol":17,"map":"ctf_landfall","folder":"tf","game":"Team Fortress","app_id":440,"player_count":24,"max_players":24,"Bots":0,"server_type":"Dedicated","server_os":"Linux","password":true,"vac":true,"version":"7961495","steam_id":85568392924515191,"keywords":["ctf","nocrits","nodmgspread","uncletopia"],"game_id":440,"stv_port":27036,"stv_name":"Uncletopia | Chicago | 3 | All Maps | STV","players":[{"user_id":99,"name":"broomstick","steam_id":76561198302171600,"connected_time":8350000000000,"state":"active","ping":71},{"user_id":190,"name":"Load","steam_id":76561198135643594,"connected_time":1760000000000,"state":"active","ping":65},{"user_id":170,"name":"ol' musty","steam_id":76561198081075865,"connected_time":2637000000000,"state":"active","ping":60},{"user_id":172,"name":"Its Dr.Stoned","steam_id":76561198079622791,"connected_time":2290000000000,"state":"active","ping":75},{"user_id":121,"name":"Raizen","steam_id":76561199092445367,"connected_time":5885000000000,"state":"active","ping":51},{"user_id":203,"name":"♡ G r a m p s ♡","steam_id":76561199126416510,"connected_time":755000000000,"state":"active","ping":73},{"user_id":180,"name":"Demon's Eye","steam_id":76561198190614021,"connected_time":1973000000000,"state":"active","ping":80},{"user_id":209,"name":"Fuyutake","steam_id":76561199123206779,"connected_time":57000000000,"state":"active","ping":47},{"user_id":157,"name":"Mirro","steam_id":76561198042182392,"connected_time":3804000000000,"state":"active","ping":51},{"user_id":200,"name":"MeddyJed","steam_id":76561198018824031,"connected_time":841000000000,"state":"active","ping":46},{"user_id":142,"name":"Leo","steam_id":76561198302526057,"connected_time":4763000000000,"state":"active","ping":70},{"user_id":177,"name":"MARIOPARTYDSFAN","steam_id":76561198872122117,"connected_time":2015000000000,"state":"active","ping":77},{"user_id":162,"name":"Pedro","steam_id":76561198007530393,"connected_time":3713000000000,"state":"active","ping":57},{"user_id":90,"name":"opossum","steam_id":76561198148905570,"connected_time":9472000000000,"state":"active","ping":73},{"user_id":101,"name":"Nathan","steam_id":76561198127924646,"connected_time":8309000000000,"state":"active","ping":77},{"user_id":178,"name":"German Prick","steam_id":76561198181410637,"connected_time":2008000000000,"state":"active","ping":148},{"user_id":197,"name":"Huntpk","steam_id":76561198340591674,"connected_time":938000000000,"state":"active","ping":41},{"user_id":205,"name":"LerN","steam_id":76561198083463877,"connected_time":631000000000,"state":"active","ping":52},{"user_id":206,"name":"15 INCH TGIRL SCHLONG","steam_id":76561198122059018,"connected_time":598000000000,"state":"active","ping":50},{"user_id":198,"name":"The No Longer Mute","steam_id":76561198078359985,"connected_time":866000000000,"state":"active","ping":47},{"user_id":208,"name":"Salt","steam_id":76561198418001135,"connected_time":152000000000,"state":"active","ping":64},{"user_id":194,"name":"monky (funky)","steam_id":76561198350027075,"connected_time":1196000000000,"state":"active","ping":59},{"user_id":207,"name":"DaPiͯnkiͦ̚e","steam_id":76561198022362795,"connected_time":183000000000,"state":"active","ping":62},{"user_id":202,"name":"Rornir","steam_id":76561198081829615,"connected_time":804000000000,"state":"active","ping":44}]},{"server_id":403,"name":"Uncletopia | Chicago | 4 | All Maps","name_short":"chi-4","host":"chi-1.us.uncletopia.com","port":27045,"enabled":true,"region":"us-central","cc":"us","latitude":41.881832,"longitude":-87.62318,"reserved":0,"last_update":"0001-01-01T00:00:00Z","name_a2s":"Uncletopia | Chicago | 4 | All Maps","protocol":17,"map":"pl_snowycoast","folder":"tf","game":"Team Fortress","app_id":440,"player_count":0,"max_players":24,"Bots":0,"server_type":"Dedicated","server_os":"Linux","password":true,"vac":true,"version":"7961495","steam_id":85568392924515193,"keywords":["nocrits","nodmgspread","payload","uncletopia"],"game_id":440,"stv_port":27046,"stv_name":"Uncletopia | Chicago | 4 | All Maps | STV","players":null},{"server_id":36,"name":"Uncletopia | Chicago | 5 | All Maps","name_short":"chi-5","host":"chi-2.us.uncletopia.com","port":27015,"enabled":true,"region":"us-central","cc":"us","latitude":41.881832,"longitude":-87.62318,"reserved":0,"last_update":"0001-01-01T00:00:00Z","name_a2s":"Uncletopia | Chicago | 5 | All Maps","protocol":17,"map":"cp_gorge","folder":"tf","game":"Team Fortress","app_id":440,"player_count":0,"max_players":24,"Bots":0,"server_type":"Dedicated","server_os":"Linux","password":true,"vac":true,"version":"7961495","steam_id":85568392924866362,"keywords":["cp","nocrits","nodmgspread","uncletopia"],"game_id":440,"stv_port":27016,"stv_name":"Uncletopia | Chicago | 5 | All Maps | STV","players":null},{"server_id":37,"name":"Uncletopia | Chicago | 6 | All Maps","name_short":"chi-6","host":"chi-2.us.uncletopia.com","port":27025,"enabled":true,"region":"us-central","cc":"us","latitude":41.881832,"longitude":-87.62318,"reserved":0,"last_update":"0001-01-01T00:00:00Z","name_a2s":"Uncletopia | Chicago | 6 | All Maps","protocol":17,"map":"koth_highpass","folder":"tf","game":"Team Fortress","app_id":440,"player_count":0,"max_players":24,"Bots":0,"server_type":"Dedicated","server_os":"Linux","password":true,"vac":true,"version":"7961495","steam_id":85568392924866363,"keywords":["cp","nocrits","nodmgspread","uncletopia"],"game_id":440,"stv_port":27026,"stv_name":"Uncletopia | Chicago | 6 | All Maps | STV","players":null},{"server_id":38,"name":"Uncletopia | Chicago | 7 | Stopwatch","name_short":"chi-7","host":"chi-2.us.uncletopia.com","port":27035,"enabled":true,"region":"us-central","cc":"us","latitude":41.881832,"longitude":-87.62318,"reserved":0,"last_update":"0001-01-01T00:00:00Z","name_a2s":"Uncletopia | Chicago | 7 | Stopwatch","protocol":17,"map":"cp_snakewater_final1","folder":"tf","game":"Team Fortress","app_id":440,"player_count":0,"max_players":24,"Bots":0,"server_type":"Dedicated","server_os":"Linux","password":true,"vac":true,"version":"7961495","steam_id":85568392924866364,"keywords":["cp","nocrits","nodmgspread","uncletopia"],"game_id":440,"stv_port":27036,"stv_name":"Uncletopia | Chicago | 7 | Stopwatch | STV","players":null},{"server_id":39,"name":"Uncletopia | Chicago | 8 | Community","name_short":"chi-8","host":"chi-2.us.uncletopia.com","port":27045,"enabled":true,"region":"us-central","cc":"us","latitude":41.881832,"longitude":-87.62318,"reserved":0,"last_update":"0001-01-01T00:00:00Z","name_a2s":"Uncletopia | Chicago | 8 | Community","protocol":17,"map":"workshop/koth_slaughter_rc1.ugc1712845210","folder":"tf","game":"Team Fortress","app_id":440,"player_count":0,"max_players":24,"Bots":0,"server_type":"Dedicated","server_os":"Linux","password":true,"vac":true,"version":"7961495","steam_id":85568392924866365,"keywords":["cp","nocrits","nodmgspread","uncletopia"],"game_id":440,"stv_port":27046,"stv_name":"Uncletopia | Chicago | 8 | Community | STV","players":null},{"server_id":8,"name":"Uncletopia | Dallas | 1 | All Maps","name_short":"dal-1","host":"dal-1.us.uncletopia.com","port":27015,"enabled":true,"region":"us-central","cc":"us","latitude":32.779167,"longitude":-96.80889,"reserved":0,"last_update":"0001-01-01T00:00:00Z","name_a2s":"Uncletopia | Dallas | 1 | All Maps","protocol":17,"map":"pl_borneo","folder":"tf","game":"Team Fortress","app_id":440,"player_count":24,"max_players":24,"Bots":0,"server_type":"Dedicated","server_os":"Linux","password":true,"vac":true,"version":"7961495","steam_id":85568392924469986,"keywords":["nocrits","nodmgspread","payload","uncletopia"],"game_id":440,"stv_port":27016,"stv_name":"Uncletopia | Dallas | 1 | All Maps | STV","players":[{"user_id":145,"name":"Gelliteration","steam_id":76561198107233070,"connected_time":86000000000,"state":"active","ping":47},{"user_id":92,"name":"E4Estrogen","steam_id":76561198085813708,"connected_time":3609000000000,"state":"active","ping":58},{"user_id":9,"name":"thezranger","steam_id":76561198454086460,"connected_time":8692000000000,"state":"active","ping":65},{"user_id":141,"name":"Dude Time","steam_id":76561198269551204,"connected_time":280000000000,"state":"active","ping":46},{"user_id":144,"name":"Admiral Angry","steam_id":76561198058199206,"connected_time":251000000000,"state":"active","ping":81},{"user_id":124,"name":"Liinde","steam_id":76561198140837602,"connected_time":1998000000000,"state":"active","ping":64},{"user_id":101,"name":"Jt","steam_id":76561198049853548,"connected_time":3252000000000,"state":"active","ping":83},{"user_id":108,"name":"Soulman","steam_id":76561199012664006,"connected_time":2552000000000,"state":"active","ping":119},{"user_id":139,"name":"captainspatklz","steam_id":76561198432167270,"connected_time":1029000000000,"state":"active","ping":68},{"user_id":125,"name":"An Engineer","steam_id":76561198110381643,"connected_time":1996000000000,"state":"active","ping":56},{"user_id":18,"name":"Kk","steam_id":76561198197211135,"connected_time":8150000000000,"state":"active","ping":58},{"user_id":127,"name":"effy","steam_id":76561198087137066,"connected_time":1577000000000,"state":"active","ping":52},{"user_id":128,"name":"Dr. Bobo","steam_id":76561198271696761,"connected_time":1399000000000,"state":"active","ping":45},{"user_id":21,"name":"FearMeisterMedusa","steam_id":76561198330311673,"connected_time":8045000000000,"state":"active","ping":67},{"user_id":140,"name":"Certified Hood Classic","steam_id":76561199086159354,"connected_time":803000000000,"state":"active","ping":45},{"user_id":142,"name":"DethSQRL","steam_id":76561199149628610,"connected_time":277000000000,"state":"active","ping":77},{"user_id":131,"name":"Perfume Department","steam_id":76561198128299594,"connected_time":1337000000000,"state":"active","ping":91},{"user_id":111,"name":"TheGrassMan (He/Him)","steam_id":76561198118984048,"connected_time":2446000000000,"state":"active","ping":77},{"user_id":105,"name":"sufzu","steam_id":76561198112186325,"connected_time":2934000000000,"state":"active","ping":55},{"user_id":138,"name":"locked cathode tube","steam_id":76561198085044565,"connected_time":1058000000000,"state":"active","ping":90},{"user_id":137,"name":"Serenue","steam_id":76561199040361250,"connected_time":1091000000000,"state":"active","ping":106},{"user_id":143,"name":"Billy Mays","steam_id":76561197998876324,"connected_time":270000000000,"state":"active","ping":71},{"user_id":146,"name":"Traceback","steam_id":76561197993212340,"connected_time":2000000000,"state":"spawning","ping":66},{"user_id":114,"name":"30-50 feral hogs","steam_id":76561198073587145,"connected_time":2416000000000,"state":"active","ping":71}]},{"server_id":108,"name":"Uncletopia | Dallas | 2 | All Maps","name_short":"dal-2","host":"dal-1.us.uncletopia.com","port":27025,"enabled":true,"region":"us-central","cc":"us","latitude":32.779167,"longitude":-96.80889,"reserved":0,"last_update":"0001-01-01T00:00:00Z","name_a2s":"Uncletopia | Dallas | 2 | All Maps","protocol":17,"map":"pl_snowycoast","folder":"tf","game":"Team Fortress","app_id":440,"player_count":0,"max_players":24,"Bots":0,"server_type":"Dedicated","server_os":"Linux","password":true,"vac":true,"version":"7961495","steam_id":85568392924469988,"keywords":["nocrits","nodmgspread","payload","uncletopia"],"game_id":440,"stv_port":27026,"stv_name":"Uncletopia | Dallas | 2 | All Maps | STV","players":null},{"server_id":404,"name":"Uncletopia | Dallas | 3 | All Maps","name_short":"dal-3","host":"dal-1.us.uncletopia.com","port":27035,"enabled":true,"region":"us-central","cc":"us","latitude":32.779167,"longitude":-96.80889,"reserved":0,"last_update":"0001-01-01T00:00:00Z","name_a2s":"Uncletopia | Dallas | 3 | All Maps","protocol":17,"map":"pl_snowycoast","folder":"tf","game":"Team Fortress","app_id":440,"player_count":24,"max_players":24,"Bots":0,"server_type":"Dedicated","server_os":"Linux","password":true,"vac":true,"version":"7961495","steam_id":85568392924515219,"keywords":["nocrits","nodmgspread","payload","uncletopia"],"game_id":440,"stv_port":27036,"stv_name":"Uncletopia | Dallas | 3 | All Maps | STV","players":[{"user_id":156,"name":"Natsuki the Scunt","steam_id":76561199175922684,"connected_time":1121000000000,"state":"active","ping":103},{"user_id":86,"name":"LLLFarm2012","steam_id":76561199199786915,"connected_time":6776000000000,"state":"active","ping":80},{"user_id":162,"name":"ルナ・ノー・スラッツ","steam_id":76561198197135971,"connected_time":592000000000,"state":"active","ping":84},{"user_id":169,"name":"Genius Meme","steam_id":76561198162911254,"connected_time":334000000000,"state":"active","ping":72},{"user_id":165,"name":"Lord Scrubling","steam_id":76561198263744445,"connected_time":517000000000,"state":"active","ping":51},{"user_id":150,"name":"Jaflampe","steam_id":76561198175827647,"connected_time":1577000000000,"state":"active","ping":67},{"user_id":143,"name":"jdm","steam_id":76561199497603020,"connected_time":2092000000000,"state":"active","ping":75},{"user_id":172,"name":"Spiff","steam_id":76561198253574333,"connected_time":63000000000,"state":"active","ping":74},{"user_id":130,"name":"diip","steam_id":76561198345828288,"connected_time":3297000000000,"state":"active","ping":79},{"user_id":139,"name":"radicalPolio","steam_id":76561197961561855,"connected_time":2187000000000,"state":"active","ping":50},{"user_id":144,"name":"Geneva Con 2021","steam_id":76561198112827218,"connected_time":2037000000000,"state":"active","ping":80},{"user_id":163,"name":"Not A Rapper","steam_id":76561198077523537,"connected_time":561000000000,"state":"active","ping":103},{"user_id":134,"name":"Little Nipples","steam_id":76561198060502578,"connected_time":2816000000000,"state":"active","ping":80},{"user_id":151,"name":"DWW","steam_id":76561198132274074,"connected_time":1571000000000,"state":"active","ping":99},{"user_id":166,"name":"Ryoko","steam_id":76561198084725087,"connected_time":515000000000,"state":"active","ping":96},{"user_id":157,"name":"Dongus","steam_id":76561197979056451,"connected_time":1107000000000,"state":"active","ping":102},{"user_id":147,"name":"BOTH | Sunshine","steam_id":76561198885528098,"connected_time":1977000000000,"state":"active","ping":104},{"user_id":135,"name":"DMM","steam_id":76561198065426171,"connected_time":2532000000000,"state":"active","ping":60},{"user_id":41,"name":"Jango","steam_id":76561198084589742,"connected_time":9837000000000,"state":"active","ping":76},{"user_id":164,"name":"「Shooting Stars」","steam_id":76561199074070799,"connected_time":549000000000,"state":"active","ping":68},{"user_id":152,"name":"(TWoN Adric)","steam_id":76561197999304024,"connected_time":1548000000000,"state":"active","ping":47},{"user_id":171,"name":"BigBangBoom","steam_id":76561198049599817,"connected_time":248000000000,"state":"active","ping":97},{"user_id":158,"name":"Elio De Angelis","steam_id":76561198068672882,"connected_time":1068000000000,"state":"active","ping":91},{"user_id":170,"name":"skullface","steam_id":76561198353704776,"connected_time":290000000000,"state":"active","ping":45}]},{"server_id":405,"name":"Uncletopia | Dallas | 4 | Community","name_short":"dal-4","host":"dal-1.us.uncletopia.com","port":27045,"enabled":true,"region":"us-central","cc":"us","latitude":32.779167,"longitude":-96.80889,"reserved":0,"last_update":"0001-01-01T00:00:00Z","name_a2s":"Uncletopia | Dallas | 4 | Community","protocol":17,"map":"workshop/koth_synthetic_rc6a.ugc1549817316","folder":"tf","game":"Team Fortress","app_id":440,"player_count":0,"max_players":24,"Bots":0,"server_type":"Dedicated","server_os":"Linux","password":true,"vac":true,"version":"7961495","steam_id":85568392924515220,"keywords":["cp","nocrits","nodmgspread","uncletopia"],"game_id":440,"stv_port":27046,"stv_name":"Uncletopia | Dallas | 4 | Community | STV","players":null},{"server_id":5,"name":"Uncletopia | Frankfurt | 1 | All Maps","name_short":"frk-1","host":"frk-1.de.uncletopia.com","port":27015,"enabled":true,"region":"eu","cc":"de","latitude":50.110924,"longitude":8.682127,"reserved":0,"last_update":"0001-01-01T00:00:00Z","name_a2s":"Uncletopia | Frankfurt | 1 | All Maps","protocol":17,"map":"pl_snowycoast","folder":"tf","game":"Team Fortress","app_id":440,"player_count":24,"max_players":24,"Bots":0,"server_type":"Dedicated","server_os":"Linux","password":true,"vac":true,"version":"7961495","steam_id":85568392924469989,"keywords":["nocrits","nodmgspread","payload","uncletopia"],"game_id":440,"stv_port":27016,"stv_name":"Uncletopia | Frankfurt | 1 | All Maps | STV","players":[{"user_id":812,"name":"Groose","steam_id":76561198261094295,"connected_time":1281000000000,"state":"active","ping":61},{"user_id":769,"name":"giclure :;","steam_id":76561197986362828,"connected_time":4063000000000,"state":"active","ping":49},{"user_id":783,"name":"info","steam_id":76561198119354946,"connected_time":3355000000000,"state":"active","ping":43},{"user_id":834,"name":"f l я n","steam_id":76561198079595755,"connected_time":398000000000,"state":"active","ping":45},{"user_id":835,"name":"Tanner Jarring","steam_id":76561198172024365,"connected_time":299000000000,"state":"active","ping":141},{"user_id":818,"name":"Cheese","steam_id":76561199173251770,"connected_time":936000000000,"state":"active","ping":51},{"user_id":739,"name":"Decadence","steam_id":76561198206829379,"connected_time":5557000000000,"state":"active","ping":65},{"user_id":832,"name":"Solid Snake holding a pepsi","steam_id":76561198348396493,"connected_time":422000000000,"state":"active","ping":59},{"user_id":827,"name":"man","steam_id":76561198060530483,"connected_time":557000000000,"state":"active","ping":72},{"user_id":791,"name":"lokilolq","steam_id":76561198132316458,"connected_time":2809000000000,"state":"active","ping":98},{"user_id":806,"name":"romov","steam_id":76561199182288871,"connected_time":1764000000000,"state":"active","ping":97},{"user_id":798,"name":"quickfast","steam_id":76561199438900919,"connected_time":2417000000000,"state":"active","ping":60},{"user_id":814,"name":"Carl","steam_id":76561198045638738,"connected_time":1070000000000,"state":"active","ping":59},{"user_id":799,"name":"Toyota","steam_id":76561198343882630,"connected_time":2405000000000,"state":"active","ping":84},{"user_id":828,"name":"mark.pridalko","steam_id":76561199178348857,"connected_time":543000000000,"state":"active","ping":79},{"user_id":833,"name":"Malkuth","steam_id":76561198058567662,"connected_time":406000000000,"state":"active","ping":74},{"user_id":763,"name":"Towercat","steam_id":76561198013141793,"connected_time":4802000000000,"state":"active","ping":58},{"user_id":819,"name":"cheriberry","steam_id":76561198093577036,"connected_time":930000000000,"state":"active","ping":60},{"user_id":820,"name":"faccboi","steam_id":76561198137816642,"connected_time":917000000000,"state":"active","ping":59},{"user_id":821,"name":"Divine","steam_id":76561198430207251,"connected_time":891000000000,"state":"active","ping":121},{"user_id":754,"name":"Jone","steam_id":76561198955248352,"connected_time":5159000000000,"state":"active","ping":74},{"user_id":808,"name":"Tupac alive in serbia","steam_id":76561198010978989,"connected_time":1556000000000,"state":"active","ping":62},{"user_id":830,"name":"Lazor","steam_id":76561198310376869,"connected_time":489000000000,"state":"active","ping":113},{"user_id":825,"name":"willus212","steam_id":76561199182615246,"connected_time":632000000000,"state":"active","ping":73}]},{"server_id":110,"name":"Uncletopia | Frankfurt | 2 | All Maps","name_short":"frk-2","host":"frk-1.de.uncletopia.com","port":27025,"enabled":true,"region":"eu","cc":"de","latitude":50.110924,"longitude":8.682127,"reserved":0,"last_update":"0001-01-01T00:00:00Z","name_a2s":"Uncletopia | Frankfurt | 2 | All Maps","protocol":17,"map":"pl_badwater","folder":"tf","game":"Team Fortress","app_id":440,"player_count":20,"max_players":24,"Bots":0,"server_type":"Dedicated","server_os":"Linux","password":true,"vac":true,"version":"7961495","steam_id":85568392924469990,"keywords":["nocrits","nodmgspread","payload","uncletopia"],"game_id":440,"stv_port":27026,"stv_name":"Uncletopia | Frankfurt | 2 | All Maps | STV","players":[{"user_id":486,"name":"Mortar 13","steam_id":76561198056038625,"connected_time":1400000000000,"state":"active","ping":54},{"user_id":466,"name":"FlameEmerald","steam_id":76561198407696514,"connected_time":2120000000000,"state":"active","ping":152},{"user_id":483,"name":"not poggers","steam_id":76561198237631092,"connected_time":1588000000000,"state":"active","ping":75},{"user_id":495,"name":"Zulu","steam_id":76561198043831707,"connected_time":62000000000,"state":"active","ping":58},{"user_id":499,"name":"gavoTime","steam_id":76561198316499182,"connected_time":34000000000,"state":"active","ping":143},{"user_id":419,"name":"Begom","steam_id":76561199093369711,"connected_time":5782000000000,"state":"spawning","ping":91},{"user_id":392,"name":"Peekatew","steam_id":76561198024712439,"connected_time":6697000000000,"state":"active","ping":44},{"user_id":497,"name":"(1)Deez Nuts","steam_id":76561198832925822,"connected_time":47000000000,"state":"active","ping":64},{"user_id":484,"name":"Deez nuts","steam_id":76561199429562693,"connected_time":1530000000000,"state":"active","ping":65},{"user_id":489,"name":"Butt","steam_id":76561198115496457,"connected_time":1100000000000,"state":"active","ping":72},{"user_id":487,"name":"alice","steam_id":76561198269200388,"connected_time":1329000000000,"state":"active","ping":74},{"user_id":498,"name":"not a bot","steam_id":76561199036865103,"connected_time":44000000000,"state":"active","ping":89},{"user_id":479,"name":"GüçlüAYraNsAĞ","steam_id":76561199184988396,"connected_time":1749000000000,"state":"active","ping":100},{"user_id":494,"name":"Guru","steam_id":76561198093853069,"connected_time":72000000000,"state":"active","ping":48},{"user_id":422,"name":"Alyosha","steam_id":76561198032771167,"connected_time":5717000000000,"state":"active","ping":70},{"user_id":436,"name":"zdr","steam_id":76561198191074514,"connected_time":4017000000000,"state":"active","ping":60},{"user_id":476,"name":"Uganda Warrior","steam_id":76561198120502313,"connected_time":1900000000000,"state":"active","ping":57},{"user_id":440,"name":"Gordon Birdman","steam_id":76561198013382324,"connected_time":3713000000000,"state":"active","ping":65},{"user_id":491,"name":"efffcraft","steam_id":76561198306317166,"connected_time":873000000000,"state":"active","ping":90},{"user_id":454,"name":"HIGHER THE KING OF THE SKY","steam_id":76561198173218318,"connected_time":2990000000000,"state":"active","ping":48}]},{"server_id":308,"name":"Uncletopia | Frankfurt | 3 | All Maps","name_short":"frk-3","host":"frk-1.de.uncletopia.com","port":27035,"enabled":true,"region":"eu","cc":"de","latitude":50.110924,"longitude":8.682127,"reserved":0,"last_update":"0001-01-01T00:00:00Z","name_a2s":"Uncletopia | Frankfurt | 3 | All Maps","protocol":17,"map":"pl_frontier_final","folder":"tf","game":"Team Fortress","app_id":440,"player_count":24,"max_players":24,"Bots":0,"server_type":"Dedicated","server_os":"Linux","password":true,"vac":true,"version":"7961495","steam_id":85568392924504274,"keywords":["nocrits","nodmgspread","payload","uncletopia"],"game_id":440,"stv_port":27036,"stv_name":"Uncletopia | Frankfurt | 3 | All Maps | STV","players":[{"user_id":341,"name":"Mike","steam_id":76561198228455736,"connected_time":1965000000000,"state":"active","ping":72},{"user_id":367,"name":"UpsetPuppy11","steam_id":76561199060288033,"connected_time":332000000000,"state":"active","ping":67},{"user_id":366,"name":"Hóňa","steam_id":76561198096006081,"connected_time":416000000000,"state":"active","ping":58},{"user_id":328,"name":"kingdead4","steam_id":76561198079576655,"connected_time":2684000000000,"state":"active","ping":52},{"user_id":317,"name":"VolcanicArts","steam_id":76561198063453246,"connected_time":4002000000000,"state":"active","ping":71},{"user_id":343,"name":"Drojdier","steam_id":76561198080789836,"connected_time":1813000000000,"state":"active","ping":64},{"user_id":355,"name":"Mr Season","steam_id":76561198014005263,"connected_time":1498000000000,"state":"active","ping":102},{"user_id":368,"name":"Waazard","steam_id":76561198383923159,"connected_time":291000000000,"state":"active","ping":74},{"user_id":345,"name":"Cabbage","steam_id":76561198337155653,"connected_time":1798000000000,"state":"active","ping":50},{"user_id":363,"name":"monocle chicken","steam_id":76561199020106029,"connected_time":880000000000,"state":"active","ping":77},{"user_id":364,"name":"♂ Dungeon Master ♂","steam_id":76561198106441033,"connected_time":658000000000,"state":"active","ping":95},{"user_id":369,"name":"Dan","steam_id":76561198438672658,"connected_time":275000000000,"state":"active","ping":64},{"user_id":308,"name":"Murovelho","steam_id":76561198835081622,"connected_time":4548000000000,"state":"active","ping":106},{"user_id":348,"name":"Krefa12","steam_id":76561198268375393,"connected_time":1737000000000,"state":"active","ping":76},{"user_id":325,"name":"RAT BASTARD","steam_id":76561199195985387,"connected_time":2848000000000,"state":"active","ping":75},{"user_id":370,"name":"3L","steam_id":76561198007208996,"connected_time":267000000000,"state":"active","ping":44},{"user_id":377,"name":"Roodewald","steam_id":76561198077039634,"connected_time":156000000000,"state":"active","ping":105},{"user_id":372,"name":"Average meme enjoyer","steam_id":76561199087566663,"connected_time":242000000000,"state":"active","ping":82},{"user_id":376,"name":"Aeinzalot","steam_id":76561198195288449,"connected_time":214000000000,"state":"active","ping":52},{"user_id":374,"name":"Flying skyhigh","steam_id":76561198372971096,"connected_time":227000000000,"state":"active","ping":76},{"user_id":361,"name":"mr.resetti","steam_id":76561198974520642,"connected_time":1134000000000,"state":"active","ping":57},{"user_id":358,"name":"AI | Davidoscki","steam_id":76561198129166046,"connected_time":1419000000000,"state":"active","ping":83},{"user_id":375,"name":"System","steam_id":76561199442503973,"connected_time":225000000000,"state":"active","ping":54},{"user_id":340,"name":"Mr.Duck","steam_id":76561197983710667,"connected_time":2011000000000,"state":"active","ping":81}]},{"server_id":309,"name":"Uncletopia | Frankfurt | 4 | All Maps","name_short":"frk-4","host":"frk-1.de.uncletopia.com","port":27045,"enabled":true,"region":"eu","cc":"de","latitude":50.110924,"longitude":8.682127,"reserved":0,"last_update":"0001-01-01T00:00:00Z","name_a2s":"Uncletopia | Frankfurt | 4 | All Maps","protocol":17,"map":"pl_thundermountain","folder":"tf","game":"Team Fortress","app_id":440,"player_count":24,"max_players":24,"Bots":0,"server_type":"Dedicated","server_os":"Linux","password":true,"vac":true,"version":"7961495","steam_id":85568392924504275,"keywords":["nocrits","nodmgspread","payload","uncletopia"],"game_id":440,"stv_port":27046,"stv_name":"Uncletopia | Frankfurt | 4 | All Maps | STV","players":[{"user_id":186,"name":"Spike","steam_id":76561197994537515,"connected_time":4108000000000,"state":"active","ping":45},{"user_id":225,"name":"kelm","steam_id":76561198027166144,"connected_time":1908000000000,"state":"active","ping":81},{"user_id":249,"name":"$799 Sak of Cheese","steam_id":76561198066642220,"connected_time":469000000000,"state":"active","ping":62},{"user_id":245,"name":"Constantine","steam_id":76561198095169410,"connected_time":619000000000,"state":"active","ping":58},{"user_id":206,"name":"Mr. Culture","steam_id":76561199073315428,"connected_time":3149000000000,"state":"active","ping":71},{"user_id":223,"name":"boopy","steam_id":76561199030133025,"connected_time":2275000000000,"state":"active","ping":52},{"user_id":236,"name":"Imam borbgonal","steam_id":76561199087868591,"connected_time":1263000000000,"state":"active","ping":135},{"user_id":242,"name":"HayLeX","steam_id":76561198130997343,"connected_time":996000000000,"state":"active","ping":75},{"user_id":224,"name":"Karabast","steam_id":76561198041208332,"connected_time":1995000000000,"state":"active","ping":64},{"user_id":247,"name":"zilaz","steam_id":76561198416395887,"connected_time":514000000000,"state":"active","ping":49},{"user_id":243,"name":"Acanda","steam_id":76561198123246537,"connected_time":872000000000,"state":"active","ping":45},{"user_id":218,"name":"cl","steam_id":76561199436640904,"connected_time":2507000000000,"state":"active","ping":74},{"user_id":209,"name":"dog?","steam_id":76561199232839385,"connected_time":3116000000000,"state":"active","ping":92},{"user_id":241,"name":"kilo","steam_id":76561198015641339,"connected_time":1037000000000,"state":"active","ping":68},{"user_id":222,"name":"Fancy Raccoon","steam_id":76561198176331663,"connected_time":2340000000000,"state":"active","ping":49},{"user_id":244,"name":"kunykunyk","steam_id":76561198839391482,"connected_time":732000000000,"state":"active","ping":71},{"user_id":253,"name":"SaltyCupcakes","steam_id":76561198256386417,"connected_time":133000000000,"state":"active","ping":58},{"user_id":219,"name":"gionnibravo12","steam_id":76561199500492557,"connected_time":2502000000000,"state":"active","ping":69},{"user_id":204,"name":"dexter","steam_id":76561198937297906,"connected_time":3254000000000,"state":"active","ping":81},{"user_id":193,"name":"6mwtd","steam_id":76561198038583386,"connected_time":3775000000000,"state":"active","ping":53},{"user_id":177,"name":"ELDEN RING","steam_id":76561198065859753,"connected_time":4832000000000,"state":"active","ping":54},{"user_id":233,"name":"Carry Krypl","steam_id":76561198136938121,"connected_time":1365000000000,"state":"active","ping":47},{"user_id":250,"name":"Chucky.","steam_id":76561197969361063,"connected_time":365000000000,"state":"active","ping":91},{"user_id":235,"name":"Avangarde","steam_id":76561198046286755,"connected_time":1273000000000,"state":"active","ping":60}]},{"server_id":310,"name":"Uncletopia | Frankfurt | 5 | All Maps","name_short":"frk-5","host":"frk-1.de.uncletopia.com","port":27055,"enabled":true,"region":"eu","cc":"de","latitude":50.110924,"longitude":8.682127,"reserved":0,"last_update":"0001-01-01T00:00:00Z","name_a2s":"Uncletopia | Frankfurt | 5 | All Maps","protocol":17,"map":"pl_thundermountain","folder":"tf","game":"Team Fortress","app_id":440,"player_count":24,"max_players":24,"Bots":0,"server_type":"Dedicated","server_os":"Linux","password":true,"vac":true,"version":"7961495","steam_id":85568392924504277,"keywords":["nocrits","nodmgspread","payload","uncletopia"],"game_id":440,"stv_port":27056,"stv_name":"Uncletopia | Frankfurt | 5 | All Maps | STV","players":[{"user_id":381,"name":"Doktor Glas","steam_id":76561198075963840,"connected_time":6210000000000,"state":"active","ping":60},{"user_id":365,"name":"TSx* Bargal","steam_id":76561198040266872,"connected_time":6902000000000,"state":"active","ping":59},{"user_id":369,"name":"TSx* Naxer","steam_id":76561198011986779,"connected_time":6864000000000,"state":"active","ping":68},{"user_id":437,"name":"DidoSquarepants","steam_id":76561198813776572,"connected_time":2027000000000,"state":"active","ping":52},{"user_id":451,"name":"baby's first domination","steam_id":76561198325898181,"connected_time":692000000000,"state":"active","ping":60},{"user_id":461,"name":"dafydd","steam_id":76561198052200325,"connected_time":18000000000,"state":"active","ping":80},{"user_id":454,"name":"zdravkio","steam_id":76561198876879573,"connected_time":667000000000,"state":"active","ping":78},{"user_id":427,"name":",","steam_id":76561198347020945,"connected_time":3163000000000,"state":"active","ping":86},{"user_id":436,"name":"Athudanu","steam_id":76561198052881337,"connected_time":2143000000000,"state":"active","ping":59},{"user_id":368,"name":"TSx* EmperoT","steam_id":76561198018656942,"connected_time":6882000000000,"state":"active","ping":74},{"user_id":452,"name":"rts","steam_id":76561199090876980,"connected_time":688000000000,"state":"active","ping":68},{"user_id":445,"name":"TJ1212","steam_id":76561199013575313,"connected_time":1070000000000,"state":"active","ping":63},{"user_id":396,"name":"YuraGreek","steam_id":76561198050182252,"connected_time":4904000000000,"state":"active","ping":81},{"user_id":448,"name":"Piros","steam_id":76561198193785653,"connected_time":1004000000000,"state":"active","ping":71},{"user_id":441,"name":"Gay Truck","steam_id":76561198123648967,"connected_time":1574000000000,"state":"active","ping":68},{"user_id":457,"name":"Alfred","steam_id":76561198348799252,"connected_time":620000000000,"state":"active","ping":63},{"user_id":376,"name":"TSx* Dante","steam_id":76561198139309331,"connected_time":6760000000000,"state":"active","ping":70},{"user_id":372,"name":"TSx* Osa__PL","steam_id":76561198027016799,"connected_time":6857000000000,"state":"active","ping":63},{"user_id":447,"name":"Endi","steam_id":76561198914938199,"connected_time":1063000000000,"state":"active","ping":86},{"user_id":455,"name":"koji","steam_id":76561198051636999,"connected_time":639000000000,"state":"active","ping":59},{"user_id":449,"name":"Teddy","steam_id":76561198074888415,"connected_time":996000000000,"state":"active","ping":48},{"user_id":431,"name":"LivEssense","steam_id":76561198052476979,"connected_time":2553000000000,"state":"active","ping":87},{"user_id":424,"name":"Piquesque","steam_id":76561198286763046,"connected_time":3297000000000,"state":"active","ping":94},{"user_id":459,"name":"Hopes","steam_id":76561198080979276,"connected_time":549000000000,"state":"active","ping":51}]},{"server_id":311,"name":"Uncletopia | Frankfurt | 6 | All Maps","name_short":"frk-6","host":"frk-1.de.uncletopia.com","port":27065,"enabled":true,"region":"eu","cc":"de","latitude":50.110924,"longitude":8.682127,"reserved":0,"last_update":"0001-01-01T00:00:00Z","name_a2s":"Uncletopia | Frankfurt | 6 | All Maps","protocol":17,"map":"cp_gorge","folder":"tf","game":"Team Fortress","app_id":440,"player_count":24,"max_players":24,"Bots":0,"server_type":"Dedicated","server_os":"Linux","password":true,"vac":true,"version":"7961495","steam_id":85568392924504278,"keywords":["cp","nocrits","nodmgspread","uncletopia"],"game_id":440,"stv_port":27066,"stv_name":"Uncletopia | Frankfurt | 6 | All Maps | STV","players":[{"user_id":338,"name":"cister0","steam_id":76561198130195469,"connected_time":322000000000,"state":"active","ping":62},{"user_id":274,"name":"Adamkarz","steam_id":76561198796428403,"connected_time":3769000000000,"state":"active","ping":80},{"user_id":289,"name":"ja","steam_id":76561199228540618,"connected_time":2905000000000,"state":"active","ping":62},{"user_id":299,"name":"пупундель","steam_id":76561198370603695,"connected_time":2727000000000,"state":"active","ping":75},{"user_id":269,"name":"jona3838","steam_id":76561199097658195,"connected_time":4017000000000,"state":"active","ping":110},{"user_id":330,"name":"jack'o classes","steam_id":76561199030218131,"connected_time":623000000000,"state":"active","ping":54},{"user_id":328,"name":"Mébh Óg MacTíre","steam_id":76561198346399624,"connected_time":750000000000,"state":"active","ping":72},{"user_id":329,"name":"MISTER SIUUU","steam_id":76561198018330092,"connected_time":660000000000,"state":"active","ping":73},{"user_id":339,"name":"Monky","steam_id":76561198101083206,"connected_time":268000000000,"state":"active","ping":62},{"user_id":332,"name":"temanator","steam_id":76561198401227053,"connected_time":543000000000,"state":"active","ping":88},{"user_id":326,"name":"Citromfa","steam_id":76561198427549600,"connected_time":980000000000,"state":"active","ping":79},{"user_id":333,"name":"P","steam_id":76561198399390201,"connected_time":542000000000,"state":"active","ping":89},{"user_id":334,"name":"FLopFLopi4","steam_id":76561199386859845,"connected_time":539000000000,"state":"active","ping":90},{"user_id":340,"name":"dfcv rftgvb ghtb","steam_id":76561198397764042,"connected_time":162000000000,"state":"active","ping":74},{"user_id":336,"name":"Noodle","steam_id":76561198306486695,"connected_time":495000000000,"state":"active","ping":49},{"user_id":341,"name":"RandomName","steam_id":76561198055552108,"connected_time":87000000000,"state":"active","ping":51},{"user_id":325,"name":"Chris","steam_id":76561198018626828,"connected_time":1053000000000,"state":"active","ping":58},{"user_id":316,"name":"imrealylazy","steam_id":76561198878574518,"connected_time":1747000000000,"state":"active","ping":61},{"user_id":254,"name":"почему?не знаю.","steam_id":76561198413275515,"connected_time":5696000000000,"state":"active","ping":76},{"user_id":311,"name":"IHaveConsumed50KmofMeth","steam_id":76561199221172552,"connected_time":2152000000000,"state":"active","ping":74},{"user_id":322,"name":"Ťava SVK","steam_id":76561198208423756,"connected_time":1443000000000,"state":"active","ping":56},{"user_id":266,"name":"HelwiiHill","steam_id":76561198066730552,"connected_time":4738000000000,"state":"active","ping":83},{"user_id":302,"name":"I'm past the point of insanity","steam_id":76561198800954471,"connected_time":2586000000000,"state":"active","ping":82},{"user_id":284,"name":"Duktigafred","steam_id":76561199211222396,"connected_time":3511000000000,"state":"active","ping":60}]},{"server_id":23,"name":"Uncletopia | Frankfurt | 7 | Stopwatch","name_short":"frk-7","host":"frk-1.de.uncletopia.com","port":27075,"enabled":true,"region":"eu","cc":"de","latitude":50.110924,"longitude":8.682127,"reserved":0,"last_update":"0001-01-01T00:00:00Z","name_a2s":"Uncletopia | Frankfurt | 7 | Stopwatch","protocol":17,"map":"workshop/koth_product_final.ugc454272353","folder":"tf","game":"Team Fortress","app_id":440,"player_count":0,"max_players":24,"Bots":0,"server_type":"Dedicated","server_os":"Linux","password":true,"vac":true,"version":"7961495","steam_id":85568392924742827,"keywords":["cp","nocrits","nodmgspread","uncletopia"],"game_id":440,"stv_port":27076,"stv_name":"Uncletopia | Frankfurt | 7 | Stopwatch | STV","players":null},{"server_id":24,"name":"Uncletopia | Frankfurt | 8 | Community","name_short":"frk-8","host":"frk-1.de.uncletopia.com","port":27085,"enabled":true,"region":"eu","cc":"de","latitude":50.110924,"longitude":8.682127,"reserved":0,"last_update":"0001-01-01T00:00:00Z","name_a2s":"Uncletopia | Frankfurt | 8 | Community","protocol":17,"map":"workshop/cp_croissant_final.ugc458840209","folder":"tf","game":"Team Fortress","app_id":440,"player_count":11,"max_players":24,"Bots":0,"server_type":"Dedicated","server_os":"Linux","password":true,"vac":true,"version":"7961495","steam_id":85568392924742828,"keywords":["cp","nocrits","nodmgspread","uncletopia"],"game_id":440,"stv_port":27086,"stv_name":"Uncletopia | Frankfurt | 8 | Community | STV","players":[{"user_id":128,"name":"immaculate","steam_id":76561198141604858,"connected_time":746000000000,"state":"active","ping":44},{"user_id":138,"name":"xnnea","steam_id":76561198882318128,"connected_time":101000000000,"state":"active","ping":104},{"user_id":121,"name":"nojuskojos","steam_id":76561199060478662,"connected_time":1551000000000,"state":"active","ping":61},{"user_id":136,"name":"JC","steam_id":76561198029213352,"connected_time":174000000000,"state":"active","ping":46},{"user_id":123,"name":"HOI","steam_id":76561198061182117,"connected_time":1415000000000,"state":"active","ping":53},{"user_id":84,"name":"«✪ ραт ✪»","steam_id":76561198271705433,"connected_time":3119000000000,"state":"active","ping":65},{"user_id":93,"name":"KingPotatoChips","steam_id":76561198035156465,"connected_time":2832000000000,"state":"active","ping":52},{"user_id":78,"name":"pip","steam_id":76561198089560908,"connected_time":3442000000000,"state":"active","ping":91},{"user_id":130,"name":"Senhor Private Eye","steam_id":76561198099215714,"connected_time":687000000000,"state":"active","ping":56},{"user_id":89,"name":"compact disc","steam_id":76561198154677956,"connected_time":3104000000000,"state":"active","ping":55},{"user_id":82,"name":"turkish Pride (small t intended","steam_id":76561198058587477,"connected_time":3283000000000,"state":"active","ping":54}]},{"server_id":202,"name":"Uncletopia | Hong Kong | 1 | All Maps","name_short":"hgk-1","host":"hgk-1.hk.uncletopia.com","port":27015,"enabled":true,"region":"asia","cc":"hk","latitude":22.302711,"longitude":114.177216,"reserved":0,"last_update":"0001-01-01T00:00:00Z","name_a2s":"Uncletopia | Hong Kong | 1 | All Maps","protocol":17,"map":"koth_cascade","folder":"tf","game":"Team Fortress","app_id":440,"player_count":0,"max_players":24,"Bots":0,"server_type":"Dedicated","server_os":"Linux","password":true,"vac":true,"version":"7961495","steam_id":85568392924494504,"keywords":["cp","nocrits","nodmgspread","uncletopia"],"game_id":440,"stv_port":27016,"stv_name":"Uncletopia | Hong Kong | 1 | All Maps | STV","players":null},{"server_id":1,"name":"Uncletopia | Los Angeles | 1 | All Maps","name_short":"lax-1","host":"lax-1.us.uncletopia.com","port":27015,"enabled":true,"region":"us-west","cc":"us","latitude":33.94279,"longitude":-118.41004,"reserved":0,"last_update":"0001-01-01T00:00:00Z","name_a2s":"Uncletopia | Los Angeles | 1 | All Maps","protocol":17,"map":"pl_borneo","folder":"tf","game":"Team Fortress","app_id":440,"player_count":0,"max_players":24,"Bots":0,"server_type":"Dedicated","server_os":"Linux","password":true,"vac":true,"version":"7961495","steam_id":85568392924469991,"keywords":["nocrits","nodmgspread","payload","uncletopia"],"game_id":440,"stv_port":27016,"stv_name":"Uncletopia | Los Angeles | 1 | All Maps | STV","players":null},{"server_id":112,"name":"Uncletopia | Los Angeles | 2 | All Maps","name_short":"lax-2","host":"lax-1.us.uncletopia.com","port":27025,"enabled":true,"region":"us-west","cc":"us","latitude":33.94279,"longitude":-118.41004,"reserved":0,"last_update":"0001-01-01T00:00:00Z","name_a2s":"Uncletopia | Los Angeles | 2 | All Maps","protocol":17,"map":"koth_cascade","folder":"tf","game":"Team Fortress","app_id":440,"player_count":0,"max_players":24,"Bots":0,"server_type":"Dedicated","server_os":"Linux","password":true,"vac":true,"version":"7961495","steam_id":85568392924469992,"keywords":["cp","nocrits","nodmgspread","uncletopia"],"game_id":440,"stv_port":27026,"stv_name":"Uncletopia | Los Angeles | 2 | All Maps | STV","players":null},{"server_id":324,"name":"Uncletopia | Los Angeles | 3 | All Maps","name_short":"lax-3","host":"lax-1.us.uncletopia.com","port":27035,"enabled":true,"region":"us-west","cc":"us","latitude":33.94279,"longitude":-118.41004,"reserved":0,"last_update":"0001-01-01T00:00:00Z","name_a2s":"Uncletopia | Los Angeles | 3 | All Maps","protocol":17,"map":"pl_hoodoo_final","folder":"tf","game":"Team Fortress","app_id":440,"player_count":0,"max_players":24,"Bots":0,"server_type":"Dedicated","server_os":"Linux","password":true,"vac":true,"version":"7961495","steam_id":85568392924510198,"keywords":["nocrits","nodmgspread","payload","uncletopia"],"game_id":440,"stv_port":27036,"stv_name":"Uncletopia | Los Angeles | 3 | All Maps | STV","players":null},{"server_id":25,"name":"Uncletopia | Los Angeles | 4 | Stopwatch","name_short":"lax-4","host":"lax-1.us.uncletopia.com","port":27045,"enabled":true,"region":"us-west","cc":"us","latitude":33.94279,"longitude":-118.41004,"reserved":0,"last_update":"0001-01-01T00:00:00Z","name_a2s":"Uncletopia | Los Angeles | 4 | Stopwatch","protocol":17,"map":"pl_upward","folder":"tf","game":"Team Fortress","app_id":440,"player_count":0,"max_players":24,"Bots":0,"server_type":"Dedicated","server_os":"Linux","password":true,"vac":true,"version":"7961495","steam_id":85568392924510199,"keywords":["nocrits","nodmgspread","payload","uncletopia"],"game_id":440,"stv_port":27046,"stv_name":"Uncletopia | Los Angeles | 4 | Stopwatch | STV","players":null},{"server_id":11,"name":"Uncletopia | London | 1 | All Maps","name_short":"lon-1","host":"lon-1.uk.uncletopia.com","port":27015,"enabled":true,"region":"eu","cc":"gb","latitude":51.509865,"longitude":-0.118092,"reserved":0,"last_update":"0001-01-01T00:00:00Z","name_a2s":"Uncletopia | London | 1 | All Maps","protocol":17,"map":"cp_steel","folder":"tf","game":"Team Fortress","app_id":440,"player_count":24,"max_players":24,"Bots":0,"server_type":"Dedicated","server_os":"Linux","password":true,"vac":true,"version":"7961495","steam_id":85568392924367362,"keywords":["cp","nocrits","nodmgspread","uncletopia"],"game_id":440,"stv_port":27016,"stv_name":"Uncletopia | London | 1 | All Maps | STV","players":[{"user_id":503,"name":"doktor spiele","steam_id":76561199057953617,"connected_time":6308000000000,"state":"active","ping":60},{"user_id":537,"name":"[KZ] TenGr1_G4m3r","steam_id":76561198107460765,"connected_time":5956000000000,"state":"active","ping":46},{"user_id":550,"name":"hitbox criminal","steam_id":76561198079277466,"connected_time":4037000000000,"state":"active","ping":73},{"user_id":562,"name":"Mystical X™","steam_id":76561198080927012,"connected_time":2919000000000,"state":"active","ping":74},{"user_id":455,"name":"Lyra","steam_id":76561198043601838,"connected_time":7714000000000,"state":"active","ping":68},{"user_id":588,"name":"silicon based life form","steam_id":76561199127121346,"connected_time":743000000000,"state":"active","ping":42},{"user_id":582,"name":"sniper's kangaroo wife","steam_id":76561198334042273,"connected_time":1089000000000,"state":"active","ping":85},{"user_id":584,"name":"HardJaguar66","steam_id":76561198149326434,"connected_time":988000000000,"state":"active","ping":81},{"user_id":567,"name":"hqdefault.png","steam_id":76561198106049954,"connected_time":2790000000000,"state":"active","ping":78},{"user_id":569,"name":"acetamiprid","steam_id":76561198058012525,"connected_time":2662000000000,"state":"active","ping":60},{"user_id":590,"name":"Huskai","steam_id":76561198141512362,"connected_time":613000000000,"state":"active","ping":44},{"user_id":553,"name":"waahh im baby gugu gaga im cry","steam_id":76561198190583242,"connected_time":3237000000000,"state":"active","ping":104},{"user_id":570,"name":"trite","steam_id":76561197983765323,"connected_time":2114000000000,"state":"active","ping":43},{"user_id":576,"name":"Kahvi","steam_id":76561198723244199,"connected_time":1416000000000,"state":"active","ping":88},{"user_id":566,"name":"Leon S. Kennedy (B4DA$$)","steam_id":76561198168207306,"connected_time":2798000000000,"state":"active","ping":95},{"user_id":589,"name":"mag̶p̶i̶e ✿","steam_id":76561198797266244,"connected_time":668000000000,"state":"active","ping":75},{"user_id":543,"name":"itransition UKRAINE","steam_id":76561198080912087,"connected_time":4983000000000,"state":"active","ping":74},{"user_id":481,"name":"Your honor Freebird was playing","steam_id":76561198017513012,"connected_time":6848000000000,"state":"active","ping":45},{"user_id":558,"name":"sareena","steam_id":76561198810194062,"connected_time":3037000000000,"state":"active","ping":74},{"user_id":578,"name":"Equinox","steam_id":76561199055592635,"connected_time":1298000000000,"state":"active","ping":48},{"user_id":593,"name":"HRTV","steam_id":76561198978457123,"connected_time":139000000000,"state":"active","ping":77},{"user_id":552,"name":"call me szmata18","steam_id":76561199042056825,"connected_time":3394000000000,"state":"active","ping":70},{"user_id":594,"name":"nappo","steam_id":76561198060105180,"connected_time":128000000000,"state":"active","ping":73},{"user_id":575,"name":"rigel_","steam_id":76561198148640847,"connected_time":1460000000000,"state":"active","ping":75}]},{"server_id":114,"name":"Uncletopia | London | 2 | All Maps","name_short":"lon-2","host":"lon-1.uk.uncletopia.com","port":27025,"enabled":true,"region":"eu","cc":"gb","latitude":51.509865,"longitude":-0.118092,"reserved":0,"last_update":"0001-01-01T00:00:00Z","name_a2s":"Uncletopia | London | 2 | All Maps","protocol":17,"map":"cp_dustbowl","folder":"tf","game":"Team Fortress","app_id":440,"player_count":24,"max_players":24,"Bots":0,"server_type":"Dedicated","server_os":"Linux","password":true,"vac":true,"version":"7961495","steam_id":85568392924470941,"keywords":["cp","nocrits","nodmgspread","uncletopia"],"game_id":440,"stv_port":27026,"stv_name":"Uncletopia | London | 2 | All Maps | STV","players":[{"user_id":67,"name":"ROX","steam_id":76561198272289320,"connected_time":2987000000000,"state":"active","ping":44},{"user_id":24,"name":"Ixsus\u003c3","steam_id":76561198094756869,"connected_time":4524000000000,"state":"active","ping":62},{"user_id":34,"name":"Keelan","steam_id":76561198013665543,"connected_time":3981000000000,"state":"active","ping":59},{"user_id":84,"name":"gagalak","steam_id":76561198089979108,"connected_time":1856000000000,"state":"active","ping":125},{"user_id":60,"name":"robsan","steam_id":76561198137375391,"connected_time":3468000000000,"state":"active","ping":87},{"user_id":22,"name":"Alexandr","steam_id":76561198415594381,"connected_time":5196000000000,"state":"active","ping":64},{"user_id":102,"name":"Alpha","steam_id":76561199482290132,"connected_time":285000000000,"state":"active","ping":117},{"user_id":101,"name":"exo","steam_id":76561197961154694,"connected_time":605000000000,"state":"active","ping":44},{"user_id":98,"name":"Plep","steam_id":76561198840259819,"connected_time":1035000000000,"state":"active","ping":62},{"user_id":103,"name":"hwleo","steam_id":76561198090848620,"connected_time":249000000000,"state":"active","ping":75},{"user_id":107,"name":"Ethee05","steam_id":76561198221013980,"connected_time":69000000000,"state":"active","ping":45},{"user_id":88,"name":"StormyRice","steam_id":76561198129971386,"connected_time":1606000000000,"state":"active","ping":43},{"user_id":61,"name":"MilkIsmo","steam_id":76561198078362135,"connected_time":3468000000000,"state":"active","ping":85},{"user_id":79,"name":"happy + wholesome babs","steam_id":76561198314919758,"connected_time":2269000000000,"state":"active","ping":58},{"user_id":108,"name":"Supercoxylac","steam_id":76561198376300138,"connected_time":10000000000,"state":"spawning","ping":46},{"user_id":71,"name":"yuno appreciator","steam_id":76561198083286511,"connected_time":2832000000000,"state":"active","ping":44},{"user_id":95,"name":"Олексій | UA","steam_id":76561198802594676,"connected_time":1385000000000,"state":"active","ping":68},{"user_id":105,"name":"joethefool","steam_id":76561199015436319,"connected_time":233000000000,"state":"active","ping":114},{"user_id":87,"name":"Oxy","steam_id":76561198058640737,"connected_time":1648000000000,"state":"active","ping":44},{"user_id":59,"name":"Pirate Pete","steam_id":76561199027962230,"connected_time":3544000000000,"state":"active","ping":51},{"user_id":92,"name":"☠The Boio☠","steam_id":76561198114166378,"connected_time":1572000000000,"state":"active","ping":63},{"user_id":100,"name":"Berghopper","steam_id":76561198062599535,"connected_time":802000000000,"state":"active","ping":76},{"user_id":96,"name":"phkmgr in team = troll","steam_id":76561199209388230,"connected_time":1350000000000,"state":"active","ping":105},{"user_id":97,"name":"Firearms","steam_id":76561197989867612,"connected_time":1201000000000,"state":"active","ping":51}]},{"server_id":320,"name":"Uncletopia | London | 3 | All Maps","name_short":"lon-3","host":"lon-1.uk.uncletopia.com","port":27035,"enabled":true,"region":"eu","cc":"gb","latitude":51.509865,"longitude":-0.118092,"reserved":0,"last_update":"0001-01-01T00:00:00Z","name_a2s":"Uncletopia | London | 3 | All Maps","protocol":17,"map":"cp_dustbowl","folder":"tf","game":"Team Fortress","app_id":440,"player_count":23,"max_players":24,"Bots":0,"server_type":"Dedicated","server_os":"Linux","password":true,"vac":true,"version":"7961495","steam_id":85568392924510192,"keywords":["cp","nocrits","nodmgspread","uncletopia"],"game_id":440,"stv_port":27036,"stv_name":"Uncletopia | London | 3 | All Maps | STV","players":[{"user_id":313,"name":"hide","steam_id":76561198918282467,"connected_time":1387000000000,"state":"active","ping":38},{"user_id":143,"name":"BearJuice","steam_id":76561198999534523,"connected_time":5299000000000,"state":"active","ping":93},{"user_id":336,"name":"Lauchboiz | Bannic","steam_id":76561198060362129,"connected_time":182000000000,"state":"active","ping":58},{"user_id":246,"name":"MEDiUM","steam_id":76561198112328561,"connected_time":3268000000000,"state":"active","ping":70},{"user_id":300,"name":"Plutocola","steam_id":76561198064657605,"connected_time":1855000000000,"state":"active","ping":51},{"user_id":301,"name":"Oak","steam_id":76561198067315672,"connected_time":1804000000000,"state":"active","ping":46},{"user_id":289,"name":"Ｘ Ｅ Ｎ","steam_id":76561198119343982,"connected_time":2261000000000,"state":"active","ping":43},{"user_id":318,"name":"godmodule","steam_id":76561198165995444,"connected_time":989000000000,"state":"active","ping":75},{"user_id":330,"name":"sticks","steam_id":76561198127099299,"connected_time":511000000000,"state":"active","ping":37},{"user_id":337,"name":"despikee","steam_id":76561198029805750,"connected_time":177000000000,"state":"active","ping":75},{"user_id":302,"name":"matthias\u003c3","steam_id":76561198854177058,"connected_time":1802000000000,"state":"active","ping":76},{"user_id":338,"name":"Beans.jpg","steam_id":76561198164490747,"connected_time":148000000000,"state":"active","ping":35},{"user_id":275,"name":"Cöffee","steam_id":76561198115131952,"connected_time":2712000000000,"state":"active","ping":100},{"user_id":297,"name":"Officer Sins","steam_id":76561198263308943,"connected_time":2013000000000,"state":"active","ping":78},{"user_id":176,"name":"Hercules","steam_id":76561198041164170,"connected_time":4462000000000,"state":"active","ping":66},{"user_id":340,"name":"Ringworm","steam_id":76561198097542560,"connected_time":116000000000,"state":"active","ping":60},{"user_id":317,"name":"Sir Cauterize","steam_id":76561198047079422,"connected_time":1199000000000,"state":"active","ping":43},{"user_id":328,"name":"JamesPepega","steam_id":76561198019156154,"connected_time":582000000000,"state":"active","ping":65},{"user_id":331,"name":"milkman","steam_id":76561198131031404,"connected_time":498000000000,"state":"active","ping":98},{"user_id":236,"name":"Spy","steam_id":76561198982824932,"connected_time":3572000000000,"state":"active","ping":115},{"user_id":324,"name":"THE POPE","steam_id":76561199157577009,"connected_time":686000000000,"state":"active","ping":57},{"user_id":341,"name":"Jethro Tull","steam_id":76561199034041634,"connected_time":103000000000,"state":"active","ping":53},{"user_id":215,"name":"Matt ♥","steam_id":76561198263644467,"connected_time":3816000000000,"state":"active","ping":55}]},{"server_id":321,"name":"Uncletopia | London | 4 | All Maps","name_short":"lon-4","host":"lon-1.uk.uncletopia.com","port":27045,"enabled":true,"region":"eu","cc":"gb","latitude":51.509865,"longitude":-0.118092,"reserved":0,"last_update":"0001-01-01T00:00:00Z","name_a2s":"Uncletopia | London | 4 | All Maps","protocol":17,"map":"cp_vanguard","folder":"tf","game":"Team Fortress","app_id":440,"player_count":23,"max_players":24,"Bots":0,"server_type":"Dedicated","server_os":"Linux","password":true,"vac":true,"version":"7961495","steam_id":85568392924510193,"keywords":["cp","nocrits","nodmgspread","uncletopia"],"game_id":440,"stv_port":27046,"stv_name":"Uncletopia | London | 4 | All Maps | STV","players":[{"user_id":354,"name":"Cillian","steam_id":76561199046965320,"connected_time":787000000000,"state":"active","ping":56},{"user_id":332,"name":"Sr. COCÓ","steam_id":76561198254011269,"connected_time":2475000000000,"state":"active","ping":63},{"user_id":364,"name":"PashaVerti","steam_id":76561199013963024,"connected_time":254000000000,"state":"active","ping":105},{"user_id":361,"name":"KLAMA  ❤","steam_id":76561198351549661,"connected_time":419000000000,"state":"active","ping":75},{"user_id":307,"name":"hasky","steam_id":76561197986052798,"connected_time":3948000000000,"state":"active","ping":60},{"user_id":365,"name":"Fatmagic Mukbang ASMR","steam_id":76561198063492110,"connected_time":238000000000,"state":"active","ping":71},{"user_id":352,"name":"Twinkle","steam_id":76561197995579716,"connected_time":875000000000,"state":"active","ping":55},{"user_id":356,"name":"Batters🌸","steam_id":76561198927992205,"connected_time":782000000000,"state":"active","ping":37},{"user_id":339,"name":"BigDikNRJ - Obismal","steam_id":76561198055309521,"connected_time":1812000000000,"state":"active","ping":72},{"user_id":337,"name":"cockroach","steam_id":76561198841841656,"connected_time":2066000000000,"state":"active","ping":67},{"user_id":335,"name":"soney","steam_id":76561198121177512,"connected_time":2359000000000,"state":"active","ping":51},{"user_id":340,"name":"R8N - Obismal","steam_id":76561198007482714,"connected_time":1799000000000,"state":"active","ping":77},{"user_id":362,"name":"✚Чыж✚","steam_id":76561198273074492,"connected_time":385000000000,"state":"active","ping":116},{"user_id":358,"name":"Caruzon - Obismal","steam_id":76561198036211170,"connected_time":759000000000,"state":"active","ping":89},{"user_id":330,"name":"goblin","steam_id":76561198170334258,"connected_time":2550000000000,"state":"active","ping":75},{"user_id":248,"name":"Lark","steam_id":76561198066937447,"connected_time":7111000000000,"state":"active","ping":91},{"user_id":304,"name":"Kysh","steam_id":76561198307287379,"connected_time":4330000000000,"state":"active","ping":75},{"user_id":320,"name":"Kiogeki","steam_id":76561197996707843,"connected_time":3213000000000,"state":"active","ping":40},{"user_id":287,"name":"Milca_11","steam_id":76561198848650365,"connected_time":5155000000000,"state":"active","ping":91},{"user_id":344,"name":"pizzaboob","steam_id":76561198097507847,"connected_time":1646000000000,"state":"active","ping":84},{"user_id":363,"name":"Chubercik","steam_id":76561198151214786,"connected_time":361000000000,"state":"active","ping":76},{"user_id":295,"name":"i try to be soldier.","steam_id":76561198244153804,"connected_time":4971000000000,"state":"active","ping":78},{"user_id":347,"name":"magnets, how do they work","steam_id":76561198170609049,"connected_time":1636000000000,"state":"active","ping":60}]},{"server_id":21,"name":"Uncletopia | London | 5 | All Maps","name_short":"lon-5","host":"lon-1.uk.uncletopia.com","port":27055,"enabled":true,"region":"eu","cc":"gb","latitude":51.509865,"longitude":-0.118092,"reserved":0,"last_update":"0001-01-01T00:00:00Z","name_a2s":"Uncletopia | London | 5 | All Maps","protocol":17,"map":"pl_badwater","folder":"tf","game":"Team Fortress","app_id":440,"player_count":24,"max_players":24,"Bots":0,"server_type":"Dedicated","server_os":"Linux","password":true,"vac":true,"version":"7961495","steam_id":85568392924742829,"keywords":["nocrits","nodmgspread","payload","uncletopia"],"game_id":440,"stv_port":27056,"stv_name":"Uncletopia | London | 5 | All Maps | STV","players":[{"user_id":265,"name":"IceWaltz","steam_id":76561198146498522,"connected_time":892000000000,"state":"active","ping":41},{"user_id":226,"name":"Estamie","steam_id":76561198058527691,"connected_time":3137000000000,"state":"active","ping":75},{"user_id":220,"name":"GazerBazer","steam_id":76561198879107565,"connected_time":3395000000000,"state":"active","ping":51},{"user_id":237,"name":"Keroz1n","steam_id":76561197998681491,"connected_time":2523000000000,"state":"active","ping":85},{"user_id":267,"name":"randompixel","steam_id":76561198003941207,"connected_time":575000000000,"state":"active","ping":44},{"user_id":244,"name":"Sang","steam_id":76561198008510868,"connected_time":2021000000000,"state":"active","ping":74},{"user_id":259,"name":"brotalium","steam_id":76561198055439054,"connected_time":1110000000000,"state":"active","ping":117},{"user_id":254,"name":"Chromatic","steam_id":76561198355976286,"connected_time":1361000000000,"state":"active","ping":41},{"user_id":269,"name":"murk_forest","steam_id":76561198097239850,"connected_time":457000000000,"state":"active","ping":67},{"user_id":261,"name":"Yimir","steam_id":76561198122584400,"connected_time":983000000000,"state":"active","ping":36},{"user_id":260,"name":"limbicsystem","steam_id":76561198025612680,"connected_time":1018000000000,"state":"active","ping":44},{"user_id":248,"name":"apples","steam_id":76561198882658598,"connected_time":1982000000000,"state":"active","ping":90},{"user_id":183,"name":",","steam_id":76561199383437138,"connected_time":5787000000000,"state":"active","ping":122},{"user_id":194,"name":"Lux","steam_id":76561198060417740,"connected_time":4950000000000,"state":"active","ping":45},{"user_id":268,"name":"aphextwinsucks","steam_id":76561198132185926,"connected_time":548000000000,"state":"active","ping":74},{"user_id":249,"name":"permed ball hair gaming","steam_id":76561198294857933,"connected_time":1811000000000,"state":"active","ping":45},{"user_id":252,"name":"The_Jaystone","steam_id":76561198126280691,"connected_time":1478000000000,"state":"active","ping":33},{"user_id":264,"name":"emag live","steam_id":76561198047164140,"connected_time":924000000000,"state":"active","ping":48},{"user_id":200,"name":"sup3rfr3ddy.","steam_id":76561198119371683,"connected_time":4775000000000,"state":"active","ping":60},{"user_id":109,"name":"callthecounselortonight","steam_id":76561198236015392,"connected_time":9054000000000,"state":"active","ping":119},{"user_id":266,"name":"LEGEND FUMO.","steam_id":76561198061033903,"connected_time":814000000000,"state":"active","ping":53},{"user_id":189,"name":"Fran","steam_id":76561199070516960,"connected_time":5418000000000,"state":"active","ping":75},{"user_id":140,"name":"dools18","steam_id":76561198880768062,"connected_time":8262000000000,"state":"active","ping":64},{"user_id":247,"name":"sudden Bee","steam_id":76561198077484975,"connected_time":1997000000000,"state":"active","ping":59}]},{"server_id":22,"name":"Uncletopia | London | 6 | All Maps","name_short":"lon-6","host":"lon-1.uk.uncletopia.com","port":27065,"enabled":true,"region":"eu","cc":"gb","latitude":51.509865,"longitude":-0.118092,"reserved":0,"last_update":"0001-01-01T00:00:00Z","name_a2s":"Uncletopia | London | 6 | All Maps","protocol":17,"map":"cp_sunshine","folder":"tf","game":"Team Fortress","app_id":440,"player_count":12,"max_players":24,"Bots":0,"server_type":"Dedicated","server_os":"Linux","password":true,"vac":true,"version":"7961495","steam_id":85568392924742830,"keywords":["cp","nocrits","nodmgspread","uncletopia"],"game_id":440,"stv_port":27066,"stv_name":"Uncletopia | London | 6 | All Maps | STV","players":[{"user_id":44,"name":"Swedde","steam_id":76561198297296440,"connected_time":313000000000,"state":"active","ping":187},{"user_id":45,"name":"hans","steam_id":76561198288069556,"connected_time":289000000000,"state":"active","ping":192},{"user_id":47,"name":"Graham (dog)","steam_id":76561198062668942,"connected_time":200000000000,"state":"spawning","ping":48},{"user_id":53,"name":"big mig","steam_id":76561198272318522,"connected_time":25000000000,"state":"connecting","ping":84},{"user_id":49,"name":"Alyx","steam_id":76561198064654326,"connected_time":149000000000,"state":"spawning","ping":71},{"user_id":40,"name":"Errordood","steam_id":76561198263263692,"connected_time":566000000000,"state":"spawning","ping":77},{"user_id":36,"name":"cherri","steam_id":76561198146570384,"connected_time":838000000000,"state":"spawning","ping":85},{"user_id":37,"name":"PoisionFox","steam_id":76561198864161505,"connected_time":632000000000,"state":"active","ping":149},{"user_id":50,"name":"full power heart attack","steam_id":76561199196568965,"connected_time":141000000000,"state":"spawning","ping":105},{"user_id":51,"name":"DOKTOR","steam_id":76561198315336193,"connected_time":126000000000,"state":"active","ping":182},{"user_id":56,"name":"awesome gaming","steam_id":76561198119495513,"connected_time":2000000000,"state":"spawning","ping":71},{"user_id":52,"name":"Glitchas","steam_id":76561198883610618,"connected_time":56000000000,"state":"spawning","ping":95}]},{"server_id":40,"name":"Uncletopia | London | 7 | Stopwatch","name_short":"lon-7","host":"lon-1.uk.uncletopia.com","port":27075,"enabled":true,"region":"eu","cc":"gb","latitude":51.509865,"longitude":-0.118092,"reserved":0,"last_update":"0001-01-01T00:00:00Z","name_a2s":"Uncletopia | London | 7 | Stopwatch","protocol":17,"map":"koth_highpass","folder":"tf","game":"Team Fortress","app_id":440,"player_count":0,"max_players":24,"Bots":0,"server_type":"Dedicated","server_os":"Linux","password":true,"vac":true,"version":"7961495","steam_id":85568392924964314,"keywords":["cp","nocrits","nodmgspread","uncletopia"],"game_id":440,"stv_port":27076,"stv_name":"Uncletopia | London | 7 | Stopwatch | STV","players":null},{"server_id":41,"name":"Uncletopia | London | 8 | Community","name_short":"lon-8","host":"lon-1.uk.uncletopia.com","port":27085,"enabled":true,"region":"eu","cc":"gb","latitude":51.509865,"longitude":-0.118092,"reserved":0,"last_update":"0001-01-01T00:00:00Z","name_a2s":"Uncletopia | London | 8 | Community","protocol":17,"map":"workshop/pl_divulgence_b4b.ugc2884808746","folder":"tf","game":"Team Fortress","app_id":440,"player_count":1,"max_players":24,"Bots":0,"server_type":"Dedicated","server_os":"Linux","password":true,"vac":true,"version":"7961495","steam_id":85568392924964315,"keywords":["nocrits","nodmgspread","payload","uncletopia"],"game_id":440,"stv_port":27086,"stv_name":"Uncletopia | London | 8 | Community | STV","players":[{"user_id":7008,"name":"Waspinator","steam_id":76561198029629987,"connected_time":0,"state":"connecting","ping":0}]},{"server_id":300,"name":"Uncletopia | Montréal | 1 | One Thousand Uncles","name_short":"mtl-1","host":"mtl-1.ca.uncletopia.com","port":27015,"enabled":true,"region":"us-east","cc":"ca","latitude":45.50889,"longitude":-73.56167,"reserved":0,"last_update":"0001-01-01T00:00:00Z","name_a2s":"Uncletopia | Montréal | 1 | One Thousand Uncles","protocol":17,"map":"pl_chilly","folder":"tf","game":"Team Fortress","app_id":440,"player_count":0,"max_players":32,"Bots":0,"server_type":"Dedicated","server_os":"Linux","password":true,"vac":true,"version":"7961495","steam_id":85568392924500087,"keywords":["alltalk","danepve","increased_maxplayers","norespawntime","payload","uncletopia"],"game_id":440,"stv_port":0,"stv_name":"","players":null},{"server_id":301,"name":"Uncletopia | Montréal | 2 | One Thousand Uncles","name_short":"mtl-2","host":"mtl-1.ca.uncletopia.com","port":27025,"enabled":true,"region":"us-east","cc":"ca","latitude":45.50889,"longitude":-73.56167,"reserved":0,"last_update":"0001-01-01T00:00:00Z","name_a2s":"Uncletopia | Montréal | 2 | One Thousand Uncles","protocol":17,"map":"pl_chilly","folder":"tf","game":"Team Fortress","app_id":440,"player_count":0,"max_players":32,"Bots":0,"server_type":"Dedicated","server_os":"Linux","password":true,"vac":true,"version":"7961495","steam_id":85568392924500088,"keywords":["alltalk","danepve","increased_maxplayers","norespawntime","payload","uncletopia"],"game_id":440,"stv_port":0,"stv_name":"","players":null},{"server_id":302,"name":"Uncletopia | Montréal | 3 | One Thousand Uncles","name_short":"mtl-3","host":"mtl-1.ca.uncletopia.com","port":27035,"enabled":true,"region":"us-east","cc":"ca","latitude":45.50889,"longitude":-73.56167,"reserved":0,"last_update":"0001-01-01T00:00:00Z","name_a2s":"Uncletopia | Montréal | 3 | One Thousand Uncles","protocol":17,"map":"pl_hoodoo_final","folder":"tf","game":"Team Fortress","app_id":440,"player_count":0,"max_players":32,"Bots":0,"server_type":"Dedicated","server_os":"Linux","password":true,"vac":true,"version":"7961495","steam_id":85568392924500089,"keywords":["alltalk","danepve","increased_maxplayers","norespawntime","payload","uncletopia"],"game_id":440,"stv_port":0,"stv_name":"","players":null},{"server_id":13,"name":"Uncletopia | New York City | 1 | All Maps","name_short":"nyc-1","host":"nyc-1.us.uncletopia.com","port":27015,"enabled":true,"region":"us-east","cc":"us","latitude":40.73061,"longitude":-73.93524,"reserved":0,"last_update":"0001-01-01T00:00:00Z","name_a2s":"Uncletopia | New York City | 1 | All Maps","protocol":17,"map":"pl_barnblitz","folder":"tf","game":"Team Fortress","app_id":440,"player_count":5,"max_players":24,"Bots":0,"server_type":"Dedicated","server_os":"Linux","password":true,"vac":true,"version":"7961495","steam_id":85568392924469993,"keywords":["nocrits","nodmgspread","payload","uncletopia"],"game_id":440,"stv_port":27016,"stv_name":"Uncletopia | New York City | 1 | All Maps | STV","players":[{"user_id":7,"name":"CAVAECHRIST","steam_id":76561199092677510,"connected_time":950000000000,"state":"active","ping":44},{"user_id":9,"name":"georgethewizard555","steam_id":76561199162641455,"connected_time":759000000000,"state":"active","ping":75},{"user_id":11,"name":"Uncle Majic the Hip Hop Magicia","steam_id":76561198107924303,"connected_time":368000000000,"state":"active","ping":39},{"user_id":12,"name":"brisky","steam_id":76561198869675719,"connected_time":298000000000,"state":"active","ping":51},{"user_id":13,"name":"YaBoi0_0","steam_id":76561198024122526,"connected_time":44000000000,"state":"active","ping":61}]},{"server_id":14,"name":"Uncletopia | New York City | 2 | All Maps","name_short":"nyc-2","host":"nyc-1.us.uncletopia.com","port":27025,"enabled":true,"region":"us-east","cc":"us","latitude":40.73061,"longitude":-73.93524,"reserved":0,"last_update":"0001-01-01T00:00:00Z","name_a2s":"Uncletopia | New York City | 2 | All Maps","protocol":17,"map":"pl_barnblitz","folder":"tf","game":"Team Fortress","app_id":440,"player_count":24,"max_players":24,"Bots":0,"server_type":"Dedicated","server_os":"Linux","password":true,"vac":true,"version":"7961495","steam_id":85568392924469994,"keywords":["nocrits","nodmgspread","payload","uncletopia"],"game_id":440,"stv_port":27026,"stv_name":"Uncletopia | New York City | 2 | All Maps | STV","players":[{"user_id":142,"name":"Window Licker #pride","steam_id":76561198386717007,"connected_time":688000000000,"state":"active","ping":63},{"user_id":112,"name":"peace dog","steam_id":76561198267988522,"connected_time":3159000000000,"state":"active","ping":50},{"user_id":132,"name":"now that's a good news","steam_id":76561198016826181,"connected_time":1884000000000,"state":"active","ping":59},{"user_id":131,"name":"ToyBox","steam_id":76561199074735423,"connected_time":1939000000000,"state":"active","ping":54},{"user_id":117,"name":"Ken","steam_id":76561198233988068,"connected_time":3051000000000,"state":"active","ping":60},{"user_id":125,"name":"Smormu","steam_id":76561198045429581,"connected_time":2302000000000,"state":"active","ping":148},{"user_id":95,"name":"Harry S. Truman","steam_id":76561197993339757,"connected_time":4091000000000,"state":"active","ping":55},{"user_id":139,"name":"Shrebbie","steam_id":76561198875230824,"connected_time":932000000000,"state":"active","ping":44},{"user_id":113,"name":"Joey","steam_id":76561198211826573,"connected_time":3148000000000,"state":"active","ping":68},{"user_id":143,"name":"Real Life Drug Dealer","steam_id":76561198263739357,"connected_time":638000000000,"state":"active","ping":119},{"user_id":115,"name":"Koala Bear","steam_id":76561198118025990,"connected_time":3106000000000,"state":"active","ping":75},{"user_id":127,"name":"cift","steam_id":76561198309763491,"connected_time":2232000000000,"state":"active","ping":73},{"user_id":109,"name":"Ratlympics Gold Medalist","steam_id":76561198064981004,"connected_time":3518000000000,"state":"active","ping":60},{"user_id":57,"name":"Zeek","steam_id":76561197987204351,"connected_time":7080000000000,"state":"active","ping":45},{"user_id":76,"name":"Ziath","steam_id":76561198094009164,"connected_time":5757000000000,"state":"active","ping":45},{"user_id":141,"name":"DualiTea","steam_id":76561198081733870,"connected_time":704000000000,"state":"active","ping":62},{"user_id":59,"name":"Phish","steam_id":76561199068509900,"connected_time":6665000000000,"state":"active","ping":41},{"user_id":144,"name":"Ian Brandon Anderson","steam_id":76561198302118756,"connected_time":634000000000,"state":"active","ping":121},{"user_id":145,"name":"rollup","steam_id":76561199150367705,"connected_time":593000000000,"state":"active","ping":69},{"user_id":134,"name":"ඞ.BAT","steam_id":76561198049800120,"connected_time":1801000000000,"state":"active","ping":105},{"user_id":122,"name":"Grizzled Old Prospector","steam_id":76561197995767385,"connected_time":2631000000000,"state":"active","ping":54},{"user_id":120,"name":"Tokyo_Timeshift_","steam_id":76561198048677523,"connected_time":2898000000000,"state":"active","ping":64},{"user_id":128,"name":"emotional suppport e-cigarette","steam_id":76561198172120615,"connected_time":2229000000000,"state":"active","ping":35},{"user_id":146,"name":"chaffy","steam_id":76561198021754567,"connected_time":561000000000,"state":"active","ping":65}]},{"server_id":15,"name":"Uncletopia | New York City | 3 | Stopwatch","name_short":"nyc-3","host":"nyc-1.us.uncletopia.com","port":27035,"enabled":true,"region":"us-east","cc":"us","latitude":40.73061,"longitude":-73.93524,"reserved":0,"last_update":"0001-01-01T00:00:00Z","name_a2s":"Uncletopia | New York City | 3 | Stopwatch","protocol":17,"map":"workshop/koth_ashville_final.ugc2130459942","folder":"tf","game":"Team Fortress","app_id":440,"player_count":0,"max_players":24,"Bots":0,"server_type":"Dedicated","server_os":"Linux","password":true,"vac":true,"version":"7961495","steam_id":85568392924742820,"keywords":["cp","nocrits","nodmgspread","uncletopia"],"game_id":440,"stv_port":27036,"stv_name":"Uncletopia | New York City | 3 | Stopwatch | STV","players":null},{"server_id":16,"name":"Uncletopia | New York City | 4 | Community","name_short":"nyc-4","host":"nyc-1.us.uncletopia.com","port":27045,"enabled":true,"region":"us-east","cc":"us","latitude":40.73061,"longitude":-73.93524,"reserved":0,"last_update":"0001-01-01T00:00:00Z","name_a2s":"Uncletopia | New York City | 4 | Community","protocol":17,"map":"workshop/cp_overgrown_rc8.ugc503939302","folder":"tf","game":"Team Fortress","app_id":440,"player_count":0,"max_players":24,"Bots":0,"server_type":"Dedicated","server_os":"Linux","password":true,"vac":true,"version":"7961495","steam_id":85568392924742821,"keywords":["cp","nocrits","nodmgspread","uncletopia"],"game_id":440,"stv_port":27046,"stv_name":"Uncletopia | New York City | 4 | Community | STV","players":null},{"server_id":142,"name":"Uncletopia | São Paulo | 1 | All Maps","name_short":"sao-1","host":"sao-1.br.uncletopia.com","port":27015,"enabled":true,"region":"sa","cc":"br","latitude":-23.533773,"longitude":-46.62529,"reserved":0,"last_update":"0001-01-01T00:00:00Z","name_a2s":"Uncletopia | São Paulo | 1 | All Maps","protocol":17,"map":"cp_gorge","folder":"tf","game":"Team Fortress","app_id":440,"player_count":0,"max_players":24,"Bots":0,"server_type":"Dedicated","server_os":"Linux","password":true,"vac":true,"version":"7961495","steam_id":85568392924469996,"keywords":["cp","nocrits","nodmgspread","uncletopia"],"game_id":440,"stv_port":27016,"stv_name":"Uncletopia | São Paulo | 1 | All Maps | STV","players":null},{"server_id":143,"name":"Uncletopia | São Paulo | 2 | Community","name_short":"sao-2","host":"sao-2.br.uncletopia.com","port":27015,"enabled":true,"region":"sa","cc":"br","latitude":-23.533773,"longitude":-46.62529,"reserved":0,"last_update":"0001-01-01T00:00:00Z","name_a2s":"Uncletopia | São Paulo | 2 | Community","protocol":17,"map":"workshop/cp_croissant_final.ugc458840209","folder":"tf","game":"Team Fortress","app_id":440,"player_count":0,"max_players":24,"Bots":0,"server_type":"Dedicated","server_os":"Linux","password":true,"vac":true,"version":"7961495","steam_id":85568392924485349,"keywords":["cp","nocrits","nodmgspread","uncletopia"],"game_id":440,"stv_port":27016,"stv_name":"Uncletopia | São Paulo | 2 | Community | STV","players":null},{"server_id":7,"name":"Uncletopia | Seattle | 1 | All Maps","name_short":"sea-1","host":"sea-1.us.uncletopia.com","port":27015,"enabled":true,"region":"us-west","cc":"us","latitude":47.608013,"longitude":-122.33517,"reserved":0,"last_update":"0001-01-01T00:00:00Z","name_a2s":"Uncletopia | Seattle | 1 | All Maps","protocol":17,"map":"cp_snakewater_final1","folder":"tf","game":"Team Fortress","app_id":440,"player_count":24,"max_players":24,"Bots":0,"server_type":"Dedicated","server_os":"Linux","password":true,"vac":true,"version":"7961495","steam_id":85568392924469997,"keywords":["cp","nocrits","nodmgspread","uncletopia"],"game_id":440,"stv_port":27016,"stv_name":"Uncletopia | Seattle | 1 | All Maps | STV","players":[{"user_id":290,"name":"keffers","steam_id":76561198202338796,"connected_time":1254000000000,"state":"active","ping":104},{"user_id":295,"name":"SanitysEdge","steam_id":76561198130732813,"connected_time":301000000000,"state":"active","ping":74},{"user_id":265,"name":"QueenCake575","steam_id":76561198996882407,"connected_time":3397000000000,"state":"active","ping":56},{"user_id":296,"name":"Spicy Within Reason","steam_id":76561198066700370,"connected_time":196000000000,"state":"active","ping":48},{"user_id":277,"name":"jayeskae","steam_id":76561198144220801,"connected_time":2346000000000,"state":"active","ping":46},{"user_id":293,"name":"gloobern","steam_id":76561198341190679,"connected_time":712000000000,"state":"active","ping":46},{"user_id":264,"name":"Leo x.x","steam_id":76561198309760791,"connected_time":3424000000000,"state":"active","ping":113},{"user_id":297,"name":"BlazedBunny","steam_id":76561198243610560,"connected_time":131000000000,"state":"active","ping":45},{"user_id":269,"name":"Nom Skirrett","steam_id":76561198014600788,"connected_time":3169000000000,"state":"active","ping":60},{"user_id":209,"name":"Trips","steam_id":76561198054581597,"connected_time":6836000000000,"state":"active","ping":62},{"user_id":243,"name":"Daddy Topps","steam_id":76561198203594332,"connected_time":4584000000000,"state":"active","ping":43},{"user_id":288,"name":"Uncle Feathers McGraw","steam_id":76561198046442707,"connected_time":1295000000000,"state":"active","ping":46},{"user_id":274,"name":"Astrocards","steam_id":76561199184079830,"connected_time":2972000000000,"state":"active","ping":100},{"user_id":280,"name":"baunter","steam_id":76561198024311871,"connected_time":2246000000000,"state":"active","ping":71},{"user_id":283,"name":"fart","steam_id":76561198074198286,"connected_time":1710000000000,"state":"active","ping":91},{"user_id":281,"name":"CheeseCake488","steam_id":76561199407617942,"connected_time":2134000000000,"state":"active","ping":96},{"user_id":291,"name":"Dispenser (RedMustrd)","steam_id":76561199246218857,"connected_time":1214000000000,"state":"active","ping":119},{"user_id":292,"name":"Tracey [sillymoder]","steam_id":76561198202235495,"connected_time":1057000000000,"state":"active","ping":35},{"user_id":220,"name":"Dog Hands Phone","steam_id":76561198090419068,"connected_time":5991000000000,"state":"active","ping":80},{"user_id":257,"name":"kn0n","steam_id":76561198249172818,"connected_time":3888000000000,"state":"active","ping":94},{"user_id":239,"name":"Sahalanthro","steam_id":76561199073298722,"connected_time":4844000000000,"state":"active","ping":86},{"user_id":294,"name":"racism is bad","steam_id":76561197993844188,"connected_time":569000000000,"state":"active","ping":75},{"user_id":238,"name":"Buswolley","steam_id":76561197995205571,"connected_time":4951000000000,"state":"active","ping":59},{"user_id":279,"name":"Baked Potato PC","steam_id":76561197994217512,"connected_time":2318000000000,"state":"active","ping":122}]},{"server_id":119,"name":"Uncletopia | Seattle | 2 | All Maps","name_short":"sea-2","host":"sea-1.us.uncletopia.com","port":27025,"enabled":true,"region":"us-west","cc":"us","latitude":47.608013,"longitude":-122.33517,"reserved":0,"last_update":"0001-01-01T00:00:00Z","name_a2s":"Uncletopia | Seattle | 2 | All Maps","protocol":17,"map":"koth_cascade","folder":"tf","game":"Team Fortress","app_id":440,"player_count":0,"max_players":24,"Bots":0,"server_type":"Dedicated","server_os":"Linux","password":true,"vac":true,"version":"7961495","steam_id":85568392924469998,"keywords":["cp","nocrits","nodmgspread","uncletopia"],"game_id":440,"stv_port":27026,"stv_name":"Uncletopia | Seattle | 2 | All Maps | STV","players":null},{"server_id":406,"name":"Uncletopia | Seattle | 3 | Stopwatch","name_short":"sea-3","host":"sea-1.us.uncletopia.com","port":27035,"enabled":true,"region":"us-west","cc":"us","latitude":47.608013,"longitude":-122.33517,"reserved":0,"last_update":"0001-01-01T00:00:00Z","name_a2s":"Uncletopia | Seattle | 3 | Stopwatch","protocol":17,"map":"koth_highpass","folder":"tf","game":"Team Fortress","app_id":440,"player_count":0,"max_players":24,"Bots":0,"server_type":"Dedicated","server_os":"Linux","password":true,"vac":true,"version":"7961495","steam_id":85568392924515217,"keywords":["cp","nocrits","nodmgspread","uncletopia"],"game_id":440,"stv_port":27036,"stv_name":"Uncletopia | Seattle | 3 | Stopwatch | STV","players":null},{"server_id":17,"name":"Uncletopia | San Francisco | 1 | All Maps","name_short":"sfo-1","host":"sfo-1.us.uncletopia.com","port":27015,"enabled":true,"region":"us-west","cc":"us","latitude":37.77397,"longitude":-122.4313,"reserved":0,"last_update":"0001-01-01T00:00:00Z","name_a2s":"Uncletopia | San Francisco | 1 | All Maps","protocol":17,"map":"koth_highpass","folder":"tf","game":"Team Fortress","app_id":440,"player_count":0,"max_players":24,"Bots":0,"server_type":"Dedicated","server_os":"Linux","password":true,"vac":true,"version":"7961495","steam_id":85568392924469999,"keywords":["cp","nocrits","nodmgspread","uncletopia"],"game_id":440,"stv_port":27016,"stv_name":"Uncletopia | San Francisco | 1 | All Maps | STV","players":null},{"server_id":18,"name":"Uncletopia | San Francisco | 2 | All Maps","name_short":"sfo-2","host":"sfo-1.us.uncletopia.com","port":27025,"enabled":true,"region":"us-west","cc":"us","latitude":37.77397,"longitude":-122.4313,"reserved":0,"last_update":"0001-01-01T00:00:00Z","name_a2s":"Uncletopia | San Francisco | 2 | All Maps","protocol":17,"map":"koth_viaduct","folder":"tf","game":"Team Fortress","app_id":440,"player_count":0,"max_players":24,"Bots":0,"server_type":"Dedicated","server_os":"Linux","password":true,"vac":true,"version":"7961495","steam_id":85568392924470000,"keywords":["cp","nocrits","nodmgspread","uncletopia"],"game_id":440,"stv_port":27026,"stv_name":"Uncletopia | San Francisco | 2 | All Maps | STV","players":null},{"server_id":19,"name":"Uncletopia | San Francisco | 3 | Stopwatch","name_short":"sfo-3","host":"sfo-1.us.uncletopia.com","port":27035,"enabled":true,"region":"us-west","cc":"us","latitude":37.77397,"longitude":-122.4313,"reserved":0,"last_update":"0001-01-01T00:00:00Z","name_a2s":"Uncletopia | San Francisco | 3 | Stopwatch","protocol":17,"map":"workshop/koth_product_final.ugc454272353","folder":"tf","game":"Team Fortress","app_id":440,"player_count":0,"max_players":24,"Bots":0,"server_type":"Dedicated","server_os":"Linux","password":true,"vac":true,"version":"7961495","steam_id":85568392924742824,"keywords":["cp","nocrits","nodmgspread","uncletopia"],"game_id":440,"stv_port":27036,"stv_name":"Uncletopia | San Francisco | 3 | Stopwatch | STV","players":null},{"server_id":20,"name":"Uncletopia | San Francisco | 4 | Community","name_short":"sfo-4","host":"sfo-1.us.uncletopia.com","port":27045,"enabled":true,"region":"us-west","cc":"us","latitude":37.77397,"longitude":-122.4313,"reserved":0,"last_update":"0001-01-01T00:00:00Z","name_a2s":"Uncletopia | San Francisco | 4 | Community","protocol":17,"map":"workshop/pl_cactuscanyon_redux_final2.ugc2579644293","folder":"tf","game":"Team Fortress","app_id":440,"player_count":0,"max_players":24,"Bots":0,"server_type":"Dedicated","server_os":"Linux","password":true,"vac":true,"version":"7961495","steam_id":85568392924742826,"keywords":["nocrits","nodmgspread","payload","uncletopia"],"game_id":440,"stv_port":27046,"stv_name":"Uncletopia | San Francisco | 4 | Community | STV","players":null},{"server_id":141,"name":"Uncletopia | Sydney | 1 | All Maps","name_short":"syd-1","host":"syd-1.au.uncletopia.com","port":27015,"enabled":true,"region":"au","cc":"au","latitude":-33.865143,"longitude":151.2099,"reserved":0,"last_update":"0001-01-01T00:00:00Z","name_a2s":"Uncletopia | Sydney | 1 | All Maps","protocol":17,"map":"koth_viaduct","folder":"tf","game":"Team Fortress","app_id":440,"player_count":0,"max_players":24,"Bots":0,"server_type":"Dedicated","server_os":"Linux","password":true,"vac":true,"version":"7961495","steam_id":85568392924470001,"keywords":["cp","nocrits","nodmgspread","uncletopia"],"game_id":440,"stv_port":27016,"stv_name":"Uncletopia | Sydney | 1 | All Maps | STV","players":null},{"server_id":123,"name":"Uncletopia | Sydney | 2 | All Maps","name_short":"syd-2","host":"syd-1.au.uncletopia.com","port":27025,"enabled":true,"region":"au","cc":"au","latitude":-33.865143,"longitude":151.2099,"reserved":0,"last_update":"0001-01-01T00:00:00Z","name_a2s":"Uncletopia | Sydney | 2 | All Maps","protocol":17,"map":"cp_process_final","folder":"tf","game":"Team Fortress","app_id":440,"player_count":0,"max_players":24,"Bots":0,"server_type":"Dedicated","server_os":"Linux","password":true,"vac":true,"version":"7961495","steam_id":85568392924470002,"keywords":["cp","nocrits","nodmgspread","uncletopia"],"game_id":440,"stv_port":27026,"stv_name":"Uncletopia | Sydney | 2 | All Maps | STV","players":null},{"server_id":395,"name":"Uncletopia | Sydney | 3 | All Maps","name_short":"syd-3","host":"syd-1.au.uncletopia.com","port":27035,"enabled":true,"region":"au","cc":"au","latitude":-33.865143,"longitude":151.2099,"reserved":0,"last_update":"0001-01-01T00:00:00Z","name_a2s":"Uncletopia | Sydney | 3 | All Maps","protocol":17,"map":"cp_snakewater_final1","folder":"tf","game":"Team Fortress","app_id":440,"player_count":0,"max_players":24,"Bots":0,"server_type":"Dedicated","server_os":"Linux","password":true,"vac":true,"version":"7961495","steam_id":85568392925194467,"keywords":["cp","nocrits","nodmgspread","uncletopia"],"game_id":440,"stv_port":27036,"stv_name":"Uncletopia | Sydney | 3 | All Maps | STV","players":null},{"server_id":396,"name":"Uncletopia | Sydney | 4 | All Maps","name_short":"syd-4","host":"syd-1.au.uncletopia.com","port":27045,"enabled":true,"region":"au","cc":"au","latitude":-33.865143,"longitude":151.2099,"reserved":0,"last_update":"0001-01-01T00:00:00Z","name_a2s":"Uncletopia | Sydney | 4 | All Maps","protocol":17,"map":"koth_lakeside_final","folder":"tf","game":"Team Fortress","app_id":440,"player_count":0,"max_players":24,"Bots":0,"server_type":"Dedicated","server_os":"Linux","password":true,"vac":true,"version":"7961495","steam_id":85568392925397958,"keywords":["cp","nocrits","nodmgspread","uncletopia"],"game_id":440,"stv_port":27046,"stv_name":"Uncletopia | Sydney | 4 | All Maps | STV","players":null},{"server_id":58,"name":"Uncletopia | Sydney | 5 | Stopwatch","name_short":"syd-5","host":"syd-1.au.uncletopia.com","port":27055,"enabled":true,"region":"au","cc":"au","latitude":-33.865143,"longitude":151.2099,"reserved":0,"last_update":"0001-01-01T00:00:00Z","name_a2s":"Uncletopia | Sydney | 5 | Stopwatch","protocol":17,"map":"cp_snakewater_final1","folder":"tf","game":"Team Fortress","app_id":440,"player_count":0,"max_players":24,"Bots":0,"server_type":"Dedicated","server_os":"Linux","password":true,"vac":true,"version":"7961495","steam_id":85568392925397959,"keywords":["cp","nocrits","nodmgspread","uncletopia"],"game_id":440,"stv_port":27056,"stv_name":"Uncletopia | Sydney | 5 | Stopwatch | STV","players":null},{"server_id":59,"name":"Uncletopia | Sydney | 6 | Community","name_short":"syd-6","host":"syd-1.au.uncletopia.com","port":27065,"enabled":true,"region":"au","cc":"au","latitude":-33.865143,"longitude":151.2099,"reserved":0,"last_update":"0001-01-01T00:00:00Z","name_a2s":"Uncletopia | Sydney | 6 | Community","protocol":17,"map":"workshop/koth_trenchfoot_ab1.ugc731436616","folder":"tf","game":"Team Fortress","app_id":440,"player_count":0,"max_players":24,"Bots":0,"server_type":"Dedicated","server_os":"Linux","password":true,"vac":true,"version":"7961495","steam_id":85568392925397960,"keywords":["cp","nocrits","nodmgspread","uncletopia"],"game_id":440,"stv_port":27066,"stv_name":"Uncletopia | Sydney | 6 | Community | STV","players":null},{"server_id":49,"name":"Uncletopia | Warsaw | 1 | One Thousand Uncles","name_short":"waw-1","host":"waw-1.pl.uncletopia.com","port":27015,"enabled":true,"region":"eu","cc":"pl","latitude":52.2297,"longitude":21.017532,"reserved":0,"last_update":"0001-01-01T00:00:00Z","name_a2s":"Uncletopia | Warsaw | 1 | One Thousand Uncles","protocol":17,"map":"pl_chilly","folder":"tf","game":"Team Fortress","app_id":440,"player_count":26,"max_players":32,"Bots":16,"server_type":"Dedicated","server_os":"Linux","password":true,"vac":true,"version":"7961495","steam_id":85568392925397850,"keywords":["alltalk","bots","danepve","increased_maxplayers","norespawntime","payload","uncletopia"],"game_id":440,"stv_port":0,"stv_name":"","players":[{"user_id":491,"name":"SolidShade","steam_id":76561198219790681,"connected_time":3959000000000,"state":"active","ping":104},{"user_id":497,"name":"Tispy","steam_id":76561199207410049,"connected_time":3679000000000,"state":"active","ping":111},{"user_id":545,"name":"Sissel GT","steam_id":76561198798757458,"connected_time":150000000000,"state":"active","ping":75},{"user_id":454,"name":"IAmANoob21371","steam_id":76561199237128026,"connected_time":5307000000000,"state":"active","ping":33},{"user_id":498,"name":"Uncle Moomin","steam_id":76561198011628656,"connected_time":3634000000000,"state":"active","ping":88},{"user_id":506,"name":"Gen","steam_id":76561198021775885,"connected_time":2518000000000,"state":"active","ping":63},{"user_id":508,"name":"Gus Fring Man","steam_id":76561198321570748,"connected_time":2425000000000,"state":"active","ping":60},{"user_id":527,"name":"BOT Grzegorz","steam_id":76561198317635320,"connected_time":1168000000000,"state":"active","ping":46},{"user_id":537,"name":"ByrakGG (f2p)","steam_id":76561199415957361,"connected_time":633000000000,"state":"active","ping":254},{"user_id":512,"name":"Squidiot","steam_id":76561198042754907,"connected_time":2153000000000,"state":"active","ping":73}]},{"server_id":50,"name":"Uncletopia | Warsaw | 2 | One Thousand Uncles","name_short":"waw-2","host":"waw-1.pl.uncletopia.com","port":27025,"enabled":true,"region":"eu","cc":"pl","latitude":52.2297,"longitude":21.017532,"reserved":0,"last_update":"0001-01-01T00:00:00Z","name_a2s":"Uncletopia | Warsaw | 2 | One Thousand Uncles","protocol":17,"map":"cp_egypt_final","folder":"tf","game":"Team Fortress","app_id":440,"player_count":21,"max_players":32,"Bots":16,"server_type":"Dedicated","server_os":"Linux","password":true,"vac":true,"version":"7961495","steam_id":85568392925397851,"keywords":["alltalk","bots","cp","danepve","increased_maxplayers","norespawntime","uncletopia"],"game_id":440,"stv_port":0,"stv_name":"","players":[{"user_id":226,"name":"mokau","steam_id":76561199150622722,"connected_time":747000000000,"state":"active","ping":608},{"user_id":227,"name":"Kotlet schabowy","steam_id":76561198048983509,"connected_time":683000000000,"state":"active","ping":42},{"user_id":244,"name":"barbecuesteve","steam_id":76561198048819671,"connected_time":447000000000,"state":"active","ping":166},{"user_id":245,"name":"Moondrop","steam_id":76561199421181719,"connected_time":326000000000,"state":"active","ping":61},{"user_id":246,"name":"Oreo Principle","steam_id":76561198063929217,"connected_time":259000000000,"state":"active","ping":43}]},{"server_id":51,"name":"Uncletopia | Warsaw | 3 | All Maps","name_short":"waw-3","host":"waw-1.pl.uncletopia.com","port":27035,"enabled":true,"region":"eu","cc":"pl","latitude":52.2297,"longitude":21.017532,"reserved":0,"last_update":"0001-01-01T00:00:00Z","name_a2s":"Uncletopia | Warsaw | 3 | All Maps","protocol":17,"map":"koth_lakeside_final","folder":"tf","game":"Team Fortress","app_id":440,"player_count":0,"max_players":24,"Bots":0,"server_type":"Dedicated","server_os":"Linux","password":true,"vac":true,"version":"7961495","steam_id":85568392925397852,"keywords":["cp","nocrits","nodmgspread","uncletopia"],"game_id":440,"stv_port":27036,"stv_name":"Uncletopia | Warsaw | 3 | All Maps | STV","players":null},{"server_id":52,"name":"Uncletopia | Warsaw | 4 | All Maps","name_short":"waw-4","host":"waw-1.pl.uncletopia.com","port":27045,"enabled":true,"region":"eu","cc":"pl","latitude":52.2297,"longitude":21.017532,"reserved":0,"last_update":"0001-01-01T00:00:00Z","name_a2s":"Uncletopia | Warsaw | 4 | All Maps","protocol":17,"map":"koth_highpass","folder":"tf","game":"Team Fortress","app_id":440,"player_count":0,"max_players":24,"Bots":0,"server_type":"Dedicated","server_os":"Linux","password":true,"vac":true,"version":"7961495","steam_id":85568392925397853,"keywords":["cp","nocrits","nodmgspread","uncletopia"],"game_id":440,"stv_port":27046,"stv_name":"Uncletopia | Warsaw | 4 | All Maps | STV","players":null},{"server_id":53,"name":"Uncletopia | Warsaw | 5 | Stopwatch","name_short":"waw-5","host":"waw-1.pl.uncletopia.com","port":27055,"enabled":true,"region":"eu","cc":"pl","latitude":52.2297,"longitude":21.017532,"reserved":0,"last_update":"0001-01-01T00:00:00Z","name_a2s":"Uncletopia | Warsaw | 5 | Stopwatch","protocol":17,"map":"workshop/koth_ashville_final.ugc2130459942","folder":"tf","game":"Team Fortress","app_id":440,"player_count":0,"max_players":24,"Bots":0,"server_type":"Dedicated","server_os":"Linux","password":true,"vac":true,"version":"7961495","steam_id":85568392925397854,"keywords":["cp","nocrits","nodmgspread","uncletopia"],"game_id":440,"stv_port":27056,"stv_name":"Uncletopia | Warsaw | 5 | Stopwatch | STV","players":null},{"server_id":54,"name":"Uncletopia | Warsaw | 6 | Community","name_short":"waw-6","host":"waw-1.pl.uncletopia.com","port":27065,"enabled":true,"region":"eu","cc":"pl","latitude":52.2297,"longitude":21.017532,"reserved":0,"last_update":"0001-01-01T00:00:00Z","name_a2s":"Uncletopia | Warsaw | 6 | Community","protocol":17,"map":"workshop/koth_jamram_rc1a.ugc2964065613","folder":"tf","game":"Team Fortress","app_id":440,"player_count":0,"max_players":24,"Bots":0,"server_type":"Dedicated","server_os":"Linux","password":true,"vac":true,"version":"7961495","steam_id":85568392925397856,"keywords":["cp","nocrits","nodmgspread","uncletopia"],"game_id":440,"stv_port":27066,"stv_name":"Uncletopia | Warsaw | 6 | Community | STV","players":null}]}