{"status":true,"message":"","result":[{"server_id":9,"name":"Uncletopia | Atlanta | 1 | All Maps","name_short":"atl-1","host":"atl-1.us.uncletopia.com","port":27015,"enabled":true,"region":"us-east","cc":"us","latitude":33.753746,"longitude":-84.38633,"reserved":0,"last_update":"0001-01-01T00:00:00Z","name_a2s":"Uncletopia | Atlanta | 1 | All Maps","protocol":17,"map":"pl_badwater","folder":"tf","game":"Team Fortress","app_id":440,"player_count":24,"max_players":24,"Bots":0,"server_type":"Dedicated","server_os":"Linux","password":true,"vac":true,"version":"7757534","steam_id":85568392924469982,"keywords":["nocrits","nodmgspread","payload","uncletopia"],"game_id":440,"stv_port":27016,"stv_name":"Uncletopia | Atlanta | 1 | All Maps | STV","players":[{"user_id":430,"name":"SparkStorm","steam_id":76561198095817025,"connected_time":2510000000000,"state":"active","ping":37},{"user_id":446,"name":"The sad vanilla","steam_id":76561198268621447,"connected_time":1022000000000,"state":"active","ping":82},{"user_id":443,"name":"paetho YT","steam_id":76561198152690003,"connected_time":1279000000000,"state":"active","ping":45},{"user_id":439,"name":"ATL1 | Crystron","steam_id":76561198880437428,"connected_time":1837000000000,"state":"active","ping":77},{"user_id":449,"name":"Wahooka","steam_id":76561197962240925,"connected_time":959000000000,"state":"active","ping":60},{"user_id":459,"name":"Whoops!","steam_id":76561198151315898,"connected_time":296000000000,"state":"active","ping":81},{"user_id":421,"name":"mayhem","steam_id":76561199246637881,"connected_time":3475000000000,"state":"active","ping":51},{"user_id":462,"name":"Jabawakai","steam_id":76561198088881254,"connected_time":270000000000,"state":"active","ping":71},{"user_id":422,"name":"Mister","steam_id":76561198097164652,"connected_time":3475000000000,"state":"active","ping":71},{"user_id":460,"name":"Punks","steam_id":76561199140940650,"connected_time":284000000000,"state":"active","ping":45},{"user_id":445,"name":"lukiepills","steam_id":76561199020587077,"connected_time":1069000000000,"state":"active","ping":65},{"user_id":431,"name":"shaderoses","steam_id":76561198070800500,"connected_time":2491000000000,"state":"active","ping":61},{"user_id":452,"name":"Cherry Coke Zero","steam_id":76561198178233006,"connected_time":673000000000,"state":"active","ping":65},{"user_id":464,"name":"e","steam_id":76561198131245396,"connected_time":99000000000,"state":"active","ping":74},{"user_id":447,"name":"A_Malebolgia","steam_id":76561198097722818,"connected_time":978000000000,"state":"active","ping":87},{"user_id":444,"name":"marguerite","steam_id":76561198170873495,"connected_time":1165000000000,"state":"active","ping":52},{"user_id":458,"name":"Chambersite","steam_id":76561198197022399,"connected_time":318000000000,"state":"active","ping":161},{"user_id":448,"name":"Bony","steam_id":76561199001748822,"connected_time":972000000000,"state":"active","ping":111},{"user_id":413,"name":"Javelin","steam_id":76561198068782818,"connected_time":4794000000000,"state":"active","ping":67},{"user_id":461,"name":"Sarah D she\\her","steam_id":76561199376578224,"connected_time":283000000000,"state":"active","ping":112},{"user_id":412,"name":"Mage","steam_id":76561198285026879,"connected_time":4851000000000,"state":"active","ping":79},{"user_id":438,"name":"ash","steam_id":76561198127890645,"connected_time":2065000000000,"state":"active","ping":61},{"user_id":463,"name":"Devin","steam_id":76561198049607094,"connected_time":262000000000,"state":"active","ping":62},{"user_id":436,"name":"Devkid","steam_id":76561199472254358,"connected_time":2445000000000,"state":"active","ping":111}]},{"server_id":104,"name":"Uncletopia | Atlanta | 2 | All Maps","name_short":"atl-2","host":"atl-1.us.uncletopia.com","port":27025,"enabled":true,"region":"us-east","cc":"us","latitude":33.753746,"longitude":-84.38633,"reserved":0,"last_update":"0001-01-01T00:00:00Z","name_a2s":"Uncletopia | Atlanta | 2 | All Maps","protocol":17,"map":"cp_dustbowl","folder":"tf","game":"Team Fortress","app_id":440,"player_count":24,"max_players":24,"Bots":0,"server_type":"Dedicated","server_os":"Linux","password":true,"vac":true,"version":"7757534","steam_id":85568392924469983,"keywords":["cp","nocrits","nodmgspread","uncletopia"],"game_id":440,"stv_port":27026,"stv_name":"Uncletopia | Atlanta | 2 | All Maps | STV","players":[{"user_id":314,"name":"Red","steam_id":76561198031865869,"connected_time":346000000000,"state":"active","ping":69},{"user_id":298,"name":"BBeard007","steam_id":76561198318038961,"connected_time":922000000000,"state":"active","ping":113},{"user_id":268,"name":"Luck","steam_id":76561199122232082,"connected_time":2770000000000,"state":"active","ping":85},{"user_id":290,"name":"Glue Man","steam_id":76561198047296781,"connected_time":1453000000000,"state":"active","ping":85},{"user_id":306,"name":"JohnnyBoi","steam_id":76561199082599937,"connected_time":742000000000,"state":"active","ping":104},{"user_id":315,"name":"Jammer","steam_id":76561198435691014,"connected_time":125000000000,"state":"active","ping":73},{"user_id":217,"name":"Shrug","steam_id":76561199188651825,"connected_time":6010000000000,"state":"active","ping":124},{"user_id":304,"name":"mari_","steam_id":76561198137855741,"connected_time":843000000000,"state":"active","ping":62},{"user_id":302,"name":"Hawkuro","steam_id":76561198252194838,"connected_time":878000000000,"state":"active","ping":137},{"user_id":221,"name":"CiderL0rd","steam_id":76561198020316366,"connected_time":5937000000000,"state":"active","ping":86},{"user_id":277,"name":"TheGrassMan (He/Him)","steam_id":76561198118984048,"connected_time":2493000000000,"state":"active","ping":84},{"user_id":297,"name":"the milk man","steam_id":76561199091084794,"connected_time":979000000000,"state":"active","ping":81},{"user_id":311,"name":"Demonic Cipher","steam_id":76561198066082088,"connected_time":366000000000,"state":"active","ping":74},{"user_id":301,"name":"AbuzzCactus","steam_id":76561198078391197,"connected_time":895000000000,"state":"active","ping":90},{"user_id":305,"name":"eatmysteel","steam_id":76561198976437527,"connected_time":818000000000,"state":"active","ping":98},{"user_id":118,"name":"Bard The MoistureMenace","steam_id":76561198380520042,"connected_time":13581000000000,"state":"active","ping":83},{"user_id":307,"name":"literally tyler durden","steam_id":76561199014628655,"connected_time":731000000000,"state":"active","ping":75},{"user_id":285,"name":"|WS| Don't_Taze_Me_Bro","steam_id":76561198043289495,"connected_time":2010000000000,"state":"active","ping":58},{"user_id":312,"name":"ivylain","steam_id":76561198287330136,"connected_time":365000000000,"state":"active","ping":56},{"user_id":295,"name":"Bouqet","steam_id":76561198163362175,"connected_time":1149000000000,"state":"active","ping":77},{"user_id":265,"name":"Kuddly Kay (She/Her)","steam_id":76561198353432576,"connected_time":2978000000000,"state":"active","ping":90},{"user_id":308,"name":"Shoeâ„¢","steam_id":76561199114397881,"connected_time":690000000000,"state":"active","ping":44},{"user_id":296,"name":"Tuchpi","steam_id":76561197967581205,"connected_time":1135000000000,"state":"active","ping":76},{"user_id":313,"name":"1TON_Of_Sandviches","steam_id":76561199084470847,"connected_time":359000000000,"state":"active","ping":64}]},{"server_id":400,"name":"Uncletopia | Atlanta | 3 | Community","name_short":"atl-3","host":"atl-1.us.uncletopia.com","port":27035,"enabled":true,"region":"us-east","cc":"us","latitude":33.753746,"longitude":-84.38633,"reserved":0,"last_update":"0001-01-01T00:00:00Z","name_a2s":"Uncletopia | Atlanta | 3 | Community","protocol":17,"map":"workshop/koth_trenchfoot_b1a.ugc731436616","folder":"tf","game":"Team Fortress","app_id":440,"player_count":2,"max_players":24,"Bots":0,"server_type":"Dedicated","server_os":"Linux","password":true,"vac":true,"version":"7757534","steam_id":85568392924515187,"keywords":["cp","nocrits","nodmgspread","uncletopia"],"game_id":440,"stv_port":27036,"stv_name":"Uncletopia | Atlanta | 3 | Community | STV","players":[{"user_id":7625,"name":"luigifan","steam_id":76561199428693962,"connected_time":0,"state":"connecting","ping":0},{"user_id":7616,"name":"Crunk","steam_id":76561199114461848,"connected_time":11000000000,"state":"connecting","ping":0}]},{"server_id":401,"name":"Uncletopia | Atlanta | 4 | No Payload","name_short":"atl-4","host":"atl-1.us.uncletopia.com","port":27045,"enabled":true,"region":"us-east","cc":"us","latitude":33.753746,"longitude":-84.38633,"reserved":0,"last_update":"0001-01-01T00:00:00Z","name_a2s":"","protocol":0,"map":"","folder":"","game":"","app_id":0,"player_count":0,"max_players":0,"Bots":0,"server_type":"","server_os":"","password":false,"vac":false,"version":"","steam_id":0,"keywords":null,"game_id":0,"stv_port":0,"stv_name":"","players":null},{"server_id":2,"name":"Uncletopia | Chicago | 1 | All Maps","name_short":"chi-1","host":"chi-1.us.uncletopia.com","port":27015,"enabled":true,"region":"us-central","cc":"us","latitude":41.881832,"longitude":-87.62318,"reserved":0,"last_update":"0001-01-01T00:00:00Z","name_a2s":"Uncletopia | Chicago | 1 | All Maps","protocol":17,"map":"pl_barnblitz","folder":"tf","game":"Team Fortress","app_id":440,"player_count":24,"max_players":24,"Bots":0,"server_type":"Dedicated","server_os":"Linux","password":true,"vac":true,"version":"7757534","steam_id":85568392924469984,"keywords":["nocrits","nodmgspread","payload","uncletopia"],"game_id":440,"stv_port":27016,"stv_name":"Uncletopia | Chicago | 1 | All Maps | STV","players":[{"user_id":583,"name":"crabapples","steam_id":76561198075818655,"connected_time":1702000000000,"state":"active","ping":58},{"user_id":581,"name":"Ok then","steam_id":76561198891914787,"connected_time":1734000000000,"state":"active","ping":112},{"user_id":553,"name":"bary","steam_id":76561197988317087,"connected_time":3179000000000,"state":"active","ping":59},{"user_id":613,"name":"Comfy","steam_id":76561198008818346,"connected_time":616000000000,"state":"active","ping":67},{"user_id":621,"name":"Cleric","steam_id":76561198045887994,"connected_time":84000000000,"state":"active","ping":46},{"user_id":577,"name":"Saikou!!!","steam_id":76561198044045406,"connected_time":1831000000000,"state":"active","ping":75},{"user_id":544,"name":"Smoky","steam_id":76561198041551259,"connected_time":4251000000000,"state":"active","ping":71},{"user_id":604,"name":"Ch4rl33","steam_id":76561198037008621,"connected_time":816000000000,"state":"active","ping":52},{"user_id":574,"name":"NovaSc6ut","steam_id":76561198277163301,"connected_time":1857000000000,"state":"active","ping":64},{"user_id":602,"name":"boof","steam_id":76561198053901968,"connected_time":887000000000,"state":"active","ping":81},{"user_id":554,"name":"PKBEAST_7","steam_id":76561198177136537,"connected_time":2702000000000,"state":"active","ping":85},{"user_id":605,"name":"louise.sumner","steam_id":76561198997624264,"connected_time":814000000000,"state":"active","ping":86},{"user_id":576,"name":"Cosmic sR","steam_id":76561198081738675,"connected_time":1849000000000,"state":"active","ping":80},{"user_id":606,"name":"Spygie","steam_id":76561198218573049,"connected_time":805000000000,"state":"active","ping":54},{"user_id":614,"name":"ArrowOmega","steam_id":76561198079364917,"connected_time":591000000000,"state":"active","ping":66},{"user_id":601,"name":"Bugc97","steam_id":76561198007662645,"connected_time":1007000000000,"state":"active","ping":81},{"user_id":612,"name":"bash","steam_id":76561199161649534,"connected_time":631000000000,"state":"active","ping":102},{"user_id":619,"name":"killername","steam_id":76561199105156791,"connected_time":215000000000,"state":"active","ping":67},{"user_id":609,"name":"Big Phonius","steam_id":76561199092395311,"connected_time":733000000000,"state":"active","ping":60},{"user_id":588,"name":"Sheriff Monkey","steam_id":76561198053556583,"connected_time":1643000000000,"state":"active","ping":83},{"user_id":618,"name":"Mister Frank","steam_id":76561198161473385,"connected_time":375000000000,"state":"active","ping":67},{"user_id":620,"name":"c953","steam_id":76561198798981682,"connected_time":120000000000,"state":"active","ping":86},{"user_id":592,"name":"Serene Salamander","steam_id":76561198001094770,"connected_time":1588000000000,"state":"active","ping":111},{"user_id":622,"name":"Kitt(eh) âˆ‘:3","steam_id":76561198110858518,"connected_time":53000000000,"state":"active","ping":62}]},{"server_id":106,"name":"Uncletopia | Chicago | 2 | All Maps","name_short":"chi-2","host":"chi-1.us.uncletopia.com","port":27025,"enabled":true,"region":"us-central","cc":"us","latitude":41.881832,"longitude":-87.62318,"reserved":0,"last_update":"0001-01-01T00:00:00Z","name_a2s":"Uncletopia | Chicago | 2 | All Maps","protocol":17,"map":"pl_borneo","folder":"tf","game":"Team Fortress","app_id":440,"player_count":24,"max_players":24,"Bots":0,"server_type":"Dedicated","server_os":"Linux","password":true,"vac":true,"version":"7757534","steam_id":85568392924469985,"keywords":["nocrits","nodmgspread","payload","uncletopia"],"game_id":440,"stv_port":27026,"stv_name":"Uncletopia | Chicago | 2 | All Maps | STV","players":[{"user_id":391,"name":"nutlube","steam_id":76561198128831131,"connected_time":3172000000000,"state":"active","ping":157},{"user_id":422,"name":"Person","steam_id":76561198093244204,"connected_time":748000000000,"state":"active","ping":75},{"user_id":400,"name":"Karl","steam_id":76561198115714484,"connected_time":2703000000000,"state":"active","ping":103},{"user_id":423,"name":"Jerome","steam_id":76561198054796296,"connected_time":238000000000,"state":"active","ping":83},{"user_id":415,"name":"John","steam_id":76561198070700732,"connected_time":923000000000,"state":"active","ping":94},{"user_id":409,"name":"lost in the sauce","steam_id":76561199043827112,"connected_time":1670000000000,"state":"active","ping":68},{"user_id":371,"name":"orcluvr69","steam_id":76561198068712028,"connected_time":4545000000000,"state":"active","ping":68},{"user_id":412,"name":"One Shot and A Miss","steam_id":76561198124269698,"connected_time":971000000000,"state":"active","ping":63},{"user_id":425,"name":"Hotdog Goblin","steam_id":76561198004133638,"connected_time":107000000000,"state":"spawning","ping":98},{"user_id":416,"name":"Owl Pacino","steam_id":76561197979970666,"connected_time":883000000000,"state":"active","ping":53},{"user_id":413,"name":"Retro Phoenix","steam_id":76561198077176271,"connected_time":971000000000,"state":"active","ping":55},{"user_id":426,"name":"cornealvase9152","steam_id":76561198851958868,"connected_time":104000000000,"state":"active","ping":92},{"user_id":287,"name":"vanilla gorilla","steam_id":76561197989019617,"connected_time":10492000000000,"state":"active","ping":45},{"user_id":427,"name":"Wumps","steam_id":76561198207226825,"connected_time":79000000000,"state":"active","ping":75},{"user_id":381,"name":"Blitz3k","steam_id":76561198055758741,"connected_time":3848000000000,"state":"active","ping":67},{"user_id":293,"name":"L + Ratio","steam_id":76561198263786953,"connected_time":10237000000000,"state":"active","ping":76},{"user_id":424,"name":"festive medic gaming","steam_id":76561199386847009,"connected_time":230000000000,"state":"active","ping":89},{"user_id":418,"name":"no","steam_id":76561198248853140,"connected_time":864000000000,"state":"active","ping":48},{"user_id":428,"name":"Deep Fried Pickles","steam_id":76561198048111293,"connected_time":37000000000,"state":"active","ping":71},{"user_id":385,"name":"Galaxy","steam_id":76561198035134466,"connected_time":3801000000000,"state":"active","ping":82},{"user_id":419,"name":"SDL","steam_id":76561198859719985,"connected_time":858000000000,"state":"active","ping":85},{"user_id":405,"name":"Sour Grapes Radio Hour","steam_id":76561198121372198,"connected_time":2541000000000,"state":"active","ping":86},{"user_id":420,"name":"Loki!","steam_id":76561198089201861,"connected_time":827000000000,"state":"active","ping":62},{"user_id":411,"name":"ELO oakdotpng","steam_id":76561198092135570,"connected_time":1003000000000,"state":"active","ping":60}]},{"server_id":402,"name":"Uncletopia | Chicago | 3 | All Maps","name_short":"chi-3","host":"chi-1.us.uncletopia.com","port":27035,"enabled":true,"region":"us-central","cc":"us","latitude":41.881832,"longitude":-87.62318,"reserved":0,"last_update":"0001-01-01T00:00:00Z","name_a2s":"Uncletopia | Chicago | 3 | All Maps","protocol":17,"map":"koth_cascade","folder":"tf","game":"Team Fortress","app_id":440,"player_count":24,"max_players":24,"Bots":0,"server_type":"Dedicated","server_os":"Linux","password":true,"vac":true,"version":"7757534","steam_id":85568392924515191,"keywords":["cp","nocrits","nodmgspread","uncletopia"],"game_id":440,"stv_port":27036,"stv_name":"Uncletopia | Chicago | 3 | All Maps | STV","players":[{"user_id":374,"name":"Joel","steam_id":76561198137902331,"connected_time":1778000000000,"state":"active","ping":71},{"user_id":327,"name":"Jake The Snake","steam_id":76561198047722285,"connected_time":4351000000000,"state":"active","ping":87},{"user_id":338,"name":"Rec","steam_id":76561198022813906,"connected_time":4157000000000,"state":"active","ping":48},{"user_id":328,"name":"jdt631","steam_id":76561198271999934,"connected_time":4342000000000,"state":"active","ping":104},{"user_id":375,"name":"ElbowDeep22","steam_id":76561198801209389,"connected_time":1582000000000,"state":"active","ping":71},{"user_id":387,"name":"Henry Ota-Clay","steam_id":76561198053232470,"connected_time":1029000000000,"state":"active","ping":59},{"user_id":397,"name":"Miles Teg","steam_id":76561197967383913,"connected_time":298000000000,"state":"active","ping":71},{"user_id":390,"name":"Spectre","steam_id":76561198025652246,"connected_time":932000000000,"state":"active","ping":35},{"user_id":392,"name":"wmbeasley","steam_id":76561199219126798,"connected_time":915000000000,"state":"active","ping":70},{"user_id":399,"name":"Jak(i)","steam_id":76561198076823144,"connected_time":10000000000,"state":"spawning","ping":70},{"user_id":369,"name":"Yam Jazzy Jim","steam_id":76561198000788950,"connected_time":2027000000000,"state":"active","ping":66},{"user_id":379,"name":"Brian","steam_id":76561198089908485,"connected_time":1396000000000,"state":"active","ping":95},{"user_id":376,"name":"Cynicalrage #TF2center","steam_id":76561198085805532,"connected_time":1577000000000,"state":"active","ping":45},{"user_id":351,"name":"needle_","steam_id":76561199152845426,"connected_time":3442000000000,"state":"active","ping":120},{"user_id":394,"name":"Mindset","steam_id":76561198107074449,"connected_time":435000000000,"state":"active","ping":54},{"user_id":306,"name":"ThatGamingKiwi","steam_id":76561199170522237,"connected_time":5873000000000,"state":"active","ping":77},{"user_id":377,"name":"Charlie the Chode Chopper","steam_id":76561198078811218,"connected_time":1565000000000,"state":"active","ping":141},{"user_id":395,"name":"A Puppy","steam_id":76561198828184456,"connected_time":422000000000,"state":"active","ping":58},{"user_id":371,"name":"Bean","steam_id":76561198102450063,"connected_time":2014000000000,"state":"active","ping":46},{"user_id":384,"name":"BrendenMad","steam_id":76561198031250581,"connected_time":1155000000000,"state":"active","ping":56},{"user_id":385,"name":"Griffin","steam_id":76561198159339442,"connected_time":1132000000000,"state":"active","ping":68},{"user_id":381,"name":"StarTube","steam_id":76561199122946418,"connected_time":1264000000000,"state":"active","ping":143},{"user_id":389,"name":"shalankawanak","steam_id":76561198987719376,"connected_time":977000000000,"state":"active","ping":55},{"user_id":398,"name":"MacchuPeachu","steam_id":76561199093242587,"connected_time":296000000000,"state":"active","ping":76}]},{"server_id":403,"name":"Uncletopia | Chicago | 4 | All Maps","name_short":"chi-4","host":"chi-1.us.uncletopia.com","port":27045,"enabled":true,"region":"us-central","cc":"us","latitude":41.881832,"longitude":-87.62318,"reserved":0,"last_update":"0001-01-01T00:00:00Z","name_a2s":"Uncletopia | Chicago | 4 | All Maps","protocol":17,"map":"pl_upward","folder":"tf","game":"Team Fortress","app_id":440,"player_count":24,"max_players":24,"Bots":0,"server_type":"Dedicated","server_os":"Linux","password":true,"vac":true,"version":"7757534","steam_id":85568392924515193,"keywords":["nocrits","nodmgspread","payload","uncletopia"],"game_id":440,"stv_port":27046,"stv_name":"Uncletopia | Chicago | 4 | All Maps | STV","players":[{"user_id":107,"name":"023e20902o0239ee02390o239e","steam_id":76561198175741741,"connected_time":3315000000000,"state":"active","ping":70},{"user_id":128,"name":"Harpua","steam_id":76561197988020228,"connected_time":1850000000000,"state":"active","ping":72},{"user_id":131,"name":"Nav","steam_id":76561198278282836,"connected_time":1695000000000,"state":"active","ping":58},{"user_id":147,"name":"BeakerofSalt","steam_id":76561198986000125,"connected_time":324000000000,"state":"active","ping":56},{"user_id":148,"name":"Dorito123diez","steam_id":76561199226415962,"connected_time":308000000000,"state":"active","ping":127},{"user_id":135,"name":"Skab","steam_id":76561199126112357,"connected_time":801000000000,"state":"active","ping":76},{"user_id":136,"name":"john","steam_id":76561198850447852,"connected_time":763000000000,"state":"active","ping":75},{"user_id":124,"name":"Gocel","steam_id":76561198071467515,"connected_time":2139000000000,"state":"active","ping":64},{"user_id":137,"name":"leumas","steam_id":76561198240408540,"connected_time":757000000000,"state":"active","ping":59},{"user_id":122,"name":"jon pickle water","steam_id":76561199036212135,"connected_time":2333000000000,"state":"active","ping":103},{"user_id":144,"name":"Dad","steam_id":76561199091290729,"connected_time":536000000000,"state":"active","ping":75},{"user_id":138,"name":"CrazySquirrel","steam_id":76561198206338200,"connected_time":750000000000,"state":"active","ping":56},{"user_id":57,"name":"Bond","steam_id":76561198089262776,"connected_time":6546000000000,"state":"active","ping":83},{"user_id":112,"name":"unnamed","steam_id":76561198057717934,"connected_time":3013000000000,"state":"active","ping":60},{"user_id":132,"name":"Mightythor","steam_id":76561199162355715,"connected_time":1537000000000,"state":"active","ping":83},{"user_id":139,"name":"Magical.Puffin","steam_id":76561198129039275,"connected_time":722000000000,"state":"active","ping":107},{"user_id":109,"name":"Texas Man","steam_id":76561198353412986,"connected_time":3239000000000,"state":"active","ping":91},{"user_id":116,"name":"Phoncible P. Bone","steam_id":76561198332839477,"connected_time":2412000000000,"state":"active","ping":91},{"user_id":145,"name":"Wso1123","steam_id":76561198048040111,"connected_time":523000000000,"state":"active","ping":71},{"user_id":142,"name":"blossom !!","steam_id":76561198042735130,"connected_time":644000000000,"state":"active","ping":103},{"user_id":133,"name":"akhtar","steam_id":76561198043862737,"connected_time":1396000000000,"state":"active","ping":59},{"user_id":110,"name":"dell-star","steam_id":76561198841709393,"connected_time":3156000000000,"state":"active","ping":69},{"user_id":134,"name":"yateyay ðŸŽ‰","steam_id":76561198311004039,"connected_time":1140000000000,"state":"active","ping":91},{"user_id":149,"name":"Winter the Witchie","steam_id":76561198151971178,"connected_time":201000000000,"state":"active","ping":58}]},{"server_id":36,"name":"Uncletopia | Chicago | 5 | All Maps","name_short":"chi-5","host":"chi-2.us.uncletopia.com","port":27015,"enabled":true,"region":"us-central","cc":"us","latitude":41.881832,"longitude":-87.62318,"reserved":0,"last_update":"0001-01-01T00:00:00Z","name_a2s":"Uncletopia | Chicago | 5 | All Maps","protocol":17,"map":"pl_barnblitz","folder":"tf","game":"Team Fortress","app_id":440,"player_count":24,"max_players":24,"Bots":0,"server_type":"Dedicated","server_os":"Linux","password":true,"vac":true,"version":"7757534","steam_id":85568392924866362,"keywords":["nocrits","nodmgspread","payload","uncletopia"],"game_id":440,"stv_port":27016,"stv_name":"Uncletopia | Chicago | 5 | All Maps | STV","players":[{"user_id":299,"name":"Minnie","steam_id":76561198091052019,"connected_time":525000000000,"state":"active","ping":65},{"user_id":255,"name":"Wicki","steam_id":76561198122590990,"connected_time":3672000000000,"state":"active","ping":96},{"user_id":281,"name":"Cleaver Scout","steam_id":76561198140517330,"connected_time":1417000000000,"state":"active","ping":81},{"user_id":282,"name":"dicksnip","steam_id":76561198356515396,"connected_time":1349000000000,"state":"active","ping":74},{"user_id":228,"name":"Tone","steam_id":76561198139386202,"connected_time":4710000000000,"state":"active","ping":48},{"user_id":302,"name":"Pootis birb #SAVETF2","steam_id":76561199143443450,"connected_time":127000000000,"state":"active","ping":115},{"user_id":287,"name":"cultmechanicus4","steam_id":76561199472574539,"connected_time":1268000000000,"state":"active","ping":55},{"user_id":296,"name":"seems_fishy","steam_id":76561199028846656,"connected_time":1038000000000,"state":"active","ping":75},{"user_id":284,"name":"Drsausage69","steam_id":76561198309230782,"connected_time":1293000000000,"state":"active","ping":87},{"user_id":285,"name":"Hugo_Testicles","steam_id":76561199318142492,"connected_time":1289000000000,"state":"active","ping":78},{"user_id":288,"name":"Benis Gonzalez","steam_id":76561198799391259,"connected_time":1259000000000,"state":"active","ping":120},{"user_id":230,"name":"Smuglas","steam_id":76561197978133899,"connected_time":4671000000000,"state":"active","ping":143},{"user_id":247,"name":"DoomoPelota","steam_id":76561198326462587,"connected_time":4302000000000,"state":"active","ping":96},{"user_id":303,"name":"OpenDown","steam_id":76561198064132688,"connected_time":113000000000,"state":"active","ping":59},{"user_id":157,"name":"Mike Charlie","steam_id":76561199470538309,"connected_time":8520000000000,"state":"active","ping":106},{"user_id":289,"name":"Ativ","steam_id":76561198381841894,"connected_time":1247000000000,"state":"active","ping":86},{"user_id":290,"name":"Sgt. Satire","steam_id":76561198104193483,"connected_time":1234000000000,"state":"active","ping":119},{"user_id":300,"name":"Piccadilly Willy","steam_id":76561198000312126,"connected_time":414000000000,"state":"active","ping":55},{"user_id":297,"name":"Raydn","steam_id":76561198418414338,"connected_time":887000000000,"state":"active","ping":78},{"user_id":257,"name":"Red.Dude115","steam_id":76561198093069044,"connected_time":3664000000000,"state":"active","ping":83},{"user_id":274,"name":"Red_Hatkins","steam_id":76561198214004105,"connected_time":2166000000000,"state":"active","ping":90},{"user_id":268,"name":"Marie","steam_id":76561198056104899,"connected_time":3200000000000,"state":"active","ping":89},{"user_id":293,"name":"Wolverine Fingerblaster","steam_id":76561198095394582,"connected_time":1218000000000,"state":"active","ping":86},{"user_id":294,"name":"Miminkyubus","steam_id":76561198351868860,"connected_time":1213000000000,"state":"active","ping":71}]},{"server_id":37,"name":"Uncletopia | Chicago | 6 | All Maps","name_short":"chi-6","host":"chi-2.us.uncletopia.com","port":27025,"enabled":true,"region":"us-central","cc":"us","latitude":41.881832,"longitude":-87.62318,"reserved":0,"last_update":"0001-01-01T00:00:00Z","name_a2s":"Uncletopia | Chicago | 6 | All Maps","protocol":17,"map":"pl_badwater","folder":"tf","game":"Team Fortress","app_id":440,"player_count":23,"max_players":24,"Bots":0,"server_type":"Dedicated","server_os":"Linux","password":true,"vac":true,"version":"7757534","steam_id":85568392924866363,"keywords":["nocrits","nodmgspread","payload","uncletopia"],"game_id":440,"stv_port":27026,"stv_name":"Uncletopia | Chicago | 6 | All Maps | STV","players":[{"user_id":174,"name":"Huell Howser","steam_id":76561198006387337,"connected_time":476000000000,"state":"active","ping":55},{"user_id":143,"name":"Cerebral Malfunction","steam_id":76561198885651598,"connected_time":2486000000000,"state":"active","ping":65},{"user_id":134,"name":"RAMPAGE","steam_id":76561199183495620,"connected_time":2850000000000,"state":"active","ping":72},{"user_id":171,"name":"shibaba bababool","steam_id":76561197972601902,"connected_time":775000000000,"state":"active","ping":87},{"user_id":137,"name":"rafaelbragasantos","steam_id":76561198060141773,"connected_time":2829000000000,"state":"active","ping":187},{"user_id":169,"name":"Shrakn3l","steam_id":76561198131675625,"connected_time":895000000000,"state":"active","ping":68},{"user_id":142,"name":"Generic_Soda","steam_id":76561197993528721,"connected_time":2555000000000,"state":"active","ping":62},{"user_id":172,"name":"poe","steam_id":76561198155720118,"connected_time":653000000000,"state":"active","ping":49},{"user_id":176,"name":"the private","steam_id":76561198232500756,"connected_time":385000000000,"state":"active","ping":82},{"user_id":167,"name":"NBA2k22hoodmoments","steam_id":76561198383103506,"connected_time":936000000000,"state":"active","ping":58},{"user_id":168,"name":"SooS","steam_id":76561198123441203,"connected_time":917000000000,"state":"active","ping":58},{"user_id":178,"name":"Torip","steam_id":76561198251665862,"connected_time":262000000000,"state":"active","ping":102},{"user_id":157,"name":"âœ§Sex_Goblinâœ§(she/her)","steam_id":76561199057752358,"connected_time":1526000000000,"state":"active","ping":63},{"user_id":177,"name":"RapidkilleR |OsK","steam_id":76561197983157809,"connected_time":348000000000,"state":"active","ping":77},{"user_id":180,"name":"The Inventor of Sprite Cranberr","steam_id":76561198976521735,"connected_time":94000000000,"state":"active","ping":109},{"user_id":156,"name":"MelioiBoi","steam_id":76561198929188491,"connected_time":1556000000000,"state":"active","ping":79},{"user_id":91,"name":"ï¼³ï¼¬ï¼¶ï¼´ï¼£ï¼¨ï¼¡ï¼­ï¼°","steam_id":76561198883157736,"connected_time":5286000000000,"state":"active","ping":116},{"user_id":141,"name":"BearAteMaHoney","steam_id":76561198020439356,"connected_time":2670000000000,"state":"active","ping":65},{"user_id":161,"name":"objective permanence","steam_id":76561198050393061,"connected_time":1436000000000,"state":"active","ping":68},{"user_id":158,"name":"XBOX 360","steam_id":76561198066590783,"connected_time":1500000000000,"state":"active","ping":75},{"user_id":159,"name":"Roloman11","steam_id":76561198308927283,"connected_time":1494000000000,"state":"active","ping":72},{"user_id":166,"name":"Queen Frau the Round","steam_id":76561197999942134,"connected_time":955000000000,"state":"active","ping":45},{"user_id":173,"name":"Tourmaline","steam_id":76561198987049358,"connected_time":606000000000,"state":"active","ping":52}]},{"server_id":38,"name":"Uncletopia | Chicago | 7 | Stopwatch Beta","name_short":"chi-7","host":"chi-2.us.uncletopia.com","port":27035,"enabled":true,"region":"us-central","cc":"us","latitude":41.881832,"longitude":-87.62318,"reserved":0,"last_update":"0001-01-01T00:00:00Z","name_a2s":"Uncletopia | Chicago | 7 | Stopwatch Beta","protocol":17,"map":"workshop/koth_clearcut_b15.ugc2107050255","folder":"tf","game":"Team Fortress","app_id":440,"player_count":0,"max_players":24,"Bots":0,"server_type":"Dedicated","server_os":"Linux","password":true,"vac":true,"version":"7757534","steam_id":85568392924866364,"keywords":["cp","nocrits","nodmgspread","uncletopia"],"game_id":440,"stv_port":27036,"stv_name":"Uncletopia | Chicago | 7 | Stopwatch Beta | STV","players":null},{"server_id":39,"name":"Uncletopia | Chicago | 8 | Community","name_short":"chi-8","host":"chi-2.us.uncletopia.com","port":27045,"enabled":true,"region":"us-central","cc":"us","latitude":41.881832,"longitude":-87.62318,"reserved":0,"last_update":"0001-01-01T00:00:00Z","name_a2s":"Uncletopia | Chicago | 8 | Community","protocol":17,"map":"workshop/pl_corrode_rc2.ugc546577989","folder":"tf","game":"Team Fortress","app_id":440,"player_count":0,"max_players":24,"Bots":0,"server_type":"Dedicated","server_os":"Linux","password":true,"vac":true,"version":"7757534","steam_id":85568392924866365,"keywords":["nocrits","nodmgspread","payload","uncletopia"],"game_id":440,"stv_port":27046,"stv_name":"Uncletopia | Chicago | 8 | Community | STV","players":null},{"server_id":8,"name":"Uncletopia | Dallas | 1 | All Maps","name_short":"dal-1","host":"dal-1.us.uncletopia.com","port":27015,"enabled":true,"region":"us-central","cc":"us","latitude":32.779167,"longitude":-96.80889,"reserved":0,"last_update":"0001-01-01T00:00:00Z","name_a2s":"Uncletopia | Dallas | 1 | All Maps","protocol":17,"map":"pl_badwater","folder":"tf","game":"Team Fortress","app_id":440,"player_count":24,"max_players":24,"Bots":0,"server_type":"Dedicated","server_os":"Linux","password":true,"vac":true,"version":"7757534","steam_id":85568392924469986,"keywords":["nocrits","nodmgspread","payload","uncletopia"],"game_id":440,"stv_port":27016,"stv_name":"Uncletopia | Dallas | 1 | All Maps | STV","players":[{"user_id":387,"name":"Unreliable Narrator","steam_id":76561198021303959,"connected_time":3754000000000,"state":"active","ping":72},{"user_id":396,"name":"Sigiferd","steam_id":76561198148788110,"connected_time":2694000000000,"state":"active","ping":134},{"user_id":418,"name":"DerpyFurret","steam_id":76561198308116092,"connected_time":834000000000,"state":"active","ping":45},{"user_id":412,"name":"BigGoose","steam_id":76561198833281392,"connected_time":1310000000000,"state":"active","ping":112},{"user_id":397,"name":"A Can of Arizona Green Tea","steam_id":76561198062481133,"connected_time":2527000000000,"state":"active","ping":74},{"user_id":308,"name":"Broadsword","steam_id":76561198011160411,"connected_time":10353000000000,"state":"active","ping":80},{"user_id":430,"name":"Bogey","steam_id":76561198096227944,"connected_time":121000000000,"state":"active","ping":39},{"user_id":400,"name":"Pestilence","steam_id":76561199240438215,"connected_time":1783000000000,"state":"active","ping":83},{"user_id":427,"name":"Terratomere","steam_id":76561198067716320,"connected_time":167000000000,"state":"active","ping":89},{"user_id":377,"name":"Karma","steam_id":76561199112057184,"connected_time":4858000000000,"state":"active","ping":62},{"user_id":416,"name":"Skyrim killable children mod","steam_id":76561198862836173,"connected_time":980000000000,"state":"active","ping":112},{"user_id":366,"name":"Jazztral","steam_id":76561198067827514,"connected_time":5577000000000,"state":"active","ping":38},{"user_id":426,"name":"aidan long","steam_id":76561198073022833,"connected_time":188000000000,"state":"active","ping":41},{"user_id":398,"name":"ThreatLvl9 (she/her)","steam_id":76561198079410533,"connected_time":2513000000000,"state":"active","ping":98},{"user_id":409,"name":"happy camper","steam_id":76561198209813328,"connected_time":1552000000000,"state":"active","ping":51},{"user_id":353,"name":"Gun Spy","steam_id":76561198936412406,"connected_time":6043000000000,"state":"active","ping":85},{"user_id":388,"name":"Milkius","steam_id":76561198401392472,"connected_time":3670000000000,"state":"active","ping":91},{"user_id":428,"name":"zzz","steam_id":76561198302976864,"connected_time":162000000000,"state":"active","ping":83},{"user_id":429,"name":"Gibby","steam_id":76561199336569123,"connected_time":152000000000,"state":"active","ping":124},{"user_id":339,"name":"poooop!","steam_id":76561198976760150,"connected_time":7369000000000,"state":"active","ping":70},{"user_id":420,"name":"Tank Lee","steam_id":76561199168481395,"connected_time":724000000000,"state":"active","ping":52},{"user_id":370,"name":"awootism","steam_id":76561198046130018,"connected_time":5049000000000,"state":"active","ping":86},{"user_id":413,"name":"GRAPE","steam_id":76561198150447896,"connected_time":1265000000000,"state":"active","ping":85},{"user_id":382,"name":"Can You Feel It Mr.Krabs","steam_id":76561198128302414,"connected_time":4186000000000,"state":"active","ping":64}]},{"server_id":108,"name":"Uncletopia | Dallas | 2 | All Maps","name_short":"dal-2","host":"dal-1.us.uncletopia.com","port":27025,"enabled":true,"region":"us-central","cc":"us","latitude":32.779167,"longitude":-96.80889,"reserved":0,"last_update":"0001-01-01T00:00:00Z","name_a2s":"Uncletopia | Dallas | 2 | All Maps","protocol":17,"map":"pl_frontier_final","folder":"tf","game":"Team Fortress","app_id":440,"player_count":24,"max_players":24,"Bots":0,"server_type":"Dedicated","server_os":"Linux","password":true,"vac":true,"version":"7757534","steam_id":85568392924469988,"keywords":["nocrits","nodmgspread","payload","uncletopia"],"game_id":440,"stv_port":27026,"stv_name":"Uncletopia | Dallas | 2 | All Maps | STV","players":[{"user_id":145,"name":"heimdall","steam_id":76561198069380992,"connected_time":1025000000000,"state":"active","ping":60},{"user_id":149,"name":"maniacalcoast0","steam_id":76561198982540746,"connected_time":960000000000,"state":"active","ping":130},{"user_id":126,"name":"Big Cat","steam_id":76561198115695203,"connected_time":2429000000000,"state":"active","ping":59},{"user_id":69,"name":"Ping","steam_id":76561199206514106,"connected_time":6127000000000,"state":"active","ping":76},{"user_id":152,"name":"ragnarok","steam_id":76561198273579889,"connected_time":777000000000,"state":"active","ping":91},{"user_id":143,"name":"TurtleReflexes","steam_id":76561198012157836,"connected_time":1373000000000,"state":"active","ping":55},{"user_id":121,"name":"D(b) Hell","steam_id":76561198067869016,"connected_time":2864000000000,"state":"active","ping":70},{"user_id":140,"name":"Horse","steam_id":76561198004583631,"connected_time":1714000000000,"state":"active","ping":96},{"user_id":157,"name":"Black Jack","steam_id":76561198126969463,"connected_time":115000000000,"state":"active","ping":100},{"user_id":137,"name":"Rhutebeer","steam_id":76561198018302761,"connected_time":1805000000000,"state":"active","ping":80},{"user_id":125,"name":"Model of a Modern Major General","steam_id":76561198237304364,"connected_time":2770000000000,"state":"active","ping":131},{"user_id":122,"name":"Aeris","steam_id":76561198287271028,"connected_time":2838000000000,"state":"active","ping":82},{"user_id":123,"name":"RyInc","steam_id":76561198874261643,"connected_time":2803000000000,"state":"active","ping":68},{"user_id":44,"name":"GuillerMak","steam_id":76561198100614936,"connected_time":8030000000000,"state":"active","ping":115},{"user_id":142,"name":"Carl","steam_id":76561198285931413,"connected_time":1630000000000,"state":"active","ping":65},{"user_id":154,"name":"KingSteve42","steam_id":76561198409455888,"connected_time":703000000000,"state":"active","ping":112},{"user_id":156,"name":"The indomitable human spirit","steam_id":76561198282395338,"connected_time":285000000000,"state":"active","ping":93},{"user_id":114,"name":"peachy_day","steam_id":76561198170698267,"connected_time":3234000000000,"state":"active","ping":59},{"user_id":115,"name":"porz","steam_id":76561198195711453,"connected_time":3226000000000,"state":"active","ping":45},{"user_id":52,"name":"Reksal","steam_id":76561198065694991,"connected_time":7857000000000,"state":"active","ping":82},{"user_id":135,"name":"Beansniffer94","steam_id":76561198815600865,"connected_time":1926000000000,"state":"active","ping":63},{"user_id":155,"name":"jello","steam_id":76561198149683030,"connected_time":698000000000,"state":"active","ping":94},{"user_id":151,"name":"LemonPoppyMuffin","steam_id":76561198044813750,"connected_time":914000000000,"state":"active","ping":60},{"user_id":136,"name":"tailorturtle","steam_id":76561198107481127,"connected_time":1904000000000,"state":"active","ping":86}]},{"server_id":5,"name":"Uncletopia | Frankfurt | 1 | All Maps","name_short":"frk-1","host":"frk-1.de.uncletopia.com","port":27015,"enabled":true,"region":"eu","cc":"de","latitude":50.110924,"longitude":8.682127,"reserved":0,"last_update":"0001-01-01T00:00:00Z","name_a2s":"Uncletopia | Frankfurt | 1 | All Maps","protocol":17,"map":"pl_pier","folder":"tf","game":"Team Fortress","app_id":440,"player_count":20,"max_players":24,"Bots":0,"server_type":"Dedicated","server_os":"Linux","password":true,"vac":true,"version":"7757534","steam_id":85568392924469989,"keywords":["nocrits","nodmgspread","payload","uncletopia"],"game_id":440,"stv_port":27016,"stv_name":"Uncletopia | Frankfurt | 1 | All Maps | STV","players":[{"user_id":760,"name":"pet","steam_id":76561198993222303,"connected_time":3282000000000,"state":"active","ping":74},{"user_id":806,"name":"Piteras","steam_id":76561198858532207,"connected_time":1208000000000,"state":"active","ping":71},{"user_id":603,"name":"A stripper","steam_id":76561198034865891,"connected_time":14895000000000,"state":"active","ping":58},{"user_id":824,"name":"Alexei","steam_id":76561197987169026,"connected_time":577000000000,"state":"active","ping":61},{"user_id":812,"name":"rah","steam_id":76561198056381418,"connected_time":1021000000000,"state":"active","ping":44},{"user_id":813,"name":"DEADASS","steam_id":76561198051701484,"connected_time":992000000000,"state":"active","ping":71},{"user_id":821,"name":"roby","steam_id":76561198044660393,"connected_time":642000000000,"state":"active","ping":46},{"user_id":826,"name":"That Phlog mfer","steam_id":76561198050416948,"connected_time":90000000000,"state":"active","ping":55},{"user_id":781,"name":"rummy","steam_id":76561197997573379,"connected_time":2576000000000,"state":"active","ping":66},{"user_id":802,"name":"Furkan","steam_id":76561198175613166,"connected_time":1361000000000,"state":"active","ping":75},{"user_id":816,"name":"(2)flava","steam_id":76561198963956933,"connected_time":940000000000,"state":"active","ping":69},{"user_id":794,"name":"SaltyCupcakes","steam_id":76561198256386417,"connected_time":2292000000000,"state":"active","ping":57},{"user_id":827,"name":"ProfessorCrack","steam_id":76561199035475627,"connected_time":75000000000,"state":"active","ping":81},{"user_id":822,"name":"zoinks!","steam_id":76561198068645362,"connected_time":616000000000,"state":"active","ping":52},{"user_id":818,"name":"Loz405 (YouTube)","steam_id":76561198799315884,"connected_time":900000000000,"state":"active","ping":60},{"user_id":768,"name":"tallen","steam_id":76561198061708595,"connected_time":3028000000000,"state":"active","ping":65},{"user_id":793,"name":"Teecho","steam_id":76561197995269610,"connected_time":2423000000000,"state":"active","ping":68},{"user_id":809,"name":"mud","steam_id":76561198141497461,"connected_time":1115000000000,"state":"active","ping":57},{"user_id":792,"name":"Joejee","steam_id":76561199122423976,"connected_time":2431000000000,"state":"active","ping":68},{"user_id":810,"name":"Baron","steam_id":76561198021901783,"connected_time":1113000000000,"state":"active","ping":68}]},{"server_id":110,"name":"Uncletopia | Frankfurt | 2 | All Maps","name_short":"frk-2","host":"frk-1.de.uncletopia.com","port":27025,"enabled":true,"region":"eu","cc":"de","latitude":50.110924,"longitude":8.682127,"reserved":0,"last_update":"0001-01-01T00:00:00Z","name_a2s":"Uncletopia | Frankfurt | 2 | All Maps","protocol":17,"map":"cp_sunshine","folder":"tf","game":"Team Fortress","app_id":440,"player_count":20,"max_players":24,"Bots":0,"server_type":"Dedicated","server_os":"Linux","password":true,"vac":true,"version":"7757534","steam_id":85568392924469990,"keywords":["cp","nocrits","nodmgspread","uncletopia"],"game_id":440,"stv_port":27026,"stv_name":"Uncletopia | Frankfurt | 2 | All Maps | STV","players":[{"user_id":661,"name":"Artur â˜»","steam_id":76561198264297604,"connected_time":1983000000000,"state":"spawning","ping":80},{"user_id":662,"name":"Testicular torsion","steam_id":76561198119547399,"connected_time":1856000000000,"state":"active","ping":193},{"user_id":626,"name":"hananamanna","steam_id":76561198006570285,"connected_time":6940000000000,"state":"active","ping":107},{"user_id":664,"name":"Vershal Smershal","steam_id":76561198116223995,"connected_time":1765000000000,"state":"spawning","ping":61},{"user_id":646,"name":"r06u3","steam_id":76561198254099253,"connected_time":3585000000000,"state":"spawning","ping":356},{"user_id":629,"name":"Udinese Dion","steam_id":76561198067931573,"connected_time":6215000000000,"state":"active","ping":52},{"user_id":655,"name":"Zer0","steam_id":76561198128213848,"connected_time":2595000000000,"state":"spawning","ping":86},{"user_id":639,"name":"lettuce at 58p","steam_id":76561199401283123,"connected_time":5002000000000,"state":"active","ping":61},{"user_id":666,"name":"MARCEL","steam_id":76561198083122029,"connected_time":1611000000000,"state":"active","ping":219},{"user_id":636,"name":"Johan","steam_id":76561199380849468,"connected_time":5117000000000,"state":"active","ping":66},{"user_id":552,"name":"Fat Pigeon","steam_id":76561198817940142,"connected_time":11767000000000,"state":"active","ping":54},{"user_id":650,"name":"Jonten","steam_id":76561198012757253,"connected_time":3420000000000,"state":"active","ping":49},{"user_id":657,"name":"dn4k","steam_id":76561199221755690,"connected_time":2439000000000,"state":"active","ping":82},{"user_id":669,"name":"Jonathan","steam_id":76561198087988880,"connected_time":89000000000,"state":"active","ping":48},{"user_id":622,"name":"Anri Okita's Massive Milkers","steam_id":76561199186352720,"connected_time":7491000000000,"state":"active","ping":168},{"user_id":653,"name":"PizzaPete123","steam_id":76561198089478290,"connected_time":2908000000000,"state":"active","ping":55},{"user_id":641,"name":"sm0ke","steam_id":76561198198977226,"connected_time":4741000000000,"state":"active","ping":148},{"user_id":671,"name":"Old Hat","steam_id":76561197994673297,"connected_time":27000000000,"state":"spawning","ping":48},{"user_id":598,"name":"â™¥ aura â™¥","steam_id":76561198066258544,"connected_time":9153000000000,"state":"spawning","ping":46},{"user_id":652,"name":"JustqalaMort","steam_id":76561198160141485,"connected_time":3420000000000,"state":"active","ping":119}]},{"server_id":308,"name":"Uncletopia | Frankfurt | 3 | All Maps","name_short":"frk-3","host":"frk-1.de.uncletopia.com","port":27035,"enabled":true,"region":"eu","cc":"de","latitude":50.110924,"longitude":8.682127,"reserved":0,"last_update":"0001-01-01T00:00:00Z","name_a2s":"Uncletopia | Frankfurt | 3 | All Maps","protocol":17,"map":"pl_upward","folder":"tf","game":"Team Fortress","app_id":440,"player_count":24,"max_players":24,"Bots":0,"server_type":"Dedicated","server_os":"Linux","password":true,"vac":true,"version":"7757534","steam_id":85568392924504274,"keywords":["nocrits","nodmgspread","payload","uncletopia"],"game_id":440,"stv_port":27036,"stv_name":"Uncletopia | Frankfurt | 3 | All Maps | STV","players":[{"user_id":181,"name":"Reast","steam_id":76561198022796927,"connected_time":2000000000,"state":"spawning","ping":65},{"user_id":172,"name":"marco / s /","steam_id":76561198300120382,"connected_time":232000000000,"state":"active","ping":66},{"user_id":132,"name":"i uWu for Ches","steam_id":76561198097507847,"connected_time":2291000000000,"state":"active","ping":75},{"user_id":170,"name":"a Regurar Barroon","steam_id":76561198834913692,"connected_time":259000000000,"state":"active","ping":69},{"user_id":99,"name":"ÐšÑ€Ð¸Ð¼Ð¸Ð½Ð°Ð»ÑŒÐ½Ñ‹Ð¹ ÑƒÑ‰Ðµ","steam_id":76561198034136409,"connected_time":5031000000000,"state":"active","ping":89},{"user_id":177,"name":"engie?","steam_id":76561198331852832,"connected_time":169000000000,"state":"active","ping":57},{"user_id":95,"name":"Forklift Certified","steam_id":76561198001816577,"connected_time":6155000000000,"state":"active","ping":101},{"user_id":162,"name":"Mr.TEA","steam_id":76561198014381591,"connected_time":1195000000000,"state":"active","ping":64},{"user_id":137,"name":"yet another cringe name","steam_id":76561198170609049,"connected_time":2210000000000,"state":"active","ping":63},{"user_id":179,"name":"KÃ¤pt'n","steam_id":76561198082347638,"connected_time":56000000000,"state":"active","ping":139},{"user_id":143,"name":"finbar","steam_id":76561198056812396,"connected_time":1840000000000,"state":"active","ping":78},{"user_id":168,"name":"Healslut Manwhore","steam_id":76561198114164702,"connected_time":897000000000,"state":"active","ping":63},{"user_id":178,"name":"MackerelFD","steam_id":76561198371488571,"connected_time":101000000000,"state":"active","ping":76},{"user_id":166,"name":"Rask","steam_id":76561198052934944,"connected_time":1120000000000,"state":"active","ping":100},{"user_id":180,"name":"sigro","steam_id":76561198240368084,"connected_time":31000000000,"state":"active","ping":77},{"user_id":108,"name":"speedy_vespa","steam_id":76561199092013231,"connected_time":4672000000000,"state":"active","ping":90},{"user_id":158,"name":"Aesthetic Alcoholism","steam_id":76561198044418968,"connected_time":1432000000000,"state":"active","ping":49},{"user_id":92,"name":"Can I get a Beep Beep","steam_id":76561198010730967,"connected_time":6757000000000,"state":"active","ping":85},{"user_id":115,"name":"Jackie Chan","steam_id":76561199378865926,"connected_time":4362000000000,"state":"active","ping":84},{"user_id":146,"name":"Do you uWu!?","steam_id":76561198067204908,"connected_time":1817000000000,"state":"active","ping":73},{"user_id":176,"name":"the babadook","steam_id":76561198040168682,"connected_time":185000000000,"state":"active","ping":59},{"user_id":156,"name":"H2n9","steam_id":76561198055811259,"connected_time":1494000000000,"state":"active","ping":73},{"user_id":96,"name":"Shadowengell","steam_id":76561198019284410,"connected_time":5986000000000,"state":"active","ping":109},{"user_id":94,"name":"Unstable Goat","steam_id":76561197985788557,"connected_time":6674000000000,"state":"active","ping":85}]},{"server_id":309,"name":"Uncletopia | Frankfurt | 4 | All Maps","name_short":"frk-4","host":"frk-1.de.uncletopia.com","port":27045,"enabled":true,"region":"eu","cc":"de","latitude":50.110924,"longitude":8.682127,"reserved":0,"last_update":"0001-01-01T00:00:00Z","name_a2s":"Uncletopia | Frankfurt | 4 | All Maps","protocol":17,"map":"pl_snowycoast","folder":"tf","game":"Team Fortress","app_id":440,"player_count":0,"max_players":24,"Bots":0,"server_type":"Dedicated","server_os":"Linux","password":true,"vac":true,"version":"7757534","steam_id":85568392924504275,"keywords":["nocrits","nodmgspread","payload","uncletopia"],"game_id":440,"stv_port":27046,"stv_name":"Uncletopia | Frankfurt | 4 | All Maps | STV","players":null},{"server_id":310,"name":"Uncletopia | Frankfurt | 5 | All Maps","name_short":"frk-5","host":"frk-1.de.uncletopia.com","port":27055,"enabled":true,"region":"eu","cc":"de","latitude":50.110924,"longitude":8.682127,"reserved":0,"last_update":"0001-01-01T00:00:00Z","name_a2s":"Uncletopia | Frankfurt | 5 | All Maps","protocol":17,"map":"pl_swiftwater_final1","folder":"tf","game":"Team Fortress","app_id":440,"player_count":24,"max_players":24,"Bots":0,"server_type":"Dedicated","server_os":"Linux","password":true,"vac":true,"version":"7757534","steam_id":85568392924504277,"keywords":["nocrits","nodmgspread","payload","uncletopia"],"game_id":440,"stv_port":27056,"stv_name":"Uncletopia | Frankfurt | 5 | All Maps | STV","players":[{"user_id":676,"name":"Alienketchup","steam_id":76561197970585162,"connected_time":39000000000,"state":"active","ping":75},{"user_id":649,"name":"Buru","steam_id":76561198024146649,"connected_time":1946000000000,"state":"active","ping":46},{"user_id":674,"name":"Germanium_Ge","steam_id":76561198130561775,"connected_time":346000000000,"state":"active","ping":56},{"user_id":650,"name":"portal","steam_id":76561198094569952,"connected_time":1938000000000,"state":"active","ping":59},{"user_id":651,"name":"MordyQ","steam_id":76561198025613597,"connected_time":1937000000000,"state":"active","ping":102},{"user_id":652,"name":"After8","steam_id":76561198090750865,"connected_time":1915000000000,"state":"active","ping":67},{"user_id":653,"name":"Haha?","steam_id":76561198056882245,"connected_time":1907000000000,"state":"active","ping":50},{"user_id":675,"name":"Chinese censorship Bureau","steam_id":76561198397898616,"connected_time":315000000000,"state":"active","ping":75},{"user_id":677,"name":"morco3420","steam_id":76561199360257938,"connected_time":36000000000,"state":"active","ping":94},{"user_id":664,"name":"_Mr.Nobody_","steam_id":76561198119517630,"connected_time":595000000000,"state":"active","ping":69},{"user_id":670,"name":"à¶žbominasus 2137  #SaveTF2","steam_id":76561198030062981,"connected_time":482000000000,"state":"active","ping":68},{"user_id":678,"name":"Mr.killer","steam_id":76561198290584189,"connected_time":35000000000,"state":"active","ping":79},{"user_id":645,"name":"Sirzen","steam_id":76561198170155434,"connected_time":2316000000000,"state":"active","ping":50},{"user_id":590,"name":"Carrotcracker","steam_id":76561198034862396,"connected_time":7461000000000,"state":"active","ping":79},{"user_id":635,"name":"YOUR MOM GAMING","steam_id":76561199429562693,"connected_time":3453000000000,"state":"active","ping":85},{"user_id":619,"name":"zak","steam_id":76561197998895428,"connected_time":4570000000000,"state":"active","ping":58},{"user_id":657,"name":"MAGGOTS!!BBX","steam_id":76561198326015472,"connected_time":1759000000000,"state":"active","ping":70},{"user_id":620,"name":"Jooo","steam_id":76561198084473792,"connected_time":4499000000000,"state":"active","ping":86},{"user_id":636,"name":"Domestic_Terrorism_Gamming","steam_id":76561199465207725,"connected_time":3446000000000,"state":"active","ping":79},{"user_id":551,"name":"shadow39344","steam_id":76561198090639618,"connected_time":9960000000000,"state":"active","ping":61},{"user_id":625,"name":"Balls","steam_id":76561198086400484,"connected_time":4293000000000,"state":"active","ping":77},{"user_id":663,"name":"bibib17","steam_id":76561198143319217,"connected_time":822000000000,"state":"active","ping":77},{"user_id":638,"name":"DÃ¥vid","steam_id":76561198184135755,"connected_time":3382000000000,"state":"active","ping":54},{"user_id":673,"name":"adam","steam_id":76561199024816404,"connected_time":426000000000,"state":"active","ping":73}]},{"server_id":311,"name":"Uncletopia | Frankfurt | 6 | All Maps","name_short":"frk-6","host":"frk-1.de.uncletopia.com","port":27065,"enabled":true,"region":"eu","cc":"de","latitude":50.110924,"longitude":8.682127,"reserved":0,"last_update":"0001-01-01T00:00:00Z","name_a2s":"Uncletopia | Frankfurt | 6 | All Maps","protocol":17,"map":"cp_altitude","folder":"tf","game":"Team Fortress","app_id":440,"player_count":24,"max_players":24,"Bots":0,"server_type":"Dedicated","server_os":"Linux","password":true,"vac":true,"version":"7757534","steam_id":85568392924504278,"keywords":["cp","nocrits","nodmgspread","uncletopia"],"game_id":440,"stv_port":27066,"stv_name":"Uncletopia | Frankfurt | 6 | All Maps | STV","players":[{"user_id":538,"name":"Eat Shit","steam_id":76561198226649464,"connected_time":10317000000000,"state":"active","ping":69},{"user_id":521,"name":"Edmost","steam_id":76561198090748165,"connected_time":11644000000000,"state":"active","ping":67},{"user_id":588,"name":"vvuglic","steam_id":76561198150341955,"connected_time":5092000000000,"state":"active","ping":82},{"user_id":557,"name":"Tesla","steam_id":76561198378649144,"connected_time":8922000000000,"state":"active","ping":71},{"user_id":650,"name":"proph","steam_id":76561197998803950,"connected_time":327000000000,"state":"active","ping":54},{"user_id":612,"name":"moser23","steam_id":76561197960543171,"connected_time":3428000000000,"state":"active","ping":51},{"user_id":646,"name":"Shynii","steam_id":76561198194682105,"connected_time":801000000000,"state":"active","ping":70},{"user_id":645,"name":"flange","steam_id":76561198040182692,"connected_time":841000000000,"state":"active","ping":54},{"user_id":636,"name":"Guaguing","steam_id":76561198068961508,"connected_time":2056000000000,"state":"active","ping":75},{"user_id":640,"name":"Mr.B","steam_id":76561199204478925,"connected_time":1531000000000,"state":"active","ping":117},{"user_id":629,"name":"Milca_11 [Wielder of Ham]","steam_id":76561198848650365,"connected_time":2241000000000,"state":"active","ping":92},{"user_id":649,"name":"KingofCubes","steam_id":76561198258037513,"connected_time":649000000000,"state":"active","ping":84},{"user_id":604,"name":"buxu","steam_id":76561197961355259,"connected_time":3591000000000,"state":"active","ping":62},{"user_id":641,"name":"Ecton","steam_id":76561198025103720,"connected_time":1528000000000,"state":"active","ping":62},{"user_id":642,"name":"meriones","steam_id":76561198034234373,"connected_time":1452000000000,"state":"active","ping":51},{"user_id":644,"name":"frosty","steam_id":76561198094560834,"connected_time":856000000000,"state":"active","ping":66},{"user_id":554,"name":"Crunchips","steam_id":76561198004336818,"connected_time":9309000000000,"state":"active","ping":91},{"user_id":632,"name":"Terrans","steam_id":76561198307559896,"connected_time":2191000000000,"state":"active","ping":62},{"user_id":647,"name":"Monara12th","steam_id":76561199478607360,"connected_time":761000000000,"state":"active","ping":68},{"user_id":558,"name":"à¶ž","steam_id":76561198310232650,"connected_time":8852000000000,"state":"active","ping":105},{"user_id":634,"name":"rebalint","steam_id":76561198283840674,"connected_time":2166000000000,"state":"active","ping":109},{"user_id":619,"name":"`Ë˜Â´antifriz","steam_id":76561198088806574,"connected_time":3157000000000,"state":"active","ping":67},{"user_id":624,"name":"Dora","steam_id":76561198072207649,"connected_time":2770000000000,"state":"active","ping":74},{"user_id":638,"name":"Uncle Sam","steam_id":76561198001991775,"connected_time":1866000000000,"state":"active","ping":50}]},{"server_id":23,"name":"Uncletopia | Frankfurt | 7 | Stopwatch Beta","name_short":"frk-7","host":"frk-1.de.uncletopia.com","port":27075,"enabled":true,"region":"eu","cc":"de","latitude":50.110924,"longitude":8.682127,"reserved":0,"last_update":"0001-01-01T00:00:00Z","name_a2s":"Uncletopia | Frankfurt | 7 | Stopwatch Beta","protocol":17,"map":"koth_lakeside_final","folder":"tf","game":"Team Fortress","app_id":440,"player_count":0,"max_players":24,"Bots":0,"server_type":"Dedicated","server_os":"Linux","password":true,"vac":true,"version":"7757534","steam_id":85568392924742827,"keywords":["cp","nocrits","nodmgspread","uncletopia"],"game_id":440,"stv_port":27076,"stv_name":"Uncletopia | Frankfurt | 7 | Stopwatch Beta | STV","players":null},{"server_id":24,"name":"Uncletopia | Frankfurt | 8 | Community","name_short":"frk-8","host":"frk-1.de.uncletopia.com","port":27085,"enabled":true,"region":"eu","cc":"de","latitude":50.110924,"longitude":8.682127,"reserved":0,"last_update":"0001-01-01T00:00:00Z","name_a2s":"Uncletopia | Frankfurt | 8 | Community","protocol":17,"map":"workshop/koth_bagel_rc6.ugc2514036946","folder":"tf","game":"Team Fortress","app_id":440,"player_count":2,"max_players":24,"Bots":0,"server_type":"Dedicated","server_os":"Linux","password":true,"vac":true,"version":"7757534","steam_id":85568392924742828,"keywords":["cp","nocrits","nodmgspread","uncletopia"],"game_id":440,"stv_port":27086,"stv_name":"Uncletopia | Frankfurt | 8 | Community | STV","players":[{"user_id":64,"name":"Slessplee","steam_id":76561198315732431,"connected_time":541000000000,"state":"active","ping":152},{"user_id":65,"name":"Cosmic Yoshi","steam_id":76561199195528497,"connected_time":536000000000,"state":"active","ping":164}]},{"server_id":202,"name":"Uncletopia | Hong Kong | 1 | All Maps","name_short":"hgk-1","host":"hgk-1.hk.uncletopia.com","port":27015,"enabled":true,"region":"asia","cc":"hk","latitude":22.302711,"longitude":114.177216,"reserved":0,"last_update":"0001-01-01T00:00:00Z","name_a2s":"Uncletopia | Hong Kong | 1 | All Maps","protocol":17,"map":"pl_borneo","folder":"tf","game":"Team Fortress","app_id":440,"player_count":0,"max_players":24,"Bots":0,"server_type":"Dedicated","server_os":"Linux","password":true,"vac":true,"version":"7757534","steam_id":85568392924494504,"keywords":["nocrits","nodmgspread","payload","uncletopia"],"game_id":440,"stv_port":27016,"stv_name":"Uncletopia | Hong Kong | 1 | All Maps | STV","players":null},{"server_id":1,"name":"Uncletopia | Los Angeles | 1 | All Maps","name_short":"lax-1","host":"lax-1.us.uncletopia.com","port":27015,"enabled":true,"region":"us-west","cc":"us","latitude":33.94279,"longitude":-118.41004,"reserved":0,"last_update":"0001-01-01T00:00:00Z","name_a2s":"Uncletopia | Los Angeles | 1 | All Maps","protocol":17,"map":"koth_lakeside_final","folder":"tf","game":"Team Fortress","app_id":440,"player_count":0,"max_players":24,"Bots":0,"server_type":"Dedicated","server_os":"Linux","password":true,"vac":true,"version":"7757534","steam_id":85568392924469991,"keywords":["cp","nocrits","nodmgspread","uncletopia"],"game_id":440,"stv_port":27016,"stv_name":"Uncletopia | Los Angeles | 1 | All Maps | STV","players":null},{"server_id":112,"name":"Uncletopia | Los Angeles | 2 | All Maps","name_short":"lax-2","host":"lax-1.us.uncletopia.com","port":27025,"enabled":true,"region":"us-west","cc":"us","latitude":33.94279,"longitude":-118.41004,"reserved":0,"last_update":"0001-01-01T00:00:00Z","name_a2s":"Uncletopia | Los Angeles | 2 | All Maps","protocol":17,"map":"pl_pier","folder":"tf","game":"Team Fortress","app_id":440,"player_count":2,"max_players":24,"Bots":0,"server_type":"Dedicated","server_os":"Linux","password":true,"vac":true,"version":"7757534","steam_id":85568392924469992,"keywords":["nocrits","nodmgspread","payload","uncletopia"],"game_id":440,"stv_port":27026,"stv_name":"Uncletopia | Los Angeles | 2 | All Maps | STV","players":[{"user_id":10,"name":"Sakisano","steam_id":76561198245814880,"connected_time":42000000000,"state":"active","ping":102},{"user_id":7,"name":"Titocheeto","steam_id":76561198994684924,"connected_time":948000000000,"state":"active","ping":100}]},{"server_id":324,"name":"Uncletopia | Los Angeles | 3 | All Maps","name_short":"lax-3","host":"lax-1.us.uncletopia.com","port":27035,"enabled":true,"region":"us-west","cc":"us","latitude":33.94279,"longitude":-118.41004,"reserved":0,"last_update":"0001-01-01T00:00:00Z","name_a2s":"Uncletopia | Los Angeles | 3 | All Maps","protocol":17,"map":"pl_frontier_final","folder":"tf","game":"Team Fortress","app_id":440,"player_count":24,"max_players":24,"Bots":0,"server_type":"Dedicated","server_os":"Linux","password":true,"vac":true,"version":"7757534","steam_id":85568392924510198,"keywords":["nocrits","nodmgspread","payload","uncletopia"],"game_id":440,"stv_port":27036,"stv_name":"Uncletopia | Los Angeles | 3 | All Maps | STV","players":[{"user_id":208,"name":"\"LET'S GO JUAN!\"","steam_id":76561198978797171,"connected_time":187000000000,"state":"active","ping":120},{"user_id":149,"name":"Hazvia","steam_id":76561198085339844,"connected_time":3934000000000,"state":"active","ping":114},{"user_id":187,"name":"soweli","steam_id":76561198044363630,"connected_time":1854000000000,"state":"active","ping":96},{"user_id":181,"name":"Natalie","steam_id":76561198048848289,"connected_time":2406000000000,"state":"active","ping":56},{"user_id":197,"name":"Andreshatesmondays","steam_id":76561198889349797,"connected_time":624000000000,"state":"active","ping":92},{"user_id":192,"name":"phil.harkam","steam_id":76561198307081282,"connected_time":1252000000000,"state":"active","ping":105},{"user_id":164,"name":"Saturn","steam_id":76561198109064967,"connected_time":3157000000000,"state":"active","ping":99},{"user_id":193,"name":"O Dog","steam_id":76561198133498912,"connected_time":1158000000000,"state":"active","ping":46},{"user_id":183,"name":"GLXy","steam_id":76561198207551544,"connected_time":2150000000000,"state":"active","ping":97},{"user_id":155,"name":"OttoDogX","steam_id":76561198042007578,"connected_time":3650000000000,"state":"active","ping":45},{"user_id":132,"name":"Dietrich","steam_id":76561198028163840,"connected_time":5211000000000,"state":"active","ping":53},{"user_id":166,"name":"nothowon","steam_id":76561198937601452,"connected_time":2985000000000,"state":"active","ping":107},{"user_id":198,"name":"April","steam_id":76561198424540826,"connected_time":613000000000,"state":"active","ping":68},{"user_id":184,"name":"Callahan","steam_id":76561197976928457,"connected_time":2092000000000,"state":"active","ping":79},{"user_id":167,"name":"DylChill616","steam_id":76561198194576953,"connected_time":2975000000000,"state":"active","ping":100},{"user_id":177,"name":"ohton","steam_id":76561199033233448,"connected_time":2630000000000,"state":"active","ping":50},{"user_id":195,"name":"Cactusâ„¢ â™¥","steam_id":76561198036441270,"connected_time":982000000000,"state":"active","ping":73},{"user_id":194,"name":"LX-24","steam_id":76561198016168993,"connected_time":1133000000000,"state":"active","ping":83},{"user_id":201,"name":"Amadeus","steam_id":76561198160047173,"connected_time":463000000000,"state":"active","ping":74},{"user_id":200,"name":"kortz","steam_id":76561198200508355,"connected_time":567000000000,"state":"active","ping":45},{"user_id":82,"name":"Also UbeR","steam_id":76561198166926843,"connected_time":8697000000000,"state":"active","ping":49},{"user_id":207,"name":"liftin'","steam_id":76561199089515791,"connected_time":211000000000,"state":"active","ping":58},{"user_id":180,"name":"Fun Police","steam_id":76561198267520577,"connected_time":2465000000000,"state":"active","ping":81},{"user_id":176,"name":"strangedeath","steam_id":76561198154159297,"connected_time":2801000000000,"state":"active","ping":114}]},{"server_id":25,"name":"Uncletopia | Los Angeles | 4 | Stopwatch Beta","name_short":"lax-4","host":"lax-1.us.uncletopia.com","port":27045,"enabled":true,"region":"us-west","cc":"us","latitude":33.94279,"longitude":-118.41004,"reserved":0,"last_update":"0001-01-01T00:00:00Z","name_a2s":"Uncletopia | Los Angeles | 4 | Stopwatch Beta","protocol":17,"map":"pl_swiftwater_final1","folder":"tf","game":"Team Fortress","app_id":440,"player_count":0,"max_players":24,"Bots":0,"server_type":"Dedicated","server_os":"Linux","password":true,"vac":true,"version":"7757534","steam_id":85568392924510199,"keywords":["nocrits","nodmgspread","payload","uncletopia"],"game_id":440,"stv_port":27046,"stv_name":"Uncletopia | Los Angeles | 4 | Stopwatch Beta | STV","players":null},{"server_id":11,"name":"Uncletopia | London | 1 | All Maps","name_short":"lon-1","host":"lon-1.uk.uncletopia.com","port":27015,"enabled":true,"region":"eu","cc":"gb","latitude":51.509865,"longitude":-0.118092,"reserved":0,"last_update":"0001-01-01T00:00:00Z","name_a2s":"Uncletopia | London | 1 | All Maps","protocol":17,"map":"pl_badwater","folder":"tf","game":"Team Fortress","app_id":440,"player_count":24,"max_players":24,"Bots":0,"server_type":"Dedicated","server_os":"Linux","password":true,"vac":true,"version":"7757534","steam_id":85568392924367362,"keywords":["nocrits","nodmgspread","payload","uncletopia"],"game_id":440,"stv_port":27016,"stv_name":"Uncletopia | London | 1 | All Maps | STV","players":[{"user_id":535,"name":"Spycrab101","steam_id":76561198141836805,"connected_time":5152000000000,"state":"active","ping":51},{"user_id":564,"name":"Droy","steam_id":76561198065854668,"connected_time":2014000000000,"state":"active","ping":45},{"user_id":539,"name":"JOHN GAMING (kinda based)","steam_id":76561199085822219,"connected_time":4958000000000,"state":"active","ping":86},{"user_id":563,"name":"addicted","steam_id":76561199129801006,"connected_time":2037000000000,"state":"active","ping":51},{"user_id":551,"name":"Labial","steam_id":76561198385163046,"connected_time":4535000000000,"state":"active","ping":44},{"user_id":558,"name":"Aaron","steam_id":76561197990046953,"connected_time":2721000000000,"state":"active","ping":70},{"user_id":575,"name":"sora!","steam_id":76561198096547662,"connected_time":964000000000,"state":"active","ping":56},{"user_id":559,"name":"Bepperman","steam_id":76561198397517828,"connected_time":2162000000000,"state":"active","ping":52},{"user_id":570,"name":"arcSolver","steam_id":76561198212013944,"connected_time":1766000000000,"state":"active","ping":50},{"user_id":443,"name":"Jofiah/TTV","steam_id":76561197977233962,"connected_time":11985000000000,"state":"active","ping":44},{"user_id":541,"name":"panakid","steam_id":76561198364121077,"connected_time":4818000000000,"state":"active","ping":103},{"user_id":571,"name":"Graceium","steam_id":76561198271802336,"connected_time":1582000000000,"state":"active","ping":58},{"user_id":579,"name":"Minister Krabs","steam_id":76561199229291603,"connected_time":564000000000,"state":"active","ping":66},{"user_id":582,"name":"Kretur","steam_id":76561198161086266,"connected_time":455000000000,"state":"active","ping":99},{"user_id":561,"name":"Wacka Wacka","steam_id":76561198146194820,"connected_time":2082000000000,"state":"active","ping":54},{"user_id":583,"name":"brian","steam_id":76561198091353390,"connected_time":156000000000,"state":"active","ping":44},{"user_id":585,"name":"SuperBob103","steam_id":76561199175360012,"connected_time":114000000000,"state":"active","ping":51},{"user_id":523,"name":"Caerot","steam_id":76561198839000676,"connected_time":7167000000000,"state":"active","ping":68},{"user_id":454,"name":"Qpangfire","steam_id":76561198094354139,"connected_time":11339000000000,"state":"active","ping":45},{"user_id":529,"name":"BreadBubbles","steam_id":76561198174332826,"connected_time":5897000000000,"state":"active","ping":55},{"user_id":516,"name":"dec","steam_id":76561198009660168,"connected_time":7328000000000,"state":"active","ping":53},{"user_id":527,"name":"CptHavvock","steam_id":76561199189740651,"connected_time":6789000000000,"state":"active","ping":75},{"user_id":567,"name":"a dollop of bird","steam_id":76561198089003514,"connected_time":1997000000000,"state":"active","ping":52},{"user_id":581,"name":"xcvbwravdloiy56qw","steam_id":76561198448551449,"connected_time":563000000000,"state":"active","ping":40}]},{"server_id":114,"name":"Uncletopia | London | 2 | All Maps","name_short":"lon-2","host":"lon-1.uk.uncletopia.com","port":27025,"enabled":true,"region":"eu","cc":"gb","latitude":51.509865,"longitude":-0.118092,"reserved":0,"last_update":"0001-01-01T00:00:00Z","name_a2s":"Uncletopia | London | 2 | All Maps","protocol":17,"map":"cp_snakewater_final1","folder":"tf","game":"Team Fortress","app_id":440,"player_count":0,"max_players":24,"Bots":0,"server_type":"Dedicated","server_os":"Linux","password":true,"vac":true,"version":"7757534","steam_id":85568392924470941,"keywords":["cp","nocrits","nodmgspread","uncletopia"],"game_id":440,"stv_port":27026,"stv_name":"Uncletopia | London | 2 | All Maps | STV","players":null},{"server_id":320,"name":"Uncletopia | London | 3 | All Maps","name_short":"lon-3","host":"lon-1.uk.uncletopia.com","port":27035,"enabled":true,"region":"eu","cc":"gb","latitude":51.509865,"longitude":-0.118092,"reserved":0,"last_update":"0001-01-01T00:00:00Z","name_a2s":"Uncletopia | London | 3 | All Maps","protocol":17,"map":"cp_process_final","folder":"tf","game":"Team Fortress","app_id":440,"player_count":24,"max_players":24,"Bots":0,"server_type":"Dedicated","server_os":"Linux","password":true,"vac":true,"version":"7757534","steam_id":85568392924510192,"keywords":["cp","nocrits","nodmgspread","uncletopia"],"game_id":440,"stv_port":27036,"stv_name":"Uncletopia | London | 3 | All Maps | STV","players":[{"user_id":437,"name":"ev1lboyo","steam_id":76561199199499453,"connected_time":595000000000,"state":"active","ping":75},{"user_id":390,"name":"ARTI","steam_id":76561199446989613,"connected_time":3990000000000,"state":"active","ping":70},{"user_id":439,"name":"Green/Black Weezer CD#36","steam_id":76561198851520459,"connected_time":557000000000,"state":"active","ping":130},{"user_id":435,"name":"Le pÃ¨re Volca","steam_id":76561198235814492,"connected_time":810000000000,"state":"active","ping":82},{"user_id":314,"name":"UltimateSlayer","steam_id":76561198384109309,"connected_time":7937000000000,"state":"active","ping":47},{"user_id":422,"name":"H2Orange","steam_id":76561198082128552,"connected_time":1334000000000,"state":"active","ping":76},{"user_id":410,"name":"Absolute_clamp","steam_id":76561198958563865,"connected_time":2914000000000,"state":"active","ping":38},{"user_id":405,"name":"hideki","steam_id":76561198030728517,"connected_time":3099000000000,"state":"active","ping":45},{"user_id":438,"name":"bbZ","steam_id":76561197960288163,"connected_time":592000000000,"state":"active","ping":51},{"user_id":400,"name":"Tekky","steam_id":76561197990987315,"connected_time":3266000000000,"state":"active","ping":51},{"user_id":428,"name":"bingle","steam_id":76561198359413453,"connected_time":1223000000000,"state":"active","ping":132},{"user_id":407,"name":"Spetse","steam_id":76561197990649972,"connected_time":3097000000000,"state":"active","ping":92},{"user_id":423,"name":"diogob_coelho","steam_id":76561199076279677,"connected_time":1331000000000,"state":"active","ping":83},{"user_id":446,"name":"ChPerette","steam_id":76561198060004887,"connected_time":114000000000,"state":"active","ping":45},{"user_id":424,"name":"dredomilicete","steam_id":76561199135216928,"connected_time":1331000000000,"state":"active","ping":102},{"user_id":444,"name":"IkeEsq","steam_id":76561197998394349,"connected_time":436000000000,"state":"active","ping":127},{"user_id":431,"name":"sex havin'","steam_id":76561198169857427,"connected_time":1045000000000,"state":"active","ping":72},{"user_id":443,"name":"ARABACIYOKKI","steam_id":76561198928074216,"connected_time":463000000000,"state":"active","ping":120},{"user_id":426,"name":"Pink Cheese","steam_id":76561198972186436,"connected_time":1283000000000,"state":"active","ping":59},{"user_id":427,"name":"Envy","steam_id":76561198132723219,"connected_time":1250000000000,"state":"active","ping":108},{"user_id":447,"name":"boots mitout fur","steam_id":76561198188642265,"connected_time":77000000000,"state":"active","ping":66},{"user_id":442,"name":"BenTate","steam_id":76561199002816947,"connected_time":531000000000,"state":"active","ping":70},{"user_id":430,"name":"Lil Ari","steam_id":76561198218178180,"connected_time":1189000000000,"state":"active","ping":73},{"user_id":417,"name":"Mr_Pulse_","steam_id":76561198095001602,"connected_time":2120000000000,"state":"active","ping":99}]},{"server_id":321,"name":"Uncletopia | London | 4 | All Maps","name_short":"lon-4","host":"lon-1.uk.uncletopia.com","port":27045,"enabled":true,"region":"eu","cc":"gb","latitude":51.509865,"longitude":-0.118092,"reserved":0,"last_update":"0001-01-01T00:00:00Z","name_a2s":"Uncletopia | London | 4 | All Maps","protocol":17,"map":"pl_goldrush","folder":"tf","game":"Team Fortress","app_id":440,"player_count":23,"max_players":24,"Bots":0,"server_type":"Dedicated","server_os":"Linux","password":true,"vac":true,"version":"7757534","steam_id":85568392924510193,"keywords":["nocrits","nodmgspread","payload","uncletopia"],"game_id":440,"stv_port":27046,"stv_name":"Uncletopia | London | 4 | All Maps | STV","players":[{"user_id":661,"name":"Zakee","steam_id":76561198035168861,"connected_time":2583000000000,"state":"active","ping":61},{"user_id":662,"name":"Toa LightMakuta","steam_id":76561198212178104,"connected_time":2468000000000,"state":"active","ping":76},{"user_id":684,"name":"LIKE A G6","steam_id":76561198188676728,"connected_time":714000000000,"state":"active","ping":90},{"user_id":678,"name":"tuber","steam_id":76561198086644199,"connected_time":1248000000000,"state":"active","ping":46},{"user_id":682,"name":"CarBombEnthusiast","steam_id":76561199448185434,"connected_time":741000000000,"state":"active","ping":69},{"user_id":568,"name":"Ixsus\u003c3","steam_id":76561198094756869,"connected_time":7736000000000,"state":"active","ping":66},{"user_id":646,"name":"It's a me Malario","steam_id":76561198176546013,"connected_time":3021000000000,"state":"active","ping":53},{"user_id":610,"name":"movin that gear up","steam_id":76561198411016918,"connected_time":5505000000000,"state":"active","ping":64},{"user_id":680,"name":"Moogway","steam_id":76561198035435995,"connected_time":1225000000000,"state":"active","ping":58},{"user_id":654,"name":"Aregularhuman","steam_id":76561198343319848,"connected_time":2818000000000,"state":"active","ping":57},{"user_id":683,"name":"Antiparticle #SaveTF2","steam_id":76561197990545681,"connected_time":737000000000,"state":"active","ping":48},{"user_id":686,"name":"Clovis","steam_id":76561198076881381,"connected_time":594000000000,"state":"active","ping":70},{"user_id":687,"name":"8onJour","steam_id":76561198995725491,"connected_time":521000000000,"state":"active","ping":116},{"user_id":681,"name":"NinjaTuna","steam_id":76561198034569315,"connected_time":885000000000,"state":"active","ping":54},{"user_id":666,"name":"Mr. Mietsch","steam_id":76561198077516818,"connected_time":2229000000000,"state":"active","ping":58},{"user_id":660,"name":"âœª Danny","steam_id":76561198104483241,"connected_time":2632000000000,"state":"active","ping":47},{"user_id":676,"name":"0_Dan","steam_id":76561199006567387,"connected_time":1353000000000,"state":"active","ping":57},{"user_id":685,"name":"pardner","steam_id":76561198451471161,"connected_time":665000000000,"state":"active","ping":57},{"user_id":689,"name":"Davey","steam_id":76561198256879107,"connected_time":371000000000,"state":"active","ping":76},{"user_id":590,"name":"kenso","steam_id":76561197961247706,"connected_time":6423000000000,"state":"active","ping":42},{"user_id":639,"name":"Duskie","steam_id":76561198036695121,"connected_time":3488000000000,"state":"active","ping":49},{"user_id":594,"name":"w*man","steam_id":76561198057210144,"connected_time":6394000000000,"state":"active","ping":61},{"user_id":679,"name":"lol","steam_id":76561198322087870,"connected_time":1248000000000,"state":"active","ping":114}]},{"server_id":21,"name":"Uncletopia | London | 5 | All Maps","name_short":"lon-5","host":"lon-1.uk.uncletopia.com","port":27055,"enabled":true,"region":"eu","cc":"gb","latitude":51.509865,"longitude":-0.118092,"reserved":0,"last_update":"0001-01-01T00:00:00Z","name_a2s":"Uncletopia | London | 5 | All Maps","protocol":17,"map":"koth_viaduct","folder":"tf","game":"Team Fortress","app_id":440,"player_count":24,"max_players":24,"Bots":0,"server_type":"Dedicated","server_os":"Linux","password":true,"vac":true,"version":"7757534","steam_id":85568392924742829,"keywords":["cp","nocrits","nodmgspread","uncletopia"],"game_id":440,"stv_port":27056,"stv_name":"Uncletopia | London | 5 | All Maps | STV","players":[{"user_id":406,"name":"Femboy Portal Radio Uncompresse","steam_id":76561198072320671,"connected_time":1698000000000,"state":"active","ping":33},{"user_id":343,"name":"Kedy","steam_id":76561198308990457,"connected_time":6244000000000,"state":"active","ping":207},{"user_id":339,"name":"giclure :;","steam_id":76561197986362828,"connected_time":6328000000000,"state":"active","ping":57},{"user_id":407,"name":"coke milk","steam_id":76561198122814249,"connected_time":1650000000000,"state":"active","ping":42},{"user_id":383,"name":"bob","steam_id":76561198424363858,"connected_time":3233000000000,"state":"active","ping":71},{"user_id":401,"name":"Government Hooker","steam_id":76561198005361358,"connected_time":2340000000000,"state":"active","ping":49},{"user_id":423,"name":"jovi_","steam_id":76561198449280552,"connected_time":590000000000,"state":"active","ping":49},{"user_id":389,"name":"RipHunter77","steam_id":76561198272973014,"connected_time":2689000000000,"state":"active","ping":173},{"user_id":419,"name":"VK2124 :D","steam_id":76561198111130688,"connected_time":681000000000,"state":"active","ping":59},{"user_id":420,"name":"Explosive Poptart","steam_id":76561198023918830,"connected_time":669000000000,"state":"active","ping":44},{"user_id":391,"name":"Husk","steam_id":76561198271808519,"connected_time":2619000000000,"state":"active","ping":69},{"user_id":421,"name":"EGirlGang","steam_id":76561198257435792,"connected_time":657000000000,"state":"active","ping":82},{"user_id":408,"name":"Mr gnash","steam_id":76561198007410990,"connected_time":1649000000000,"state":"active","ping":62},{"user_id":405,"name":"Lyell","steam_id":76561198350329389,"connected_time":1821000000000,"state":"active","ping":78},{"user_id":398,"name":"Jakk","steam_id":76561198041537908,"connected_time":2401000000000,"state":"active","ping":64},{"user_id":395,"name":"PineyðŸ’™","steam_id":76561198050910939,"connected_time":2565000000000,"state":"active","ping":55},{"user_id":360,"name":"ayadam","steam_id":76561198161515769,"connected_time":5550000000000,"state":"active","ping":118},{"user_id":377,"name":"HilldogGaming","steam_id":76561198082209322,"connected_time":4367000000000,"state":"active","ping":87},{"user_id":412,"name":"Oxer","steam_id":76561198055942412,"connected_time":1215000000000,"state":"active","ping":80},{"user_id":422,"name":"Edla","steam_id":76561198062815315,"connected_time":652000000000,"state":"active","ping":101},{"user_id":397,"name":"8 Ball","steam_id":76561197960988736,"connected_time":2542000000000,"state":"active","ping":50},{"user_id":414,"name":"pizza time","steam_id":76561199015899793,"connected_time":1018000000000,"state":"active","ping":52},{"user_id":418,"name":"Misctek","steam_id":76561199037541925,"connected_time":825000000000,"state":"active","ping":70},{"user_id":425,"name":"Babyface","steam_id":76561199240579044,"connected_time":105000000000,"state":"active","ping":153}]},{"server_id":22,"name":"Uncletopia | London | 6 | All Maps","name_short":"lon-6","host":"lon-1.uk.uncletopia.com","port":27065,"enabled":true,"region":"eu","cc":"gb","latitude":51.509865,"longitude":-0.118092,"reserved":0,"last_update":"0001-01-01T00:00:00Z","name_a2s":"Uncletopia | London | 6 | All Maps","protocol":17,"map":"pl_badwater","folder":"tf","game":"Team Fortress","app_id":440,"player_count":23,"max_players":24,"Bots":0,"server_type":"Dedicated","server_os":"Linux","password":true,"vac":true,"version":"7757534","steam_id":85568392924742830,"keywords":["nocrits","nodmgspread","payload","uncletopia"],"game_id":440,"stv_port":27066,"stv_name":"Uncletopia | London | 6 | All Maps | STV","players":[{"user_id":171,"name":"I.C. Wiener","steam_id":76561197999912254,"connected_time":233000000000,"state":"active","ping":96},{"user_id":131,"name":"Dallakir","steam_id":76561198072975382,"connected_time":3300000000000,"state":"active","ping":82},{"user_id":179,"name":"SirSangoor","steam_id":76561198044462559,"connected_time":43000000000,"state":"active","ping":109},{"user_id":150,"name":"Lengard","steam_id":76561198094189180,"connected_time":898000000000,"state":"active","ping":106},{"user_id":154,"name":"Rez","steam_id":76561198410598772,"connected_time":706000000000,"state":"active","ping":54},{"user_id":157,"name":"M.Bou","steam_id":76561199097750260,"connected_time":463000000000,"state":"active","ping":122},{"user_id":153,"name":"Yugoooii","steam_id":76561199426989328,"connected_time":776000000000,"state":"active","ping":61},{"user_id":75,"name":"Dor_atar","steam_id":76561198973980542,"connected_time":6101000000000,"state":"active","ping":84},{"user_id":175,"name":"Hoff","steam_id":76561198138540938,"connected_time":139000000000,"state":"active","ping":84},{"user_id":176,"name":"mumbler","steam_id":76561197970641239,"connected_time":131000000000,"state":"active","ping":50},{"user_id":173,"name":"JESUSis myDRUG","steam_id":76561198064847881,"connected_time":164000000000,"state":"active","ping":53},{"user_id":181,"name":"kryhu","steam_id":76561198293327713,"connected_time":21000000000,"state":"active","ping":79},{"user_id":161,"name":"aurelien.manouvrier","steam_id":76561198803188218,"connected_time":395000000000,"state":"active","ping":55},{"user_id":163,"name":"iIxX_Shart_XxIi","steam_id":76561198855972759,"connected_time":323000000000,"state":"active","ping":159},{"user_id":178,"name":"Darko","steam_id":76561198318825528,"connected_time":58000000000,"state":"active","ping":74},{"user_id":166,"name":"Asbestos Enjoyer","steam_id":76561198001346236,"connected_time":298000000000,"state":"active","ping":72},{"user_id":167,"name":"HERISSON","steam_id":76561199062194778,"connected_time":294000000000,"state":"active","ping":58},{"user_id":168,"name":"Rumia","steam_id":76561198103021258,"connected_time":294000000000,"state":"active","ping":100},{"user_id":169,"name":"Larso","steam_id":76561198996464912,"connected_time":269000000000,"state":"active","ping":63},{"user_id":170,"name":"AftiksPL #femboygaming","steam_id":76561198875182686,"connected_time":266000000000,"state":"active","ping":107},{"user_id":180,"name":"Anzu","steam_id":76561198043953503,"connected_time":23000000000,"state":"active","ping":76},{"user_id":182,"name":"Lukas","steam_id":76561198009118452,"connected_time":11000000000,"state":"active","ping":62},{"user_id":183,"name":"Tyra","steam_id":76561198043739064,"connected_time":6000000000,"state":"spawning","ping":179}]},{"server_id":40,"name":"Uncletopia | London | 7 | No Payload","name_short":"lon-7","host":"lon-1.uk.uncletopia.com","port":27075,"enabled":true,"region":"eu","cc":"gb","latitude":51.509865,"longitude":-0.118092,"reserved":0,"last_update":"0001-01-01T00:00:00Z","name_a2s":"Uncletopia | London | 7 | No Payload","protocol":17,"map":"cp_sunshine","folder":"tf","game":"Team Fortress","app_id":440,"player_count":0,"max_players":24,"Bots":0,"server_type":"Dedicated","server_os":"Linux","password":true,"vac":true,"version":"7757534","steam_id":85568392924964314,"keywords":["cp","nocrits","nodmgspread","uncletopia"],"game_id":440,"stv_port":27076,"stv_name":"Uncletopia | London | 7 | No Payload | STV","players":null},{"server_id":41,"name":"Uncletopia | London | 8 | Community","name_short":"lon-8","host":"lon-1.uk.uncletopia.com","port":27085,"enabled":true,"region":"eu","cc":"gb","latitude":51.509865,"longitude":-0.118092,"reserved":0,"last_update":"0001-01-01T00:00:00Z","name_a2s":"Uncletopia | London | 8 | Community","protocol":17,"map":"workshop/cp_sulfur_rc2.ugc619869471","folder":"tf","game":"Team Fortress","app_id":440,"player_count":0,"max_players":24,"Bots":0,"server_type":"Dedicated","server_os":"Linux","password":true,"vac":true,"version":"7757534","steam_id":85568392924964315,"keywords":["cp","nocrits","nodmgspread","uncletopia"],"game_id":440,"stv_port":27086,"stv_name":"Uncletopia | London | 8 | Community | STV","players":null},{"server_id":300,"name":"Uncletopia | MontrÃ©al | 1 | All Maps","name_short":"mtl-1","host":"mtl-1.ca.uncletopia.com","port":27015,"enabled":true,"region":"us-east","cc":"ca","latitude":45.50889,"longitude":-73.56167,"reserved":0,"last_update":"0001-01-01T00:00:00Z","name_a2s":"Uncletopia | MontrÃ©al | 1 | All Maps","protocol":17,"map":"koth_highpass","folder":"tf","game":"Team Fortress","app_id":440,"player_count":1,"max_players":24,"Bots":0,"server_type":"Dedicated","server_os":"Linux","password":true,"vac":true,"version":"7757534","steam_id":85568392924500087,"keywords":["cp","nocrits","nodmgspread","uncletopia"],"game_id":440,"stv_port":27016,"stv_name":"Uncletopia | MontrÃ©al | 1 | All Maps | STV","players":[{"user_id":149,"name":"499catking","steam_id":76561199222405828,"connected_time":106000000000,"state":"active","ping":48}]},{"server_id":301,"name":"Uncletopia | MontrÃ©al | 2 | All Maps","name_short":"mtl-2","host":"mtl-1.ca.uncletopia.com","port":27025,"enabled":true,"region":"us-east","cc":"ca","latitude":45.50889,"longitude":-73.56167,"reserved":0,"last_update":"0001-01-01T00:00:00Z","name_a2s":"Uncletopia | MontrÃ©al | 2 | All Maps","protocol":17,"map":"pl_snowycoast","folder":"tf","game":"Team Fortress","app_id":440,"player_count":1,"max_players":24,"Bots":0,"server_type":"Dedicated","server_os":"Linux","password":true,"vac":true,"version":"7757534","steam_id":85568392924500088,"keywords":["nocrits","nodmgspread","payload","uncletopia"],"game_id":440,"stv_port":27026,"stv_name":"Uncletopia | MontrÃ©al | 2 | All Maps | STV","players":[{"user_id":5,"name":"le Shtink","steam_id":76561199433948284,"connected_time":67000000000,"state":"active","ping":49}]},{"server_id":302,"name":"Uncletopia | MontrÃ©al | 3 | All Maps","name_short":"mtl-3","host":"mtl-1.ca.uncletopia.com","port":27035,"enabled":true,"region":"us-east","cc":"ca","latitude":45.50889,"longitude":-73.56167,"reserved":0,"last_update":"0001-01-01T00:00:00Z","name_a2s":"Uncletopia | MontrÃ©al | 3 | All Maps","protocol":17,"map":"cp_process_final","folder":"tf","game":"Team Fortress","app_id":440,"player_count":7,"max_players":24,"Bots":0,"server_type":"Dedicated","server_os":"Linux","password":true,"vac":true,"version":"7757534","steam_id":85568392924500089,"keywords":["cp","nocrits","nodmgspread","uncletopia"],"game_id":440,"stv_port":27036,"stv_name":"Uncletopia | MontrÃ©al | 3 | All Maps | STV","players":[{"user_id":39,"name":"Kiwi","steam_id":76561198097443612,"connected_time":28000000000,"state":"spawning","ping":47},{"user_id":32,"name":"Jarlpy","steam_id":76561198193905778,"connected_time":741000000000,"state":"active","ping":112},{"user_id":37,"name":"Gib Gobbler","steam_id":76561199473296583,"connected_time":351000000000,"state":"active","ping":70},{"user_id":14,"name":"Drewey","steam_id":76561199258609863,"connected_time":2364000000000,"state":"active","ping":71},{"user_id":17,"name":"KartonWaffle","steam_id":76561198278761293,"connected_time":2186000000000,"state":"active","ping":76},{"user_id":27,"name":"smd","steam_id":76561199418586018,"connected_time":1315000000000,"state":"active","ping":52},{"user_id":28,"name":"Gunter","steam_id":76561198073506034,"connected_time":1267000000000,"state":"active","ping":45}]},{"server_id":303,"name":"Uncletopia | MontrÃ©al | 4 | No Payload","name_short":"mtl-4","host":"mtl-1.ca.uncletopia.com","port":27045,"enabled":true,"region":"us-east","cc":"ca","latitude":45.50889,"longitude":-73.56167,"reserved":0,"last_update":"0001-01-01T00:00:00Z","name_a2s":"Uncletopia | MontrÃ©al | 4 | No Payload","protocol":17,"map":"cp_snakewater_final1","folder":"tf","game":"Team Fortress","app_id":440,"player_count":0,"max_players":24,"Bots":0,"server_type":"Dedicated","server_os":"Linux","password":true,"vac":true,"version":"7757534","steam_id":85568392924500090,"keywords":["cp","nocrits","nodmgspread","uncletopia"],"game_id":440,"stv_port":27046,"stv_name":"Uncletopia | MontrÃ©al | 4 | No Payload | STV","players":null},{"server_id":13,"name":"Uncletopia | New York City | 1 | All Maps","name_short":"nyc-1","host":"nyc-1.us.uncletopia.com","port":27015,"enabled":true,"region":"us-east","cc":"us","latitude":40.73061,"longitude":-73.93524,"reserved":0,"last_update":"0001-01-01T00:00:00Z","name_a2s":"Uncletopia | New York City | 1 | All Maps","protocol":17,"map":"pl_borneo","folder":"tf","game":"Team Fortress","app_id":440,"player_count":24,"max_players":24,"Bots":0,"server_type":"Dedicated","server_os":"Linux","password":true,"vac":true,"version":"7757534","steam_id":85568392924469993,"keywords":["nocrits","nodmgspread","payload","uncletopia"],"game_id":440,"stv_port":27016,"stv_name":"Uncletopia | New York City | 1 | All Maps | STV","players":[{"user_id":241,"name":"Sir Quacksalot","steam_id":76561198048942777,"connected_time":2820000000000,"state":"active","ping":89},{"user_id":10,"name":"Mochi","steam_id":76561199151314140,"connected_time":20140000000000,"state":"active","ping":35},{"user_id":269,"name":"Amauri","steam_id":76561198130809137,"connected_time":1655000000000,"state":"active","ping":78},{"user_id":276,"name":"Pozyomka","steam_id":76561198086331015,"connected_time":824000000000,"state":"active","ping":35},{"user_id":250,"name":"Pickle Chips","steam_id":76561198271951504,"connected_time":2518000000000,"state":"active","ping":46},{"user_id":277,"name":"AdorableMew","steam_id":76561198186706405,"connected_time":808000000000,"state":"active","ping":85},{"user_id":289,"name":"Grebnedulgo The Elder","steam_id":76561199123285878,"connected_time":322000000000,"state":"active","ping":72},{"user_id":274,"name":"Chapter Master","steam_id":76561198799698323,"connected_time":931000000000,"state":"active","ping":121},{"user_id":290,"name":"cold","steam_id":76561198041348890,"connected_time":30000000000,"state":"spawning","ping":57},{"user_id":280,"name":"WARZI","steam_id":76561198310374501,"connected_time":687000000000,"state":"active","ping":61},{"user_id":240,"name":"Braamklauw","steam_id":76561198283287697,"connected_time":2914000000000,"state":"active","ping":148},{"user_id":267,"name":"StarLy","steam_id":76561198174428289,"connected_time":1771000000000,"state":"active","ping":105},{"user_id":281,"name":"sandvish makes me strong","steam_id":76561199475216957,"connected_time":650000000000,"state":"active","ping":158},{"user_id":258,"name":"Sammich","steam_id":76561198010543087,"connected_time":2455000000000,"state":"active","ping":74},{"user_id":255,"name":"RokkitFrog","steam_id":76561198046465850,"connected_time":2490000000000,"state":"active","ping":93},{"user_id":285,"name":"Fancy Bed","steam_id":76561198007172366,"connected_time":577000000000,"state":"active","ping":54},{"user_id":236,"name":"Mongosling","steam_id":76561198081098215,"connected_time":3241000000000,"state":"active","ping":44},{"user_id":264,"name":"The Ginger","steam_id":76561198306862332,"connected_time":1963000000000,"state":"active","ping":131},{"user_id":283,"name":"Arnat Barca","steam_id":76561198831628458,"connected_time":597000000000,"state":"active","ping":48},{"user_id":287,"name":"RogueOstrich","steam_id":76561198246274348,"connected_time":477000000000,"state":"active","ping":52},{"user_id":286,"name":"TF2 2023 SUMMER UPDATE","steam_id":76561198084982609,"connected_time":525000000000,"state":"active","ping":94},{"user_id":288,"name":"sylveon","steam_id":76561198430690243,"connected_time":470000000000,"state":"active","ping":97},{"user_id":272,"name":"rainingmudkips","steam_id":76561198018010854,"connected_time":1418000000000,"state":"active","ping":66},{"user_id":220,"name":"Fuzzy","steam_id":76561199100612353,"connected_time":4766000000000,"state":"active","ping":69}]},{"server_id":14,"name":"Uncletopia | New York City | 2 | All Maps","name_short":"nyc-2","host":"nyc-1.us.uncletopia.com","port":27025,"enabled":true,"region":"us-east","cc":"us","latitude":40.73061,"longitude":-73.93524,"reserved":0,"last_update":"0001-01-01T00:00:00Z","name_a2s":"Uncletopia | New York City | 2 | All Maps","protocol":17,"map":"pl_barnblitz","folder":"tf","game":"Team Fortress","app_id":440,"player_count":24,"max_players":24,"Bots":0,"server_type":"Dedicated","server_os":"Linux","password":true,"vac":true,"version":"7757534","steam_id":85568392924469994,"keywords":["nocrits","nodmgspread","payload","uncletopia"],"game_id":440,"stv_port":27026,"stv_name":"Uncletopia | New York City | 2 | All Maps | STV","players":[{"user_id":231,"name":"Penis but it rhymes with Venice","steam_id":76561197986420836,"connected_time":1996000000000,"state":"active","ping":52},{"user_id":224,"name":"Professional Clicker","steam_id":76561199210799428,"connected_time":2584000000000,"state":"active","ping":45},{"user_id":176,"name":"PJL725","steam_id":76561198241220274,"connected_time":4678000000000,"state":"active","ping":69},{"user_id":250,"name":"washy","steam_id":76561198046622670,"connected_time":1147000000000,"state":"active","ping":73},{"user_id":209,"name":"maze","steam_id":76561198068443860,"connected_time":3011000000000,"state":"active","ping":57},{"user_id":251,"name":"kairOs.fk","steam_id":76561197972421260,"connected_time":134000000000,"state":"active","ping":45},{"user_id":235,"name":"Hbadger","steam_id":76561198010204346,"connected_time":1469000000000,"state":"active","ping":54},{"user_id":240,"name":"Nikostos","steam_id":76561199098098769,"connected_time":1319000000000,"state":"active","ping":74},{"user_id":206,"name":"Waaagh!","steam_id":76561197995317887,"connected_time":3077000000000,"state":"active","ping":53},{"user_id":237,"name":"AGagagaga","steam_id":76561199008585183,"connected_time":1455000000000,"state":"active","ping":81},{"user_id":229,"name":"Fosterpenguin","steam_id":76561198145787469,"connected_time":2112000000000,"state":"active","ping":72},{"user_id":208,"name":"shanghai","steam_id":76561197997961542,"connected_time":3016000000000,"state":"active","ping":71},{"user_id":225,"name":"Roma","steam_id":76561198445634626,"connected_time":2527000000000,"state":"active","ping":90},{"user_id":233,"name":"NALA","steam_id":76561198832278181,"connected_time":1555000000000,"state":"active","ping":136},{"user_id":170,"name":"ungr8t","steam_id":76561198063521721,"connected_time":5128000000000,"state":"active","ping":128},{"user_id":228,"name":"Comfy Monkey","steam_id":76561197998434936,"connected_time":2305000000000,"state":"active","ping":46},{"user_id":252,"name":"Clyde","steam_id":76561198158206236,"connected_time":23000000000,"state":"active","ping":111},{"user_id":247,"name":"Kataklysm","steam_id":76561199025168404,"connected_time":1220000000000,"state":"active","ping":85},{"user_id":200,"name":"Rockcrusher","steam_id":76561199012666353,"connected_time":4060000000000,"state":"active","ping":71},{"user_id":242,"name":"bsampson0330","steam_id":76561198199502507,"connected_time":1307000000000,"state":"active","ping":89},{"user_id":210,"name":"Tallyden","steam_id":76561197998572962,"connected_time":2993000000000,"state":"active","ping":75},{"user_id":207,"name":"Mefir","steam_id":76561198013650292,"connected_time":3069000000000,"state":"active","ping":109},{"user_id":204,"name":"Bohemia-Moravia","steam_id":76561199006388533,"connected_time":3273000000000,"state":"active","ping":70},{"user_id":222,"name":"Jester","steam_id":76561198156746320,"connected_time":2765000000000,"state":"active","ping":62}]},{"server_id":15,"name":"Uncletopia | New York City | 3 | Stopwatch Beta","name_short":"nyc-3","host":"nyc-1.us.uncletopia.com","port":27035,"enabled":true,"region":"us-east","cc":"us","latitude":40.73061,"longitude":-73.93524,"reserved":0,"last_update":"0001-01-01T00:00:00Z","name_a2s":"Uncletopia | New York City | 3 | Stopwatch Beta","protocol":17,"map":"workshop/koth_ashville_final.ugc2130459942","folder":"tf","game":"Team Fortress","app_id":440,"player_count":19,"max_players":24,"Bots":0,"server_type":"Dedicated","server_os":"Linux","password":true,"vac":true,"version":"7757534","steam_id":85568392924742820,"keywords":["cp","nocrits","nodmgspread","uncletopia"],"game_id":440,"stv_port":27036,"stv_name":"Uncletopia | New York City | 3 | Stopwatch Beta | STV","players":[{"user_id":358,"name":"Gideon Ofnir, the FUCKING PISSE","steam_id":76561198419066993,"connected_time":74000000000,"state":"active","ping":116},{"user_id":359,"name":"Obama","steam_id":76561198013542156,"connected_time":34000000000,"state":"active","ping":32},{"user_id":341,"name":"jeremimi","steam_id":76561198818225102,"connected_time":1978000000000,"state":"active","ping":102},{"user_id":297,"name":"Dreamzapp","steam_id":76561199084936632,"connected_time":5011000000000,"state":"active","ping":124},{"user_id":348,"name":"Simonthebestest","steam_id":76561199093580344,"connected_time":1503000000000,"state":"active","ping":88},{"user_id":314,"name":"leonardo doujinshi","steam_id":76561198025810326,"connected_time":3165000000000,"state":"active","ping":75},{"user_id":333,"name":"Catgirl, First Elden Lord","steam_id":76561198400058665,"connected_time":2299000000000,"state":"active","ping":55},{"user_id":328,"name":"bill | SaveTF2 | tf2hunt.com","steam_id":76561198838282369,"connected_time":2480000000000,"state":"active","ping":71},{"user_id":315,"name":"toastman","steam_id":76561198207073088,"connected_time":3067000000000,"state":"active","ping":86},{"user_id":352,"name":"nhbiker","steam_id":76561198081277675,"connected_time":1284000000000,"state":"active","ping":47},{"user_id":354,"name":"Zachbossss","steam_id":76561198839987329,"connected_time":448000000000,"state":"active","ping":100},{"user_id":290,"name":"neet","steam_id":76561197968115168,"connected_time":5508000000000,"state":"active","ping":45},{"user_id":349,"name":"CombustibleToast","steam_id":76561198051358882,"connected_time":1371000000000,"state":"active","ping":57},{"user_id":355,"name":"Ginger Jesus","steam_id":76561198052386458,"connected_time":412000000000,"state":"active","ping":45},{"user_id":351,"name":"Chicken Joe","steam_id":76561198278185182,"connected_time":1352000000000,"state":"active","ping":51},{"user_id":332,"name":"Shittus, Second Elden Lord","steam_id":76561198397662124,"connected_time":2451000000000,"state":"active","ping":93},{"user_id":357,"name":"uhhhh","steam_id":76561199211193548,"connected_time":389000000000,"state":"active","ping":65},{"user_id":291,"name":"starulan","steam_id":76561198006975014,"connected_time":5499000000000,"state":"active","ping":45},{"user_id":279,"name":"Large Man","steam_id":76561198880396651,"connected_time":6244000000000,"state":"active","ping":75}]},{"server_id":16,"name":"Uncletopia | New York City | 4 | Community","name_short":"nyc-4","host":"nyc-1.us.uncletopia.com","port":27045,"enabled":true,"region":"us-east","cc":"us","latitude":40.73061,"longitude":-73.93524,"reserved":0,"last_update":"0001-01-01T00:00:00Z","name_a2s":"Uncletopia | New York City | 4 | Community","protocol":17,"map":"workshop/pl_boundary_final1.ugc456799153","folder":"tf","game":"Team Fortress","app_id":440,"player_count":0,"max_players":24,"Bots":0,"server_type":"Dedicated","server_os":"Linux","password":true,"vac":true,"version":"7757534","steam_id":85568392924742821,"keywords":["nocrits","nodmgspread","payload","uncletopia"],"game_id":440,"stv_port":27046,"stv_name":"Uncletopia | New York City | 4 | Community | STV","players":null},{"server_id":142,"name":"Uncletopia | SÃ£o Paulo | 1 | All Maps","name_short":"sao-1","host":"sao-1.br.uncletopia.com","port":27015,"enabled":true,"region":"sa","cc":"br","latitude":-23.533773,"longitude":-46.62529,"reserved":0,"last_update":"0001-01-01T00:00:00Z","name_a2s":"Uncletopia | SÃ£o Paulo | 1 | All Maps","protocol":17,"map":"koth_harvest_final","folder":"tf","game":"Team Fortress","app_id":440,"player_count":0,"max_players":24,"Bots":0,"server_type":"Dedicated","server_os":"Linux","password":true,"vac":true,"version":"7757534","steam_id":85568392924469996,"keywords":["cp","nocrits","nodmgspread","uncletopia"],"game_id":440,"stv_port":27016,"stv_name":"Uncletopia | SÃ£o Paulo | 1 | All Maps | STV","players":null},{"server_id":143,"name":"Uncletopia | SÃ£o Paulo | 2 | All Maps","name_short":"sao-2","host":"sao-2.br.uncletopia.com","port":27015,"enabled":true,"region":"sa","cc":"br","latitude":-23.533773,"longitude":-46.62529,"reserved":0,"last_update":"0001-01-01T00:00:00Z","name_a2s":"Uncletopia | SÃ£o Paulo | 2 | All Maps","protocol":17,"map":"koth_viaduct","folder":"tf","game":"Team Fortress","app_id":440,"player_count":0,"max_players":24,"Bots":0,"server_type":"Dedicated","server_os":"Linux","password":true,"vac":true,"version":"7757534","steam_id":85568392924485349,"keywords":["cp","nocrits","nodmgspread","uncletopia"],"game_id":440,"stv_port":27016,"stv_name":"Uncletopia | SÃ£o Paulo | 2 | All Maps | STV","players":null},{"server_id":7,"name":"Uncletopia | Seattle | 1 | All Maps","name_short":"sea-1","host":"sea-1.us.uncletopia.com","port":27015,"enabled":true,"region":"us-west","cc":"us","latitude":47.608013,"longitude":-122.33517,"reserved":0,"last_update":"0001-01-01T00:00:00Z","name_a2s":"Uncletopia | Seattle | 1 | All Maps","protocol":17,"map":"pl_borneo","folder":"tf","game":"Team Fortress","app_id":440,"player_count":24,"max_players":24,"Bots":0,"server_type":"Dedicated","server_os":"Linux","password":true,"vac":true,"version":"7757534","steam_id":85568392924469997,"keywords":["nocrits","nodmgspread","payload","uncletopia"],"game_id":440,"stv_port":27016,"stv_name":"Uncletopia | Seattle | 1 | All Maps | STV","players":[{"user_id":421,"name":"dimmy","steam_id":76561198401788526,"connected_time":288000000000,"state":"active","ping":51},{"user_id":422,"name":"Alpharius","steam_id":76561197996284353,"connected_time":274000000000,"state":"active","ping":63},{"user_id":380,"name":"ed","steam_id":76561198080475712,"connected_time":4170000000000,"state":"active","ping":67},{"user_id":378,"name":"exephur","steam_id":76561198135763234,"connected_time":4190000000000,"state":"active","ping":66},{"user_id":377,"name":"Sweatpants","steam_id":76561198097188001,"connected_time":4203000000000,"state":"active","ping":55},{"user_id":406,"name":"mega","steam_id":76561198089520959,"connected_time":1494000000000,"state":"active","ping":99},{"user_id":385,"name":"jose.gonzales.2005","steam_id":76561198399315280,"connected_time":3950000000000,"state":"active","ping":128},{"user_id":341,"name":"Y2K","steam_id":76561199191855486,"connected_time":7363000000000,"state":"active","ping":44},{"user_id":360,"name":"[TrC] Dackstrus","steam_id":76561197973518509,"connected_time":5922000000000,"state":"active","ping":60},{"user_id":412,"name":"Engynier Gaimeang (F2P)","steam_id":76561199013888779,"connected_time":688000000000,"state":"active","ping":78},{"user_id":419,"name":"GKumo","steam_id":76561198023175868,"connected_time":435000000000,"state":"active","ping":73},{"user_id":395,"name":"trashbro","steam_id":76561199417993197,"connected_time":2411000000000,"state":"active","ping":77},{"user_id":390,"name":"trashboat","steam_id":76561199067882406,"connected_time":2697000000000,"state":"active","ping":93},{"user_id":423,"name":"Mario","steam_id":76561198321794277,"connected_time":256000000000,"state":"active","ping":77},{"user_id":387,"name":"lili ezili","steam_id":76561199391478575,"connected_time":3018000000000,"state":"active","ping":76},{"user_id":405,"name":"magic","steam_id":76561198031957385,"connected_time":1577000000000,"state":"active","ping":63},{"user_id":348,"name":"Wormhole","steam_id":76561199008302939,"connected_time":6987000000000,"state":"active","ping":48},{"user_id":409,"name":"SirJellyRolls","steam_id":76561198119277244,"connected_time":920000000000,"state":"active","ping":62},{"user_id":414,"name":"Dongus","steam_id":76561197979056451,"connected_time":622000000000,"state":"active","ping":48},{"user_id":367,"name":"SaltyFlump","steam_id":76561199379601288,"connected_time":5344000000000,"state":"active","ping":66},{"user_id":374,"name":"darktheif54","steam_id":76561198043650119,"connected_time":5049000000000,"state":"active","ping":85},{"user_id":418,"name":"YahYeeterson","steam_id":76561198120480906,"connected_time":524000000000,"state":"active","ping":71},{"user_id":393,"name":"SearingGustav #tG","steam_id":76561198040560786,"connected_time":2636000000000,"state":"active","ping":68},{"user_id":420,"name":"èˆ¹å°¾","steam_id":76561198128764422,"connected_time":341000000000,"state":"active","ping":34}]},{"server_id":119,"name":"Uncletopia | Seattle | 2 | All Maps","name_short":"sea-2","host":"sea-1.us.uncletopia.com","port":27025,"enabled":true,"region":"us-west","cc":"us","latitude":47.608013,"longitude":-122.33517,"reserved":0,"last_update":"0001-01-01T00:00:00Z","name_a2s":"Uncletopia | Seattle | 2 | All Maps","protocol":17,"map":"koth_harvest_final","folder":"tf","game":"Team Fortress","app_id":440,"player_count":21,"max_players":24,"Bots":0,"server_type":"Dedicated","server_os":"Linux","password":true,"vac":true,"version":"7757534","steam_id":85568392924469998,"keywords":["cp","nocrits","nodmgspread","uncletopia"],"game_id":440,"stv_port":27026,"stv_name":"Uncletopia | Seattle | 2 | All Maps | STV","players":[{"user_id":222,"name":"DJ Pierce","steam_id":76561198394241466,"connected_time":336000000000,"state":"active","ping":122},{"user_id":224,"name":"Squish #1","steam_id":76561198087713516,"connected_time":156000000000,"state":"active","ping":125},{"user_id":209,"name":"booger","steam_id":76561198333832807,"connected_time":1208000000000,"state":"active","ping":173},{"user_id":21,"name":"Sleepy Hot Cocoa","steam_id":76561199475447764,"connected_time":8058000000000,"state":"active","ping":86},{"user_id":225,"name":"Daydream","steam_id":76561198059341917,"connected_time":125000000000,"state":"active","ping":110},{"user_id":218,"name":"blockland.fan 4","steam_id":76561198173706067,"connected_time":797000000000,"state":"active","ping":58},{"user_id":202,"name":"Anax Alter","steam_id":76561198110249546,"connected_time":1346000000000,"state":"active","ping":111},{"user_id":178,"name":"Boyaredeen","steam_id":76561198880492636,"connected_time":2070000000000,"state":"active","ping":54},{"user_id":71,"name":"Mike Bean Burritos","steam_id":76561198173430607,"connected_time":5403000000000,"state":"active","ping":51},{"user_id":221,"name":"gloobern","steam_id":76561198341190679,"connected_time":487000000000,"state":"active","ping":90},{"user_id":120,"name":"Marzbee115","steam_id":76561198095821025,"connected_time":3709000000000,"state":"active","ping":75},{"user_id":226,"name":"kanye west uchiha","steam_id":76561199075528394,"connected_time":106000000000,"state":"active","ping":103},{"user_id":210,"name":"nyx","steam_id":76561198872974970,"connected_time":1195000000000,"state":"active","ping":103},{"user_id":138,"name":"selvhat","steam_id":76561198114225509,"connected_time":3166000000000,"state":"active","ping":72},{"user_id":190,"name":"cubecode","steam_id":76561198315944726,"connected_time":1669000000000,"state":"active","ping":115},{"user_id":212,"name":"anabolic steroids","steam_id":76561199097771720,"connected_time":1123000000000,"state":"active","ping":119},{"user_id":213,"name":"Mondo","steam_id":76561198292307127,"connected_time":1111000000000,"state":"active","ping":72},{"user_id":227,"name":"barbara","steam_id":76561198072417792,"connected_time":77000000000,"state":"active","ping":140},{"user_id":127,"name":"MerkZ","steam_id":76561198047620432,"connected_time":3515000000000,"state":"active","ping":74},{"user_id":214,"name":"â˜‚hito","steam_id":76561199074179331,"connected_time":1092000000000,"state":"active","ping":85},{"user_id":216,"name":"BoxTrox Requiem","steam_id":76561199084781818,"connected_time":927000000000,"state":"active","ping":126}]},{"server_id":406,"name":"Uncletopia | Seattle | 3 | Stopwatch Beta","name_short":"sea-3","host":"sea-1.us.uncletopia.com","port":27035,"enabled":true,"region":"us-west","cc":"us","latitude":47.608013,"longitude":-122.33517,"reserved":0,"last_update":"0001-01-01T00:00:00Z","name_a2s":"Uncletopia | Seattle | 3 | Stopwatch Beta","protocol":17,"map":"workshop/koth_product_final.ugc454272353","folder":"tf","game":"Team Fortress","app_id":440,"player_count":0,"max_players":24,"Bots":0,"server_type":"Dedicated","server_os":"Linux","password":true,"vac":true,"version":"7757534","steam_id":85568392924515217,"keywords":["cp","nocrits","nodmgspread","uncletopia"],"game_id":440,"stv_port":27036,"stv_name":"Uncletopia | Seattle | 3 | Stopwatch Beta | STV","players":null},{"server_id":17,"name":"Uncletopia | San Francisco | 1 | All Maps","name_short":"sfo-1","host":"sfo-1.us.uncletopia.com","port":27015,"enabled":true,"region":"us-west","cc":"us","latitude":37.77397,"longitude":-122.4313,"reserved":0,"last_update":"0001-01-01T00:00:00Z","name_a2s":"Uncletopia | San Francisco | 1 | All Maps","protocol":17,"map":"pl_badwater","folder":"tf","game":"Team Fortress","app_id":440,"player_count":3,"max_players":24,"Bots":0,"server_type":"Dedicated","server_os":"Linux","password":true,"vac":true,"version":"7757534","steam_id":85568392924469999,"keywords":["nocrits","nodmgspread","payload","uncletopia"],"game_id":440,"stv_port":27016,"stv_name":"Uncletopia | San Francisco | 1 | All Maps | STV","players":[{"user_id":24,"name":"Jimmy","steam_id":76561198857959855,"connected_time":1024000000000,"state":"active","ping":53},{"user_id":26,"name":"Oxferd Crow","steam_id":76561198096916018,"connected_time":369000000000,"state":"active","ping":82},{"user_id":27,"name":"Pluto","steam_id":76561198338593690,"connected_time":161000000000,"state":"active","ping":105}]},{"server_id":18,"name":"Uncletopia | San Francisco | 2 | All Maps","name_short":"sfo-2","host":"sfo-1.us.uncletopia.com","port":27025,"enabled":true,"region":"us-west","cc":"us","latitude":37.77397,"longitude":-122.4313,"reserved":0,"last_update":"0001-01-01T00:00:00Z","name_a2s":"Uncletopia | San Francisco | 2 | All Maps","protocol":17,"map":"cp_altitude","folder":"tf","game":"Team Fortress","app_id":440,"player_count":24,"max_players":24,"Bots":0,"server_type":"Dedicated","server_os":"Linux","password":true,"vac":true,"version":"7757534","steam_id":85568392924470000,"keywords":["cp","nocrits","nodmgspread","uncletopia"],"game_id":440,"stv_port":27026,"stv_name":"Uncletopia | San Francisco | 2 | All Maps | STV","players":[{"user_id":223,"name":"Ghost","steam_id":76561198426370628,"connected_time":1984000000000,"state":"active","ping":103},{"user_id":246,"name":"LesserAce","steam_id":76561198153258132,"connected_time":1253000000000,"state":"active","ping":100},{"user_id":226,"name":"neurotic","steam_id":76561198081545480,"connected_time":1917000000000,"state":"active","ping":98},{"user_id":261,"name":"vanillain","steam_id":76561198058617608,"connected_time":446000000000,"state":"active","ping":61},{"user_id":193,"name":"Training Arc","steam_id":76561198038832034,"connected_time":4200000000000,"state":"active","ping":67},{"user_id":247,"name":"Nuts","steam_id":76561199258535559,"connected_time":1125000000000,"state":"active","ping":67},{"user_id":266,"name":"Lemon Luke","steam_id":76561199141696546,"connected_time":211000000000,"state":"active","ping":95},{"user_id":256,"name":"Livin' Like Larry","steam_id":76561198313360974,"connected_time":962000000000,"state":"active","ping":37},{"user_id":260,"name":"bigman1","steam_id":76561198050225055,"connected_time":622000000000,"state":"active","ping":54},{"user_id":155,"name":"cool beans","steam_id":76561198045758072,"connected_time":7458000000000,"state":"active","ping":47},{"user_id":257,"name":"weenie hut jr","steam_id":76561198206922028,"connected_time":959000000000,"state":"active","ping":54},{"user_id":262,"name":"Some Retard","steam_id":76561197994544587,"connected_time":439000000000,"state":"active","ping":60},{"user_id":216,"name":"Idiotden","steam_id":76561199340950135,"connected_time":2697000000000,"state":"active","ping":55},{"user_id":268,"name":"CreativeUsername","steam_id":76561198186045503,"connected_time":0,"state":"spawning","ping":57},{"user_id":190,"name":"Altruisticailuridae","steam_id":76561198335295596,"connected_time":4310000000000,"state":"active","ping":61},{"user_id":240,"name":"Sadodere Grimace","steam_id":76561198008332028,"connected_time":1420000000000,"state":"active","ping":69},{"user_id":175,"name":"Pan-Demonica","steam_id":76561198294350105,"connected_time":6219000000000,"state":"active","ping":110},{"user_id":252,"name":"Thepollochicken","steam_id":76561198068830903,"connected_time":994000000000,"state":"active","ping":162},{"user_id":263,"name":"Logan601 #savetf2","steam_id":76561198263116731,"connected_time":423000000000,"state":"active","ping":72},{"user_id":267,"name":"Hifumi Togo","steam_id":76561198074930636,"connected_time":71000000000,"state":"active","ping":91},{"user_id":242,"name":"Anxious Nerd Bird","steam_id":76561198112178602,"connected_time":1363000000000,"state":"active","ping":61},{"user_id":255,"name":"OH JIMMY I'M HOME #SaveTf2","steam_id":76561198396658806,"connected_time":985000000000,"state":"active","ping":51},{"user_id":194,"name":"Dani","steam_id":76561198348012378,"connected_time":4156000000000,"state":"active","ping":118},{"user_id":213,"name":"ArnoldGamingï¾ Ù´","steam_id":76561198040140247,"connected_time":2958000000000,"state":"active","ping":136}]},{"server_id":19,"name":"Uncletopia | San Francisco | 3 | Stopwatch Beta","name_short":"sfo-3","host":"sfo-1.us.uncletopia.com","port":27035,"enabled":true,"region":"us-west","cc":"us","latitude":37.77397,"longitude":-122.4313,"reserved":0,"last_update":"0001-01-01T00:00:00Z","name_a2s":"Uncletopia | San Francisco | 3 | Stopwatch Beta","protocol":17,"map":"pl_borneo","folder":"tf","game":"Team Fortress","app_id":440,"player_count":0,"max_players":24,"Bots":0,"server_type":"Dedicated","server_os":"Linux","password":true,"vac":true,"version":"7757534","steam_id":85568392924742824,"keywords":["nocrits","nodmgspread","payload","uncletopia"],"game_id":440,"stv_port":27036,"stv_name":"Uncletopia | San Francisco | 3 | Stopwatch Beta | STV","players":null},{"server_id":20,"name":"Uncletopia | San Francisco | 4 | Community","name_short":"sfo-4","host":"sfo-1.us.uncletopia.com","port":27045,"enabled":true,"region":"us-west","cc":"us","latitude":37.77397,"longitude":-122.4313,"reserved":0,"last_update":"0001-01-01T00:00:00Z","name_a2s":"Uncletopia | San Francisco | 4 | Community","protocol":17,"map":"workshop/koth_ramjam_rc1.ugc459778887","folder":"tf","game":"Team Fortress","app_id":440,"player_count":0,"max_players":24,"Bots":0,"server_type":"Dedicated","server_os":"Linux","password":true,"vac":true,"version":"7757534","steam_id":85568392924742826,"keywords":["cp","nocrits","nodmgspread","uncletopia"],"game_id":440,"stv_port":27046,"stv_name":"Uncletopia | San Francisco | 4 | Community | STV","players":null},{"server_id":141,"name":"Uncletopia | Sydney | 1 | All Maps","name_short":"syd-1","host":"syd-1.au.uncletopia.com","port":27015,"enabled":true,"region":"au","cc":"au","latitude":-33.865143,"longitude":151.2099,"reserved":0,"last_update":"0001-01-01T00:00:00Z","name_a2s":"Uncletopia | Sydney | 1 | All Maps","protocol":17,"map":"koth_viaduct","folder":"tf","game":"Team Fortress","app_id":440,"player_count":0,"max_players":24,"Bots":0,"server_type":"Dedicated","server_os":"Linux","password":true,"vac":true,"version":"7757534","steam_id":85568392924470001,"keywords":["cp","nocrits","nodmgspread","uncletopia"],"game_id":440,"stv_port":27016,"stv_name":"Uncletopia | Sydney | 1 | All Maps | STV","players":null},{"server_id":123,"name":"Uncletopia | Sydney | 2 | All Maps","name_short":"syd-2","host":"syd-1.au.uncletopia.com","port":27025,"enabled":true,"region":"au","cc":"au","latitude":-33.865143,"longitude":151.2099,"reserved":0,"last_update":"0001-01-01T00:00:00Z","name_a2s":"Uncletopia | Sydney | 2 | All Maps","protocol":17,"map":"cp_process_final","folder":"tf","game":"Team Fortress","app_id":440,"player_count":0,"max_players":24,"Bots":0,"server_type":"Dedicated","server_os":"Linux","password":true,"vac":true,"version":"7757534","steam_id":85568392924470002,"keywords":["cp","nocrits","nodmgspread","uncletopia"],"game_id":440,"stv_port":27026,"stv_name":"Uncletopia | Sydney | 2 | All Maps | STV","players":null},{"server_id":395,"name":"Uncletopia | Sydney | 3 | All Maps","name_short":"syd-3","host":"syd-1.au.uncletopia.com","port":27035,"enabled":true,"region":"au","cc":"au","latitude":-33.865143,"longitude":151.2099,"reserved":0,"last_update":"0001-01-01T00:00:00Z","name_a2s":"Uncletopia | Sydney | 3 | All Maps","protocol":17,"map":"cp_dustbowl","folder":"tf","game":"Team Fortress","app_id":440,"player_count":3,"max_players":24,"Bots":0,"server_type":"Dedicated","server_os":"Linux","password":true,"vac":true,"version":"7757534","steam_id":85568392925194467,"keywords":["cp","nocrits","nodmgspread","uncletopia"],"game_id":440,"stv_port":27036,"stv_name":"Uncletopia | Sydney | 3 | All Maps | STV","players":[{"user_id":32,"name":"Elite Level Gamer","steam_id":76561199004828588,"connected_time":566000000000,"state":"active","ping":66},{"user_id":35,"name":"itsjustmarvin77","steam_id":76561199375656301,"connected_time":261000000000,"state":"active","ping":74},{"user_id":37,"name":"Kremmen","steam_id":76561198051368641,"connected_time":140000000000,"state":"active","ping":66}]},{"server_id":396,"name":"Uncletopia | Sydney | 4 | All Maps","name_short":"syd-4","host":"syd-1.au.uncletopia.com","port":27045,"enabled":true,"region":"au","cc":"au","latitude":-33.865143,"longitude":151.2099,"reserved":0,"last_update":"0001-01-01T00:00:00Z","name_a2s":"Uncletopia | Sydney | 4 | All Maps","protocol":17,"map":"koth_highpass","folder":"tf","game":"Team Fortress","app_id":440,"player_count":0,"max_players":24,"Bots":0,"server_type":"Dedicated","server_os":"Linux","password":true,"vac":true,"version":"7757534","steam_id":85568392925397958,"keywords":["cp","nocrits","nodmgspread","uncletopia"],"game_id":440,"stv_port":27046,"stv_name":"Uncletopia | Sydney | 4 | All Maps | STV","players":null},{"server_id":58,"name":"Uncletopia | Sydney | 5 | Stopwatch Beta","name_short":"syd-5","host":"syd-1.au.uncletopia.com","port":27055,"enabled":true,"region":"au","cc":"au","latitude":-33.865143,"longitude":151.2099,"reserved":0,"last_update":"0001-01-01T00:00:00Z","name_a2s":"Uncletopia | Sydney | 5 | Stopwatch Beta","protocol":17,"map":"workshop/cp_reckoner_rc6.ugc674719999","folder":"tf","game":"Team Fortress","app_id":440,"player_count":0,"max_players":24,"Bots":0,"server_type":"Dedicated","server_os":"Linux","password":true,"vac":true,"version":"7757534","steam_id":85568392925397959,"keywords":["cp","nocrits","nodmgspread","uncletopia"],"game_id":440,"stv_port":27056,"stv_name":"Uncletopia | Sydney | 5 | Stopwatch Beta | STV","players":null},{"server_id":59,"name":"Uncletopia | Sydney | 6 | Community","name_short":"syd-6","host":"syd-1.au.uncletopia.com","port":27065,"enabled":true,"region":"au","cc":"au","latitude":-33.865143,"longitude":151.2099,"reserved":0,"last_update":"0001-01-01T00:00:00Z","name_a2s":"Uncletopia | Sydney | 6 | Community","protocol":17,"map":"cp_snakewater_final1","folder":"tf","game":"Team Fortress","app_id":440,"player_count":0,"max_players":24,"Bots":0,"server_type":"Dedicated","server_os":"Linux","password":true,"vac":true,"version":"7757534","steam_id":85568392925397960,"keywords":["cp","nocrits","nodmgspread","uncletopia"],"game_id":440,"stv_port":27066,"stv_name":"Uncletopia | Sydney | 6 | Community | STV","players":null},{"server_id":49,"name":"Uncletopia | Warsaw | 1 | All Maps","name_short":"waw-1","host":"waw-1.pl.uncletopia.com","port":27015,"enabled":true,"region":"eu","cc":"pl","latitude":52.2297,"longitude":21.017532,"reserved":0,"last_update":"0001-01-01T00:00:00Z","name_a2s":"","protocol":0,"map":"","folder":"","game":"","app_id":0,"player_count":0,"max_players":0,"Bots":0,"server_type":"","server_os":"","password":false,"vac":false,"version":"","steam_id":0,"keywords":null,"game_id":0,"stv_port":0,"stv_name":"","players":null},{"server_id":50,"name":"Uncletopia | Warsaw | 2 | All Maps","name_short":"waw-2","host":"waw-1.pl.uncletopia.com","port":27025,"enabled":true,"region":"eu","cc":"pl","latitude":52.2297,"longitude":21.017532,"reserved":0,"last_update":"0001-01-01T00:00:00Z","name_a2s":"Uncletopia | Warsaw | 2 | All Maps","protocol":17,"map":"cp_dustbowl","folder":"tf","game":"Team Fortress","app_id":440,"player_count":0,"max_players":24,"Bots":0,"server_type":"Dedicated","server_os":"Linux","password":true,"vac":true,"version":"7757534","steam_id":85568392925397851,"keywords":["cp","nocrits","nodmgspread","uncletopia"],"game_id":440,"stv_port":27026,"stv_name":"Uncletopia | Warsaw | 2 | All Maps | STV","players":null},{"server_id":51,"name":"Uncletopia | Warsaw | 3 | All Maps","name_short":"waw-3","host":"waw-1.pl.uncletopia.com","port":27035,"enabled":true,"region":"eu","cc":"pl","latitude":52.2297,"longitude":21.017532,"reserved":0,"last_update":"0001-01-01T00:00:00Z","name_a2s":"Uncletopia | Warsaw | 3 | All Maps","protocol":17,"map":"koth_highpass","folder":"tf","game":"Team Fortress","app_id":440,"player_count":0,"max_players":24,"Bots":0,"server_type":"Dedicated","server_os":"Linux","password":true,"vac":true,"version":"7757534","steam_id":85568392925397852,"keywords":["cp","nocrits","nodmgspread","uncletopia"],"game_id":440,"stv_port":27036,"stv_name":"Uncletopia | Warsaw | 3 | All Maps | STV","players":null},{"server_id":52,"name":"Uncletopia | Warsaw | 4 | All Maps","name_short":"waw-4","host":"waw-1.pl.uncletopia.com","port":27045,"enabled":true,"region":"eu","cc":"pl","latitude":52.2297,"longitude":21.017532,"reserved":0,"last_update":"0001-01-01T00:00:00Z","name_a2s":"Uncletopia | Warsaw | 4 | All Maps","protocol":17,"map":"koth_lakeside_final","folder":"tf","game":"Team Fortress","app_id":440,"player_count":0,"max_players":24,"Bots":0,"server_type":"Dedicated","server_os":"Linux","password":true,"vac":true,"version":"7757534","steam_id":85568392925397853,"keywords":["cp","nocrits","nodmgspread","uncletopia"],"game_id":440,"stv_port":27046,"stv_name":"Uncletopia | Warsaw | 4 | All Maps | STV","players":null},{"server_id":53,"name":"Uncletopia | Warsaw | 5 | Stopwatch Beta","name_short":"waw-5","host":"waw-1.pl.uncletopia.com","port":27055,"enabled":true,"region":"eu","cc":"pl","latitude":52.2297,"longitude":21.017532,"reserved":0,"last_update":"0001-01-01T00:00:00Z","name_a2s":"Uncletopia | Warsaw | 5 | Stopwatch Beta","protocol":17,"map":"pl_borneo","folder":"tf","game":"Team Fortress","app_id":440,"player_count":0,"max_players":24,"Bots":0,"server_type":"Dedicated","server_os":"Linux","password":true,"vac":true,"version":"7757534","steam_id":85568392925397854,"keywords":["nocrits","nodmgspread","payload","uncletopia"],"game_id":440,"stv_port":27056,"stv_name":"Uncletopia | Warsaw | 5 | Stopwatch Beta | STV","players":null},{"server_id":54,"name":"Uncletopia | Warsaw | 6 | Community","name_short":"waw-6","host":"waw-1.pl.uncletopia.com","port":27065,"enabled":true,"region":"eu","cc":"pl","latitude":52.2297,"longitude":21.017532,"reserved":0,"last_update":"0001-01-01T00:00:00Z","name_a2s":"Uncletopia | Warsaw | 6 | Community","protocol":17,"map":"workshop/cp_caldera_rc2.ugc2834196889","folder":"tf","game":"Team Fortress","app_id":440,"player_count":0,"max_players":24,"Bots":0,"server_type":"Dedicated","server_os":"Linux","password":true,"vac":true,"version":"7757534","steam_id":85568392925397856,"keywords":["cp","nocrits","nodmgspread","uncletopia"],"game_id":440,"stv_port":27066,"stv_name":"Uncletopia | Warsaw | 6 | Community | STV","players":null}]}