{"status":true,"message":"","result":[{"server_id":9,"name":"Uncletopia | Atlanta | 1 | All Maps","name_short":"atl-1","host":"atl-1.us.uncletopia.com","port":27015,"enabled":true,"region":"us-east","cc":"us","latitude":33.753746,"longitude":-84.38633,"reserved":0,"last_update":"0001-01-01T00:00:00Z","name_a2s":"Uncletopia | Atlanta | 1 | All Maps","protocol":17,"map":"koth_cascade","folder":"tf","game":"Team Fortress","app_id":440,"player_count":0,"max_players":24,"Bots":0,"server_type":"Dedicated","server_os":"Linux","password":true,"vac":true,"version":"7757534","steam_id":85568392924469982,"keywords":["cp","nocrits","nodmgspread","uncletopia"],"game_id":440,"stv_port":27016,"stv_name":"Uncletopia | Atlanta | 1 | All Maps | STV","players":null},{"server_id":104,"name":"Uncletopia | Atlanta | 2 | All Maps","name_short":"atl-2","host":"atl-1.us.uncletopia.com","port":27025,"enabled":true,"region":"us-east","cc":"us","latitude":33.753746,"longitude":-84.38633,"reserved":0,"last_update":"0001-01-01T00:00:00Z","name_a2s":"Uncletopia | Atlanta | 2 | All Maps","protocol":17,"map":"cp_dustbowl","folder":"tf","game":"Team Fortress","app_id":440,"player_count":0,"max_players":24,"Bots":0,"server_type":"Dedicated","server_os":"Linux","password":true,"vac":true,"version":"7757534","steam_id":85568392924469983,"keywords":["cp","nocrits","nodmgspread","uncletopia"],"game_id":440,"stv_port":27026,"stv_name":"Uncletopia | Atlanta | 2 | All Maps | STV","players":null},{"server_id":400,"name":"Uncletopia | Atlanta | 3 | Community","name_short":"atl-3","host":"atl-1.us.uncletopia.com","port":27035,"enabled":true,"region":"us-east","cc":"us","latitude":33.753746,"longitude":-84.38633,"reserved":0,"last_update":"0001-01-01T00:00:00Z","name_a2s":"Uncletopia | Atlanta | 3 | Community","protocol":17,"map":"workshop/koth_bagel_rc6.ugc2514036946","folder":"tf","game":"Team Fortress","app_id":440,"player_count":0,"max_players":24,"Bots":0,"server_type":"Dedicated","server_os":"Linux","password":true,"vac":true,"version":"7757534","steam_id":85568392924515187,"keywords":["cp","nocrits","nodmgspread","uncletopia"],"game_id":440,"stv_port":27036,"stv_name":"Uncletopia | Atlanta | 3 | Community | STV","players":null},{"server_id":401,"name":"Uncletopia | Atlanta | 4 | No Payload","name_short":"atl-4","host":"atl-1.us.uncletopia.com","port":27045,"enabled":true,"region":"us-east","cc":"us","latitude":33.753746,"longitude":-84.38633,"reserved":0,"last_update":"0001-01-01T00:00:00Z","name_a2s":"","protocol":0,"map":"","folder":"","game":"","app_id":0,"player_count":0,"max_players":0,"Bots":0,"server_type":"","server_os":"","password":false,"vac":false,"version":"","steam_id":0,"keywords":null,"game_id":0,"stv_port":0,"stv_name":"","players":null},{"server_id":2,"name":"Uncletopia | Chicago | 1 | All Maps","name_short":"chi-1","host":"chi-1.us.uncletopia.com","port":27015,"enabled":true,"region":"us-central","cc":"us","latitude":41.881832,"longitude":-87.62318,"reserved":0,"last_update":"0001-01-01T00:00:00Z","name_a2s":"Uncletopia | Chicago | 1 | All Maps","protocol":17,"map":"pl_swiftwater_final1","folder":"tf","game":"Team Fortress","app_id":440,"player_count":24,"max_players":24,"Bots":0,"server_type":"Dedicated","server_os":"Linux","password":true,"vac":true,"version":"7757534","steam_id":85568392924469984,"keywords":["nocrits","nodmgspread","payload","uncletopia"],"game_id":440,"stv_port":27016,"stv_name":"Uncletopia | Chicago | 1 | All Maps | STV","players":[{"user_id":79,"name":"Sunflower","steam_id":76561198081223793,"connected_time":1082000000000,"state":"active","ping":55},{"user_id":57,"name":"boylover54","steam_id":76561199030726701,"connected_time":2968000000000,"state":"active","ping":98},{"user_id":33,"name":"Coup de Grass","steam_id":76561198011643226,"connected_time":5002000000000,"state":"active","ping":72},{"user_id":6,"name":"googa","steam_id":76561198133130452,"connected_time":6436000000000,"state":"active","ping":57},{"user_id":48,"name":"Plague Doctor Moose","steam_id":76561199027129554,"connected_time":4006000000000,"state":"active","ping":63},{"user_id":8,"name":"BakedPie","steam_id":76561198220165036,"connected_time":6423000000000,"state":"active","ping":72},{"user_id":42,"name":"indi","steam_id":76561198045917538,"connected_time":4218000000000,"state":"active","ping":45},{"user_id":71,"name":"Obama F. Kennedy","steam_id":76561198282499318,"connected_time":1335000000000,"state":"active","ping":74},{"user_id":69,"name":"updog","steam_id":76561198869221421,"connected_time":1524000000000,"state":"active","ping":121},{"user_id":74,"name":"slurp","steam_id":76561198323497535,"connected_time":1259000000000,"state":"active","ping":71},{"user_id":75,"name":"blazzeh","steam_id":76561198053407069,"connected_time":1174000000000,"state":"active","ping":124},{"user_id":45,"name":"moe5x","steam_id":76561198316877833,"connected_time":4188000000000,"state":"active","ping":105},{"user_id":77,"name":"Txhiggins","steam_id":76561198117531009,"connected_time":1150000000000,"state":"active","ping":74},{"user_id":84,"name":"DJ Taj Mahal","steam_id":76561198024504491,"connected_time":841000000000,"state":"active","ping":46},{"user_id":68,"name":"Valkyria","steam_id":76561199062908221,"connected_time":1526000000000,"state":"active","ping":110},{"user_id":82,"name":"abra","steam_id":76561198064558316,"connected_time":961000000000,"state":"active","ping":86},{"user_id":41,"name":"StickyWicket","steam_id":76561198000155177,"connected_time":4371000000000,"state":"active","ping":72},{"user_id":60,"name":"meh","steam_id":76561198040910380,"connected_time":2491000000000,"state":"active","ping":90},{"user_id":83,"name":"Zetta","steam_id":76561198045710113,"connected_time":873000000000,"state":"active","ping":107},{"user_id":80,"name":"bee","steam_id":76561198025553902,"connected_time":1068000000000,"state":"active","ping":43},{"user_id":70,"name":"Hylic","steam_id":76561199051314589,"connected_time":1524000000000,"state":"active","ping":72},{"user_id":81,"name":"Stoa","steam_id":76561198332519926,"connected_time":1045000000000,"state":"active","ping":83},{"user_id":63,"name":"Macko","steam_id":76561198452005461,"connected_time":2136000000000,"state":"active","ping":83},{"user_id":61,"name":"LVL 4 Dispenser Gaming","steam_id":76561198044244547,"connected_time":2456000000000,"state":"active","ping":79}]},{"server_id":106,"name":"Uncletopia | Chicago | 2 | All Maps","name_short":"chi-2","host":"chi-1.us.uncletopia.com","port":27025,"enabled":true,"region":"us-central","cc":"us","latitude":41.881832,"longitude":-87.62318,"reserved":0,"last_update":"0001-01-01T00:00:00Z","name_a2s":"Uncletopia | Chicago | 2 | All Maps","protocol":17,"map":"cp_altitude","folder":"tf","game":"Team Fortress","app_id":440,"player_count":0,"max_players":24,"Bots":0,"server_type":"Dedicated","server_os":"Linux","password":true,"vac":true,"version":"7757534","steam_id":85568392924469985,"keywords":["cp","nocrits","nodmgspread","uncletopia"],"game_id":440,"stv_port":27026,"stv_name":"Uncletopia | Chicago | 2 | All Maps | STV","players":null},{"server_id":402,"name":"Uncletopia | Chicago | 3 | All Maps","name_short":"chi-3","host":"chi-1.us.uncletopia.com","port":27035,"enabled":true,"region":"us-central","cc":"us","latitude":41.881832,"longitude":-87.62318,"reserved":0,"last_update":"0001-01-01T00:00:00Z","name_a2s":"Uncletopia | Chicago | 3 | All Maps","protocol":17,"map":"pl_pier","folder":"tf","game":"Team Fortress","app_id":440,"player_count":0,"max_players":24,"Bots":0,"server_type":"Dedicated","server_os":"Linux","password":true,"vac":true,"version":"7757534","steam_id":85568392924515191,"keywords":["nocrits","nodmgspread","payload","uncletopia"],"game_id":440,"stv_port":27036,"stv_name":"Uncletopia | Chicago | 3 | All Maps | STV","players":null},{"server_id":403,"name":"Uncletopia | Chicago | 4 | All Maps","name_short":"chi-4","host":"chi-1.us.uncletopia.com","port":27045,"enabled":true,"region":"us-central","cc":"us","latitude":41.881832,"longitude":-87.62318,"reserved":0,"last_update":"0001-01-01T00:00:00Z","name_a2s":"Uncletopia | Chicago | 4 | All Maps","protocol":17,"map":"koth_lakeside_final","folder":"tf","game":"Team Fortress","app_id":440,"player_count":0,"max_players":24,"Bots":0,"server_type":"Dedicated","server_os":"Linux","password":true,"vac":true,"version":"7757534","steam_id":85568392924515193,"keywords":["cp","nocrits","nodmgspread","uncletopia"],"game_id":440,"stv_port":27046,"stv_name":"Uncletopia | Chicago | 4 | All Maps | STV","players":null},{"server_id":36,"name":"Uncletopia | Chicago | 5 | All Maps","name_short":"chi-5","host":"chi-2.us.uncletopia.com","port":27015,"enabled":true,"region":"us-central","cc":"us","latitude":41.881832,"longitude":-87.62318,"reserved":0,"last_update":"0001-01-01T00:00:00Z","name_a2s":"Uncletopia | Chicago | 5 | All Maps","protocol":17,"map":"koth_cascade","folder":"tf","game":"Team Fortress","app_id":440,"player_count":0,"max_players":24,"Bots":0,"server_type":"Dedicated","server_os":"Linux","password":true,"vac":true,"version":"7757534","steam_id":85568392924866362,"keywords":["cp","nocrits","nodmgspread","uncletopia"],"game_id":440,"stv_port":27016,"stv_name":"Uncletopia | Chicago | 5 | All Maps | STV","players":null},{"server_id":37,"name":"Uncletopia | Chicago | 6 | All Maps","name_short":"chi-6","host":"chi-2.us.uncletopia.com","port":27025,"enabled":true,"region":"us-central","cc":"us","latitude":41.881832,"longitude":-87.62318,"reserved":0,"last_update":"0001-01-01T00:00:00Z","name_a2s":"Uncletopia | Chicago | 6 | All Maps","protocol":17,"map":"cp_dustbowl","folder":"tf","game":"Team Fortress","app_id":440,"player_count":22,"max_players":24,"Bots":0,"server_type":"Dedicated","server_os":"Linux","password":true,"vac":true,"version":"7757534","steam_id":85568392924866363,"keywords":["cp","nocrits","nodmgspread","uncletopia"],"game_id":440,"stv_port":27026,"stv_name":"Uncletopia | Chicago | 6 | All Maps | STV","players":[{"user_id":22,"name":"AudioMedic","steam_id":76561198333939032,"connected_time":2272000000000,"state":"active","ping":65},{"user_id":10,"name":"TheDude","steam_id":76561198314764519,"connected_time":3025000000000,"state":"active","ping":99},{"user_id":46,"name":"exoss","steam_id":76561198380720441,"connected_time":1381000000000,"state":"spawning","ping":110},{"user_id":47,"name":"PenguinSafe","steam_id":76561198330002534,"connected_time":1372000000000,"state":"active","ping":60},{"user_id":48,"name":"Horse","steam_id":76561198004583631,"connected_time":1359000000000,"state":"active","ping":69},{"user_id":67,"name":"Arm","steam_id":76561198116535637,"connected_time":27000000000,"state":"spawning","ping":55},{"user_id":65,"name":"Mury","steam_id":76561198069743049,"connected_time":230000000000,"state":"active","ping":106},{"user_id":16,"name":"Nemo","steam_id":76561198836696938,"connected_time":2666000000000,"state":"active","ping":122},{"user_id":55,"name":"mrselfdestruct13","steam_id":76561197992054553,"connected_time":940000000000,"state":"spawning","ping":65},{"user_id":60,"name":"Nimdok","steam_id":76561198052213644,"connected_time":734000000000,"state":"active","ping":182},{"user_id":30,"name":"The Good","steam_id":76561198133253633,"connected_time":1896000000000,"state":"active","ping":118},{"user_id":26,"name":"wally","steam_id":76561198027450079,"connected_time":2042000000000,"state":"spawning","ping":64},{"user_id":51,"name":"TATARA","steam_id":76561199098759517,"connected_time":1059000000000,"state":"active","ping":124},{"user_id":50,"name":"OneTrueCorvid","steam_id":76561199012953221,"connected_time":1229000000000,"state":"spawning","ping":269},{"user_id":68,"name":"xen","steam_id":76561198048568188,"connected_time":27000000000,"state":"active","ping":65},{"user_id":61,"name":"imadabest","steam_id":76561199123304377,"connected_time":697000000000,"state":"active","ping":108},{"user_id":33,"name":"Moop","steam_id":76561198096984681,"connected_time":1839000000000,"state":"active","ping":95},{"user_id":34,"name":"Pugzilla","steam_id":76561198108088960,"connected_time":1826000000000,"state":"active","ping":71},{"user_id":62,"name":"KnifeScope","steam_id":76561198057632106,"connected_time":662000000000,"state":"active","ping":64},{"user_id":66,"name":"The Great Eagle Scourge of 1822","steam_id":76561198325086209,"connected_time":45000000000,"state":"active","ping":113},{"user_id":38,"name":"Pan-Demonica","steam_id":76561198294350105,"connected_time":1801000000000,"state":"active","ping":82},{"user_id":58,"name":"Luna She/Her","steam_id":76561198991791655,"connected_time":841000000000,"state":"active","ping":94}]},{"server_id":38,"name":"Uncletopia | Chicago | 7 | Stopwatch Beta","name_short":"chi-7","host":"chi-2.us.uncletopia.com","port":27035,"enabled":true,"region":"us-central","cc":"us","latitude":41.881832,"longitude":-87.62318,"reserved":0,"last_update":"0001-01-01T00:00:00Z","name_a2s":"Uncletopia | Chicago | 7 | Stopwatch Beta","protocol":17,"map":"pl_barnblitz","folder":"tf","game":"Team Fortress","app_id":440,"player_count":0,"max_players":24,"Bots":0,"server_type":"Dedicated","server_os":"Linux","password":true,"vac":true,"version":"7757534","steam_id":85568392924866364,"keywords":["nocrits","nodmgspread","payload","uncletopia"],"game_id":440,"stv_port":27036,"stv_name":"Uncletopia | Chicago | 7 | Stopwatch Beta | STV","players":null},{"server_id":39,"name":"Uncletopia | Chicago | 8 | Community","name_short":"chi-8","host":"chi-2.us.uncletopia.com","port":27045,"enabled":true,"region":"us-central","cc":"us","latitude":41.881832,"longitude":-87.62318,"reserved":0,"last_update":"0001-01-01T00:00:00Z","name_a2s":"Uncletopia | Chicago | 8 | Community","protocol":17,"map":"koth_cascade","folder":"tf","game":"Team Fortress","app_id":440,"player_count":0,"max_players":24,"Bots":0,"server_type":"Dedicated","server_os":"Linux","password":true,"vac":true,"version":"7757534","steam_id":85568392924866365,"keywords":["cp","nocrits","nodmgspread","uncletopia"],"game_id":440,"stv_port":27046,"stv_name":"Uncletopia | Chicago | 8 | Community | STV","players":null},{"server_id":8,"name":"Uncletopia | Dallas | 1 | All Maps","name_short":"dal-1","host":"dal-1.us.uncletopia.com","port":27015,"enabled":true,"region":"us-central","cc":"us","latitude":32.779167,"longitude":-96.80889,"reserved":0,"last_update":"0001-01-01T00:00:00Z","name_a2s":"Uncletopia | Dallas | 1 | All Maps","protocol":17,"map":"koth_cascade","folder":"tf","game":"Team Fortress","app_id":440,"player_count":0,"max_players":24,"Bots":0,"server_type":"Dedicated","server_os":"Linux","password":true,"vac":true,"version":"7757534","steam_id":85568392924469986,"keywords":["cp","nocrits","nodmgspread","uncletopia"],"game_id":440,"stv_port":27016,"stv_name":"Uncletopia | Dallas | 1 | All Maps | STV","players":null},{"server_id":108,"name":"Uncletopia | Dallas | 2 | All Maps","name_short":"dal-2","host":"dal-1.us.uncletopia.com","port":27025,"enabled":true,"region":"us-central","cc":"us","latitude":32.779167,"longitude":-96.80889,"reserved":0,"last_update":"0001-01-01T00:00:00Z","name_a2s":"Uncletopia | Dallas | 2 | All Maps","protocol":17,"map":"pl_upward","folder":"tf","game":"Team Fortress","app_id":440,"player_count":12,"max_players":24,"Bots":0,"server_type":"Dedicated","server_os":"Linux","password":true,"vac":true,"version":"7757534","steam_id":85568392924469988,"keywords":["nocrits","nodmgspread","payload","uncletopia"],"game_id":440,"stv_port":27026,"stv_name":"Uncletopia | Dallas | 2 | All Maps | STV","players":[{"user_id":4,"name":"Ja","steam_id":76561198396340174,"connected_time":1468000000000,"state":"active","ping":94},{"user_id":15,"name":"CPT. Giga Chad","steam_id":76561198059785363,"connected_time":395000000000,"state":"active","ping":55},{"user_id":12,"name":"DANCINGWALKINGREARANGINGFURNITU","steam_id":76561198072563815,"connected_time":699000000000,"state":"active","ping":66},{"user_id":11,"name":"Biome","steam_id":76561198133485826,"connected_time":715000000000,"state":"active","ping":90},{"user_id":13,"name":"Wahooka","steam_id":76561197962240925,"connected_time":680000000000,"state":"active","ping":82},{"user_id":17,"name":"DjWars","steam_id":76561198170954486,"connected_time":290000000000,"state":"active","ping":111},{"user_id":18,"name":"Drakon","steam_id":76561198078210822,"connected_time":151000000000,"state":"active","ping":94},{"user_id":19,"name":"Dr. Nobotnik","steam_id":76561198357339092,"connected_time":120000000000,"state":"active","ping":95},{"user_id":20,"name":"Pyro Of The Lake","steam_id":76561199149576897,"connected_time":92000000000,"state":"active","ping":54},{"user_id":21,"name":"Czes","steam_id":76561198332274973,"connected_time":89000000000,"state":"active","ping":79},{"user_id":22,"name":"amanofboys91","steam_id":76561199474653798,"connected_time":71000000000,"state":"active","ping":145},{"user_id":23,"name":"Silexos","steam_id":76561198267639877,"connected_time":24000000000,"state":"active","ping":76}]},{"server_id":5,"name":"Uncletopia | Frankfurt | 1 | All Maps","name_short":"frk-1","host":"frk-1.de.uncletopia.com","port":27015,"enabled":true,"region":"eu","cc":"de","latitude":50.110924,"longitude":8.682127,"reserved":0,"last_update":"0001-01-01T00:00:00Z","name_a2s":"Uncletopia | Frankfurt | 1 | All Maps","protocol":17,"map":"pl_barnblitz","folder":"tf","game":"Team Fortress","app_id":440,"player_count":24,"max_players":24,"Bots":0,"server_type":"Dedicated","server_os":"Linux","password":true,"vac":true,"version":"7757534","steam_id":85568392924469989,"keywords":["nocrits","nodmgspread","payload","uncletopia"],"game_id":440,"stv_port":27016,"stv_name":"Uncletopia | Frankfurt | 1 | All Maps | STV","players":[{"user_id":226,"name":"ldshwt","steam_id":76561198090364357,"connected_time":7853000000000,"state":"active","ping":45},{"user_id":297,"name":"You're doing great","steam_id":76561198049065538,"connected_time":3440000000000,"state":"active","ping":75},{"user_id":328,"name":"SantiTzePug","steam_id":76561199049615996,"connected_time":1972000000000,"state":"active","ping":76},{"user_id":348,"name":"SlowMode","steam_id":76561198039631442,"connected_time":761000000000,"state":"active","ping":82},{"user_id":308,"name":"Doohickey mechanic","steam_id":76561198146180114,"connected_time":2697000000000,"state":"active","ping":83},{"user_id":295,"name":"Myrmodion","steam_id":76561198054746247,"connected_time":3503000000000,"state":"active","ping":64},{"user_id":350,"name":"roby","steam_id":76561198044660393,"connected_time":534000000000,"state":"active","ping":48},{"user_id":317,"name":"KAZAM | Tervez","steam_id":76561198045459068,"connected_time":2268000000000,"state":"active","ping":76},{"user_id":333,"name":"Totesdrache","steam_id":76561199088861308,"connected_time":1870000000000,"state":"active","ping":62},{"user_id":298,"name":"The Jizzler","steam_id":76561198076878653,"connected_time":3439000000000,"state":"active","ping":51},{"user_id":336,"name":"Mr.raccoon","steam_id":76561198247751074,"connected_time":1730000000000,"state":"active","ping":68},{"user_id":351,"name":"Lionball_3","steam_id":76561199084049796,"connected_time":522000000000,"state":"active","ping":76},{"user_id":305,"name":"Famished Capybara","steam_id":76561198799282784,"connected_time":3132000000000,"state":"active","ping":77},{"user_id":353,"name":"Faust","steam_id":76561198117139836,"connected_time":190000000000,"state":"active","ping":69},{"user_id":344,"name":"janga","steam_id":76561197977643629,"connected_time":1091000000000,"state":"active","ping":46},{"user_id":342,"name":"Vitamin Weee","steam_id":76561199183937747,"connected_time":1501000000000,"state":"active","ping":80},{"user_id":315,"name":"Typs","steam_id":76561198011748555,"connected_time":2478000000000,"state":"active","ping":43},{"user_id":340,"name":"Big Jack Horner","steam_id":76561198847690613,"connected_time":1583000000000,"state":"active","ping":144},{"user_id":332,"name":"mp1mp2mp3","steam_id":76561198088967665,"connected_time":1890000000000,"state":"active","ping":95},{"user_id":312,"name":"dollar foot long","steam_id":76561199250808808,"connected_time":2602000000000,"state":"active","ping":74},{"user_id":272,"name":"SoupER","steam_id":76561198063056668,"connected_time":4689000000000,"state":"active","ping":63},{"user_id":349,"name":"Zenssei","steam_id":76561198209895623,"connected_time":695000000000,"state":"active","ping":106},{"user_id":352,"name":"result","steam_id":76561198269200388,"connected_time":230000000000,"state":"active","ping":85},{"user_id":346,"name":"Woman (Real)","steam_id":76561198131411627,"connected_time":1010000000000,"state":"active","ping":103}]},{"server_id":110,"name":"Uncletopia | Frankfurt | 2 | All Maps","name_short":"frk-2","host":"frk-1.de.uncletopia.com","port":27025,"enabled":true,"region":"eu","cc":"de","latitude":50.110924,"longitude":8.682127,"reserved":0,"last_update":"0001-01-01T00:00:00Z","name_a2s":"Uncletopia | Frankfurt | 2 | All Maps","protocol":17,"map":"pl_thundermountain","folder":"tf","game":"Team Fortress","app_id":440,"player_count":24,"max_players":24,"Bots":0,"server_type":"Dedicated","server_os":"Linux","password":true,"vac":true,"version":"7757534","steam_id":85568392924469990,"keywords":["nocrits","nodmgspread","payload","uncletopia"],"game_id":440,"stv_port":27026,"stv_name":"Uncletopia | Frankfurt | 2 | All Maps | STV","players":[{"user_id":125,"name":"Topi","steam_id":76561198165732391,"connected_time":949000000000,"state":"active","ping":88},{"user_id":100,"name":"Rappin' Sebastian","steam_id":76561198453928256,"connected_time":3383000000000,"state":"active","ping":75},{"user_id":21,"name":"Chromega","steam_id":76561199075307750,"connected_time":7592000000000,"state":"active","ping":66},{"user_id":88,"name":"Skirata","steam_id":76561197985224878,"connected_time":4083000000000,"state":"active","ping":62},{"user_id":97,"name":"Kava","steam_id":76561199001657140,"connected_time":3505000000000,"state":"active","ping":78},{"user_id":83,"name":"disc0rd","steam_id":76561197985965776,"connected_time":4318000000000,"state":"active","ping":61},{"user_id":74,"name":"john fortress","steam_id":76561198013237629,"connected_time":4977000000000,"state":"active","ping":109},{"user_id":99,"name":"Mix_Maks","steam_id":76561198143301726,"connected_time":3426000000000,"state":"active","ping":106},{"user_id":116,"name":"‚Ñ¢‚Åß‚Åß‰πÉ»ΩOOD PRINCŒû","steam_id":76561198137835796,"connected_time":1685000000000,"state":"active","ping":50},{"user_id":118,"name":"Johan","steam_id":76561199380849468,"connected_time":1611000000000,"state":"active","ping":60},{"user_id":122,"name":"Pipper","steam_id":76561197970326616,"connected_time":1414000000000,"state":"active","ping":69},{"user_id":93,"name":"marco / s /","steam_id":76561198300120382,"connected_time":3864000000000,"state":"active","ping":63},{"user_id":104,"name":"JamesPepega","steam_id":76561198019156154,"connected_time":2923000000000,"state":"active","ping":72},{"user_id":119,"name":"Jeremy265","steam_id":76561199004316549,"connected_time":1599000000000,"state":"active","ping":119},{"user_id":72,"name":"leave it","steam_id":76561198444036574,"connected_time":5090000000000,"state":"active","ping":66},{"user_id":132,"name":"Mikzy","steam_id":76561198059302783,"connected_time":109000000000,"state":"active","ping":97},{"user_id":110,"name":"DarkFady","steam_id":76561198179099523,"connected_time":2547000000000,"state":"active","ping":109},{"user_id":131,"name":"Monkey","steam_id":76561199182098050,"connected_time":151000000000,"state":"active","ping":116},{"user_id":130,"name":"Civil Melon","steam_id":76561198988309618,"connected_time":309000000000,"state":"active","ping":92},{"user_id":113,"name":"Driver's drunkest God","steam_id":76561198969373800,"connected_time":2421000000000,"state":"active","ping":73},{"user_id":126,"name":"Carrot","steam_id":76561198119340863,"connected_time":793000000000,"state":"active","ping":58},{"user_id":109,"name":"White_Cheddar","steam_id":76561198097004871,"connected_time":2712000000000,"state":"active","ping":141},{"user_id":101,"name":"Just a Femboy","steam_id":76561198289497683,"connected_time":3332000000000,"state":"active","ping":86},{"user_id":128,"name":"epic gamer moment","steam_id":76561198299515070,"connected_time":570000000000,"state":"active","ping":99}]},{"server_id":308,"name":"Uncletopia | Frankfurt | 3 | All Maps","name_short":"frk-3","host":"frk-1.de.uncletopia.com","port":27035,"enabled":true,"region":"eu","cc":"de","latitude":50.110924,"longitude":8.682127,"reserved":0,"last_update":"0001-01-01T00:00:00Z","name_a2s":"Uncletopia | Frankfurt | 3 | All Maps","protocol":17,"map":"pl_pier","folder":"tf","game":"Team Fortress","app_id":440,"player_count":0,"max_players":24,"Bots":0,"server_type":"Dedicated","server_os":"Linux","password":true,"vac":true,"version":"7757534","steam_id":85568392924504274,"keywords":["nocrits","nodmgspread","payload","uncletopia"],"game_id":440,"stv_port":27036,"stv_name":"Uncletopia | Frankfurt | 3 | All Maps | STV","players":null},{"server_id":309,"name":"Uncletopia | Frankfurt | 4 | All Maps","name_short":"frk-4","host":"frk-1.de.uncletopia.com","port":27045,"enabled":true,"region":"eu","cc":"de","latitude":50.110924,"longitude":8.682127,"reserved":0,"last_update":"0001-01-01T00:00:00Z","name_a2s":"Uncletopia | Frankfurt | 4 | All Maps","protocol":17,"map":"koth_viaduct","folder":"tf","game":"Team Fortress","app_id":440,"player_count":0,"max_players":24,"Bots":0,"server_type":"Dedicated","server_os":"Linux","password":true,"vac":true,"version":"7757534","steam_id":85568392924504275,"keywords":["cp","nocrits","nodmgspread","uncletopia"],"game_id":440,"stv_port":27046,"stv_name":"Uncletopia | Frankfurt | 4 | All Maps | STV","players":null},{"server_id":310,"name":"Uncletopia | Frankfurt | 5 | All Maps","name_short":"frk-5","host":"frk-1.de.uncletopia.com","port":27055,"enabled":true,"region":"eu","cc":"de","latitude":50.110924,"longitude":8.682127,"reserved":0,"last_update":"0001-01-01T00:00:00Z","name_a2s":"Uncletopia | Frankfurt | 5 | All Maps","protocol":17,"map":"pl_badwater","folder":"tf","game":"Team Fortress","app_id":440,"player_count":0,"max_players":24,"Bots":0,"server_type":"Dedicated","server_os":"Linux","password":true,"vac":true,"version":"7757534","steam_id":85568392924504277,"keywords":["nocrits","nodmgspread","payload","uncletopia"],"game_id":440,"stv_port":27056,"stv_name":"Uncletopia | Frankfurt | 5 | All Maps | STV","players":null},{"server_id":311,"name":"Uncletopia | Frankfurt | 6 | All Maps","name_short":"frk-6","host":"frk-1.de.uncletopia.com","port":27065,"enabled":true,"region":"eu","cc":"de","latitude":50.110924,"longitude":8.682127,"reserved":0,"last_update":"0001-01-01T00:00:00Z","name_a2s":"Uncletopia | Frankfurt | 6 | All Maps","protocol":17,"map":"pl_badwater","folder":"tf","game":"Team Fortress","app_id":440,"player_count":14,"max_players":24,"Bots":0,"server_type":"Dedicated","server_os":"Linux","password":true,"vac":true,"version":"7757534","steam_id":85568392924504278,"keywords":["nocrits","nodmgspread","payload","uncletopia"],"game_id":440,"stv_port":27066,"stv_name":"Uncletopia | Frankfurt | 6 | All Maps | STV","players":[{"user_id":13,"name":"Liter","steam_id":76561199161418340,"connected_time":1299000000000,"state":"active","ping":98},{"user_id":14,"name":".FilthyActsAtAReasonablePrice.","steam_id":76561199212653573,"connected_time":1204000000000,"state":"active","ping":69},{"user_id":19,"name":"Jeerven","steam_id":76561198259189841,"connected_time":437000000000,"state":"active","ping":60},{"user_id":25,"name":"TadeuszekPL","steam_id":76561198360972882,"connected_time":119000000000,"state":"active","ping":63},{"user_id":22,"name":"CheesyNacho","steam_id":76561198350445456,"connected_time":260000000000,"state":"active","ping":145},{"user_id":23,"name":"Carter","steam_id":76561198005243938,"connected_time":253000000000,"state":"active","ping":75},{"user_id":24,"name":"fried","steam_id":76561198307522022,"connected_time":145000000000,"state":"active","ping":47},{"user_id":26,"name":"Rex Z'Beq","steam_id":76561199300590000,"connected_time":99000000000,"state":"active","ping":75},{"user_id":27,"name":"Leekos","steam_id":76561198020121584,"connected_time":85000000000,"state":"active","ping":87},{"user_id":28,"name":"very bad game","steam_id":76561198120166752,"connected_time":74000000000,"state":"active","ping":67},{"user_id":29,"name":"MtnDew","steam_id":76561199100059743,"connected_time":41000000000,"state":"active","ping":102},{"user_id":30,"name":"fabacher","steam_id":76561198057905272,"connected_time":40000000000,"state":"active","ping":61},{"user_id":31,"name":"‚òÜMiNTERRRRR‚òÜ","steam_id":76561198799866156,"connected_time":39000000000,"state":"active","ping":98},{"user_id":32,"name":"Anttech","steam_id":76561198065184022,"connected_time":37000000000,"state":"active","ping":51}]},{"server_id":23,"name":"Uncletopia | Frankfurt | 7 | Stopwatch Beta","name_short":"frk-7","host":"frk-1.de.uncletopia.com","port":27075,"enabled":true,"region":"eu","cc":"de","latitude":50.110924,"longitude":8.682127,"reserved":0,"last_update":"0001-01-01T00:00:00Z","name_a2s":"Uncletopia | Frankfurt | 7 | Stopwatch Beta","protocol":17,"map":"workshop/cp_process_f12.ugc2302948105","folder":"tf","game":"Team Fortress","app_id":440,"player_count":24,"max_players":24,"Bots":0,"server_type":"Dedicated","server_os":"Linux","password":true,"vac":true,"version":"7757534","steam_id":85568392924742827,"keywords":["cp","nocrits","nodmgspread","uncletopia"],"game_id":440,"stv_port":27076,"stv_name":"Uncletopia | Frankfurt | 7 | Stopwatch Beta | STV","players":[{"user_id":137,"name":"Pylori","steam_id":76561197993858197,"connected_time":7445000000000,"state":"active","ping":55},{"user_id":180,"name":"Stabbyratbag","steam_id":76561198119531916,"connected_time":3806000000000,"state":"active","ping":51},{"user_id":219,"name":"FlameTheGame","steam_id":76561198841108519,"connected_time":1799000000000,"state":"active","ping":85},{"user_id":229,"name":"tiiyama","steam_id":76561198046196005,"connected_time":1510000000000,"state":"active","ping":43},{"user_id":195,"name":"HOT LOIS","steam_id":76561198302623594,"connected_time":2795000000000,"state":"active","ping":93},{"user_id":222,"name":"We are in a world of magic","steam_id":76561198104745492,"connected_time":1706000000000,"state":"active","ping":70},{"user_id":204,"name":"BLACKBIRD CLOSE [she/her]","steam_id":76561198262910410,"connected_time":2518000000000,"state":"active","ping":90},{"user_id":231,"name":"kektuse","steam_id":76561198088426580,"connected_time":1435000000000,"state":"active","ping":60},{"user_id":220,"name":"ThatTFguy","steam_id":76561198056794321,"connected_time":1782000000000,"state":"active","ping":69},{"user_id":209,"name":"mud","steam_id":76561198141497461,"connected_time":2173000000000,"state":"active","ping":57},{"user_id":240,"name":"DemonBolt","steam_id":76561198190409861,"connected_time":7000000000,"state":"spawning","ping":107},{"user_id":212,"name":"DaBrowser","steam_id":76561198142654072,"connected_time":2023000000000,"state":"active","ping":88},{"user_id":237,"name":"murderwow","steam_id":76561198024566944,"connected_time":720000000000,"state":"active","ping":101},{"user_id":234,"name":"Mussolini","steam_id":76561198218384865,"connected_time":1245000000000,"state":"active","ping":94},{"user_id":168,"name":"Raymus","steam_id":76561198021330407,"connected_time":5236000000000,"state":"active","ping":45},{"user_id":232,"name":"ASS?!?!?!?!?","steam_id":76561199159262388,"connected_time":1311000000000,"state":"active","ping":97},{"user_id":233,"name":"foursixsixseven","steam_id":76561199123727043,"connected_time":1304000000000,"state":"active","ping":65},{"user_id":189,"name":"Der Herr Doktor","steam_id":76561198119476089,"connected_time":3402000000000,"state":"active","ping":60},{"user_id":224,"name":"Autumnsky","steam_id":76561198055161203,"connected_time":1683000000000,"state":"active","ping":55},{"user_id":225,"name":"Bill_nye","steam_id":76561199216249214,"connected_time":1678000000000,"state":"active","ping":140},{"user_id":239,"name":"God's drunkest driver","steam_id":76561198157406151,"connected_time":40000000000,"state":"active","ping":106},{"user_id":238,"name":"Mirlok3","steam_id":76561198093167827,"connected_time":73000000000,"state":"active","ping":67},{"user_id":228,"name":"shadowboxing","steam_id":76561198111134021,"connected_time":1602000000000,"state":"active","ping":69},{"user_id":106,"name":"metamikko","steam_id":76561198324704234,"connected_time":9341000000000,"state":"active","ping":136}]},{"server_id":24,"name":"Uncletopia | Frankfurt | 8 | Community","name_short":"frk-8","host":"frk-1.de.uncletopia.com","port":27085,"enabled":true,"region":"eu","cc":"de","latitude":50.110924,"longitude":8.682127,"reserved":0,"last_update":"0001-01-01T00:00:00Z","name_a2s":"Uncletopia | Frankfurt | 8 | Community","protocol":17,"map":"koth_lakeside_final","folder":"tf","game":"Team Fortress","app_id":440,"player_count":0,"max_players":24,"Bots":0,"server_type":"Dedicated","server_os":"Linux","password":true,"vac":true,"version":"7757534","steam_id":85568392924742828,"keywords":["cp","nocrits","nodmgspread","uncletopia"],"game_id":440,"stv_port":27086,"stv_name":"Uncletopia | Frankfurt | 8 | Community | STV","players":null},{"server_id":202,"name":"Uncletopia | Hong Kong | 1 | All Maps","name_short":"hgk-1","host":"hgk-1.hk.uncletopia.com","port":27015,"enabled":true,"region":"asia","cc":"hk","latitude":22.302711,"longitude":114.177216,"reserved":0,"last_update":"0001-01-01T00:00:00Z","name_a2s":"Uncletopia | Hong Kong | 1 | All Maps","protocol":17,"map":"pl_upward","folder":"tf","game":"Team Fortress","app_id":440,"player_count":24,"max_players":24,"Bots":0,"server_type":"Dedicated","server_os":"Linux","password":true,"vac":true,"version":"7757534","steam_id":85568392924494504,"keywords":["nocrits","nodmgspread","payload","uncletopia"],"game_id":440,"stv_port":27016,"stv_name":"Uncletopia | Hong Kong | 1 | All Maps | STV","players":[{"user_id":417,"name":"tyiskre","steam_id":76561199211786489,"connected_time":774000000000,"state":"active","ping":79},{"user_id":411,"name":"Wx","steam_id":76561199217780897,"connected_time":1367000000000,"state":"active","ping":88},{"user_id":363,"name":"ÊØç„ÅÆËÇâÂõ£Â≠ê@hao123.com","steam_id":76561198069561896,"connected_time":7179000000000,"state":"active","ping":43},{"user_id":392,"name":"Beef Wellington","steam_id":76561197995635241,"connected_time":3109000000000,"state":"active","ping":117},{"user_id":348,"name":"Ïø†ÌÇ§","steam_id":76561197997220367,"connected_time":9007000000000,"state":"active","ping":53},{"user_id":399,"name":"shego","steam_id":76561198109141608,"connected_time":2614000000000,"state":"active","ping":115},{"user_id":338,"name":"Othopeus","steam_id":76561198283534382,"connected_time":9214000000000,"state":"active","ping":88},{"user_id":361,"name":"Stupid B","steam_id":76561198131423270,"connected_time":7283000000000,"state":"active","ping":117},{"user_id":414,"name":"thought crime hotline","steam_id":76561198054545683,"connected_time":941000000000,"state":"active","ping":77},{"user_id":389,"name":"Puddin","steam_id":76561198140052918,"connected_time":3461000000000,"state":"active","ping":98},{"user_id":412,"name":"Mystery cheese üßÄ","steam_id":76561198304002409,"connected_time":1159000000000,"state":"active","ping":88},{"user_id":418,"name":". ·¥ó.","steam_id":76561198208632261,"connected_time":768000000000,"state":"active","ping":42},{"user_id":437,"name":"Nonexistent","steam_id":76561198980563251,"connected_time":41000000000,"state":"active","ping":132},{"user_id":403,"name":"Ezylynn","steam_id":76561198388935921,"connected_time":2367000000000,"state":"active","ping":60},{"user_id":410,"name":"Darknight","steam_id":76561199090139287,"connected_time":1492000000000,"state":"active","ping":88},{"user_id":393,"name":"Kairos","steam_id":76561198079927520,"connected_time":3108000000000,"state":"active","ping":40},{"user_id":404,"name":"ThatGuyFromWalmart","steam_id":76561199104547296,"connected_time":2344000000000,"state":"active","ping":60},{"user_id":421,"name":"Bepo","steam_id":76561198136685157,"connected_time":638000000000,"state":"active","ping":56},{"user_id":415,"name":"screaming sniper","steam_id":76561199085568674,"connected_time":867000000000,"state":"active","ping":79},{"user_id":324,"name":"Tyxant","steam_id":76561198091066056,"connected_time":10978000000000,"state":"active","ping":90},{"user_id":436,"name":"IDontLaunder","steam_id":76561199103223706,"connected_time":67000000000,"state":"active","ping":178},{"user_id":429,"name":"mutwo","steam_id":76561198077043500,"connected_time":451000000000,"state":"active","ping":80},{"user_id":390,"name":"Samoyed","steam_id":76561198299150410,"connected_time":3431000000000,"state":"active","ping":138},{"user_id":427,"name":"Shterman","steam_id":76561198074411229,"connected_time":511000000000,"state":"active","ping":81}]},{"server_id":1,"name":"Uncletopia | Los Angeles | 1 | All Maps","name_short":"lax-1","host":"lax-1.us.uncletopia.com","port":27015,"enabled":true,"region":"us-west","cc":"us","latitude":33.94279,"longitude":-118.41004,"reserved":0,"last_update":"0001-01-01T00:00:00Z","name_a2s":"Uncletopia | Los Angeles | 1 | All Maps","protocol":17,"map":"koth_lakeside_final","folder":"tf","game":"Team Fortress","app_id":440,"player_count":0,"max_players":24,"Bots":0,"server_type":"Dedicated","server_os":"Linux","password":true,"vac":true,"version":"7757534","steam_id":85568392924469991,"keywords":["cp","nocrits","nodmgspread","uncletopia"],"game_id":440,"stv_port":27016,"stv_name":"Uncletopia | Los Angeles | 1 | All Maps | STV","players":null},{"server_id":112,"name":"Uncletopia | Los Angeles | 2 | All Maps","name_short":"lax-2","host":"lax-1.us.uncletopia.com","port":27025,"enabled":true,"region":"us-west","cc":"us","latitude":33.94279,"longitude":-118.41004,"reserved":0,"last_update":"0001-01-01T00:00:00Z","name_a2s":"Uncletopia | Los Angeles | 2 | All Maps","protocol":17,"map":"pl_badwater","folder":"tf","game":"Team Fortress","app_id":440,"player_count":0,"max_players":24,"Bots":0,"server_type":"Dedicated","server_os":"Linux","password":true,"vac":true,"version":"7757534","steam_id":85568392924469992,"keywords":["nocrits","nodmgspread","payload","uncletopia"],"game_id":440,"stv_port":27026,"stv_name":"Uncletopia | Los Angeles | 2 | All Maps | STV","players":null},{"server_id":324,"name":"Uncletopia | Los Angeles | 3 | All Maps","name_short":"lax-3","host":"lax-1.us.uncletopia.com","port":27035,"enabled":true,"region":"us-west","cc":"us","latitude":33.94279,"longitude":-118.41004,"reserved":0,"last_update":"0001-01-01T00:00:00Z","name_a2s":"Uncletopia | Los Angeles | 3 | All Maps","protocol":17,"map":"pl_barnblitz","folder":"tf","game":"Team Fortress","app_id":440,"player_count":0,"max_players":24,"Bots":0,"server_type":"Dedicated","server_os":"Linux","password":true,"vac":true,"version":"7757534","steam_id":85568392924510198,"keywords":["nocrits","nodmgspread","payload","uncletopia"],"game_id":440,"stv_port":27036,"stv_name":"Uncletopia | Los Angeles | 3 | All Maps | STV","players":null},{"server_id":25,"name":"Uncletopia | Los Angeles | 4 | Stopwatch Beta","name_short":"lax-4","host":"lax-1.us.uncletopia.com","port":27045,"enabled":true,"region":"us-west","cc":"us","latitude":33.94279,"longitude":-118.41004,"reserved":0,"last_update":"0001-01-01T00:00:00Z","name_a2s":"Uncletopia | Los Angeles | 4 | Stopwatch Beta","protocol":17,"map":"pl_swiftwater_final1","folder":"tf","game":"Team Fortress","app_id":440,"player_count":0,"max_players":24,"Bots":0,"server_type":"Dedicated","server_os":"Linux","password":true,"vac":true,"version":"7757534","steam_id":85568392924510199,"keywords":["nocrits","nodmgspread","payload","uncletopia"],"game_id":440,"stv_port":27046,"stv_name":"Uncletopia | Los Angeles | 4 | Stopwatch Beta | STV","players":null},{"server_id":11,"name":"Uncletopia | London | 1 | All Maps","name_short":"lon-1","host":"lon-1.uk.uncletopia.com","port":27015,"enabled":true,"region":"eu","cc":"gb","latitude":51.509865,"longitude":-0.118092,"reserved":0,"last_update":"0001-01-01T00:00:00Z","name_a2s":"Uncletopia | London | 1 | All Maps","protocol":17,"map":"pl_borneo","folder":"tf","game":"Team Fortress","app_id":440,"player_count":24,"max_players":24,"Bots":0,"server_type":"Dedicated","server_os":"Linux","password":true,"vac":true,"version":"7757534","steam_id":85568392924367362,"keywords":["nocrits","nodmgspread","payload","uncletopia"],"game_id":440,"stv_port":27016,"stv_name":"Uncletopia | London | 1 | All Maps | STV","players":[{"user_id":460,"name":"Rose","steam_id":76561198043601838,"connected_time":2341000000000,"state":"active","ping":60},{"user_id":486,"name":"GabeTheGoldfish","steam_id":76561198153408011,"connected_time":231000000000,"state":"active","ping":71},{"user_id":463,"name":"Smokio","steam_id":76561198069650580,"connected_time":2033000000000,"state":"active","ping":90},{"user_id":472,"name":"Special Agent Big Smoke","steam_id":76561198154468827,"connected_time":1107000000000,"state":"active","ping":60},{"user_id":469,"name":"Croy","steam_id":76561197972552579,"connected_time":1364000000000,"state":"active","ping":45},{"user_id":413,"name":"breakfast","steam_id":76561198106049954,"connected_time":6014000000000,"state":"active","ping":79},{"user_id":473,"name":"padillacampos","steam_id":76561198161923970,"connected_time":1106000000000,"state":"active","ping":74},{"user_id":474,"name":"CutKan","steam_id":76561198809248662,"connected_time":1094000000000,"state":"active","ping":113},{"user_id":478,"name":"Jara.","steam_id":76561197992207165,"connected_time":972000000000,"state":"active","ping":107},{"user_id":483,"name":"VividDragon","steam_id":76561198050659285,"connected_time":634000000000,"state":"active","ping":122},{"user_id":471,"name":"Healix","steam_id":76561198130270161,"connected_time":1171000000000,"state":"active","ping":58},{"user_id":475,"name":"imjusttryinghere","steam_id":76561199010713883,"connected_time":1047000000000,"state":"active","ping":60},{"user_id":480,"name":"Neo Kojiro","steam_id":76561198000967076,"connected_time":809000000000,"state":"active","ping":132},{"user_id":451,"name":"Á´†È≠ö","steam_id":76561199057953617,"connected_time":2690000000000,"state":"active","ping":66},{"user_id":485,"name":"YaG-10 (29-K)","steam_id":76561198112012468,"connected_time":581000000000,"state":"active","ping":77},{"user_id":455,"name":"ZANNABLUKE","steam_id":76561198013534336,"connected_time":2570000000000,"state":"active","ping":58},{"user_id":484,"name":"Skittles","steam_id":76561198024077569,"connected_time":613000000000,"state":"active","ping":60},{"user_id":459,"name":"eNine the FOREVER","steam_id":76561198890193313,"connected_time":2446000000000,"state":"active","ping":65},{"user_id":467,"name":"NLSAM","steam_id":76561199111154916,"connected_time":1584000000000,"state":"active","ping":64},{"user_id":477,"name":"j o n","steam_id":76561199229511741,"connected_time":1041000000000,"state":"active","ping":56},{"user_id":481,"name":"Bonca","steam_id":76561198137503531,"connected_time":643000000000,"state":"active","ping":75},{"user_id":488,"name":"Katae","steam_id":76561199191465517,"connected_time":107000000000,"state":"active","ping":83},{"user_id":482,"name":"killer of noob, winner of game","steam_id":76561198190583242,"connected_time":643000000000,"state":"active","ping":76},{"user_id":454,"name":"Ocelot","steam_id":76561198263386006,"connected_time":2671000000000,"state":"active","ping":108}]},{"server_id":114,"name":"Uncletopia | London | 2 | All Maps","name_short":"lon-2","host":"lon-1.uk.uncletopia.com","port":27025,"enabled":true,"region":"eu","cc":"gb","latitude":51.509865,"longitude":-0.118092,"reserved":0,"last_update":"0001-01-01T00:00:00Z","name_a2s":"Uncletopia | London | 2 | All Maps","protocol":17,"map":"pl_upward","folder":"tf","game":"Team Fortress","app_id":440,"player_count":24,"max_players":24,"Bots":0,"server_type":"Dedicated","server_os":"Linux","password":true,"vac":true,"version":"7757534","steam_id":85568392924470941,"keywords":["nocrits","nodmgspread","payload","uncletopia"],"game_id":440,"stv_port":27026,"stv_name":"Uncletopia | London | 2 | All Maps | STV","players":[{"user_id":444,"name":"redlix-AA-","steam_id":76561198119413461,"connected_time":227000000000,"state":"active","ping":63},{"user_id":433,"name":"Jango","steam_id":76561198099336990,"connected_time":570000000000,"state":"active","ping":56},{"user_id":321,"name":"Jackson News","steam_id":76561198401610939,"connected_time":8202000000000,"state":"active","ping":68},{"user_id":434,"name":"Setiago","steam_id":76561198060770498,"connected_time":567000000000,"state":"active","ping":64},{"user_id":448,"name":"michael team","steam_id":76561198280132466,"connected_time":23000000000,"state":"spawning","ping":77},{"user_id":436,"name":"Taplo","steam_id":76561198045694019,"connected_time":557000000000,"state":"active","ping":67},{"user_id":431,"name":"Atlas","steam_id":76561198072189527,"connected_time":629000000000,"state":"active","ping":55},{"user_id":408,"name":"Mecha","steam_id":76561198014927379,"connected_time":2232000000000,"state":"active","ping":130},{"user_id":437,"name":"Ablativus","steam_id":76561198025698470,"connected_time":551000000000,"state":"active","ping":74},{"user_id":386,"name":"Cirilla.gif","steam_id":76561198090586031,"connected_time":4247000000000,"state":"active","ping":79},{"user_id":443,"name":"ComradeFloppy","steam_id":76561198295671740,"connected_time":317000000000,"state":"active","ping":47},{"user_id":404,"name":"night.s","steam_id":76561198326287823,"connected_time":2570000000000,"state":"active","ping":73},{"user_id":409,"name":"The noob who Upspikes","steam_id":76561198418538887,"connected_time":2199000000000,"state":"active","ping":97},{"user_id":438,"name":"Big Al","steam_id":76561198067692439,"connected_time":532000000000,"state":"active","ping":103},{"user_id":439,"name":"kris the deer (angry)","steam_id":76561198170928310,"connected_time":523000000000,"state":"active","ping":123},{"user_id":395,"name":"JayBobby223","steam_id":76561198405980575,"connected_time":3386000000000,"state":"active","ping":64},{"user_id":420,"name":"Faxter","steam_id":76561198011771605,"connected_time":1661000000000,"state":"active","ping":73},{"user_id":445,"name":"Real Peter Griffin","steam_id":76561199087171108,"connected_time":190000000000,"state":"active","ping":197},{"user_id":440,"name":"Spinyapickle","steam_id":76561198086653667,"connected_time":483000000000,"state":"active","ping":55},{"user_id":423,"name":"Fluffy","steam_id":76561198084447725,"connected_time":1598000000000,"state":"active","ping":48},{"user_id":442,"name":"clean carp","steam_id":76561198127053294,"connected_time":343000000000,"state":"active","ping":75},{"user_id":388,"name":"LightBulbGlue #SaveTF2","steam_id":76561198329573529,"connected_time":4018000000000,"state":"active","ping":160},{"user_id":446,"name":"the smartest guy on earth","steam_id":76561199108870175,"connected_time":141000000000,"state":"active","ping":150},{"user_id":354,"name":"Tegnerud","steam_id":76561198214185612,"connected_time":6725000000000,"state":"active","ping":75}]},{"server_id":320,"name":"Uncletopia | London | 3 | All Maps","name_short":"lon-3","host":"lon-1.uk.uncletopia.com","port":27035,"enabled":true,"region":"eu","cc":"gb","latitude":51.509865,"longitude":-0.118092,"reserved":0,"last_update":"0001-01-01T00:00:00Z","name_a2s":"Uncletopia | London | 3 | All Maps","protocol":17,"map":"cp_process_final","folder":"tf","game":"Team Fortress","app_id":440,"player_count":24,"max_players":24,"Bots":0,"server_type":"Dedicated","server_os":"Linux","password":true,"vac":true,"version":"7757534","steam_id":85568392924510192,"keywords":["cp","nocrits","nodmgspread","uncletopia"],"game_id":440,"stv_port":27036,"stv_name":"Uncletopia | London | 3 | All Maps | STV","players":[{"user_id":161,"name":"Greenmaker","steam_id":76561198060466591,"connected_time":1332000000000,"state":"active","ping":88},{"user_id":194,"name":"Economic crisis","steam_id":76561198063562843,"connected_time":231000000000,"state":"active","ping":60},{"user_id":179,"name":"The129 @ EpicLan38","steam_id":76561198007928317,"connected_time":429000000000,"state":"active","ping":52},{"user_id":195,"name":"Papel","steam_id":76561198193466351,"connected_time":193000000000,"state":"active","ping":86},{"user_id":169,"name":"AmadStatistician","steam_id":76561198163654770,"connected_time":708000000000,"state":"active","ping":55},{"user_id":172,"name":"Keittokapteeni","steam_id":76561198271579939,"connected_time":591000000000,"state":"active","ping":83},{"user_id":136,"name":"Gorogaz","steam_id":76561198207157679,"connected_time":3056000000000,"state":"active","ping":69},{"user_id":173,"name":"FUKAYU","steam_id":76561198380484033,"connected_time":538000000000,"state":"active","ping":48},{"user_id":175,"name":"I-I","steam_id":76561198267969436,"connected_time":496000000000,"state":"active","ping":76},{"user_id":192,"name":"Pooble_","steam_id":76561198193757915,"connected_time":239000000000,"state":"active","ping":52},{"user_id":177,"name":"BallinScout @EpicLAN","steam_id":76561198152443697,"connected_time":440000000000,"state":"active","ping":57},{"user_id":178,"name":"Roose @EpicLAN","steam_id":76561198102742492,"connected_time":439000000000,"state":"active","ping":56},{"user_id":180,"name":"YOUR MOM GAMING","steam_id":76561199429562693,"connected_time":427000000000,"state":"active","ping":70},{"user_id":181,"name":"pangxiong147","steam_id":76561199333740508,"connected_time":426000000000,"state":"active","ping":163},{"user_id":133,"name":"Gekoloniseerd","steam_id":76561198819871606,"connected_time":3119000000000,"state":"active","ping":92},{"user_id":182,"name":"Gribley@EpicLAN38","steam_id":76561197970826880,"connected_time":426000000000,"state":"active","ping":58},{"user_id":183,"name":"Tink","steam_id":76561198118235443,"connected_time":421000000000,"state":"active","ping":55},{"user_id":184,"name":"SasaIKudasaI","steam_id":76561198344298588,"connected_time":410000000000,"state":"active","ping":100},{"user_id":187,"name":"ThellanM","steam_id":76561199014222387,"connected_time":393000000000,"state":"active","ping":73},{"user_id":188,"name":"Maya #transrights","steam_id":76561198290614621,"connected_time":375000000000,"state":"active","ping":45},{"user_id":189,"name":"KillerQueen (he/they/she)","steam_id":76561199019399725,"connected_time":357000000000,"state":"active","ping":45},{"user_id":118,"name":"Oddly enough pass","steam_id":76561198963841479,"connected_time":4409000000000,"state":"active","ping":86},{"user_id":193,"name":"AsuX","steam_id":76561197990333289,"connected_time":235000000000,"state":"active","ping":60},{"user_id":124,"name":"Average_Medal_Enjoyer","steam_id":76561198267485096,"connected_time":4039000000000,"state":"active","ping":148}]},{"server_id":321,"name":"Uncletopia | London | 4 | All Maps","name_short":"lon-4","host":"lon-1.uk.uncletopia.com","port":27045,"enabled":true,"region":"eu","cc":"gb","latitude":51.509865,"longitude":-0.118092,"reserved":0,"last_update":"0001-01-01T00:00:00Z","name_a2s":"Uncletopia | London | 4 | All Maps","protocol":17,"map":"koth_cascade","folder":"tf","game":"Team Fortress","app_id":440,"player_count":0,"max_players":24,"Bots":0,"server_type":"Dedicated","server_os":"Linux","password":true,"vac":true,"version":"7757534","steam_id":85568392924510193,"keywords":["cp","nocrits","nodmgspread","uncletopia"],"game_id":440,"stv_port":27046,"stv_name":"Uncletopia | London | 4 | All Maps | STV","players":null},{"server_id":21,"name":"Uncletopia | London | 5 | All Maps","name_short":"lon-5","host":"lon-1.uk.uncletopia.com","port":27055,"enabled":true,"region":"eu","cc":"gb","latitude":51.509865,"longitude":-0.118092,"reserved":0,"last_update":"0001-01-01T00:00:00Z","name_a2s":"Uncletopia | London | 5 | All Maps","protocol":17,"map":"pl_badwater","folder":"tf","game":"Team Fortress","app_id":440,"player_count":22,"max_players":24,"Bots":0,"server_type":"Dedicated","server_os":"Linux","password":true,"vac":true,"version":"7757534","steam_id":85568392924742829,"keywords":["nocrits","nodmgspread","payload","uncletopia"],"game_id":440,"stv_port":27056,"stv_name":"Uncletopia | London | 5 | All Maps | STV","players":[{"user_id":127,"name":"S0LDaTo","steam_id":76561198269413360,"connected_time":10000000000,"state":"spawning","ping":64},{"user_id":105,"name":"[LPF] KIWAMI","steam_id":76561198307503265,"connected_time":1226000000000,"state":"active","ping":113},{"user_id":125,"name":"Caliban","steam_id":76561197999696839,"connected_time":18000000000,"state":"active","ping":108},{"user_id":107,"name":"Anax Alter","steam_id":76561198110249546,"connected_time":1207000000000,"state":"active","ping":101},{"user_id":123,"name":"B3Y0NDTH3M1ND","steam_id":76561198262637389,"connected_time":372000000000,"state":"active","ping":75},{"user_id":64,"name":"professional car consumer","steam_id":76561198977420882,"connected_time":4475000000000,"state":"active","ping":43},{"user_id":108,"name":"snorrbrod","steam_id":76561198142389396,"connected_time":1200000000000,"state":"active","ping":70},{"user_id":126,"name":"MAKENTAKEN","steam_id":76561199127359587,"connected_time":15000000000,"state":"active","ping":103},{"user_id":122,"name":"Shortstop Shaun (fake)","steam_id":76561198029928533,"connected_time":580000000000,"state":"active","ping":42},{"user_id":121,"name":"Infantile Pillock","steam_id":76561198283851362,"connected_time":581000000000,"state":"active","ping":60},{"user_id":114,"name":"tf2 snake","steam_id":76561198193971167,"connected_time":1091000000000,"state":"active","ping":56},{"user_id":84,"name":"floofi pyro","steam_id":76561198805181599,"connected_time":3058000000000,"state":"active","ping":48},{"user_id":112,"name":"Tank","steam_id":76561199059174576,"connected_time":1154000000000,"state":"active","ping":165},{"user_id":113,"name":"JoltStryke","steam_id":76561198072955299,"connected_time":1150000000000,"state":"active","ping":58},{"user_id":124,"name":".::[SerafeTTiN]::.","steam_id":76561198009471724,"connected_time":239000000000,"state":"active","ping":90},{"user_id":116,"name":"Hoff","steam_id":76561198138540938,"connected_time":1016000000000,"state":"active","ping":75},{"user_id":115,"name":"JeanCorben","steam_id":76561197965133561,"connected_time":1066000000000,"state":"active","ping":35},{"user_id":89,"name":"ScarredPixel123","steam_id":76561199165112703,"connected_time":2912000000000,"state":"active","ping":84},{"user_id":117,"name":"\u003c blank \u003e","steam_id":76561198059375315,"connected_time":934000000000,"state":"active","ping":74},{"user_id":91,"name":"Kestrel","steam_id":76561198144033005,"connected_time":2848000000000,"state":"active","ping":56},{"user_id":92,"name":"Kruthal","steam_id":76561198245726582,"connected_time":2838000000000,"state":"active","ping":69},{"user_id":101,"name":"Wenolainen","steam_id":76561198334592800,"connected_time":1709000000000,"state":"active","ping":85}]},{"server_id":22,"name":"Uncletopia | London | 6 | All Maps","name_short":"lon-6","host":"lon-1.uk.uncletopia.com","port":27065,"enabled":true,"region":"eu","cc":"gb","latitude":51.509865,"longitude":-0.118092,"reserved":0,"last_update":"0001-01-01T00:00:00Z","name_a2s":"Uncletopia | London | 6 | All Maps","protocol":17,"map":"koth_viaduct","folder":"tf","game":"Team Fortress","app_id":440,"player_count":2,"max_players":24,"Bots":0,"server_type":"Dedicated","server_os":"Linux","password":true,"vac":true,"version":"7757534","steam_id":85568392924742830,"keywords":["cp","nocrits","nodmgspread","uncletopia"],"game_id":440,"stv_port":27066,"stv_name":"Uncletopia | London | 6 | All Maps | STV","players":[{"user_id":20,"name":"senator Armstrong","steam_id":76561199104488662,"connected_time":472000000000,"state":"active","ping":136},{"user_id":21,"name":"Niwox","steam_id":76561199418015077,"connected_time":45000000000,"state":"spawning","ping":103}]},{"server_id":40,"name":"Uncletopia | London | 7 | No Payload","name_short":"lon-7","host":"lon-1.uk.uncletopia.com","port":27075,"enabled":true,"region":"eu","cc":"gb","latitude":51.509865,"longitude":-0.118092,"reserved":0,"last_update":"0001-01-01T00:00:00Z","name_a2s":"Uncletopia | London | 7 | No Payload","protocol":17,"map":"cp_junction_final","folder":"tf","game":"Team Fortress","app_id":440,"player_count":0,"max_players":24,"Bots":0,"server_type":"Dedicated","server_os":"Linux","password":true,"vac":true,"version":"7757534","steam_id":85568392924964314,"keywords":["cp","nocrits","nodmgspread","uncletopia"],"game_id":440,"stv_port":27076,"stv_name":"Uncletopia | London | 7 | No Payload | STV","players":null},{"server_id":41,"name":"Uncletopia | London | 8 | Community","name_short":"lon-8","host":"lon-1.uk.uncletopia.com","port":27085,"enabled":true,"region":"eu","cc":"gb","latitude":51.509865,"longitude":-0.118092,"reserved":0,"last_update":"0001-01-01T00:00:00Z","name_a2s":"Uncletopia | London | 8 | Community","protocol":17,"map":"workshop/koth_ramjam_rc1.ugc459778887","folder":"tf","game":"Team Fortress","app_id":440,"player_count":0,"max_players":24,"Bots":0,"server_type":"Dedicated","server_os":"Linux","password":true,"vac":true,"version":"7757534","steam_id":85568392924964315,"keywords":["cp","nocrits","nodmgspread","uncletopia"],"game_id":440,"stv_port":27086,"stv_name":"Uncletopia | London | 8 | Community | STV","players":null},{"server_id":300,"name":"Uncletopia | Montr√©al | 1 | All Maps","name_short":"mtl-1","host":"mtl-1.ca.uncletopia.com","port":27015,"enabled":true,"region":"us-east","cc":"ca","latitude":45.50889,"longitude":-73.56167,"reserved":0,"last_update":"0001-01-01T00:00:00Z","name_a2s":"Uncletopia | Montr√©al | 1 | All Maps","protocol":17,"map":"pl_upward","folder":"tf","game":"Team Fortress","app_id":440,"player_count":0,"max_players":24,"Bots":0,"server_type":"Dedicated","server_os":"Linux","password":true,"vac":true,"version":"7757534","steam_id":85568392924500087,"keywords":["nocrits","nodmgspread","payload","uncletopia"],"game_id":440,"stv_port":27016,"stv_name":"Uncletopia | Montr√©al | 1 | All Maps | STV","players":null},{"server_id":301,"name":"Uncletopia | Montr√©al | 2 | All Maps","name_short":"mtl-2","host":"mtl-1.ca.uncletopia.com","port":27025,"enabled":true,"region":"us-east","cc":"ca","latitude":45.50889,"longitude":-73.56167,"reserved":0,"last_update":"0001-01-01T00:00:00Z","name_a2s":"Uncletopia | Montr√©al | 2 | All Maps","protocol":17,"map":"pl_snowycoast","folder":"tf","game":"Team Fortress","app_id":440,"player_count":0,"max_players":24,"Bots":0,"server_type":"Dedicated","server_os":"Linux","password":true,"vac":true,"version":"7757534","steam_id":85568392924500088,"keywords":["nocrits","nodmgspread","payload","uncletopia"],"game_id":440,"stv_port":27026,"stv_name":"Uncletopia | Montr√©al | 2 | All Maps | STV","players":null},{"server_id":302,"name":"Uncletopia | Montr√©al | 3 | All Maps","name_short":"mtl-3","host":"mtl-1.ca.uncletopia.com","port":27035,"enabled":true,"region":"us-east","cc":"ca","latitude":45.50889,"longitude":-73.56167,"reserved":0,"last_update":"0001-01-01T00:00:00Z","name_a2s":"Uncletopia | Montr√©al | 3 | All Maps","protocol":17,"map":"pl_swiftwater_final1","folder":"tf","game":"Team Fortress","app_id":440,"player_count":0,"max_players":24,"Bots":0,"server_type":"Dedicated","server_os":"Linux","password":true,"vac":true,"version":"7757534","steam_id":85568392924500089,"keywords":["nocrits","nodmgspread","payload","uncletopia"],"game_id":440,"stv_port":27036,"stv_name":"Uncletopia | Montr√©al | 3 | All Maps | STV","players":null},{"server_id":303,"name":"Uncletopia | Montr√©al | 4 | No Payload","name_short":"mtl-4","host":"mtl-1.ca.uncletopia.com","port":27045,"enabled":true,"region":"us-east","cc":"ca","latitude":45.50889,"longitude":-73.56167,"reserved":0,"last_update":"0001-01-01T00:00:00Z","name_a2s":"Uncletopia | Montr√©al | 4 | No Payload","protocol":17,"map":"pl_pier","folder":"tf","game":"Team Fortress","app_id":440,"player_count":0,"max_players":24,"Bots":0,"server_type":"Dedicated","server_os":"Linux","password":true,"vac":true,"version":"7757534","steam_id":85568392924500090,"keywords":["nocrits","nodmgspread","payload","uncletopia"],"game_id":440,"stv_port":27046,"stv_name":"Uncletopia | Montr√©al | 4 | No Payload | STV","players":null},{"server_id":13,"name":"Uncletopia | New York City | 1 | All Maps","name_short":"nyc-1","host":"nyc-1.us.uncletopia.com","port":27015,"enabled":true,"region":"us-east","cc":"us","latitude":40.73061,"longitude":-73.93524,"reserved":0,"last_update":"0001-01-01T00:00:00Z","name_a2s":"Uncletopia | New York City | 1 | All Maps","protocol":17,"map":"koth_viaduct","folder":"tf","game":"Team Fortress","app_id":440,"player_count":0,"max_players":24,"Bots":0,"server_type":"Dedicated","server_os":"Linux","password":true,"vac":true,"version":"7757534","steam_id":85568392924469993,"keywords":["cp","nocrits","nodmgspread","uncletopia"],"game_id":440,"stv_port":27016,"stv_name":"Uncletopia | New York City | 1 | All Maps | STV","players":null},{"server_id":14,"name":"Uncletopia | New York City | 2 | All Maps","name_short":"nyc-2","host":"nyc-1.us.uncletopia.com","port":27025,"enabled":true,"region":"us-east","cc":"us","latitude":40.73061,"longitude":-73.93524,"reserved":0,"last_update":"0001-01-01T00:00:00Z","name_a2s":"Uncletopia | New York City | 2 | All Maps","protocol":17,"map":"pl_badwater","folder":"tf","game":"Team Fortress","app_id":440,"player_count":0,"max_players":24,"Bots":0,"server_type":"Dedicated","server_os":"Linux","password":true,"vac":true,"version":"7757534","steam_id":85568392924469994,"keywords":["nocrits","nodmgspread","payload","uncletopia"],"game_id":440,"stv_port":27026,"stv_name":"Uncletopia | New York City | 2 | All Maps | STV","players":null},{"server_id":15,"name":"Uncletopia | New York City | 3 | Stopwatch Beta","name_short":"nyc-3","host":"nyc-1.us.uncletopia.com","port":27035,"enabled":true,"region":"us-east","cc":"us","latitude":40.73061,"longitude":-73.93524,"reserved":0,"last_update":"0001-01-01T00:00:00Z","name_a2s":"Uncletopia | New York City | 3 | Stopwatch Beta","protocol":17,"map":"pl_upward","folder":"tf","game":"Team Fortress","app_id":440,"player_count":0,"max_players":24,"Bots":0,"server_type":"Dedicated","server_os":"Linux","password":true,"vac":true,"version":"7757534","steam_id":85568392924742820,"keywords":["nocrits","nodmgspread","payload","uncletopia"],"game_id":440,"stv_port":27036,"stv_name":"Uncletopia | New York City | 3 | Stopwatch Beta | STV","players":null},{"server_id":16,"name":"Uncletopia | New York City | 4 | Community","name_short":"nyc-4","host":"nyc-1.us.uncletopia.com","port":27045,"enabled":true,"region":"us-east","cc":"us","latitude":40.73061,"longitude":-73.93524,"reserved":0,"last_update":"0001-01-01T00:00:00Z","name_a2s":"Uncletopia | New York City | 4 | Community","protocol":17,"map":"pl_swiftwater_final1","folder":"tf","game":"Team Fortress","app_id":440,"player_count":0,"max_players":24,"Bots":0,"server_type":"Dedicated","server_os":"Linux","password":true,"vac":true,"version":"7757534","steam_id":85568392924742821,"keywords":["nocrits","nodmgspread","payload","uncletopia"],"game_id":440,"stv_port":27046,"stv_name":"Uncletopia | New York City | 4 | Community | STV","players":null},{"server_id":142,"name":"Uncletopia | S√£o Paulo | 1 | All Maps","name_short":"sao-1","host":"sao-1.br.uncletopia.com","port":27015,"enabled":true,"region":"sa","cc":"br","latitude":-23.533773,"longitude":-46.62529,"reserved":0,"last_update":"0001-01-01T00:00:00Z","name_a2s":"Uncletopia | S√£o Paulo | 1 | All Maps","protocol":17,"map":"koth_lakeside_final","folder":"tf","game":"Team Fortress","app_id":440,"player_count":0,"max_players":24,"Bots":0,"server_type":"Dedicated","server_os":"Linux","password":true,"vac":true,"version":"7757534","steam_id":85568392924469996,"keywords":["cp","nocrits","nodmgspread","uncletopia"],"game_id":440,"stv_port":27016,"stv_name":"Uncletopia | S√£o Paulo | 1 | All Maps | STV","players":null},{"server_id":143,"name":"Uncletopia | S√£o Paulo | 2 | All Maps","name_short":"sao-2","host":"sao-2.br.uncletopia.com","port":27015,"enabled":true,"region":"sa","cc":"br","latitude":-23.533773,"longitude":-46.62529,"reserved":0,"last_update":"0001-01-01T00:00:00Z","name_a2s":"Uncletopia | S√£o Paulo | 2 | All Maps","protocol":17,"map":"koth_viaduct","folder":"tf","game":"Team Fortress","app_id":440,"player_count":0,"max_players":24,"Bots":0,"server_type":"Dedicated","server_os":"Linux","password":true,"vac":true,"version":"7757534","steam_id":85568392924485349,"keywords":["cp","nocrits","nodmgspread","uncletopia"],"game_id":440,"stv_port":27016,"stv_name":"Uncletopia | S√£o Paulo | 2 | All Maps | STV","players":null},{"server_id":7,"name":"Uncletopia | Seattle | 1 | All Maps","name_short":"sea-1","host":"sea-1.us.uncletopia.com","port":27015,"enabled":true,"region":"us-west","cc":"us","latitude":47.608013,"longitude":-122.33517,"reserved":0,"last_update":"0001-01-01T00:00:00Z","name_a2s":"Uncletopia | Seattle | 1 | All Maps","protocol":17,"map":"cp_dustbowl","folder":"tf","game":"Team Fortress","app_id":440,"player_count":24,"max_players":24,"Bots":0,"server_type":"Dedicated","server_os":"Linux","password":true,"vac":true,"version":"7757534","steam_id":85568392924469997,"keywords":["cp","nocrits","nodmgspread","uncletopia"],"game_id":440,"stv_port":27016,"stv_name":"Uncletopia | Seattle | 1 | All Maps | STV","players":[{"user_id":8,"name":"dust | she/it","steam_id":76561198045218909,"connected_time":6180000000000,"state":"active","ping":44},{"user_id":69,"name":"joji fan fr","steam_id":76561198975706117,"connected_time":402000000000,"state":"active","ping":71},{"user_id":70,"name":"HiFivr","steam_id":76561198285190162,"connected_time":353000000000,"state":"active","ping":68},{"user_id":68,"name":"128gb sd card","steam_id":76561198043636749,"connected_time":433000000000,"state":"active","ping":75},{"user_id":56,"name":"2j psych ward boiwife","steam_id":76561198206752128,"connected_time":2113000000000,"state":"active","ping":150},{"user_id":14,"name":"Goose","steam_id":76561198036774894,"connected_time":5067000000000,"state":"active","ping":34},{"user_id":73,"name":"the trollining","steam_id":76561199160884713,"connected_time":191000000000,"state":"active","ping":75},{"user_id":71,"name":"XxDragon4321xX","steam_id":76561198046705735,"connected_time":308000000000,"state":"active","ping":100},{"user_id":61,"name":"Putin","steam_id":76561198973925241,"connected_time":605000000000,"state":"active","ping":55},{"user_id":38,"name":"Jon_595","steam_id":76561198846843547,"connected_time":3693000000000,"state":"active","ping":122},{"user_id":24,"name":"squidDMV","steam_id":76561199481268436,"connected_time":4138000000000,"state":"active","ping":108},{"user_id":55,"name":"Da Bankman","steam_id":76561199127423378,"connected_time":2661000000000,"state":"active","ping":86},{"user_id":57,"name":"He","steam_id":76561198082688554,"connected_time":2066000000000,"state":"active","ping":96},{"user_id":27,"name":"Nassu","steam_id":76561198147367577,"connected_time":3995000000000,"state":"active","ping":118},{"user_id":72,"name":"lynks disease no sound","steam_id":76561198043465434,"connected_time":227000000000,"state":"active","ping":65},{"user_id":30,"name":"Tyler\u0026Fingers","steam_id":76561198085154485,"connected_time":3895000000000,"state":"active","ping":139},{"user_id":58,"name":"ark","steam_id":76561198041066271,"connected_time":1830000000000,"state":"active","ping":76},{"user_id":60,"name":"mari_","steam_id":76561198137855741,"connected_time":1134000000000,"state":"active","ping":84},{"user_id":33,"name":"new yeat album","steam_id":76561198328109873,"connected_time":3801000000000,"state":"active","ping":115},{"user_id":35,"name":"Aircraft Carrier Princess","steam_id":76561198348354629,"connected_time":3739000000000,"state":"active","ping":157},{"user_id":74,"name":"DMAFGreatoverlordSchikonmaster","steam_id":76561198123510618,"connected_time":23000000000,"state":"spawning","ping":73},{"user_id":39,"name":"Dookiechan","steam_id":76561198138467345,"connected_time":3670000000000,"state":"active","ping":102},{"user_id":67,"name":"Cam","steam_id":76561198285054047,"connected_time":476000000000,"state":"active","ping":77},{"user_id":64,"name":"Summer's Snowman","steam_id":76561198057140854,"connected_time":590000000000,"state":"active","ping":64}]},{"server_id":119,"name":"Uncletopia | Seattle | 2 | All Maps","name_short":"sea-2","host":"sea-1.us.uncletopia.com","port":27025,"enabled":true,"region":"us-west","cc":"us","latitude":47.608013,"longitude":-122.33517,"reserved":0,"last_update":"0001-01-01T00:00:00Z","name_a2s":"Uncletopia | Seattle | 2 | All Maps","protocol":17,"map":"pl_badwater","folder":"tf","game":"Team Fortress","app_id":440,"player_count":0,"max_players":24,"Bots":0,"server_type":"Dedicated","server_os":"Linux","password":true,"vac":true,"version":"7757534","steam_id":85568392924469998,"keywords":["nocrits","nodmgspread","payload","uncletopia"],"game_id":440,"stv_port":27026,"stv_name":"Uncletopia | Seattle | 2 | All Maps | STV","players":null},{"server_id":406,"name":"Uncletopia | Seattle | 3 | Stopwatch Beta","name_short":"sea-3","host":"sea-1.us.uncletopia.com","port":27035,"enabled":true,"region":"us-west","cc":"us","latitude":47.608013,"longitude":-122.33517,"reserved":0,"last_update":"0001-01-01T00:00:00Z","name_a2s":"Uncletopia | Seattle | 3 | Stopwatch Beta","protocol":17,"map":"cp_dustbowl","folder":"tf","game":"Team Fortress","app_id":440,"player_count":0,"max_players":24,"Bots":0,"server_type":"Dedicated","server_os":"Linux","password":true,"vac":true,"version":"7757534","steam_id":85568392924515217,"keywords":["cp","nocrits","nodmgspread","uncletopia"],"game_id":440,"stv_port":27036,"stv_name":"Uncletopia | Seattle | 3 | Stopwatch Beta | STV","players":null},{"server_id":17,"name":"Uncletopia | San Francisco | 1 | All Maps","name_short":"sfo-1","host":"sfo-1.us.uncletopia.com","port":27015,"enabled":true,"region":"us-west","cc":"us","latitude":37.77397,"longitude":-122.4313,"reserved":0,"last_update":"0001-01-01T00:00:00Z","name_a2s":"Uncletopia | San Francisco | 1 | All Maps","protocol":17,"map":"cp_dustbowl","folder":"tf","game":"Team Fortress","app_id":440,"player_count":0,"max_players":24,"Bots":0,"server_type":"Dedicated","server_os":"Linux","password":true,"vac":true,"version":"7757534","steam_id":85568392924469999,"keywords":["cp","nocrits","nodmgspread","uncletopia"],"game_id":440,"stv_port":27016,"stv_name":"Uncletopia | San Francisco | 1 | All Maps | STV","players":null},{"server_id":18,"name":"Uncletopia | San Francisco | 2 | All Maps","name_short":"sfo-2","host":"sfo-1.us.uncletopia.com","port":27025,"enabled":true,"region":"us-west","cc":"us","latitude":37.77397,"longitude":-122.4313,"reserved":0,"last_update":"0001-01-01T00:00:00Z","name_a2s":"Uncletopia | San Francisco | 2 | All Maps","protocol":17,"map":"koth_highpass","folder":"tf","game":"Team Fortress","app_id":440,"player_count":0,"max_players":24,"Bots":0,"server_type":"Dedicated","server_os":"Linux","password":true,"vac":true,"version":"7757534","steam_id":85568392924470000,"keywords":["cp","nocrits","nodmgspread","uncletopia"],"game_id":440,"stv_port":27026,"stv_name":"Uncletopia | San Francisco | 2 | All Maps | STV","players":null},{"server_id":19,"name":"Uncletopia | San Francisco | 3 | Stopwatch Beta","name_short":"sfo-3","host":"sfo-1.us.uncletopia.com","port":27035,"enabled":true,"region":"us-west","cc":"us","latitude":37.77397,"longitude":-122.4313,"reserved":0,"last_update":"0001-01-01T00:00:00Z","name_a2s":"Uncletopia | San Francisco | 3 | Stopwatch Beta","protocol":17,"map":"koth_lakeside_final","folder":"tf","game":"Team Fortress","app_id":440,"player_count":0,"max_players":24,"Bots":0,"server_type":"Dedicated","server_os":"Linux","password":true,"vac":true,"version":"7757534","steam_id":85568392924742824,"keywords":["cp","nocrits","nodmgspread","uncletopia"],"game_id":440,"stv_port":27036,"stv_name":"Uncletopia | San Francisco | 3 | Stopwatch Beta | STV","players":null},{"server_id":20,"name":"Uncletopia | San Francisco | 4 | Community","name_short":"sfo-4","host":"sfo-1.us.uncletopia.com","port":27045,"enabled":true,"region":"us-west","cc":"us","latitude":37.77397,"longitude":-122.4313,"reserved":0,"last_update":"0001-01-01T00:00:00Z","name_a2s":"Uncletopia | San Francisco | 4 | Community","protocol":17,"map":"cp_altitude","folder":"tf","game":"Team Fortress","app_id":440,"player_count":0,"max_players":24,"Bots":0,"server_type":"Dedicated","server_os":"Linux","password":true,"vac":true,"version":"7757534","steam_id":85568392924742826,"keywords":["cp","nocrits","nodmgspread","uncletopia"],"game_id":440,"stv_port":27046,"stv_name":"Uncletopia | San Francisco | 4 | Community | STV","players":null},{"server_id":141,"name":"Uncletopia | Sydney | 1 | All Maps","name_short":"syd-1","host":"syd-1.au.uncletopia.com","port":27015,"enabled":true,"region":"au","cc":"au","latitude":-33.865143,"longitude":151.2099,"reserved":0,"last_update":"0001-01-01T00:00:00Z","name_a2s":"Uncletopia | Sydney | 1 | All Maps","protocol":17,"map":"pl_badwater","folder":"tf","game":"Team Fortress","app_id":440,"player_count":0,"max_players":24,"Bots":0,"server_type":"Dedicated","server_os":"Linux","password":true,"vac":true,"version":"7757534","steam_id":85568392924470001,"keywords":["nocrits","nodmgspread","payload","uncletopia"],"game_id":440,"stv_port":27016,"stv_name":"Uncletopia | Sydney | 1 | All Maps | STV","players":null},{"server_id":123,"name":"Uncletopia | Sydney | 2 | All Maps","name_short":"syd-2","host":"syd-1.au.uncletopia.com","port":27025,"enabled":true,"region":"au","cc":"au","latitude":-33.865143,"longitude":151.2099,"reserved":0,"last_update":"0001-01-01T00:00:00Z","name_a2s":"Uncletopia | Sydney | 2 | All Maps","protocol":17,"map":"cp_snakewater_final1","folder":"tf","game":"Team Fortress","app_id":440,"player_count":0,"max_players":24,"Bots":0,"server_type":"Dedicated","server_os":"Linux","password":true,"vac":true,"version":"7757534","steam_id":85568392924470002,"keywords":["cp","nocrits","nodmgspread","uncletopia"],"game_id":440,"stv_port":27026,"stv_name":"Uncletopia | Sydney | 2 | All Maps | STV","players":null},{"server_id":395,"name":"Uncletopia | Sydney | 3 | All Maps","name_short":"syd-3","host":"syd-1.au.uncletopia.com","port":27035,"enabled":true,"region":"au","cc":"au","latitude":-33.865143,"longitude":151.2099,"reserved":0,"last_update":"0001-01-01T00:00:00Z","name_a2s":"Uncletopia | Sydney | 3 | All Maps","protocol":17,"map":"koth_cascade","folder":"tf","game":"Team Fortress","app_id":440,"player_count":0,"max_players":24,"Bots":0,"server_type":"Dedicated","server_os":"Linux","password":true,"vac":true,"version":"7757534","steam_id":85568392925194467,"keywords":["cp","nocrits","nodmgspread","uncletopia"],"game_id":440,"stv_port":27036,"stv_name":"Uncletopia | Sydney | 3 | All Maps | STV","players":null},{"server_id":396,"name":"Uncletopia | Sydney | 4 | All Maps","name_short":"syd-4","host":"syd-1.au.uncletopia.com","port":27045,"enabled":true,"region":"au","cc":"au","latitude":-33.865143,"longitude":151.2099,"reserved":0,"last_update":"0001-01-01T00:00:00Z","name_a2s":"Uncletopia | Sydney | 4 | All Maps","protocol":17,"map":"koth_highpass","folder":"tf","game":"Team Fortress","app_id":440,"player_count":0,"max_players":24,"Bots":0,"server_type":"Dedicated","server_os":"Linux","password":true,"vac":true,"version":"7757534","steam_id":85568392925397958,"keywords":["cp","nocrits","nodmgspread","uncletopia"],"game_id":440,"stv_port":27046,"stv_name":"Uncletopia | Sydney | 4 | All Maps | STV","players":null},{"server_id":58,"name":"Uncletopia | Sydney | 5 | Stopwatch Beta","name_short":"syd-5","host":"syd-1.au.uncletopia.com","port":27055,"enabled":true,"region":"au","cc":"au","latitude":-33.865143,"longitude":151.2099,"reserved":0,"last_update":"0001-01-01T00:00:00Z","name_a2s":"Uncletopia | Sydney | 5 | Stopwatch Beta","protocol":17,"map":"workshop/pl_badwater_pro_v12.ugc2142942074","folder":"tf","game":"Team Fortress","app_id":440,"player_count":0,"max_players":24,"Bots":0,"server_type":"Dedicated","server_os":"Linux","password":true,"vac":true,"version":"7757534","steam_id":85568392925397959,"keywords":["nocrits","nodmgspread","payload","uncletopia"],"game_id":440,"stv_port":27056,"stv_name":"Uncletopia | Sydney | 5 | Stopwatch Beta | STV","players":null},{"server_id":59,"name":"Uncletopia | Sydney | 6 | Community","name_short":"syd-6","host":"syd-1.au.uncletopia.com","port":27065,"enabled":true,"region":"au","cc":"au","latitude":-33.865143,"longitude":151.2099,"reserved":0,"last_update":"0001-01-01T00:00:00Z","name_a2s":"Uncletopia | Sydney | 6 | Community","protocol":17,"map":"workshop/koth_trenchfoot_b1a.ugc731436616","folder":"tf","game":"Team Fortress","app_id":440,"player_count":0,"max_players":24,"Bots":0,"server_type":"Dedicated","server_os":"Linux","password":true,"vac":true,"version":"7757534","steam_id":85568392925397960,"keywords":["cp","nocrits","nodmgspread","uncletopia"],"game_id":440,"stv_port":27066,"stv_name":"Uncletopia | Sydney | 6 | Community | STV","players":null},{"server_id":49,"name":"Uncletopia | Warsaw | 1 | All Maps","name_short":"waw-1","host":"waw-1.pl.uncletopia.com","port":27015,"enabled":true,"region":"eu","cc":"pl","latitude":52.2297,"longitude":21.017532,"reserved":0,"last_update":"0001-01-01T00:00:00Z","name_a2s":"","protocol":0,"map":"","folder":"","game":"","app_id":0,"player_count":0,"max_players":0,"Bots":0,"server_type":"","server_os":"","password":false,"vac":false,"version":"","steam_id":0,"keywords":null,"game_id":0,"stv_port":0,"stv_name":"","players":null},{"server_id":50,"name":"Uncletopia | Warsaw | 2 | All Maps","name_short":"waw-2","host":"waw-1.pl.uncletopia.com","port":27025,"enabled":true,"region":"eu","cc":"pl","latitude":52.2297,"longitude":21.017532,"reserved":0,"last_update":"0001-01-01T00:00:00Z","name_a2s":"Uncletopia | Warsaw | 2 | All Maps","protocol":17,"map":"koth_viaduct","folder":"tf","game":"Team Fortress","app_id":440,"player_count":0,"max_players":24,"Bots":0,"server_type":"Dedicated","server_os":"Linux","password":true,"vac":true,"version":"7757534","steam_id":85568392925397851,"keywords":["cp","nocrits","nodmgspread","uncletopia"],"game_id":440,"stv_port":27026,"stv_name":"Uncletopia | Warsaw | 2 | All Maps | STV","players":null},{"server_id":51,"name":"Uncletopia | Warsaw | 3 | All Maps","name_short":"waw-3","host":"waw-1.pl.uncletopia.com","port":27035,"enabled":true,"region":"eu","cc":"pl","latitude":52.2297,"longitude":21.017532,"reserved":0,"last_update":"0001-01-01T00:00:00Z","name_a2s":"Uncletopia | Warsaw | 3 | All Maps","protocol":17,"map":"pl_badwater","folder":"tf","game":"Team Fortress","app_id":440,"player_count":0,"max_players":24,"Bots":0,"server_type":"Dedicated","server_os":"Linux","password":true,"vac":true,"version":"7757534","steam_id":85568392925397852,"keywords":["nocrits","nodmgspread","payload","uncletopia"],"game_id":440,"stv_port":27036,"stv_name":"Uncletopia | Warsaw | 3 | All Maps | STV","players":null},{"server_id":52,"name":"Uncletopia | Warsaw | 4 | All Maps","name_short":"waw-4","host":"waw-1.pl.uncletopia.com","port":27045,"enabled":true,"region":"eu","cc":"pl","latitude":52.2297,"longitude":21.017532,"reserved":0,"last_update":"0001-01-01T00:00:00Z","name_a2s":"Uncletopia | Warsaw | 4 | All Maps","protocol":17,"map":"koth_lakeside_final","folder":"tf","game":"Team Fortress","app_id":440,"player_count":0,"max_players":24,"Bots":0,"server_type":"Dedicated","server_os":"Linux","password":true,"vac":true,"version":"7757534","steam_id":85568392925397853,"keywords":["cp","nocrits","nodmgspread","uncletopia"],"game_id":440,"stv_port":27046,"stv_name":"Uncletopia | Warsaw | 4 | All Maps | STV","players":null},{"server_id":53,"name":"Uncletopia | Warsaw | 5 | Stopwatch Beta","name_short":"waw-5","host":"waw-1.pl.uncletopia.com","port":27055,"enabled":true,"region":"eu","cc":"pl","latitude":52.2297,"longitude":21.017532,"reserved":0,"last_update":"0001-01-01T00:00:00Z","name_a2s":"Uncletopia | Warsaw | 5 | Stopwatch Beta","protocol":17,"map":"cp_metalworks","folder":"tf","game":"Team Fortress","app_id":440,"player_count":0,"max_players":24,"Bots":0,"server_type":"Dedicated","server_os":"Linux","password":true,"vac":true,"version":"7757534","steam_id":85568392925397854,"keywords":["cp","nocrits","nodmgspread","uncletopia"],"game_id":440,"stv_port":27056,"stv_name":"Uncletopia | Warsaw | 5 | Stopwatch Beta | STV","players":null},{"server_id":54,"name":"Uncletopia | Warsaw | 6 | Community","name_short":"waw-6","host":"waw-1.pl.uncletopia.com","port":27065,"enabled":true,"region":"eu","cc":"pl","latitude":52.2297,"longitude":21.017532,"reserved":0,"last_update":"0001-01-01T00:00:00Z","name_a2s":"Uncletopia | Warsaw | 6 | Community","protocol":17,"map":"koth_lakeside_final","folder":"tf","game":"Team Fortress","app_id":440,"player_count":0,"max_players":24,"Bots":0,"server_type":"Dedicated","server_os":"Linux","password":true,"vac":true,"version":"7757534","steam_id":85568392925397856,"keywords":["cp","nocrits","nodmgspread","uncletopia"],"game_id":440,"stv_port":27066,"stv_name":"Uncletopia | Warsaw | 6 | Community | STV","players":null}]}