{"status":true,"message":"","result":[{"server_id":2,"name":"Uncletopia | Chicago | 1 | All Maps","name_short":"chi-1","host":"chi-1.us.uncletopia.com","port":27015,"enabled":true,"region":"us-central","cc":"us","latitude":41.881832,"longitude":-87.62318,"reserved":0,"last_update":"0001-01-01T00:00:00Z","name_a2s":"Uncletopia | Chicago | 1 | All Maps","protocol":17,"map":"koth_lakeside_final","folder":"tf","game":"Team Fortress","app_id":440,"player_count":23,"max_players":24,"Bots":0,"server_type":"Dedicated","server_os":"Linux","password":true,"vac":true,"version":"7961495","steam_id":85568392924469984,"keywords":["cp","nocrits","nodmgspread","uncletopia"],"game_id":440,"stv_port":27016,"stv_name":"Uncletopia | Chicago | 1 | All Maps | STV","players":[{"user_id":291,"name":"Varie","steam_id":76561199454930210,"connected_time":259000000000,"state":"active","ping":81},{"user_id":290,"name":"Bill Murray","steam_id":76561197997899786,"connected_time":286000000000,"state":"active","ping":75},{"user_id":256,"name":"LerN","steam_id":76561198083463877,"connected_time":3421000000000,"state":"active","ping":66},{"user_id":278,"name":"Nephi","steam_id":76561198031525122,"connected_time":1962000000000,"state":"active","ping":101},{"user_id":289,"name":"HOTA","steam_id":76561199002778841,"connected_time":298000000000,"state":"active","ping":74},{"user_id":292,"name":"SoaringPhoenix","steam_id":76561198445103637,"connected_time":257000000000,"state":"active","ping":46},{"user_id":275,"name":"NikoOS (NO SOUND)","steam_id":76561198180020521,"connected_time":2087000000000,"state":"active","ping":155},{"user_id":281,"name":"L + Ratio","steam_id":76561198263786953,"connected_time":1398000000000,"state":"active","ping":76},{"user_id":243,"name":"cat","steam_id":76561198096347625,"connected_time":4626000000000,"state":"active","ping":82},{"user_id":245,"name":"Fernando","steam_id":76561198443038047,"connected_time":4576000000000,"state":"active","ping":90},{"user_id":293,"name":"coms","steam_id":76561198359456881,"connected_time":256000000000,"state":"active","ping":47},{"user_id":294,"name":"Blue‚õßMelon","steam_id":76561197970926435,"connected_time":212000000000,"state":"active","ping":77},{"user_id":295,"name":"Nathan","steam_id":76561199132214008,"connected_time":210000000000,"state":"active","ping":87},{"user_id":262,"name":"Gaming","steam_id":76561198107080532,"connected_time":3217000000000,"state":"active","ping":69},{"user_id":296,"name":"eryn üó∫","steam_id":76561198004433070,"connected_time":174000000000,"state":"active","ping":76},{"user_id":286,"name":"Swiftmend","steam_id":76561197995595692,"connected_time":1196000000000,"state":"active","ping":75},{"user_id":287,"name":"Fuegan Ra","steam_id":76561198287923849,"connected_time":822000000000,"state":"active","ping":46},{"user_id":274,"name":"sciencenerd42","steam_id":76561198274563320,"connected_time":2207000000000,"state":"active","ping":47},{"user_id":288,"name":"lowtiergrapejuice-rng","steam_id":76561198093829623,"connected_time":478000000000,"state":"active","ping":85},{"user_id":266,"name":"auts","steam_id":76561198055198646,"connected_time":3170000000000,"state":"active","ping":66},{"user_id":269,"name":"Der Krieger105","steam_id":76561197978384609,"connected_time":3095000000000,"state":"active","ping":86},{"user_id":195,"name":"Astoriae!","steam_id":76561199090168858,"connected_time":8416000000000,"state":"active","ping":72},{"user_id":277,"name":"Lia_Rein","steam_id":76561198151569597,"connected_time":2045000000000,"state":"active","ping":135}]},{"server_id":106,"name":"Uncletopia | Chicago | 2 | All Maps","name_short":"chi-2","host":"chi-1.us.uncletopia.com","port":27025,"enabled":true,"region":"us-central","cc":"us","latitude":41.881832,"longitude":-87.62318,"reserved":0,"last_update":"0001-01-01T00:00:00Z","name_a2s":"Uncletopia | Chicago | 2 | All Maps","protocol":17,"map":"pl_swiftwater_final1","folder":"tf","game":"Team Fortress","app_id":440,"player_count":24,"max_players":24,"Bots":0,"server_type":"Dedicated","server_os":"Linux","password":true,"vac":true,"version":"7961495","steam_id":85568392924469985,"keywords":["nocrits","nodmgspread","payload","uncletopia"],"game_id":440,"stv_port":27026,"stv_name":"Uncletopia | Chicago | 2 | All Maps | STV","players":[{"user_id":394,"name":"Toblerone","steam_id":76561198057374871,"connected_time":2847000000000,"state":"active","ping":62},{"user_id":418,"name":":otter_stare:","steam_id":76561198134310844,"connected_time":1653000000000,"state":"active","ping":74},{"user_id":453,"name":"[chef] iron","steam_id":76561197970888616,"connected_time":300000000000,"state":"active","ping":38},{"user_id":404,"name":"Inkussy","steam_id":76561198042689943,"connected_time":2526000000000,"state":"active","ping":45},{"user_id":419,"name":"definitely (not) a twink","steam_id":76561199208833695,"connected_time":1594000000000,"state":"active","ping":84},{"user_id":436,"name":"Emerald Blaziken","steam_id":76561198821943366,"connected_time":974000000000,"state":"active","ping":100},{"user_id":451,"name":"A Sun","steam_id":76561198142545364,"connected_time":311000000000,"state":"active","ping":69},{"user_id":412,"name":"BigNugs","steam_id":76561198056402610,"connected_time":2358000000000,"state":"active","ping":71},{"user_id":452,"name":"Joe Family guy","steam_id":76561198065327106,"connected_time":307000000000,"state":"active","ping":60},{"user_id":437,"name":"Binkems","steam_id":76561198084220655,"connected_time":963000000000,"state":"active","ping":51},{"user_id":445,"name":"HOMESHAKE","steam_id":76561198045144546,"connected_time":698000000000,"state":"active","ping":83},{"user_id":454,"name":"toastloard","steam_id":76561198368386853,"connected_time":278000000000,"state":"active","ping":63},{"user_id":455,"name":"ShabbySaber","steam_id":76561198061730203,"connected_time":277000000000,"state":"active","ping":50},{"user_id":415,"name":"Smooth, Refreshing Bleach‚Ñ¢","steam_id":76561197981060504,"connected_time":2060000000000,"state":"active","ping":45},{"user_id":446,"name":"kite","steam_id":76561198346516392,"connected_time":545000000000,"state":"active","ping":64},{"user_id":442,"name":"Shady Businessman","steam_id":76561198143855968,"connected_time":771000000000,"state":"active","ping":104},{"user_id":413,"name":"WitheringLeo","steam_id":76561198046722918,"connected_time":2287000000000,"state":"active","ping":87},{"user_id":440,"name":"Goober","steam_id":76561198894808611,"connected_time":941000000000,"state":"active","ping":129},{"user_id":443,"name":"Drilly22","steam_id":76561198068838338,"connected_time":748000000000,"state":"active","ping":85},{"user_id":458,"name":"gIBBY","steam_id":76561198080099598,"connected_time":3000000000,"state":"spawning","ping":59},{"user_id":422,"name":"LemonZest","steam_id":76561199196369249,"connected_time":1578000000000,"state":"active","ping":80},{"user_id":439,"name":"TQman","steam_id":76561199031963925,"connected_time":949000000000,"state":"active","ping":113},{"user_id":434,"name":"ChebJeb","steam_id":76561198981377081,"connected_time":1046000000000,"state":"active","ping":85},{"user_id":447,"name":"bonk","steam_id":76561199132598729,"connected_time":545000000000,"state":"active","ping":176}]},{"server_id":402,"name":"Uncletopia | Chicago | 3 | All Maps","name_short":"chi-3","host":"chi-1.us.uncletopia.com","port":27035,"enabled":true,"region":"us-central","cc":"us","latitude":41.881832,"longitude":-87.62318,"reserved":0,"last_update":"0001-01-01T00:00:00Z","name_a2s":"Uncletopia | Chicago | 3 | All Maps","protocol":17,"map":"pl_upward","folder":"tf","game":"Team Fortress","app_id":440,"player_count":24,"max_players":24,"Bots":0,"server_type":"Dedicated","server_os":"Linux","password":true,"vac":true,"version":"7961495","steam_id":85568392924515191,"keywords":["nocrits","nodmgspread","payload","uncletopia"],"game_id":440,"stv_port":27036,"stv_name":"Uncletopia | Chicago | 3 | All Maps | STV","players":[{"user_id":253,"name":"suns","steam_id":76561198079583278,"connected_time":781000000000,"state":"active","ping":45},{"user_id":256,"name":"Evil","steam_id":76561199055304139,"connected_time":722000000000,"state":"active","ping":59},{"user_id":254,"name":"snubcube","steam_id":76561198135880806,"connected_time":770000000000,"state":"active","ping":74},{"user_id":258,"name":"siodoge","steam_id":76561198061184951,"connected_time":676000000000,"state":"active","ping":61},{"user_id":259,"name":"YesMargaret","steam_id":76561198127971751,"connected_time":668000000000,"state":"active","ping":60},{"user_id":276,"name":"kshrubb","steam_id":76561198055505122,"connected_time":237000000000,"state":"active","ping":80},{"user_id":251,"name":"aiden","steam_id":76561198449527009,"connected_time":1006000000000,"state":"active","ping":92},{"user_id":233,"name":"Gachalover","steam_id":76561199231552074,"connected_time":2003000000000,"state":"active","ping":72},{"user_id":202,"name":"5mech","steam_id":76561198979167520,"connected_time":3159000000000,"state":"active","ping":52},{"user_id":267,"name":"el lim√≥n epil√©ptico","steam_id":76561198974549577,"connected_time":426000000000,"state":"active","ping":129},{"user_id":261,"name":"BU Baggead","steam_id":76561198852902827,"connected_time":628000000000,"state":"active","ping":52},{"user_id":262,"name":"monkeyman","steam_id":76561199388992941,"connected_time":541000000000,"state":"active","ping":153},{"user_id":277,"name":"dweamy","steam_id":76561198119181880,"connected_time":183000000000,"state":"active","ping":62},{"user_id":264,"name":"Skulgan","steam_id":76561198150261397,"connected_time":477000000000,"state":"active","ping":70},{"user_id":235,"name":"FRANKIEonPCP","steam_id":76561198208451949,"connected_time":1982000000000,"state":"active","ping":82},{"user_id":265,"name":"Capybara Enjoyer","steam_id":76561199147114434,"connected_time":473000000000,"state":"active","ping":119},{"user_id":268,"name":"resident frog","steam_id":76561198397981670,"connected_time":413000000000,"state":"active","ping":42},{"user_id":269,"name":"The_Milk_Man","steam_id":76561198085000339,"connected_time":407000000000,"state":"active","ping":68},{"user_id":278,"name":"seldom","steam_id":76561198166193756,"connected_time":86000000000,"state":"active","ping":74},{"user_id":270,"name":"FireWorld","steam_id":76561197995626348,"connected_time":391000000000,"state":"active","ping":70},{"user_id":271,"name":"SURRENDER FREEMEN","steam_id":76561198072277956,"connected_time":389000000000,"state":"active","ping":110},{"user_id":272,"name":"Gotta Move That Gear Up","steam_id":76561197993467034,"connected_time":386000000000,"state":"active","ping":46},{"user_id":250,"name":"Ninetees","steam_id":76561198119483989,"connected_time":1149000000000,"state":"active","ping":82},{"user_id":274,"name":"Tanna Tuver","steam_id":76561198382485444,"connected_time":298000000000,"state":"active","ping":60}]},{"server_id":403,"name":"Uncletopia | Chicago | 4 | All Maps","name_short":"chi-4","host":"chi-1.us.uncletopia.com","port":27045,"enabled":true,"region":"us-central","cc":"us","latitude":41.881832,"longitude":-87.62318,"reserved":0,"last_update":"0001-01-01T00:00:00Z","name_a2s":"Uncletopia | Chicago | 4 | All Maps","protocol":17,"map":"pl_swiftwater_final1","folder":"tf","game":"Team Fortress","app_id":440,"player_count":23,"max_players":24,"Bots":0,"server_type":"Dedicated","server_os":"Linux","password":true,"vac":true,"version":"7961495","steam_id":85568392924515193,"keywords":["nocrits","nodmgspread","payload","uncletopia"],"game_id":440,"stv_port":27046,"stv_name":"Uncletopia | Chicago | 4 | All Maps | STV","players":[{"user_id":662,"name":"beyond","steam_id":76561198051009126,"connected_time":314000000000,"state":"active","ping":71},{"user_id":649,"name":"Theory-LOL","steam_id":76561198116419931,"connected_time":2155000000000,"state":"active","ping":103},{"user_id":667,"name":"Gobemouche","steam_id":76561198040418719,"connected_time":241000000000,"state":"active","ping":81},{"user_id":647,"name":"RarestGuide","steam_id":76561198050338923,"connected_time":2280000000000,"state":"active","ping":77},{"user_id":665,"name":"Gromet","steam_id":76561198181838278,"connected_time":264000000000,"state":"active","ping":110},{"user_id":660,"name":"LVL 4 Dispenser Gaming","steam_id":76561198044244547,"connected_time":1029000000000,"state":"active","ping":77},{"user_id":612,"name":"tiananmensquare1989","steam_id":76561199076837870,"connected_time":4800000000000,"state":"active","ping":91},{"user_id":663,"name":"Tags3","steam_id":76561198115926329,"connected_time":312000000000,"state":"active","ping":70},{"user_id":458,"name":"Maid Knight","steam_id":76561198214370515,"connected_time":11136000000000,"state":"active","ping":71},{"user_id":666,"name":"Idk","steam_id":76561198971629959,"connected_time":261000000000,"state":"active","ping":149},{"user_id":655,"name":"Stranger in a Strange Land","steam_id":76561198049843671,"connected_time":1457000000000,"state":"active","ping":59},{"user_id":650,"name":"Crunchy Pancake","steam_id":76561198002555973,"connected_time":1925000000000,"state":"active","ping":65},{"user_id":641,"name":"Zing","steam_id":76561198097160898,"connected_time":2670000000000,"state":"active","ping":84},{"user_id":644,"name":"GRONT","steam_id":76561198040464533,"connected_time":2293000000000,"state":"active","ping":70},{"user_id":657,"name":"minty","steam_id":76561198062821894,"connected_time":1056000000000,"state":"active","ping":76},{"user_id":633,"name":"Chevlanae","steam_id":76561198038180603,"connected_time":3094000000000,"state":"active","ping":61},{"user_id":668,"name":"gideon nav my beloved","steam_id":76561198259092181,"connected_time":218000000000,"state":"active","ping":61},{"user_id":624,"name":"Gaming Gaming","steam_id":76561198989717627,"connected_time":3618000000000,"state":"active","ping":62},{"user_id":588,"name":"crazygolfguy100","steam_id":76561198063099828,"connected_time":5871000000000,"state":"active","ping":45},{"user_id":670,"name":"minecraft","steam_id":76561198104345201,"connected_time":99000000000,"state":"active","ping":71},{"user_id":661,"name":"BugsAreMyWorstEnemy","steam_id":76561199440395505,"connected_time":698000000000,"state":"active","ping":71},{"user_id":669,"name":"the michael jordan of drunk dri","steam_id":76561198111259720,"connected_time":187000000000,"state":"active","ping":70},{"user_id":652,"name":"coco","steam_id":76561199112844022,"connected_time":1510000000000,"state":"active","ping":115}]},{"server_id":36,"name":"Uncletopia | Chicago | 5 | All Maps","name_short":"chi-5","host":"chi-2.us.uncletopia.com","port":27015,"enabled":true,"region":"us-central","cc":"us","latitude":41.881832,"longitude":-87.62318,"reserved":0,"last_update":"0001-01-01T00:00:00Z","name_a2s":"Uncletopia | Chicago | 5 | All Maps","protocol":17,"map":"pl_pier","folder":"tf","game":"Team Fortress","app_id":440,"player_count":24,"max_players":24,"Bots":0,"server_type":"Dedicated","server_os":"Linux","password":true,"vac":true,"version":"7961495","steam_id":85568392924866362,"keywords":["nocrits","nodmgspread","payload","uncletopia"],"game_id":440,"stv_port":27016,"stv_name":"Uncletopia | Chicago | 5 | All Maps | STV","players":[{"user_id":204,"name":"The new day","steam_id":76561198855144603,"connected_time":619000000000,"state":"active","ping":61},{"user_id":205,"name":"Space Lizard","steam_id":76561198056798193,"connected_time":613000000000,"state":"active","ping":73},{"user_id":182,"name":"corned beef","steam_id":76561199366782761,"connected_time":2074000000000,"state":"active","ping":156},{"user_id":164,"name":"SilentFootba11","steam_id":76561199006570947,"connected_time":3570000000000,"state":"active","ping":70},{"user_id":160,"name":"nuh uh","steam_id":76561198107343544,"connected_time":3765000000000,"state":"active","ping":87},{"user_id":206,"name":"Vegemate","steam_id":76561199088297770,"connected_time":605000000000,"state":"active","ping":84},{"user_id":175,"name":"Mephistopheles","steam_id":76561198253731826,"connected_time":2882000000000,"state":"active","ping":74},{"user_id":217,"name":"Radish Master","steam_id":76561198072523811,"connected_time":342000000000,"state":"active","ping":42},{"user_id":208,"name":"Heartless Ol' Me","steam_id":76561198801153303,"connected_time":535000000000,"state":"active","ping":70},{"user_id":193,"name":"Pussy Slambasket","steam_id":76561198093694322,"connected_time":1840000000000,"state":"active","ping":56},{"user_id":216,"name":"An Erect Penis :)","steam_id":76561198086477485,"connected_time":350000000000,"state":"active","ping":39},{"user_id":218,"name":"IM GOING TO DIE","steam_id":76561199299251255,"connected_time":262000000000,"state":"active","ping":72},{"user_id":185,"name":"The Sinister Potion","steam_id":76561198131280715,"connected_time":2061000000000,"state":"active","ping":74},{"user_id":191,"name":"TheLuzinator","steam_id":76561198377144604,"connected_time":1897000000000,"state":"active","ping":93},{"user_id":153,"name":"Tri-Dot","steam_id":76561199075186597,"connected_time":3885000000000,"state":"active","ping":72},{"user_id":202,"name":"Fat Kid","steam_id":76561198304180941,"connected_time":705000000000,"state":"active","ping":87},{"user_id":127,"name":"Zanartan","steam_id":76561198050528902,"connected_time":5074000000000,"state":"active","ping":190},{"user_id":155,"name":"awesomebrololo","steam_id":76561198374283489,"connected_time":3857000000000,"state":"active","ping":135},{"user_id":168,"name":"ShawnLmao","steam_id":76561198350691501,"connected_time":3248000000000,"state":"active","ping":218},{"user_id":196,"name":"AlcoholicDad454","steam_id":76561198157414556,"connected_time":1512000000000,"state":"active","ping":81},{"user_id":188,"name":"Suburban Wolf Dad","steam_id":76561198069234954,"connected_time":2038000000000,"state":"active","ping":90},{"user_id":211,"name":"helen keller","steam_id":76561197979870540,"connected_time":460000000000,"state":"active","ping":53},{"user_id":212,"name":"Fortnite the movie","steam_id":76561199068219264,"connected_time":430000000000,"state":"active","ping":77},{"user_id":215,"name":"Meowcenary","steam_id":76561197998566857,"connected_time":394000000000,"state":"active","ping":91}]},{"server_id":37,"name":"Uncletopia | Chicago | 6 | All Maps","name_short":"chi-6","host":"chi-2.us.uncletopia.com","port":27025,"enabled":true,"region":"us-central","cc":"us","latitude":41.881832,"longitude":-87.62318,"reserved":0,"last_update":"0001-01-01T00:00:00Z","name_a2s":"Uncletopia | Chicago | 6 | All Maps","protocol":17,"map":"pl_badwater","folder":"tf","game":"Team Fortress","app_id":440,"player_count":24,"max_players":24,"Bots":0,"server_type":"Dedicated","server_os":"Linux","password":true,"vac":true,"version":"7961495","steam_id":85568392924866363,"keywords":["nocrits","nodmgspread","payload","uncletopia"],"game_id":440,"stv_port":27026,"stv_name":"Uncletopia | Chicago | 6 | All Maps | STV","players":[{"user_id":276,"name":"damps622","steam_id":76561198857765220,"connected_time":424000000000,"state":"active","ping":79},{"user_id":275,"name":"NuggBugguwu","steam_id":76561199396414430,"connected_time":435000000000,"state":"active","ping":101},{"user_id":273,"name":"Gus is a big smelly stinky","steam_id":76561198065251542,"connected_time":625000000000,"state":"active","ping":79},{"user_id":259,"name":"Danmar33","steam_id":76561198056453091,"connected_time":2165000000000,"state":"active","ping":46},{"user_id":277,"name":"TheSmolPopato","steam_id":76561199076606348,"connected_time":414000000000,"state":"active","ping":60},{"user_id":271,"name":"SynisterGrin","steam_id":76561198350445456,"connected_time":698000000000,"state":"active","ping":70},{"user_id":264,"name":"Walkiing","steam_id":76561198074473413,"connected_time":1694000000000,"state":"active","ping":40},{"user_id":265,"name":"Robin","steam_id":76561198121165149,"connected_time":1690000000000,"state":"active","ping":45},{"user_id":289,"name":"b3afy","steam_id":76561198084208649,"connected_time":165000000000,"state":"active","ping":91},{"user_id":287,"name":"IcyTheApple","steam_id":76561199002790364,"connected_time":192000000000,"state":"active","ping":69},{"user_id":274,"name":"Rice!","steam_id":76561199033160553,"connected_time":587000000000,"state":"active","ping":89},{"user_id":279,"name":"Hope","steam_id":76561199201900779,"connected_time":353000000000,"state":"active","ping":76},{"user_id":295,"name":"Alexander1353","steam_id":76561198249641266,"connected_time":71000000000,"state":"active","ping":97},{"user_id":281,"name":"Sugahu17S","steam_id":76561198799403828,"connected_time":339000000000,"state":"active","ping":53},{"user_id":282,"name":"rainbowmaster25!","steam_id":76561199215255414,"connected_time":315000000000,"state":"active","ping":84},{"user_id":283,"name":"Civic Duty MK II Enthusiast","steam_id":76561198144049265,"connected_time":297000000000,"state":"active","ping":74},{"user_id":284,"name":"living in mushroom park","steam_id":76561198097588802,"connected_time":262000000000,"state":"active","ping":45},{"user_id":296,"name":"Reposas","steam_id":76561198058803197,"connected_time":56000000000,"state":"spawning","ping":74},{"user_id":288,"name":"stickman488","steam_id":76561198190598823,"connected_time":185000000000,"state":"active","ping":69},{"user_id":290,"name":"Wagemage","steam_id":76561198013625580,"connected_time":135000000000,"state":"active","ping":63},{"user_id":291,"name":"Scorpie Doodle","steam_id":76561198021845763,"connected_time":126000000000,"state":"active","ping":56},{"user_id":292,"name":"Gavias","steam_id":76561198071589819,"connected_time":118000000000,"state":"active","ping":60},{"user_id":293,"name":"UnReLinked","steam_id":76561199366044663,"connected_time":116000000000,"state":"active","ping":104},{"user_id":294,"name":"Rudy","steam_id":76561198013456828,"connected_time":115000000000,"state":"active","ping":60}]},{"server_id":38,"name":"Uncletopia | Chicago | 7 | Stopwatch Beta","name_short":"chi-7","host":"chi-2.us.uncletopia.com","port":27035,"enabled":true,"region":"us-central","cc":"us","latitude":41.881832,"longitude":-87.62318,"reserved":0,"last_update":"0001-01-01T00:00:00Z","name_a2s":"Uncletopia | Chicago | 7 | Stopwatch Beta","protocol":17,"map":"koth_lakeside_final","folder":"tf","game":"Team Fortress","app_id":440,"player_count":0,"max_players":24,"Bots":0,"server_type":"Dedicated","server_os":"Linux","password":true,"vac":true,"version":"7961495","steam_id":85568392924866364,"keywords":["cp","nocrits","nodmgspread","uncletopia"],"game_id":440,"stv_port":27036,"stv_name":"Uncletopia | Chicago | 7 | Stopwatch Beta | STV","players":null},{"server_id":39,"name":"Uncletopia | Chicago | 8 | Community","name_short":"chi-8","host":"chi-2.us.uncletopia.com","port":27045,"enabled":true,"region":"us-central","cc":"us","latitude":41.881832,"longitude":-87.62318,"reserved":0,"last_update":"0001-01-01T00:00:00Z","name_a2s":"Uncletopia | Chicago | 8 | Community","protocol":17,"map":"workshop/cp_croissant_final.ugc458840209","folder":"tf","game":"Team Fortress","app_id":440,"player_count":0,"max_players":24,"Bots":0,"server_type":"Dedicated","server_os":"Linux","password":true,"vac":true,"version":"7961495","steam_id":85568392924866365,"keywords":["cp","nocrits","nodmgspread","uncletopia"],"game_id":440,"stv_port":27046,"stv_name":"Uncletopia | Chicago | 8 | Community | STV","players":null},{"server_id":8,"name":"Uncletopia | Dallas | 1 | All Maps","name_short":"dal-1","host":"dal-1.us.uncletopia.com","port":27015,"enabled":true,"region":"us-central","cc":"us","latitude":32.779167,"longitude":-96.80889,"reserved":0,"last_update":"0001-01-01T00:00:00Z","name_a2s":"Uncletopia | Dallas | 1 | All Maps","protocol":17,"map":"pl_upward","folder":"tf","game":"Team Fortress","app_id":440,"player_count":23,"max_players":24,"Bots":0,"server_type":"Dedicated","server_os":"Linux","password":true,"vac":true,"version":"7961495","steam_id":85568392924469986,"keywords":["nocrits","nodmgspread","payload","uncletopia"],"game_id":440,"stv_port":27016,"stv_name":"Uncletopia | Dallas | 1 | All Maps | STV","players":[{"user_id":335,"name":"Grape Juice","steam_id":76561198380337568,"connected_time":675000000000,"state":"active","ping":61},{"user_id":276,"name":"Cervid√©","steam_id":76561198098579497,"connected_time":4047000000000,"state":"active","ping":104},{"user_id":322,"name":"WhackyOrc","steam_id":76561199470020355,"connected_time":1148000000000,"state":"active","ping":79},{"user_id":272,"name":"„Åµ„Çè„Åµ„ÇèÊØõÂ∏É","steam_id":76561198088403016,"connected_time":4096000000000,"state":"active","ping":180},{"user_id":225,"name":"Blake...","steam_id":76561198064090974,"connected_time":6538000000000,"state":"active","ping":94},{"user_id":323,"name":"SolmonFish","steam_id":76561198942169006,"connected_time":1146000000000,"state":"active","ping":96},{"user_id":301,"name":"SafetyInstructor","steam_id":76561199195205705,"connected_time":2482000000000,"state":"active","ping":56},{"user_id":311,"name":"Weeb","steam_id":76561198333568146,"connected_time":1537000000000,"state":"active","ping":90},{"user_id":252,"name":"catfish from toontown","steam_id":76561198060070002,"connected_time":5419000000000,"state":"active","ping":63},{"user_id":313,"name":"Philly","steam_id":76561198085004599,"connected_time":1486000000000,"state":"active","ping":88},{"user_id":300,"name":"FFESK","steam_id":76561198118182211,"connected_time":2680000000000,"state":"active","ping":86},{"user_id":344,"name":"ElZeto","steam_id":76561198252322622,"connected_time":308000000000,"state":"active","ping":91},{"user_id":255,"name":"Grand Piano Tuna","steam_id":76561198135137213,"connected_time":5344000000000,"state":"active","ping":45},{"user_id":342,"name":"Chunk Stuffer","steam_id":76561198856508573,"connected_time":388000000000,"state":"active","ping":36},{"user_id":328,"name":"Green Bean","steam_id":76561198827330768,"connected_time":785000000000,"state":"active","ping":78},{"user_id":337,"name":"Warlord Sprinkle","steam_id":76561198359709367,"connected_time":551000000000,"state":"active","ping":87},{"user_id":334,"name":"Rafl","steam_id":76561198055222756,"connected_time":692000000000,"state":"active","ping":44},{"user_id":303,"name":"Terminally Ill Downie Brownie","steam_id":76561198356484354,"connected_time":2258000000000,"state":"active","ping":115},{"user_id":267,"name":"Rob","steam_id":76561199187786660,"connected_time":4603000000000,"state":"active","ping":54},{"user_id":341,"name":"gps","steam_id":76561198067492304,"connected_time":450000000000,"state":"active","ping":60},{"user_id":339,"name":"Hector Salamanca","steam_id":76561199103213955,"connected_time":541000000000,"state":"active","ping":100},{"user_id":299,"name":"Greg Boberton 2012","steam_id":76561198983566026,"connected_time":2722000000000,"state":"active","ping":86},{"user_id":280,"name":"andyiscolorless","steam_id":76561199239870921,"connected_time":4004000000000,"state":"active","ping":149}]},{"server_id":108,"name":"Uncletopia | Dallas | 2 | All Maps","name_short":"dal-2","host":"dal-1.us.uncletopia.com","port":27025,"enabled":true,"region":"us-central","cc":"us","latitude":32.779167,"longitude":-96.80889,"reserved":0,"last_update":"0001-01-01T00:00:00Z","name_a2s":"Uncletopia | Dallas | 2 | All Maps","protocol":17,"map":"pl_barnblitz","folder":"tf","game":"Team Fortress","app_id":440,"player_count":22,"max_players":24,"Bots":0,"server_type":"Dedicated","server_os":"Linux","password":true,"vac":true,"version":"7961495","steam_id":85568392924469988,"keywords":["nocrits","nodmgspread","payload","uncletopia"],"game_id":440,"stv_port":27026,"stv_name":"Uncletopia | Dallas | 2 | All Maps | STV","players":[{"user_id":476,"name":"Krewson","steam_id":76561199233067013,"connected_time":441000000000,"state":"active","ping":87},{"user_id":461,"name":"CHAD MCSKATEBOARD","steam_id":76561198424954118,"connected_time":1394000000000,"state":"active","ping":60},{"user_id":479,"name":"MR. BEEEEEEEEEEEEEAAAAAAAAAAST","steam_id":76561198205346760,"connected_time":262000000000,"state":"active","ping":60},{"user_id":438,"name":"Giselle","steam_id":76561198162593640,"connected_time":3303000000000,"state":"active","ping":101},{"user_id":345,"name":"Mellou","steam_id":76561198212048740,"connected_time":8567000000000,"state":"active","ping":44},{"user_id":466,"name":"Big Sex","steam_id":76561199108421736,"connected_time":972000000000,"state":"active","ping":76},{"user_id":439,"name":"Elm","steam_id":76561198127972568,"connected_time":3254000000000,"state":"active","ping":75},{"user_id":474,"name":"sunny","steam_id":76561198069380992,"connected_time":687000000000,"state":"active","ping":58},{"user_id":462,"name":"Discourse","steam_id":76561198984286678,"connected_time":1382000000000,"state":"active","ping":72},{"user_id":468,"name":"Breadman","steam_id":76561198097979919,"connected_time":964000000000,"state":"active","ping":133},{"user_id":471,"name":"Blue Banana","steam_id":76561198100077411,"connected_time":791000000000,"state":"active","ping":76},{"user_id":429,"name":"Bandicam Recording Software","steam_id":76561199122281764,"connected_time":3873000000000,"state":"active","ping":71},{"user_id":475,"name":"Bobby Dazzler È≠îÈêò","steam_id":76561198007405067,"connected_time":485000000000,"state":"active","ping":56},{"user_id":451,"name":"cc","steam_id":76561199215821942,"connected_time":2583000000000,"state":"active","ping":45},{"user_id":449,"name":"Manic","steam_id":76561198128149670,"connected_time":2659000000000,"state":"active","ping":40},{"user_id":478,"name":"aeipathy ‚úû","steam_id":76561198061638377,"connected_time":382000000000,"state":"active","ping":52},{"user_id":458,"name":"{ST} Oxythemoron","steam_id":76561198060089965,"connected_time":1438000000000,"state":"active","ping":59},{"user_id":448,"name":"donk","steam_id":76561198097138000,"connected_time":2697000000000,"state":"active","ping":76},{"user_id":452,"name":"[cf] Captain Terror","steam_id":76561198028034742,"connected_time":2577000000000,"state":"active","ping":85},{"user_id":464,"name":"Chol","steam_id":76561198122054259,"connected_time":1030000000000,"state":"active","ping":81},{"user_id":480,"name":"Sableye","steam_id":76561198061247147,"connected_time":195000000000,"state":"active","ping":70},{"user_id":460,"name":"goat gaming","steam_id":76561198068982017,"connected_time":1437000000000,"state":"active","ping":75}]},{"server_id":5,"name":"Uncletopia | Frankfurt | 1 | All Maps","name_short":"frk-1","host":"frk-1.de.uncletopia.com","port":27015,"enabled":true,"region":"eu","cc":"de","latitude":50.110924,"longitude":8.682127,"reserved":0,"last_update":"0001-01-01T00:00:00Z","name_a2s":"Uncletopia | Frankfurt | 1 | All Maps","protocol":17,"map":"pl_pier","folder":"tf","game":"Team Fortress","app_id":440,"player_count":24,"max_players":24,"Bots":0,"server_type":"Dedicated","server_os":"Linux","password":true,"vac":true,"version":"7961495","steam_id":85568392924469989,"keywords":["nocrits","nodmgspread","payload","uncletopia"],"game_id":440,"stv_port":27016,"stv_name":"Uncletopia | Frankfurt | 1 | All Maps | STV","players":[{"user_id":642,"name":"POOTISMAN","steam_id":76561197986793136,"connected_time":305000000000,"state":"active","ping":55},{"user_id":528,"name":"the least schizo med main","steam_id":76561198048530109,"connected_time":6991000000000,"state":"active","ping":62},{"user_id":627,"name":"Chucko Kokos","steam_id":76561198112553005,"connected_time":1378000000000,"state":"active","ping":67},{"user_id":643,"name":"oscail","steam_id":76561198180640198,"connected_time":294000000000,"state":"active","ping":85},{"user_id":641,"name":"FishD.ck_47","steam_id":76561198114773103,"connected_time":367000000000,"state":"active","ping":85},{"user_id":649,"name":"r06u3","steam_id":76561198254099253,"connected_time":7000000000,"state":"spawning","ping":165},{"user_id":636,"name":"Bubbles","steam_id":76561198131764464,"connected_time":947000000000,"state":"active","ping":74},{"user_id":644,"name":"Moe Torola","steam_id":76561198025167560,"connected_time":278000000000,"state":"active","ping":69},{"user_id":639,"name":"Bambarius","steam_id":76561198052155280,"connected_time":609000000000,"state":"active","ping":48},{"user_id":645,"name":"Huskey","steam_id":76561198152392309,"connected_time":250000000000,"state":"active","ping":45},{"user_id":580,"name":"Raulca25","steam_id":76561199068256964,"connected_time":4107000000000,"state":"active","ping":89},{"user_id":630,"name":"BeefHammer","steam_id":76561198078426223,"connected_time":1226000000000,"state":"active","ping":90},{"user_id":559,"name":"tallen","steam_id":76561198061708595,"connected_time":5291000000000,"state":"active","ping":83},{"user_id":614,"name":"Wepto","steam_id":76561198009536306,"connected_time":2125000000000,"state":"active","ping":59},{"user_id":618,"name":"isaku","steam_id":76561198092648865,"connected_time":1967000000000,"state":"active","ping":73},{"user_id":637,"name":"A simple berry picker","steam_id":76561198091969871,"connected_time":874000000000,"state":"active","ping":93},{"user_id":620,"name":"Teolus","steam_id":76561197989494538,"connected_time":1833000000000,"state":"active","ping":55},{"user_id":646,"name":"nicco","steam_id":76561198046217866,"connected_time":243000000000,"state":"active","ping":44},{"user_id":638,"name":"Reilly","steam_id":76561198256604603,"connected_time":682000000000,"state":"active","ping":115},{"user_id":585,"name":"Osaka","steam_id":76561198023837248,"connected_time":3818000000000,"state":"active","ping":55},{"user_id":633,"name":"Zedespook","steam_id":76561198265479349,"connected_time":1083000000000,"state":"active","ping":60},{"user_id":647,"name":"Dr.Dag","steam_id":76561198301430910,"connected_time":115000000000,"state":"active","ping":74},{"user_id":635,"name":"—Å–≤–∏–Ω—Ç—É—Å –ø—Ä–∏–π–¥–µ—Ç","steam_id":76561198172046813,"connected_time":980000000000,"state":"active","ping":74},{"user_id":648,"name":"bone Baby","steam_id":76561198019003555,"connected_time":103000000000,"state":"active","ping":74}]},{"server_id":110,"name":"Uncletopia | Frankfurt | 2 | All Maps","name_short":"frk-2","host":"frk-1.de.uncletopia.com","port":27025,"enabled":true,"region":"eu","cc":"de","latitude":50.110924,"longitude":8.682127,"reserved":0,"last_update":"0001-01-01T00:00:00Z","name_a2s":"Uncletopia | Frankfurt | 2 | All Maps","protocol":17,"map":"pl_badwater","folder":"tf","game":"Team Fortress","app_id":440,"player_count":24,"max_players":24,"Bots":0,"server_type":"Dedicated","server_os":"Linux","password":true,"vac":true,"version":"7961495","steam_id":85568392924469990,"keywords":["nocrits","nodmgspread","payload","uncletopia"],"game_id":440,"stv_port":27026,"stv_name":"Uncletopia | Frankfurt | 2 | All Maps | STV","players":[{"user_id":714,"name":"Hoff","steam_id":76561198138540938,"connected_time":1083000000000,"state":"active","ping":75},{"user_id":719,"name":"SAKNŒû","steam_id":76561198160585436,"connected_time":890000000000,"state":"active","ping":106},{"user_id":725,"name":"tompp","steam_id":76561198143529110,"connected_time":615000000000,"state":"active","ping":45},{"user_id":726,"name":"(Maj) Dr Freak","steam_id":76561198046450332,"connected_time":600000000000,"state":"active","ping":168},{"user_id":720,"name":"Bobo","steam_id":76561198052308399,"connected_time":880000000000,"state":"active","ping":60},{"user_id":660,"name":"√êoggo","steam_id":76561198208781180,"connected_time":4718000000000,"state":"active","ping":68},{"user_id":704,"name":"jerry (:","steam_id":76561198205668108,"connected_time":1386000000000,"state":"active","ping":47},{"user_id":705,"name":"the Spycrab","steam_id":76561198043480678,"connected_time":1372000000000,"state":"active","ping":51},{"user_id":718,"name":"meriones","steam_id":76561198034234373,"connected_time":941000000000,"state":"active","ping":50},{"user_id":703,"name":"K.O.wal","steam_id":76561198317737261,"connected_time":1420000000000,"state":"active","ping":61},{"user_id":717,"name":"Mr_Pulse_","steam_id":76561198095001602,"connected_time":951000000000,"state":"active","ping":88},{"user_id":688,"name":"FoxyTheFish","steam_id":76561199074190919,"connected_time":2906000000000,"state":"active","ping":60},{"user_id":712,"name":"Teathling","steam_id":76561198061580505,"connected_time":1091000000000,"state":"active","ping":58},{"user_id":709,"name":"bruh","steam_id":76561198109262927,"connected_time":1318000000000,"state":"active","ping":73},{"user_id":701,"name":"wakitaki #savetf2","steam_id":76561198435661962,"connected_time":1797000000000,"state":"active","ping":81},{"user_id":721,"name":"David Kaya","steam_id":76561199229144722,"connected_time":869000000000,"state":"active","ping":76},{"user_id":713,"name":"gooch","steam_id":76561198110706893,"connected_time":1086000000000,"state":"active","ping":54},{"user_id":695,"name":"N0tzz","steam_id":76561198391025653,"connected_time":1971000000000,"state":"active","ping":84},{"user_id":691,"name":"Uselss Joe","steam_id":76561198275853629,"connected_time":2576000000000,"state":"active","ping":53},{"user_id":652,"name":"Ankle Dane","steam_id":76561198134378108,"connected_time":5902000000000,"state":"active","ping":86},{"user_id":681,"name":"Zyned","steam_id":76561198308711585,"connected_time":3464000000000,"state":"active","ping":72},{"user_id":727,"name":"BlinkedUp","steam_id":76561198249985618,"connected_time":342000000000,"state":"active","ping":62},{"user_id":722,"name":"FERAL JESUS","steam_id":76561197982917950,"connected_time":861000000000,"state":"active","ping":180},{"user_id":724,"name":"CrazyTrajce","steam_id":76561199052469254,"connected_time":695000000000,"state":"active","ping":86}]},{"server_id":308,"name":"Uncletopia | Frankfurt | 3 | All Maps","name_short":"frk-3","host":"frk-1.de.uncletopia.com","port":27035,"enabled":true,"region":"eu","cc":"de","latitude":50.110924,"longitude":8.682127,"reserved":0,"last_update":"0001-01-01T00:00:00Z","name_a2s":"Uncletopia | Frankfurt | 3 | All Maps","protocol":17,"map":"cp_steel","folder":"tf","game":"Team Fortress","app_id":440,"player_count":24,"max_players":24,"Bots":0,"server_type":"Dedicated","server_os":"Linux","password":true,"vac":true,"version":"7961495","steam_id":85568392924504274,"keywords":["cp","nocrits","nodmgspread","uncletopia"],"game_id":440,"stv_port":27036,"stv_name":"Uncletopia | Frankfurt | 3 | All Maps | STV","players":[{"user_id":417,"name":"Vins van Space","steam_id":76561198073054440,"connected_time":916000000000,"state":"active","ping":65},{"user_id":425,"name":"Piellino","steam_id":76561198156873276,"connected_time":708000000000,"state":"active","ping":91},{"user_id":352,"name":"Hey, I¬¥m Andy!","steam_id":76561198060337777,"connected_time":5751000000000,"state":"active","ping":70},{"user_id":419,"name":"Ptahotep","steam_id":76561198008708645,"connected_time":823000000000,"state":"active","ping":53},{"user_id":420,"name":"Burpman","steam_id":76561198022897937,"connected_time":811000000000,"state":"active","ping":61},{"user_id":348,"name":"finbar","steam_id":76561198056812396,"connected_time":6366000000000,"state":"active","ping":87},{"user_id":431,"name":"cvprian","steam_id":76561198066655971,"connected_time":520000000000,"state":"active","ping":73},{"user_id":360,"name":"davlevan","steam_id":76561198090848620,"connected_time":5140000000000,"state":"active","ping":83},{"user_id":435,"name":"Frazzle","steam_id":76561198262577951,"connected_time":157000000000,"state":"active","ping":76},{"user_id":421,"name":"bricked","steam_id":76561198123562445,"connected_time":780000000000,"state":"active","ping":49},{"user_id":422,"name":"Proto-arc","steam_id":76561198012776747,"connected_time":757000000000,"state":"active","ping":57},{"user_id":397,"name":"ScarredPixel123","steam_id":76561199165112703,"connected_time":3118000000000,"state":"active","ping":81},{"user_id":436,"name":"Envy","steam_id":76561198132723219,"connected_time":133000000000,"state":"active","ping":94},{"user_id":437,"name":"Hussain_144","steam_id":76561198346029208,"connected_time":97000000000,"state":"active","ping":187},{"user_id":398,"name":"Live Laugh Love","steam_id":76561198306066820,"connected_time":3047000000000,"state":"active","ping":72},{"user_id":399,"name":"NotChloe","steam_id":76561198080658092,"connected_time":2975000000000,"state":"active","ping":79},{"user_id":427,"name":"sylvyy","steam_id":76561198976976583,"connected_time":677000000000,"state":"active","ping":176},{"user_id":426,"name":"Sniper Hoot","steam_id":76561198341520404,"connected_time":696000000000,"state":"active","ping":116},{"user_id":428,"name":"LtSalte","steam_id":76561198004721081,"connected_time":673000000000,"state":"active","ping":183},{"user_id":406,"name":"ht","steam_id":76561198860941690,"connected_time":2341000000000,"state":"active","ping":58},{"user_id":429,"name":"Zeaky","steam_id":76561198068736138,"connected_time":658000000000,"state":"active","ping":160},{"user_id":371,"name":"Flint Atheno","steam_id":76561198000565196,"connected_time":4965000000000,"state":"active","ping":56},{"user_id":433,"name":"‰Ω†ÂñúÊ¨¢ÂÆÉ?","steam_id":76561198201424726,"connected_time":462000000000,"state":"active","ping":164},{"user_id":438,"name":"gowniak","steam_id":76561198055624270,"connected_time":12000000000,"state":"spawning","ping":82}]},{"server_id":309,"name":"Uncletopia | Frankfurt | 4 | All Maps","name_short":"frk-4","host":"frk-1.de.uncletopia.com","port":27045,"enabled":true,"region":"eu","cc":"de","latitude":50.110924,"longitude":8.682127,"reserved":0,"last_update":"0001-01-01T00:00:00Z","name_a2s":"Uncletopia | Frankfurt | 4 | All Maps","protocol":17,"map":"pl_borneo","folder":"tf","game":"Team Fortress","app_id":440,"player_count":21,"max_players":24,"Bots":0,"server_type":"Dedicated","server_os":"Linux","password":true,"vac":true,"version":"7961495","steam_id":85568392924504275,"keywords":["nocrits","nodmgspread","payload","uncletopia"],"game_id":440,"stv_port":27046,"stv_name":"Uncletopia | Frankfurt | 4 | All Maps | STV","players":[{"user_id":227,"name":"slorp","steam_id":76561198239927434,"connected_time":5543000000000,"state":"active","ping":79},{"user_id":257,"name":"TheEventGuy","steam_id":76561197972797744,"connected_time":2611000000000,"state":"active","ping":58},{"user_id":254,"name":"H-say","steam_id":76561198177400362,"connected_time":3004000000000,"state":"active","ping":91},{"user_id":228,"name":"pizzaboob","steam_id":76561198097507847,"connected_time":5518000000000,"state":"active","ping":74},{"user_id":260,"name":"Mach","steam_id":76561198952487564,"connected_time":2461000000000,"state":"active","ping":146},{"user_id":268,"name":"salihersej","steam_id":76561199003484875,"connected_time":1745000000000,"state":"active","ping":59},{"user_id":267,"name":"Sand","steam_id":76561198103761268,"connected_time":2087000000000,"state":"active","ping":53},{"user_id":229,"name":"C#","steam_id":76561198067204908,"connected_time":5377000000000,"state":"active","ping":65},{"user_id":242,"name":"realness","steam_id":76561199129226935,"connected_time":3600000000000,"state":"active","ping":104},{"user_id":250,"name":"Master Of Noob","steam_id":76561198217926783,"connected_time":3209000000000,"state":"active","ping":73},{"user_id":273,"name":"UnKeL DaYnE","steam_id":76561199064058171,"connected_time":1330000000000,"state":"active","ping":65},{"user_id":238,"name":"kanka","steam_id":76561198116530769,"connected_time":4690000000000,"state":"active","ping":80},{"user_id":248,"name":"Weakest Sniper Enjoyer","steam_id":76561198133597860,"connected_time":3388000000000,"state":"active","ping":101},{"user_id":241,"name":"Miiukade","steam_id":76561198089157860,"connected_time":3623000000000,"state":"active","ping":143},{"user_id":243,"name":"core","steam_id":76561198090152271,"connected_time":3584000000000,"state":"active","ping":45},{"user_id":258,"name":"Ocrim_R","steam_id":76561198050479516,"connected_time":2590000000000,"state":"active","ping":55},{"user_id":236,"name":"ArmedWithWings","steam_id":76561198154615474,"connected_time":5005000000000,"state":"active","ping":82},{"user_id":269,"name":"eevee","steam_id":76561198447072392,"connected_time":1716000000000,"state":"active","ping":78},{"user_id":203,"name":"RockFrenzy","steam_id":76561198005428050,"connected_time":7268000000000,"state":"active","ping":65},{"user_id":234,"name":"rummy","steam_id":76561197997573379,"connected_time":5197000000000,"state":"active","ping":63},{"user_id":272,"name":"bubbleTea","steam_id":76561199487938189,"connected_time":1480000000000,"state":"active","ping":52}]},{"server_id":310,"name":"Uncletopia | Frankfurt | 5 | All Maps","name_short":"frk-5","host":"frk-1.de.uncletopia.com","port":27055,"enabled":true,"region":"eu","cc":"de","latitude":50.110924,"longitude":8.682127,"reserved":0,"last_update":"0001-01-01T00:00:00Z","name_a2s":"Uncletopia | Frankfurt | 5 | All Maps","protocol":17,"map":"koth_cascade","folder":"tf","game":"Team Fortress","app_id":440,"player_count":0,"max_players":24,"Bots":0,"server_type":"Dedicated","server_os":"Linux","password":true,"vac":true,"version":"7961495","steam_id":85568392924504277,"keywords":["cp","nocrits","nodmgspread","uncletopia"],"game_id":440,"stv_port":27056,"stv_name":"Uncletopia | Frankfurt | 5 | All Maps | STV","players":null},{"server_id":311,"name":"Uncletopia | Frankfurt | 6 | All Maps","name_short":"frk-6","host":"frk-1.de.uncletopia.com","port":27065,"enabled":true,"region":"eu","cc":"de","latitude":50.110924,"longitude":8.682127,"reserved":0,"last_update":"0001-01-01T00:00:00Z","name_a2s":"Uncletopia | Frankfurt | 6 | All Maps","protocol":17,"map":"pl_snowycoast","folder":"tf","game":"Team Fortress","app_id":440,"player_count":24,"max_players":24,"Bots":0,"server_type":"Dedicated","server_os":"Linux","password":true,"vac":true,"version":"7961495","steam_id":85568392924504278,"keywords":["nocrits","nodmgspread","payload","uncletopia"],"game_id":440,"stv_port":27066,"stv_name":"Uncletopia | Frankfurt | 6 | All Maps | STV","players":[{"user_id":526,"name":"glyph","steam_id":76561197980736364,"connected_time":1261000000000,"state":"active","ping":77},{"user_id":536,"name":"Jeƒçmen","steam_id":76561198051617968,"connected_time":453000000000,"state":"active","ping":72},{"user_id":518,"name":"Dr. Saygƒ±sƒ±zlƒ±k","steam_id":76561198125010818,"connected_time":1584000000000,"state":"active","ping":91},{"user_id":498,"name":"Buddy","steam_id":76561198050185582,"connected_time":3485000000000,"state":"active","ping":67},{"user_id":543,"name":"turbo shart","steam_id":76561198012351808,"connected_time":1000000000,"state":"spawning","ping":34},{"user_id":520,"name":"priscilla","steam_id":76561198167283985,"connected_time":1560000000000,"state":"active","ping":71},{"user_id":513,"name":"TidB","steam_id":76561198055342304,"connected_time":2036000000000,"state":"active","ping":49},{"user_id":538,"name":"‚ô• trixy ‚ô•","steam_id":76561199474154775,"connected_time":275000000000,"state":"active","ping":56},{"user_id":462,"name":"VK2124 :D","steam_id":76561198111130688,"connected_time":6282000000000,"state":"active","ping":51},{"user_id":539,"name":"highest noon","steam_id":76561199103959197,"connected_time":272000000000,"state":"active","ping":86},{"user_id":502,"name":"BreadAcres","steam_id":76561198098217082,"connected_time":2833000000000,"state":"active","ping":55},{"user_id":530,"name":"Burbie","steam_id":76561198046069449,"connected_time":806000000000,"state":"active","ping":72},{"user_id":540,"name":"Antonio Velcu","steam_id":76561199067971364,"connected_time":270000000000,"state":"active","ping":81},{"user_id":528,"name":"Lalanka","steam_id":76561198320543808,"connected_time":989000000000,"state":"active","ping":78},{"user_id":523,"name":"Mati [EST]","steam_id":76561197994743813,"connected_time":1517000000000,"state":"active","ping":106},{"user_id":511,"name":"Tonne","steam_id":76561197970856766,"connected_time":2474000000000,"state":"active","ping":54},{"user_id":472,"name":"Ewelinka Zniszczenia","steam_id":76561198307374456,"connected_time":5508000000000,"state":"active","ping":70},{"user_id":506,"name":"cult","steam_id":76561198188647690,"connected_time":2774000000000,"state":"active","ping":69},{"user_id":532,"name":"Yuzu","steam_id":76561198121694613,"connected_time":603000000000,"state":"active","ping":56},{"user_id":542,"name":"Astroknight","steam_id":76561198093990026,"connected_time":85000000000,"state":"active","ping":78},{"user_id":473,"name":"Kaishakunin","steam_id":76561198028123874,"connected_time":5503000000000,"state":"active","ping":93},{"user_id":378,"name":"Gaxkang","steam_id":76561198125768571,"connected_time":12529000000000,"state":"active","ping":70},{"user_id":541,"name":"milton milk","steam_id":76561198013502376,"connected_time":256000000000,"state":"active","ping":64},{"user_id":525,"name":"‡πá","steam_id":76561199211238183,"connected_time":1489000000000,"state":"active","ping":59}]},{"server_id":23,"name":"Uncletopia | Frankfurt | 7 | Stopwatch Beta","name_short":"frk-7","host":"frk-1.de.uncletopia.com","port":27075,"enabled":true,"region":"eu","cc":"de","latitude":50.110924,"longitude":8.682127,"reserved":0,"last_update":"0001-01-01T00:00:00Z","name_a2s":"Uncletopia | Frankfurt | 7 | Stopwatch Beta","protocol":17,"map":"koth_lakeside_final","folder":"tf","game":"Team Fortress","app_id":440,"player_count":0,"max_players":24,"Bots":0,"server_type":"Dedicated","server_os":"Linux","password":true,"vac":true,"version":"7961495","steam_id":85568392924742827,"keywords":["cp","nocrits","nodmgspread","uncletopia"],"game_id":440,"stv_port":27076,"stv_name":"Uncletopia | Frankfurt | 7 | Stopwatch Beta | STV","players":null},{"server_id":24,"name":"Uncletopia | Frankfurt | 8 | Community","name_short":"frk-8","host":"frk-1.de.uncletopia.com","port":27085,"enabled":true,"region":"eu","cc":"de","latitude":50.110924,"longitude":8.682127,"reserved":0,"last_update":"0001-01-01T00:00:00Z","name_a2s":"Uncletopia | Frankfurt | 8 | Community","protocol":17,"map":"workshop/cp_caldera_rc2.ugc2834196889","folder":"tf","game":"Team Fortress","app_id":440,"player_count":0,"max_players":24,"Bots":0,"server_type":"Dedicated","server_os":"Linux","password":true,"vac":true,"version":"7961495","steam_id":85568392924742828,"keywords":["cp","nocrits","nodmgspread","uncletopia"],"game_id":440,"stv_port":27086,"stv_name":"Uncletopia | Frankfurt | 8 | Community | STV","players":null},{"server_id":202,"name":"Uncletopia | Hong Kong | 1 | All Maps","name_short":"hgk-1","host":"hgk-1.hk.uncletopia.com","port":27015,"enabled":true,"region":"asia","cc":"hk","latitude":22.302711,"longitude":114.177216,"reserved":0,"last_update":"0001-01-01T00:00:00Z","name_a2s":"Uncletopia | Hong Kong | 1 | All Maps","protocol":17,"map":"cp_process_final","folder":"tf","game":"Team Fortress","app_id":440,"player_count":0,"max_players":24,"Bots":0,"server_type":"Dedicated","server_os":"Linux","password":true,"vac":true,"version":"7961495","steam_id":85568392924494504,"keywords":["cp","nocrits","nodmgspread","uncletopia"],"game_id":440,"stv_port":27016,"stv_name":"Uncletopia | Hong Kong | 1 | All Maps | STV","players":null},{"server_id":1,"name":"Uncletopia | Los Angeles | 1 | All Maps","name_short":"lax-1","host":"lax-1.us.uncletopia.com","port":27015,"enabled":true,"region":"us-west","cc":"us","latitude":33.94279,"longitude":-118.41004,"reserved":0,"last_update":"0001-01-01T00:00:00Z","name_a2s":"Uncletopia | Los Angeles | 1 | All Maps","protocol":17,"map":"pl_badwater","folder":"tf","game":"Team Fortress","app_id":440,"player_count":24,"max_players":24,"Bots":0,"server_type":"Dedicated","server_os":"Linux","password":true,"vac":true,"version":"7961495","steam_id":85568392924469991,"keywords":["nocrits","nodmgspread","payload","uncletopia"],"game_id":440,"stv_port":27016,"stv_name":"Uncletopia | Los Angeles | 1 | All Maps | STV","players":[{"user_id":260,"name":"APOTATO","steam_id":76561198118199858,"connected_time":607000000000,"state":"active","ping":48},{"user_id":255,"name":"Just a Good Friend","steam_id":76561198140052403,"connected_time":689000000000,"state":"active","ping":45},{"user_id":226,"name":"Derp140","steam_id":76561198887787200,"connected_time":1875000000000,"state":"active","ping":47},{"user_id":222,"name":"Sunkenthree51","steam_id":76561198300781307,"connected_time":2203000000000,"state":"active","ping":55},{"user_id":264,"name":"Saddam","steam_id":76561197985725267,"connected_time":486000000000,"state":"active","ping":112},{"user_id":223,"name":"Type Three Dabeetus","steam_id":76561198062710038,"connected_time":2190000000000,"state":"active","ping":55},{"user_id":256,"name":"Wehttam","steam_id":76561199229493583,"connected_time":686000000000,"state":"active","ping":114},{"user_id":199,"name":"Boxcars","steam_id":76561198120978767,"connected_time":3599000000000,"state":"active","ping":53},{"user_id":240,"name":"Mage's Minimum Wages","steam_id":76561198307780176,"connected_time":1321000000000,"state":"active","ping":119},{"user_id":249,"name":"GuyInBronzeV","steam_id":76561198044922651,"connected_time":899000000000,"state":"active","ping":74},{"user_id":250,"name":"[DATS‚û°] Sugar Meowth","steam_id":76561197995251793,"connected_time":889000000000,"state":"active","ping":65},{"user_id":231,"name":"Invisible Wild Hog","steam_id":76561198079973828,"connected_time":1760000000000,"state":"active","ping":84},{"user_id":251,"name":"Pissing'Runt","steam_id":76561198268078235,"connected_time":825000000000,"state":"active","ping":85},{"user_id":253,"name":"Texas","steam_id":76561198053276976,"connected_time":749000000000,"state":"active","ping":119},{"user_id":257,"name":"AntHoot","steam_id":76561198080674895,"connected_time":670000000000,"state":"active","ping":108},{"user_id":258,"name":"heavy","steam_id":76561199391478575,"connected_time":645000000000,"state":"active","ping":99},{"user_id":207,"name":"Purchase","steam_id":76561198821991700,"connected_time":3548000000000,"state":"active","ping":72},{"user_id":246,"name":"Redkiller","steam_id":76561199453655288,"connected_time":1025000000000,"state":"active","ping":126},{"user_id":259,"name":"superwarm07","steam_id":76561199196313157,"connected_time":639000000000,"state":"active","ping":129},{"user_id":261,"name":"Beaf","steam_id":76561199070373061,"connected_time":581000000000,"state":"active","ping":55},{"user_id":265,"name":"pee pants","steam_id":76561198119711607,"connected_time":456000000000,"state":"active","ping":93},{"user_id":242,"name":"I sold my backpack for my cats","steam_id":76561198011363677,"connected_time":1237000000000,"state":"active","ping":105},{"user_id":263,"name":"Mr Happy","steam_id":76561198067689328,"connected_time":561000000000,"state":"active","ping":100},{"user_id":266,"name":"Altruisticailuridae","steam_id":76561198335295596,"connected_time":431000000000,"state":"active","ping":55}]},{"server_id":112,"name":"Uncletopia | Los Angeles | 2 | All Maps","name_short":"lax-2","host":"lax-1.us.uncletopia.com","port":27025,"enabled":true,"region":"us-west","cc":"us","latitude":33.94279,"longitude":-118.41004,"reserved":0,"last_update":"0001-01-01T00:00:00Z","name_a2s":"Uncletopia | Los Angeles | 2 | All Maps","protocol":17,"map":"pl_frontier_final","folder":"tf","game":"Team Fortress","app_id":440,"player_count":4,"max_players":24,"Bots":0,"server_type":"Dedicated","server_os":"Linux","password":true,"vac":true,"version":"7961495","steam_id":85568392924469992,"keywords":["nocrits","nodmgspread","payload","uncletopia"],"game_id":440,"stv_port":27026,"stv_name":"Uncletopia | Los Angeles | 2 | All Maps | STV","players":[{"user_id":11,"name":"Skcall","steam_id":76561198818774460,"connected_time":1123000000000,"state":"active","ping":254},{"user_id":13,"name":"Elven_Puffin","steam_id":76561199181159191,"connected_time":772000000000,"state":"active","ping":110},{"user_id":14,"name":"Iron","steam_id":76561199039282005,"connected_time":630000000000,"state":"active","ping":107},{"user_id":17,"name":"Rat Smacker","steam_id":76561199090197628,"connected_time":76000000000,"state":"active","ping":81}]},{"server_id":324,"name":"Uncletopia | Los Angeles | 3 | All Maps","name_short":"lax-3","host":"lax-1.us.uncletopia.com","port":27035,"enabled":true,"region":"us-west","cc":"us","latitude":33.94279,"longitude":-118.41004,"reserved":0,"last_update":"0001-01-01T00:00:00Z","name_a2s":"Uncletopia | Los Angeles | 3 | All Maps","protocol":17,"map":"koth_lakeside_final","folder":"tf","game":"Team Fortress","app_id":440,"player_count":0,"max_players":24,"Bots":0,"server_type":"Dedicated","server_os":"Linux","password":true,"vac":true,"version":"7961495","steam_id":85568392924510198,"keywords":["cp","nocrits","nodmgspread","uncletopia"],"game_id":440,"stv_port":27036,"stv_name":"Uncletopia | Los Angeles | 3 | All Maps | STV","players":null},{"server_id":25,"name":"Uncletopia | Los Angeles | 4 | Stopwatch Beta","name_short":"lax-4","host":"lax-1.us.uncletopia.com","port":27045,"enabled":true,"region":"us-west","cc":"us","latitude":33.94279,"longitude":-118.41004,"reserved":0,"last_update":"0001-01-01T00:00:00Z","name_a2s":"Uncletopia | Los Angeles | 4 | Stopwatch Beta","protocol":17,"map":"pl_frontier_final","folder":"tf","game":"Team Fortress","app_id":440,"player_count":0,"max_players":24,"Bots":0,"server_type":"Dedicated","server_os":"Linux","password":true,"vac":true,"version":"7961495","steam_id":85568392924510199,"keywords":["nocrits","nodmgspread","payload","uncletopia"],"game_id":440,"stv_port":27046,"stv_name":"Uncletopia | Los Angeles | 4 | Stopwatch Beta | STV","players":null},{"server_id":11,"name":"Uncletopia | London | 1 | All Maps","name_short":"lon-1","host":"lon-1.uk.uncletopia.com","port":27015,"enabled":true,"region":"eu","cc":"gb","latitude":51.509865,"longitude":-0.118092,"reserved":0,"last_update":"0001-01-01T00:00:00Z","name_a2s":"Uncletopia | London | 1 | All Maps","protocol":17,"map":"pl_badwater","folder":"tf","game":"Team Fortress","app_id":440,"player_count":24,"max_players":24,"Bots":0,"server_type":"Dedicated","server_os":"Linux","password":true,"vac":true,"version":"7961495","steam_id":85568392924367362,"keywords":["nocrits","nodmgspread","payload","uncletopia"],"game_id":440,"stv_port":27016,"stv_name":"Uncletopia | London | 1 | All Maps | STV","players":[{"user_id":757,"name":"Max Power","steam_id":76561198019269089,"connected_time":2398000000000,"state":"active","ping":59},{"user_id":765,"name":"beurgeur","steam_id":76561198872426314,"connected_time":475000000000,"state":"active","ping":37},{"user_id":750,"name":"BreadBubbles","steam_id":76561198174332826,"connected_time":3235000000000,"state":"active","ping":60},{"user_id":717,"name":"owo","steam_id":76561198158209651,"connected_time":7511000000000,"state":"active","ping":56},{"user_id":771,"name":"Snake-chan","steam_id":76561199044755854,"connected_time":95000000000,"state":"active","ping":85},{"user_id":763,"name":"SOPHIIEE","steam_id":76561198443798981,"connected_time":634000000000,"state":"active","ping":54},{"user_id":742,"name":"Charmedelf","steam_id":76561197993611881,"connected_time":4196000000000,"state":"active","ping":60},{"user_id":766,"name":"Milosz52","steam_id":76561199060940204,"connected_time":467000000000,"state":"active","ping":90},{"user_id":753,"name":"Toofy","steam_id":76561197989727907,"connected_time":2777000000000,"state":"active","ping":39},{"user_id":762,"name":"uwu","steam_id":76561199209906710,"connected_time":1515000000000,"state":"active","ping":53},{"user_id":725,"name":"Prome","steam_id":76561199050383942,"connected_time":6648000000000,"state":"active","ping":60},{"user_id":767,"name":"Starach","steam_id":76561198084530972,"connected_time":464000000000,"state":"active","ping":58},{"user_id":769,"name":"snowycoast","steam_id":76561198346638308,"connected_time":350000000000,"state":"active","ping":59},{"user_id":724,"name":"dec","steam_id":76561198009660168,"connected_time":6785000000000,"state":"active","ping":46},{"user_id":770,"name":"[PKBG] Pipera","steam_id":76561197998280567,"connected_time":136000000000,"state":"active","ping":52},{"user_id":726,"name":"Fwebbie","steam_id":76561199006875621,"connected_time":6473000000000,"state":"active","ping":57},{"user_id":754,"name":"teddy","steam_id":76561198007436837,"connected_time":2441000000000,"state":"active","ping":40},{"user_id":748,"name":"Grumble","steam_id":76561198053880090,"connected_time":3773000000000,"state":"active","ping":81},{"user_id":683,"name":"MEOWMEOWMEOWMEOWMEOWMEOWMEOWMEO","steam_id":76561198723244199,"connected_time":9805000000000,"state":"active","ping":78},{"user_id":730,"name":"go to sleep","steam_id":76561198305854178,"connected_time":5572000000000,"state":"active","ping":83},{"user_id":761,"name":"Slifer The Sky Dragon","steam_id":76561198062255803,"connected_time":1535000000000,"state":"active","ping":71},{"user_id":756,"name":"Eidolon","steam_id":76561198043919565,"connected_time":2427000000000,"state":"active","ping":68},{"user_id":758,"name":"AWildTamim","steam_id":76561198048060652,"connected_time":1957000000000,"state":"active","ping":37},{"user_id":768,"name":"Benson Blenderdick IV","steam_id":76561198109682749,"connected_time":453000000000,"state":"active","ping":82}]},{"server_id":114,"name":"Uncletopia | London | 2 | All Maps","name_short":"lon-2","host":"lon-1.uk.uncletopia.com","port":27025,"enabled":true,"region":"eu","cc":"gb","latitude":51.509865,"longitude":-0.118092,"reserved":0,"last_update":"0001-01-01T00:00:00Z","name_a2s":"Uncletopia | London | 2 | All Maps","protocol":17,"map":"koth_harvest_final","folder":"tf","game":"Team Fortress","app_id":440,"player_count":23,"max_players":24,"Bots":0,"server_type":"Dedicated","server_os":"Linux","password":true,"vac":true,"version":"7961495","steam_id":85568392924470941,"keywords":["cp","nocrits","nodmgspread","uncletopia"],"game_id":440,"stv_port":27026,"stv_name":"Uncletopia | London | 2 | All Maps | STV","players":[{"user_id":358,"name":"Dirty Dave","steam_id":76561198036930727,"connected_time":218000000000,"state":"active","ping":51},{"user_id":353,"name":"Ziemniaczki","steam_id":76561198061866742,"connected_time":539000000000,"state":"active","ping":73},{"user_id":351,"name":"hmscole09","steam_id":76561198811362788,"connected_time":614000000000,"state":"active","ping":48},{"user_id":354,"name":"Lyncurion","steam_id":76561199260022725,"connected_time":480000000000,"state":"active","ping":82},{"user_id":311,"name":"summer","steam_id":76561198170056395,"connected_time":4088000000000,"state":"active","ping":47},{"user_id":316,"name":"Aeglos","steam_id":76561198248698294,"connected_time":3243000000000,"state":"active","ping":65},{"user_id":335,"name":"YYS","steam_id":76561198201866574,"connected_time":1611000000000,"state":"active","ping":84},{"user_id":352,"name":"Vinnidict","steam_id":76561198037087000,"connected_time":604000000000,"state":"active","ping":70},{"user_id":347,"name":"DJPNK","steam_id":76561197989948420,"connected_time":804000000000,"state":"active","ping":51},{"user_id":304,"name":"Hukka","steam_id":76561198035505355,"connected_time":4458000000000,"state":"active","ping":98},{"user_id":356,"name":"Konkov","steam_id":76561198100303078,"connected_time":369000000000,"state":"active","ping":102},{"user_id":345,"name":"Gry","steam_id":76561198053961616,"connected_time":813000000000,"state":"active","ping":57},{"user_id":326,"name":"sachiko #","steam_id":76561198139615715,"connected_time":2024000000000,"state":"active","ping":59},{"user_id":295,"name":"Archos","steam_id":76561198181820631,"connected_time":4923000000000,"state":"active","ping":61},{"user_id":319,"name":"‚ô•Medical student‚ô•","steam_id":76561199119401415,"connected_time":3017000000000,"state":"active","ping":112},{"user_id":296,"name":"bert","steam_id":76561198156318293,"connected_time":4920000000000,"state":"active","ping":51},{"user_id":350,"name":"chess club manager","steam_id":76561198011047413,"connected_time":753000000000,"state":"active","ping":84},{"user_id":357,"name":"Simply Devine","steam_id":76561198079023104,"connected_time":308000000000,"state":"active","ping":146},{"user_id":323,"name":"{TPF}Badaabing","steam_id":76561197996161449,"connected_time":2576000000000,"state":"active","ping":64},{"user_id":289,"name":"Synthro","steam_id":76561198144181109,"connected_time":5508000000000,"state":"active","ping":158},{"user_id":297,"name":"Bookus","steam_id":76561198108620516,"connected_time":4916000000000,"state":"active","ping":45},{"user_id":332,"name":"yuno appreciator","steam_id":76561198083286511,"connected_time":1761000000000,"state":"active","ping":34},{"user_id":299,"name":"Jamon","steam_id":76561198393024383,"connected_time":4887000000000,"state":"active","ping":41}]},{"server_id":320,"name":"Uncletopia | London | 3 | All Maps","name_short":"lon-3","host":"lon-1.uk.uncletopia.com","port":27035,"enabled":true,"region":"eu","cc":"gb","latitude":51.509865,"longitude":-0.118092,"reserved":0,"last_update":"0001-01-01T00:00:00Z","name_a2s":"Uncletopia | London | 3 | All Maps","protocol":17,"map":"pl_pier","folder":"tf","game":"Team Fortress","app_id":440,"player_count":24,"max_players":24,"Bots":0,"server_type":"Dedicated","server_os":"Linux","password":true,"vac":true,"version":"7961495","steam_id":85568392924510192,"keywords":["nocrits","nodmgspread","payload","uncletopia"],"game_id":440,"stv_port":27036,"stv_name":"Uncletopia | London | 3 | All Maps | STV","players":[{"user_id":142,"name":"Gen","steam_id":76561198021775885,"connected_time":4481000000000,"state":"active","ping":47},{"user_id":185,"name":"Captian Wobbs","steam_id":76561198142884936,"connected_time":46000000000,"state":"active","ping":158},{"user_id":146,"name":"hananamanna","steam_id":76561198006570285,"connected_time":4299000000000,"state":"active","ping":113},{"user_id":139,"name":"Vershal Smershal","steam_id":76561198116223995,"connected_time":4548000000000,"state":"active","ping":56},{"user_id":179,"name":"tm`","steam_id":76561197993580412,"connected_time":784000000000,"state":"active","ping":60},{"user_id":183,"name":"Mi Manchi","steam_id":76561198171573129,"connected_time":99000000000,"state":"active","ping":61},{"user_id":145,"name":"Yangus","steam_id":76561198147796010,"connected_time":4420000000000,"state":"active","ping":48},{"user_id":160,"name":"voltaic","steam_id":76561197996566832,"connected_time":2769000000000,"state":"active","ping":40},{"user_id":154,"name":"sparcoro","steam_id":76561198986010546,"connected_time":3816000000000,"state":"active","ping":61},{"user_id":180,"name":"Mirage","steam_id":76561199013190566,"connected_time":761000000000,"state":"active","ping":38},{"user_id":72,"name":"zinc","steam_id":76561198141008822,"connected_time":9924000000000,"state":"active","ping":75},{"user_id":125,"name":"RealManiHACK","steam_id":76561198408081068,"connected_time":5009000000000,"state":"active","ping":69},{"user_id":161,"name":"AftiksPL","steam_id":76561198875182686,"connected_time":2765000000000,"state":"active","ping":98},{"user_id":184,"name":"Killer_Byte_","steam_id":76561198153259922,"connected_time":87000000000,"state":"active","ping":191},{"user_id":172,"name":"sushii","steam_id":76561198297987372,"connected_time":1023000000000,"state":"active","ping":57},{"user_id":181,"name":"xavier","steam_id":76561198076494034,"connected_time":649000000000,"state":"active","ping":51},{"user_id":95,"name":"Prinsesse Vilikke","steam_id":76561198031651656,"connected_time":8059000000000,"state":"active","ping":86},{"user_id":162,"name":"Sagzy","steam_id":76561198121010932,"connected_time":2748000000000,"state":"active","ping":36},{"user_id":178,"name":"Ziy???","steam_id":76561197995765491,"connected_time":817000000000,"state":"active","ping":48},{"user_id":186,"name":"Alex","steam_id":76561198137086239,"connected_time":16000000000,"state":"active","ping":71},{"user_id":182,"name":"s0sa","steam_id":76561198020869765,"connected_time":533000000000,"state":"active","ping":68},{"user_id":171,"name":"Aroo","steam_id":76561198132601368,"connected_time":1838000000000,"state":"active","ping":77},{"user_id":167,"name":"Spitfire","steam_id":76561197997121260,"connected_time":2316000000000,"state":"active","ping":42},{"user_id":165,"name":"Vika","steam_id":76561198014532457,"connected_time":2567000000000,"state":"active","ping":75}]},{"server_id":321,"name":"Uncletopia | London | 4 | All Maps","name_short":"lon-4","host":"lon-1.uk.uncletopia.com","port":27045,"enabled":true,"region":"eu","cc":"gb","latitude":51.509865,"longitude":-0.118092,"reserved":0,"last_update":"0001-01-01T00:00:00Z","name_a2s":"Uncletopia | London | 4 | All Maps","protocol":17,"map":"pl_snowycoast","folder":"tf","game":"Team Fortress","app_id":440,"player_count":20,"max_players":24,"Bots":0,"server_type":"Dedicated","server_os":"Linux","password":true,"vac":true,"version":"7961495","steam_id":85568392924510193,"keywords":["nocrits","nodmgspread","payload","uncletopia"],"game_id":440,"stv_port":27046,"stv_name":"Uncletopia | London | 4 | All Maps | STV","players":[{"user_id":562,"name":"Golden Boy","steam_id":76561198049072159,"connected_time":768000000000,"state":"active","ping":59},{"user_id":563,"name":"Lulab","steam_id":76561199124377794,"connected_time":583000000000,"state":"active","ping":164},{"user_id":564,"name":"cuddle","steam_id":76561198805181599,"connected_time":579000000000,"state":"active","ping":54},{"user_id":546,"name":"Lensy","steam_id":76561198124442128,"connected_time":1863000000000,"state":"active","ping":46},{"user_id":560,"name":"beef estrogenoff","steam_id":76561198106455841,"connected_time":934000000000,"state":"active","ping":76},{"user_id":542,"name":"flanseey","steam_id":76561198342593905,"connected_time":1921000000000,"state":"active","ping":178},{"user_id":450,"name":"N","steam_id":76561198257342972,"connected_time":7211000000000,"state":"active","ping":60},{"user_id":451,"name":"7oid","steam_id":76561198142074232,"connected_time":7195000000000,"state":"active","ping":102},{"user_id":566,"name":"Majestic Sausage","steam_id":76561197967265726,"connected_time":484000000000,"state":"active","ping":59},{"user_id":558,"name":"\u003cJACK\u003e","steam_id":76561198090405664,"connected_time":1090000000000,"state":"active","ping":50},{"user_id":521,"name":"Mafew","steam_id":76561198119993886,"connected_time":3540000000000,"state":"active","ping":59},{"user_id":526,"name":"Dr ADHD MD","steam_id":76561198025252995,"connected_time":3315000000000,"state":"active","ping":53},{"user_id":505,"name":"ein'd","steam_id":76561198152162834,"connected_time":5166000000000,"state":"active","ping":99},{"user_id":568,"name":"The Nostalgia Critic","steam_id":76561198360395476,"connected_time":136000000000,"state":"active","ping":34},{"user_id":561,"name":"etc","steam_id":76561197998394797,"connected_time":916000000000,"state":"active","ping":56},{"user_id":534,"name":"Berdly","steam_id":76561199029872533,"connected_time":3052000000000,"state":"active","ping":48},{"user_id":486,"name":"weird gamer","steam_id":76561198047749446,"connected_time":6072000000000,"state":"active","ping":56},{"user_id":535,"name":"Jimmi Amareno","steam_id":76561198327750625,"connected_time":2879000000000,"state":"active","ping":27},{"user_id":527,"name":"UltimateAura","steam_id":76561198338361324,"connected_time":3279000000000,"state":"active","ping":42},{"user_id":567,"name":"ÎùºÌûò","steam_id":76561198164648942,"connected_time":301000000000,"state":"active","ping":178}]},{"server_id":21,"name":"Uncletopia | London | 5 | All Maps","name_short":"lon-5","host":"lon-1.uk.uncletopia.com","port":27055,"enabled":true,"region":"eu","cc":"gb","latitude":51.509865,"longitude":-0.118092,"reserved":0,"last_update":"0001-01-01T00:00:00Z","name_a2s":"Uncletopia | London | 5 | All Maps","protocol":17,"map":"pl_badwater","folder":"tf","game":"Team Fortress","app_id":440,"player_count":22,"max_players":24,"Bots":0,"server_type":"Dedicated","server_os":"Linux","password":true,"vac":true,"version":"7961495","steam_id":85568392924742829,"keywords":["nocrits","nodmgspread","payload","uncletopia"],"game_id":440,"stv_port":27056,"stv_name":"Uncletopia | London | 5 | All Maps | STV","players":[{"user_id":278,"name":"Hyp3r #Savetf2","steam_id":76561198965043686,"connected_time":1233000000000,"state":"active","ping":68},{"user_id":288,"name":"C3il_def.0","steam_id":76561198446759372,"connected_time":733000000000,"state":"active","ping":92},{"user_id":253,"name":"Klunkerino","steam_id":76561197971081655,"connected_time":2382000000000,"state":"active","ping":73},{"user_id":246,"name":"Bob Sacamano","steam_id":76561198085610701,"connected_time":3634000000000,"state":"active","ping":96},{"user_id":254,"name":"DroidRanger","steam_id":76561198158858171,"connected_time":2364000000000,"state":"active","ping":54},{"user_id":280,"name":"AFerociousTeddyBearSlayer","steam_id":76561198247447256,"connected_time":970000000000,"state":"active","ping":59},{"user_id":297,"name":"MochaTooth","steam_id":76561199045118223,"connected_time":247000000000,"state":"active","ping":56},{"user_id":290,"name":"Daga","steam_id":76561198055450219,"connected_time":638000000000,"state":"active","ping":45},{"user_id":282,"name":"Risinger","steam_id":76561198079789688,"connected_time":931000000000,"state":"active","ping":62},{"user_id":273,"name":"Snokie Boi","steam_id":76561198081126247,"connected_time":1711000000000,"state":"active","ping":45},{"user_id":298,"name":"TheMtnDewback","steam_id":76561199468606424,"connected_time":235000000000,"state":"active","ping":130},{"user_id":299,"name":"ArikMor","steam_id":76561199124472513,"connected_time":215000000000,"state":"active","ping":131},{"user_id":300,"name":"brehs","steam_id":76561198150653454,"connected_time":199000000000,"state":"active","ping":31},{"user_id":275,"name":"P3rsErkki","steam_id":76561198063093495,"connected_time":1620000000000,"state":"active","ping":61},{"user_id":304,"name":"ƒ∞slam'ƒ±n Zinciri - Sylas","steam_id":76561198419812739,"connected_time":5000000000,"state":"spawning","ping":90},{"user_id":302,"name":"Avast AntiPony 9445","steam_id":76561197992046533,"connected_time":32000000000,"state":"spawning","ping":80},{"user_id":285,"name":"Wondering Robot","steam_id":76561198197266063,"connected_time":823000000000,"state":"active","ping":57},{"user_id":303,"name":"C.H.E.R.E.P.","steam_id":76561198026938595,"connected_time":24000000000,"state":"active","ping":85},{"user_id":291,"name":"calum92","steam_id":76561197992188760,"connected_time":541000000000,"state":"active","ping":61},{"user_id":292,"name":"Tort","steam_id":76561198329646769,"connected_time":488000000000,"state":"active","ping":57},{"user_id":293,"name":"Neonstrip","steam_id":76561198032261834,"connected_time":444000000000,"state":"active","ping":77},{"user_id":271,"name":"„É†ngel‚òØ","steam_id":76561198009888169,"connected_time":1869000000000,"state":"active","ping":72}]},{"server_id":22,"name":"Uncletopia | London | 6 | All Maps","name_short":"lon-6","host":"lon-1.uk.uncletopia.com","port":27065,"enabled":true,"region":"eu","cc":"gb","latitude":51.509865,"longitude":-0.118092,"reserved":0,"last_update":"0001-01-01T00:00:00Z","name_a2s":"Uncletopia | London | 6 | All Maps","protocol":17,"map":"cp_dustbowl","folder":"tf","game":"Team Fortress","app_id":440,"player_count":0,"max_players":24,"Bots":0,"server_type":"Dedicated","server_os":"Linux","password":true,"vac":true,"version":"7961495","steam_id":85568392924742830,"keywords":["cp","nocrits","nodmgspread","uncletopia"],"game_id":440,"stv_port":27066,"stv_name":"Uncletopia | London | 6 | All Maps | STV","players":null},{"server_id":40,"name":"Uncletopia | London | 7 | No Payload","name_short":"lon-7","host":"lon-1.uk.uncletopia.com","port":27075,"enabled":true,"region":"eu","cc":"gb","latitude":51.509865,"longitude":-0.118092,"reserved":0,"last_update":"0001-01-01T00:00:00Z","name_a2s":"Uncletopia | London | 7 | No Payload","protocol":17,"map":"cp_powerhouse","folder":"tf","game":"Team Fortress","app_id":440,"player_count":13,"max_players":24,"Bots":0,"server_type":"Dedicated","server_os":"Linux","password":true,"vac":true,"version":"7961495","steam_id":85568392924964314,"keywords":["cp","nocrits","nodmgspread","uncletopia"],"game_id":440,"stv_port":27076,"stv_name":"Uncletopia | London | 7 | No Payload | STV","players":[{"user_id":89,"name":"Pan Pan","steam_id":76561199074670515,"connected_time":3185000000000,"state":"active","ping":96},{"user_id":65,"name":"FINNERTY2018","steam_id":76561198829848794,"connected_time":4775000000000,"state":"active","ping":47},{"user_id":144,"name":"General William Tecumseh Sherma","steam_id":76561199078307343,"connected_time":828000000000,"state":"active","ping":124},{"user_id":151,"name":"buddadog","steam_id":76561199116860581,"connected_time":92000000000,"state":"active","ping":411},{"user_id":145,"name":"Explosive Poptart","steam_id":76561198023918830,"connected_time":726000000000,"state":"active","ping":44},{"user_id":131,"name":"Harribo","steam_id":76561197993650688,"connected_time":1529000000000,"state":"active","ping":55},{"user_id":152,"name":"Blad","steam_id":76561198866832210,"connected_time":76000000000,"state":"active","ping":53},{"user_id":146,"name":"ST‚õ•RZ","steam_id":76561198965593434,"connected_time":632000000000,"state":"active","ping":135},{"user_id":135,"name":"hipster_doofus","steam_id":76561197970902697,"connected_time":1410000000000,"state":"active","ping":53},{"user_id":150,"name":"djokanda","steam_id":76561199196865947,"connected_time":175000000000,"state":"active","ping":182},{"user_id":139,"name":"Random city potato","steam_id":76561199010542992,"connected_time":1258000000000,"state":"active","ping":57},{"user_id":120,"name":"DecentTurtle","steam_id":76561198411860840,"connected_time":2030000000000,"state":"active","ping":56},{"user_id":129,"name":"Spooky","steam_id":76561198086467025,"connected_time":1606000000000,"state":"active","ping":67}]},{"server_id":41,"name":"Uncletopia | London | 8 | Community","name_short":"lon-8","host":"lon-1.uk.uncletopia.com","port":27085,"enabled":true,"region":"eu","cc":"gb","latitude":51.509865,"longitude":-0.118092,"reserved":0,"last_update":"0001-01-01T00:00:00Z","name_a2s":"Uncletopia | London | 8 | Community","protocol":17,"map":"workshop/koth_bagel_rc6.ugc2514036946","folder":"tf","game":"Team Fortress","app_id":440,"player_count":0,"max_players":24,"Bots":0,"server_type":"Dedicated","server_os":"Linux","password":true,"vac":true,"version":"7961495","steam_id":85568392924964315,"keywords":["cp","nocrits","nodmgspread","uncletopia"],"game_id":440,"stv_port":27086,"stv_name":"Uncletopia | London | 8 | Community | STV","players":null},{"server_id":300,"name":"Uncletopia | Montr√©al | 1 | All Maps","name_short":"mtl-1","host":"mtl-1.ca.uncletopia.com","port":27015,"enabled":true,"region":"us-east","cc":"ca","latitude":45.50889,"longitude":-73.56167,"reserved":0,"last_update":"0001-01-01T00:00:00Z","name_a2s":"Uncletopia | Montr√©al | 1 | All Maps","protocol":17,"map":"koth_cascade","folder":"tf","game":"Team Fortress","app_id":440,"player_count":0,"max_players":24,"Bots":0,"server_type":"Dedicated","server_os":"Linux","password":true,"vac":true,"version":"7961495","steam_id":85568392924500087,"keywords":["cp","nocrits","nodmgspread","uncletopia"],"game_id":440,"stv_port":27016,"stv_name":"Uncletopia | Montr√©al | 1 | All Maps | STV","players":null},{"server_id":301,"name":"Uncletopia | Montr√©al | 2 | All Maps","name_short":"mtl-2","host":"mtl-1.ca.uncletopia.com","port":27025,"enabled":true,"region":"us-east","cc":"ca","latitude":45.50889,"longitude":-73.56167,"reserved":0,"last_update":"0001-01-01T00:00:00Z","name_a2s":"Uncletopia | Montr√©al | 2 | All Maps","protocol":17,"map":"pl_badwater","folder":"tf","game":"Team Fortress","app_id":440,"player_count":19,"max_players":24,"Bots":0,"server_type":"Dedicated","server_os":"Linux","password":true,"vac":true,"version":"7961495","steam_id":85568392924500088,"keywords":["nocrits","nodmgspread","payload","uncletopia"],"game_id":440,"stv_port":27026,"stv_name":"Uncletopia | Montr√©al | 2 | All Maps | STV","players":[{"user_id":104,"name":"DERPgirl100","steam_id":76561199078210456,"connected_time":113000000000,"state":"active","ping":69},{"user_id":106,"name":"SneakyJayMLP","steam_id":76561198969565685,"connected_time":11000000000,"state":"active","ping":76},{"user_id":93,"name":"the GOAT of all time","steam_id":76561198241948526,"connected_time":679000000000,"state":"active","ping":47},{"user_id":107,"name":"DeMarcus Cousins","steam_id":76561199482271042,"connected_time":9000000000,"state":"spawning","ping":67},{"user_id":77,"name":"hammythegreat #SaveTF2","steam_id":76561198079526946,"connected_time":1426000000000,"state":"active","ping":95},{"user_id":62,"name":"demoknight tf2","steam_id":76561198070393998,"connected_time":2637000000000,"state":"active","ping":57},{"user_id":78,"name":"bachphong760","steam_id":76561199433780443,"connected_time":1403000000000,"state":"active","ping":96},{"user_id":79,"name":"Nelson","steam_id":76561198850327678,"connected_time":1396000000000,"state":"active","ping":96},{"user_id":83,"name":"izzydex","steam_id":76561199101531034,"connected_time":1306000000000,"state":"active","ping":74},{"user_id":101,"name":"conner","steam_id":76561198042801153,"connected_time":288000000000,"state":"active","ping":51},{"user_id":54,"name":"jimmyfnaf172198yay","steam_id":76561198311446636,"connected_time":2984000000000,"state":"active","ping":77},{"user_id":55,"name":"Nungel","steam_id":76561198272961376,"connected_time":2979000000000,"state":"active","ping":111},{"user_id":99,"name":"avantime","steam_id":76561199203175541,"connected_time":368000000000,"state":"active","ping":90},{"user_id":100,"name":"joe iroh","steam_id":76561198173105270,"connected_time":312000000000,"state":"active","ping":50},{"user_id":86,"name":"salsa","steam_id":76561198317584223,"connected_time":1186000000000,"state":"active","ping":69},{"user_id":97,"name":"Mr. Skerpentine","steam_id":76561198137244892,"connected_time":569000000000,"state":"active","ping":104},{"user_id":66,"name":"4ling","steam_id":76561197994398381,"connected_time":1988000000000,"state":"active","ping":72},{"user_id":102,"name":"Suspicious Delicious","steam_id":76561198001741258,"connected_time":284000000000,"state":"active","ping":76}]},{"server_id":302,"name":"Uncletopia | Montr√©al | 3 | All Maps","name_short":"mtl-3","host":"mtl-1.ca.uncletopia.com","port":27035,"enabled":true,"region":"us-east","cc":"ca","latitude":45.50889,"longitude":-73.56167,"reserved":0,"last_update":"0001-01-01T00:00:00Z","name_a2s":"Uncletopia | Montr√©al | 3 | All Maps","protocol":17,"map":"pl_snowycoast","folder":"tf","game":"Team Fortress","app_id":440,"player_count":0,"max_players":24,"Bots":0,"server_type":"Dedicated","server_os":"Linux","password":true,"vac":true,"version":"7961495","steam_id":85568392924500089,"keywords":["nocrits","nodmgspread","payload","uncletopia"],"game_id":440,"stv_port":27036,"stv_name":"Uncletopia | Montr√©al | 3 | All Maps | STV","players":null},{"server_id":303,"name":"Uncletopia | Montr√©al | 4 | No Payload","name_short":"mtl-4","host":"mtl-1.ca.uncletopia.com","port":27045,"enabled":true,"region":"us-east","cc":"ca","latitude":45.50889,"longitude":-73.56167,"reserved":0,"last_update":"0001-01-01T00:00:00Z","name_a2s":"Uncletopia | Montr√©al | 4 | No Payload","protocol":17,"map":"cp_5gorge","folder":"tf","game":"Team Fortress","app_id":440,"player_count":0,"max_players":24,"Bots":0,"server_type":"Dedicated","server_os":"Linux","password":true,"vac":true,"version":"7961495","steam_id":85568392924500090,"keywords":["cp","nocrits","nodmgspread","uncletopia"],"game_id":440,"stv_port":27046,"stv_name":"Uncletopia | Montr√©al | 4 | No Payload | STV","players":null},{"server_id":13,"name":"Uncletopia | New York City | 1 | All Maps","name_short":"nyc-1","host":"nyc-1.us.uncletopia.com","port":27015,"enabled":true,"region":"us-east","cc":"us","latitude":40.73061,"longitude":-73.93524,"reserved":0,"last_update":"0001-01-01T00:00:00Z","name_a2s":"Uncletopia | New York City | 1 | All Maps","protocol":17,"map":"pl_badwater","folder":"tf","game":"Team Fortress","app_id":440,"player_count":24,"max_players":24,"Bots":0,"server_type":"Dedicated","server_os":"Linux","password":true,"vac":true,"version":"7961495","steam_id":85568392924469993,"keywords":["nocrits","nodmgspread","payload","uncletopia"],"game_id":440,"stv_port":27016,"stv_name":"Uncletopia | New York City | 1 | All Maps | STV","players":[{"user_id":123,"name":"Kirbs","steam_id":76561198970654800,"connected_time":3126000000000,"state":"active","ping":39},{"user_id":124,"name":"Brown_Dream","steam_id":76561198975766145,"connected_time":3123000000000,"state":"active","ping":78},{"user_id":131,"name":"CRAZY engineer","steam_id":76561198887937902,"connected_time":2580000000000,"state":"active","ping":47},{"user_id":158,"name":"1967 Volkswagen Beetle","steam_id":76561199138838106,"connected_time":7000000000,"state":"active","ping":95},{"user_id":132,"name":"Mora","steam_id":76561198060542307,"connected_time":2539000000000,"state":"active","ping":95},{"user_id":156,"name":"Comrade Chaos","steam_id":76561198216223608,"connected_time":142000000000,"state":"active","ping":45},{"user_id":144,"name":"*Star!?*","steam_id":76561198364012812,"connected_time":2007000000000,"state":"active","ping":54},{"user_id":137,"name":"Primal","steam_id":76561197983118203,"connected_time":2305000000000,"state":"active","ping":81},{"user_id":149,"name":"BushSoup","steam_id":76561198314467072,"connected_time":1144000000000,"state":"active","ping":63},{"user_id":17,"name":"Periculosum PhD in Funny","steam_id":76561198123370914,"connected_time":8731000000000,"state":"active","ping":86},{"user_id":153,"name":"CloudVic","steam_id":76561198118868716,"connected_time":926000000000,"state":"active","ping":97},{"user_id":19,"name":"Nilantive","steam_id":76561198177565082,"connected_time":8706000000000,"state":"active","ping":35},{"user_id":146,"name":"Wiener Hole Paper Cut","steam_id":76561198000808203,"connected_time":1415000000000,"state":"active","ping":64},{"user_id":120,"name":"Ruger","steam_id":76561198079556769,"connected_time":3413000000000,"state":"active","ping":88},{"user_id":135,"name":"BLANK3T (They/He) | RGL.gg","steam_id":76561198028875624,"connected_time":2409000000000,"state":"active","ping":117},{"user_id":147,"name":"k3ramb1t","steam_id":76561198097880352,"connected_time":1162000000000,"state":"active","ping":55},{"user_id":155,"name":"asdf clan","steam_id":76561199490136439,"connected_time":909000000000,"state":"active","ping":31},{"user_id":152,"name":"THGAwesome","steam_id":76561198162847218,"connected_time":1012000000000,"state":"active","ping":74},{"user_id":109,"name":"14Noodles","steam_id":76561198162798676,"connected_time":4081000000000,"state":"active","ping":88},{"user_id":148,"name":"Lifial","steam_id":76561198271885819,"connected_time":1161000000000,"state":"active","ping":60},{"user_id":116,"name":"Cmellz","steam_id":76561198047577806,"connected_time":3630000000000,"state":"active","ping":118},{"user_id":154,"name":"bookreader","steam_id":76561198978568007,"connected_time":922000000000,"state":"active","ping":42},{"user_id":127,"name":"Prowox","steam_id":76561198032606089,"connected_time":2800000000000,"state":"active","ping":146},{"user_id":134,"name":"watchfull","steam_id":76561198433266742,"connected_time":2501000000000,"state":"active","ping":124}]},{"server_id":14,"name":"Uncletopia | New York City | 2 | All Maps","name_short":"nyc-2","host":"nyc-1.us.uncletopia.com","port":27025,"enabled":true,"region":"us-east","cc":"us","latitude":40.73061,"longitude":-73.93524,"reserved":0,"last_update":"0001-01-01T00:00:00Z","name_a2s":"Uncletopia | New York City | 2 | All Maps","protocol":17,"map":"cp_steel","folder":"tf","game":"Team Fortress","app_id":440,"player_count":20,"max_players":24,"Bots":0,"server_type":"Dedicated","server_os":"Linux","password":true,"vac":true,"version":"7961495","steam_id":85568392924469994,"keywords":["cp","nocrits","nodmgspread","uncletopia"],"game_id":440,"stv_port":27026,"stv_name":"Uncletopia | New York City | 2 | All Maps | STV","players":[{"user_id":408,"name":"Pontiff Sulyvahn","steam_id":76561198827071531,"connected_time":1092000000000,"state":"active","ping":45},{"user_id":416,"name":"daemon","steam_id":76561198001541433,"connected_time":8000000000,"state":"active","ping":78},{"user_id":404,"name":"Fish","steam_id":76561199258053772,"connected_time":1195000000000,"state":"active","ping":72},{"user_id":417,"name":"the_willy12","steam_id":76561199145029672,"connected_time":6000000000,"state":"spawning","ping":57},{"user_id":418,"name":"eugene hinkleton","steam_id":76561199083451324,"connected_time":2000000000,"state":"spawning","ping":49},{"user_id":386,"name":"-œÄ- BakaD","steam_id":76561197960559169,"connected_time":2928000000000,"state":"active","ping":33},{"user_id":405,"name":"flare","steam_id":76561198048623485,"connected_time":1189000000000,"state":"active","ping":45},{"user_id":361,"name":"wearing my sunday pants","steam_id":76561198834106533,"connected_time":3553000000000,"state":"active","ping":62},{"user_id":362,"name":"franky","steam_id":76561198070903328,"connected_time":3549000000000,"state":"active","ping":41},{"user_id":411,"name":"Green Mario","steam_id":76561198922644496,"connected_time":979000000000,"state":"active","ping":97},{"user_id":400,"name":"Minty","steam_id":76561198050714055,"connected_time":1433000000000,"state":"active","ping":64},{"user_id":401,"name":"fazaness","steam_id":76561198851525394,"connected_time":1409000000000,"state":"active","ping":107},{"user_id":380,"name":"Apetometrist","steam_id":76561198045391635,"connected_time":3074000000000,"state":"active","ping":73},{"user_id":395,"name":"booty, penis suckah!! (Steve)","steam_id":76561198104086771,"connected_time":2256000000000,"state":"active","ping":107},{"user_id":371,"name":"Aerobro","steam_id":76561198033530996,"connected_time":3413000000000,"state":"active","ping":103},{"user_id":396,"name":"Mr_Frosty","steam_id":76561199380389079,"connected_time":2131000000000,"state":"spawning","ping":64},{"user_id":384,"name":"mkhcroy","steam_id":76561198125448762,"connected_time":3014000000000,"state":"active","ping":74},{"user_id":402,"name":"Papillon","steam_id":76561198049725849,"connected_time":1407000000000,"state":"active","ping":63},{"user_id":398,"name":"J-Booty Rasengan","steam_id":76561198088854411,"connected_time":1624000000000,"state":"active","ping":59},{"user_id":407,"name":"Jamendithas","steam_id":76561198119537716,"connected_time":1096000000000,"state":"active","ping":59}]},{"server_id":15,"name":"Uncletopia | New York City | 3 | Stopwatch Beta","name_short":"nyc-3","host":"nyc-1.us.uncletopia.com","port":27035,"enabled":true,"region":"us-east","cc":"us","latitude":40.73061,"longitude":-73.93524,"reserved":0,"last_update":"0001-01-01T00:00:00Z","name_a2s":"Uncletopia | New York City | 3 | Stopwatch Beta","protocol":17,"map":"cp_process_final","folder":"tf","game":"Team Fortress","app_id":440,"player_count":0,"max_players":24,"Bots":0,"server_type":"Dedicated","server_os":"Linux","password":true,"vac":true,"version":"7961495","steam_id":85568392924742820,"keywords":["cp","nocrits","nodmgspread","uncletopia"],"game_id":440,"stv_port":27036,"stv_name":"Uncletopia | New York City | 3 | Stopwatch Beta | STV","players":null},{"server_id":16,"name":"Uncletopia | New York City | 4 | Community","name_short":"nyc-4","host":"nyc-1.us.uncletopia.com","port":27045,"enabled":true,"region":"us-east","cc":"us","latitude":40.73061,"longitude":-73.93524,"reserved":0,"last_update":"0001-01-01T00:00:00Z","name_a2s":"Uncletopia | New York City | 4 | Community","protocol":17,"map":"workshop/koth_trenchfoot_b1a.ugc731436616","folder":"tf","game":"Team Fortress","app_id":440,"player_count":0,"max_players":24,"Bots":0,"server_type":"Dedicated","server_os":"Linux","password":true,"vac":true,"version":"7961495","steam_id":85568392924742821,"keywords":["cp","nocrits","nodmgspread","uncletopia"],"game_id":440,"stv_port":27046,"stv_name":"Uncletopia | New York City | 4 | Community | STV","players":null},{"server_id":142,"name":"Uncletopia | S√£o Paulo | 1 | All Maps","name_short":"sao-1","host":"sao-1.br.uncletopia.com","port":27015,"enabled":true,"region":"sa","cc":"br","latitude":-23.533773,"longitude":-46.62529,"reserved":0,"last_update":"0001-01-01T00:00:00Z","name_a2s":"Uncletopia | S√£o Paulo | 1 | All Maps","protocol":17,"map":"koth_highpass","folder":"tf","game":"Team Fortress","app_id":440,"player_count":1,"max_players":24,"Bots":0,"server_type":"Dedicated","server_os":"Linux","password":true,"vac":true,"version":"7961495","steam_id":85568392924469996,"keywords":["cp","nocrits","nodmgspread","uncletopia"],"game_id":440,"stv_port":27016,"stv_name":"Uncletopia | S√£o Paulo | 1 | All Maps | STV","players":[{"user_id":9,"name":"kaatsu","steam_id":76561198195066550,"connected_time":51000000000,"state":"active","ping":45}]},{"server_id":143,"name":"Uncletopia | S√£o Paulo | 2 | All Maps","name_short":"sao-2","host":"sao-2.br.uncletopia.com","port":27015,"enabled":true,"region":"sa","cc":"br","latitude":-23.533773,"longitude":-46.62529,"reserved":0,"last_update":"0001-01-01T00:00:00Z","name_a2s":"Uncletopia | S√£o Paulo | 2 | All Maps","protocol":17,"map":"cp_sunshine","folder":"tf","game":"Team Fortress","app_id":440,"player_count":0,"max_players":24,"Bots":0,"server_type":"Dedicated","server_os":"Linux","password":true,"vac":true,"version":"7961495","steam_id":85568392924485349,"keywords":["cp","nocrits","nodmgspread","uncletopia"],"game_id":440,"stv_port":27016,"stv_name":"Uncletopia | S√£o Paulo | 2 | All Maps | STV","players":null},{"server_id":7,"name":"Uncletopia | Seattle | 1 | All Maps","name_short":"sea-1","host":"sea-1.us.uncletopia.com","port":27015,"enabled":true,"region":"us-west","cc":"us","latitude":47.608013,"longitude":-122.33517,"reserved":0,"last_update":"0001-01-01T00:00:00Z","name_a2s":"Uncletopia | Seattle | 1 | All Maps","protocol":17,"map":"pl_thundermountain","folder":"tf","game":"Team Fortress","app_id":440,"player_count":24,"max_players":24,"Bots":0,"server_type":"Dedicated","server_os":"Linux","password":true,"vac":true,"version":"7961495","steam_id":85568392924469997,"keywords":["nocrits","nodmgspread","payload","uncletopia"],"game_id":440,"stv_port":27016,"stv_name":"Uncletopia | Seattle | 1 | All Maps | STV","players":[{"user_id":213,"name":"yellow knife","steam_id":76561199466449959,"connected_time":897000000000,"state":"active","ping":62},{"user_id":207,"name":"secio5","steam_id":76561198189746963,"connected_time":1534000000000,"state":"active","ping":42},{"user_id":205,"name":"Geobeetle","steam_id":76561198207400124,"connected_time":1832000000000,"state":"active","ping":59},{"user_id":214,"name":"KidneyToad","steam_id":76561198078430450,"connected_time":885000000000,"state":"active","ping":130},{"user_id":138,"name":"Yurei","steam_id":76561198088750661,"connected_time":7579000000000,"state":"active","ping":78},{"user_id":203,"name":"It's a Doggydog World","steam_id":76561198018232414,"connected_time":2150000000000,"state":"active","ping":84},{"user_id":209,"name":"A UsedNom","steam_id":76561198402832756,"connected_time":1067000000000,"state":"active","ping":64},{"user_id":197,"name":"TrixieHap","steam_id":76561198728548389,"connected_time":2516000000000,"state":"active","ping":58},{"user_id":198,"name":"Dr. PP","steam_id":76561199018184096,"connected_time":2513000000000,"state":"active","ping":102},{"user_id":177,"name":"Strikerbolt","steam_id":76561199095622897,"connected_time":4158000000000,"state":"active","ping":87},{"user_id":180,"name":"zinnk","steam_id":76561198092081825,"connected_time":4034000000000,"state":"active","ping":68},{"user_id":175,"name":"Yoyo-Wo","steam_id":76561198880520205,"connected_time":4300000000000,"state":"active","ping":99},{"user_id":182,"name":"2Fort Cactus","steam_id":76561199273395913,"connected_time":3923000000000,"state":"active","ping":48},{"user_id":206,"name":"Skoad","steam_id":76561198104650528,"connected_time":1685000000000,"state":"active","ping":65},{"user_id":181,"name":"Happy TDOV","steam_id":76561198085813708,"connected_time":3961000000000,"state":"active","ping":118},{"user_id":210,"name":"Wheaty","steam_id":76561198003553412,"connected_time":1003000000000,"state":"active","ping":46},{"user_id":208,"name":"demolondon the thrice","steam_id":76561198936116083,"connected_time":1515000000000,"state":"active","ping":92},{"user_id":187,"name":"Vincent Van Bro","steam_id":76561197966919802,"connected_time":3544000000000,"state":"active","ping":60},{"user_id":162,"name":"Muralo","steam_id":76561198202160268,"connected_time":5475000000000,"state":"active","ping":44},{"user_id":200,"name":"Radio","steam_id":76561198194821053,"connected_time":2446000000000,"state":"active","ping":58},{"user_id":193,"name":"Ôº£Ôº®Ôº°Ôº≠Ôº∞Ôº©ÔºØÔºÆ","steam_id":76561198883157736,"connected_time":2906000000000,"state":"active","ping":63},{"user_id":215,"name":"Calzerkid1","steam_id":76561198273775887,"connected_time":872000000000,"state":"active","ping":121},{"user_id":212,"name":"Mocha Josie","steam_id":76561198066452726,"connected_time":983000000000,"state":"active","ping":78},{"user_id":217,"name":"Career","steam_id":76561198028542212,"connected_time":547000000000,"state":"active","ping":130}]},{"server_id":119,"name":"Uncletopia | Seattle | 2 | All Maps","name_short":"sea-2","host":"sea-1.us.uncletopia.com","port":27025,"enabled":true,"region":"us-west","cc":"us","latitude":47.608013,"longitude":-122.33517,"reserved":0,"last_update":"0001-01-01T00:00:00Z","name_a2s":"Uncletopia | Seattle | 2 | All Maps","protocol":17,"map":"koth_highpass","folder":"tf","game":"Team Fortress","app_id":440,"player_count":3,"max_players":24,"Bots":0,"server_type":"Dedicated","server_os":"Linux","password":true,"vac":true,"version":"7961495","steam_id":85568392924469998,"keywords":["cp","nocrits","nodmgspread","uncletopia"],"game_id":440,"stv_port":27026,"stv_name":"Uncletopia | Seattle | 2 | All Maps | STV","players":[{"user_id":11,"name":"PulledPork","steam_id":76561198182077258,"connected_time":310000000000,"state":"active","ping":34},{"user_id":15,"name":"Feldspaten","steam_id":76561199122059102,"connected_time":42000000000,"state":"active","ping":79},{"user_id":14,"name":"keithykeithers","steam_id":76561197995552615,"connected_time":166000000000,"state":"active","ping":41}]},{"server_id":406,"name":"Uncletopia | Seattle | 3 | Stopwatch Beta","name_short":"sea-3","host":"sea-1.us.uncletopia.com","port":27035,"enabled":true,"region":"us-west","cc":"us","latitude":47.608013,"longitude":-122.33517,"reserved":0,"last_update":"0001-01-01T00:00:00Z","name_a2s":"Uncletopia | Seattle | 3 | Stopwatch Beta","protocol":17,"map":"cp_mountainlab","folder":"tf","game":"Team Fortress","app_id":440,"player_count":0,"max_players":24,"Bots":0,"server_type":"Dedicated","server_os":"Linux","password":true,"vac":true,"version":"7961495","steam_id":85568392924515217,"keywords":["cp","nocrits","nodmgspread","uncletopia"],"game_id":440,"stv_port":27036,"stv_name":"Uncletopia | Seattle | 3 | Stopwatch Beta | STV","players":null},{"server_id":17,"name":"Uncletopia | San Francisco | 1 | All Maps","name_short":"sfo-1","host":"sfo-1.us.uncletopia.com","port":27015,"enabled":true,"region":"us-west","cc":"us","latitude":37.77397,"longitude":-122.4313,"reserved":0,"last_update":"0001-01-01T00:00:00Z","name_a2s":"Uncletopia | San Francisco | 1 | All Maps","protocol":17,"map":"pl_frontier_final","folder":"tf","game":"Team Fortress","app_id":440,"player_count":0,"max_players":24,"Bots":0,"server_type":"Dedicated","server_os":"Linux","password":true,"vac":true,"version":"7932396","steam_id":85568392924469999,"keywords":["nocrits","nodmgspread","payload","uncletopia"],"game_id":440,"stv_port":27016,"stv_name":"Uncletopia | San Francisco | 1 | All Maps | STV","players":null},{"server_id":18,"name":"Uncletopia | San Francisco | 2 | All Maps","name_short":"sfo-2","host":"sfo-1.us.uncletopia.com","port":27025,"enabled":true,"region":"us-west","cc":"us","latitude":37.77397,"longitude":-122.4313,"reserved":0,"last_update":"0001-01-01T00:00:00Z","name_a2s":"Uncletopia | San Francisco | 2 | All Maps","protocol":17,"map":"cp_snakewater_final1","folder":"tf","game":"Team Fortress","app_id":440,"player_count":0,"max_players":24,"Bots":0,"server_type":"Dedicated","server_os":"Linux","password":true,"vac":true,"version":"7932396","steam_id":85568392924470000,"keywords":["cp","nocrits","nodmgspread","uncletopia"],"game_id":440,"stv_port":27026,"stv_name":"Uncletopia | San Francisco | 2 | All Maps | STV","players":null},{"server_id":19,"name":"Uncletopia | San Francisco | 3 | Stopwatch Beta","name_short":"sfo-3","host":"sfo-1.us.uncletopia.com","port":27035,"enabled":true,"region":"us-west","cc":"us","latitude":37.77397,"longitude":-122.4313,"reserved":0,"last_update":"0001-01-01T00:00:00Z","name_a2s":"Uncletopia | San Francisco | 3 | Stopwatch Beta","protocol":17,"map":"koth_lakeside_final","folder":"tf","game":"Team Fortress","app_id":440,"player_count":0,"max_players":24,"Bots":0,"server_type":"Dedicated","server_os":"Linux","password":true,"vac":true,"version":"7932396","steam_id":85568392924742824,"keywords":["cp","nocrits","nodmgspread","uncletopia"],"game_id":440,"stv_port":27036,"stv_name":"Uncletopia | San Francisco | 3 | Stopwatch Beta | STV","players":null},{"server_id":20,"name":"Uncletopia | San Francisco | 4 | Community","name_short":"sfo-4","host":"sfo-1.us.uncletopia.com","port":27045,"enabled":true,"region":"us-west","cc":"us","latitude":37.77397,"longitude":-122.4313,"reserved":0,"last_update":"0001-01-01T00:00:00Z","name_a2s":"Uncletopia | San Francisco | 4 | Community","protocol":17,"map":"pl_borneo","folder":"tf","game":"Team Fortress","app_id":440,"player_count":0,"max_players":24,"Bots":0,"server_type":"Dedicated","server_os":"Linux","password":true,"vac":true,"version":"7932396","steam_id":85568392924742826,"keywords":["nocrits","nodmgspread","payload","uncletopia"],"game_id":440,"stv_port":27046,"stv_name":"Uncletopia | San Francisco | 4 | Community | STV","players":null},{"server_id":141,"name":"Uncletopia | Sydney | 1 | All Maps","name_short":"syd-1","host":"syd-1.au.uncletopia.com","port":27015,"enabled":true,"region":"au","cc":"au","latitude":-33.865143,"longitude":151.2099,"reserved":0,"last_update":"0001-01-01T00:00:00Z","name_a2s":"Uncletopia | Sydney | 1 | All Maps","protocol":17,"map":"koth_highpass","folder":"tf","game":"Team Fortress","app_id":440,"player_count":0,"max_players":24,"Bots":0,"server_type":"Dedicated","server_os":"Linux","password":true,"vac":true,"version":"7961495","steam_id":85568392924470001,"keywords":["cp","nocrits","nodmgspread","uncletopia"],"game_id":440,"stv_port":27016,"stv_name":"Uncletopia | Sydney | 1 | All Maps | STV","players":null},{"server_id":123,"name":"Uncletopia | Sydney | 2 | All Maps","name_short":"syd-2","host":"syd-1.au.uncletopia.com","port":27025,"enabled":true,"region":"au","cc":"au","latitude":-33.865143,"longitude":151.2099,"reserved":0,"last_update":"0001-01-01T00:00:00Z","name_a2s":"Uncletopia | Sydney | 2 | All Maps","protocol":17,"map":"koth_viaduct","folder":"tf","game":"Team Fortress","app_id":440,"player_count":0,"max_players":24,"Bots":0,"server_type":"Dedicated","server_os":"Linux","password":true,"vac":true,"version":"7961495","steam_id":85568392924470002,"keywords":["cp","nocrits","nodmgspread","uncletopia"],"game_id":440,"stv_port":27026,"stv_name":"Uncletopia | Sydney | 2 | All Maps | STV","players":null},{"server_id":395,"name":"Uncletopia | Sydney | 3 | All Maps","name_short":"syd-3","host":"syd-1.au.uncletopia.com","port":27035,"enabled":true,"region":"au","cc":"au","latitude":-33.865143,"longitude":151.2099,"reserved":0,"last_update":"0001-01-01T00:00:00Z","name_a2s":"Uncletopia | Sydney | 3 | All Maps","protocol":17,"map":"koth_harvest_final","folder":"tf","game":"Team Fortress","app_id":440,"player_count":0,"max_players":24,"Bots":0,"server_type":"Dedicated","server_os":"Linux","password":true,"vac":true,"version":"7961495","steam_id":85568392925194467,"keywords":["cp","nocrits","nodmgspread","uncletopia"],"game_id":440,"stv_port":27036,"stv_name":"Uncletopia | Sydney | 3 | All Maps | STV","players":null},{"server_id":396,"name":"Uncletopia | Sydney | 4 | All Maps","name_short":"syd-4","host":"syd-1.au.uncletopia.com","port":27045,"enabled":true,"region":"au","cc":"au","latitude":-33.865143,"longitude":151.2099,"reserved":0,"last_update":"0001-01-01T00:00:00Z","name_a2s":"Uncletopia | Sydney | 4 | All Maps","protocol":17,"map":"koth_cascade","folder":"tf","game":"Team Fortress","app_id":440,"player_count":0,"max_players":24,"Bots":0,"server_type":"Dedicated","server_os":"Linux","password":true,"vac":true,"version":"7961495","steam_id":85568392925397958,"keywords":["cp","nocrits","nodmgspread","uncletopia"],"game_id":440,"stv_port":27046,"stv_name":"Uncletopia | Sydney | 4 | All Maps | STV","players":null},{"server_id":58,"name":"Uncletopia | Sydney | 5 | Stopwatch Beta","name_short":"syd-5","host":"syd-1.au.uncletopia.com","port":27055,"enabled":true,"region":"au","cc":"au","latitude":-33.865143,"longitude":151.2099,"reserved":0,"last_update":"0001-01-01T00:00:00Z","name_a2s":"Uncletopia | Sydney | 5 | Stopwatch Beta","protocol":17,"map":"koth_viaduct","folder":"tf","game":"Team Fortress","app_id":440,"player_count":0,"max_players":24,"Bots":0,"server_type":"Dedicated","server_os":"Linux","password":true,"vac":true,"version":"7961495","steam_id":85568392925397959,"keywords":["cp","nocrits","nodmgspread","uncletopia"],"game_id":440,"stv_port":27056,"stv_name":"Uncletopia | Sydney | 5 | Stopwatch Beta | STV","players":null},{"server_id":59,"name":"Uncletopia | Sydney | 6 | Community","name_short":"syd-6","host":"syd-1.au.uncletopia.com","port":27065,"enabled":true,"region":"au","cc":"au","latitude":-33.865143,"longitude":151.2099,"reserved":0,"last_update":"0001-01-01T00:00:00Z","name_a2s":"Uncletopia | Sydney | 6 | Community","protocol":17,"map":"pl_barnblitz","folder":"tf","game":"Team Fortress","app_id":440,"player_count":0,"max_players":24,"Bots":0,"server_type":"Dedicated","server_os":"Linux","password":true,"vac":true,"version":"7961495","steam_id":85568392925397960,"keywords":["nocrits","nodmgspread","payload","uncletopia"],"game_id":440,"stv_port":27066,"stv_name":"Uncletopia | Sydney | 6 | Community | STV","players":null},{"server_id":49,"name":"Uncletopia | Warsaw | 1 | All Maps","name_short":"waw-1","host":"waw-1.pl.uncletopia.com","port":27015,"enabled":true,"region":"eu","cc":"pl","latitude":52.2297,"longitude":21.017532,"reserved":0,"last_update":"0001-01-01T00:00:00Z","name_a2s":"","protocol":0,"map":"","folder":"","game":"","app_id":0,"player_count":0,"max_players":0,"Bots":0,"server_type":"","server_os":"","password":false,"vac":false,"version":"","steam_id":0,"keywords":null,"game_id":0,"stv_port":0,"stv_name":"","players":null},{"server_id":50,"name":"Uncletopia | Warsaw | 2 | All Maps","name_short":"waw-2","host":"waw-1.pl.uncletopia.com","port":27025,"enabled":true,"region":"eu","cc":"pl","latitude":52.2297,"longitude":21.017532,"reserved":0,"last_update":"0001-01-01T00:00:00Z","name_a2s":"Uncletopia | Warsaw | 2 | All Maps","protocol":17,"map":"koth_lakeside_final","folder":"tf","game":"Team Fortress","app_id":440,"player_count":0,"max_players":24,"Bots":0,"server_type":"Dedicated","server_os":"Linux","password":true,"vac":true,"version":"7961495","steam_id":85568392925397851,"keywords":["cp","nocrits","nodmgspread","uncletopia"],"game_id":440,"stv_port":27026,"stv_name":"Uncletopia | Warsaw | 2 | All Maps | STV","players":null},{"server_id":51,"name":"Uncletopia | Warsaw | 3 | All Maps","name_short":"waw-3","host":"waw-1.pl.uncletopia.com","port":27035,"enabled":true,"region":"eu","cc":"pl","latitude":52.2297,"longitude":21.017532,"reserved":0,"last_update":"0001-01-01T00:00:00Z","name_a2s":"Uncletopia | Warsaw | 3 | All Maps","protocol":17,"map":"koth_lakeside_final","folder":"tf","game":"Team Fortress","app_id":440,"player_count":2,"max_players":24,"Bots":0,"server_type":"Dedicated","server_os":"Linux","password":true,"vac":true,"version":"7961495","steam_id":85568392925397852,"keywords":["cp","nocrits","nodmgspread","uncletopia"],"game_id":440,"stv_port":27036,"stv_name":"Uncletopia | Warsaw | 3 | All Maps | STV","players":[{"user_id":37,"name":"Kjat","steam_id":76561198839433592,"connected_time":702000000000,"state":"active","ping":60},{"user_id":38,"name":"lolman","steam_id":76561199443152879,"connected_time":468000000000,"state":"active","ping":189}]},{"server_id":52,"name":"Uncletopia | Warsaw | 4 | All Maps","name_short":"waw-4","host":"waw-1.pl.uncletopia.com","port":27045,"enabled":true,"region":"eu","cc":"pl","latitude":52.2297,"longitude":21.017532,"reserved":0,"last_update":"0001-01-01T00:00:00Z","name_a2s":"Uncletopia | Warsaw | 4 | All Maps","protocol":17,"map":"koth_cascade","folder":"tf","game":"Team Fortress","app_id":440,"player_count":0,"max_players":24,"Bots":0,"server_type":"Dedicated","server_os":"Linux","password":true,"vac":true,"version":"7961495","steam_id":85568392925397853,"keywords":["cp","nocrits","nodmgspread","uncletopia"],"game_id":440,"stv_port":27046,"stv_name":"Uncletopia | Warsaw | 4 | All Maps | STV","players":null},{"server_id":53,"name":"Uncletopia | Warsaw | 5 | Stopwatch Beta","name_short":"waw-5","host":"waw-1.pl.uncletopia.com","port":27055,"enabled":true,"region":"eu","cc":"pl","latitude":52.2297,"longitude":21.017532,"reserved":0,"last_update":"0001-01-01T00:00:00Z","name_a2s":"Uncletopia | Warsaw | 5 | Stopwatch Beta","protocol":17,"map":"workshop/pl_summercoast_rc8e.ugc1761528829","folder":"tf","game":"Team Fortress","app_id":440,"player_count":0,"max_players":24,"Bots":0,"server_type":"Dedicated","server_os":"Linux","password":true,"vac":true,"version":"7961495","steam_id":85568392925397854,"keywords":["nocrits","nodmgspread","payload","uncletopia"],"game_id":440,"stv_port":27056,"stv_name":"Uncletopia | Warsaw | 5 | Stopwatch Beta | STV","players":null},{"server_id":54,"name":"Uncletopia | Warsaw | 6 | Community","name_short":"waw-6","host":"waw-1.pl.uncletopia.com","port":27065,"enabled":true,"region":"eu","cc":"pl","latitude":52.2297,"longitude":21.017532,"reserved":0,"last_update":"0001-01-01T00:00:00Z","name_a2s":"Uncletopia | Warsaw | 6 | Community","protocol":17,"map":"workshop/cp_reckoner_rc6.ugc674719999","folder":"tf","game":"Team Fortress","app_id":440,"player_count":0,"max_players":24,"Bots":0,"server_type":"Dedicated","server_os":"Linux","password":true,"vac":true,"version":"7961495","steam_id":85568392925397856,"keywords":["cp","nocrits","nodmgspread","uncletopia"],"game_id":440,"stv_port":27066,"stv_name":"Uncletopia | Warsaw | 6 | Community | STV","players":null}]}