{"status":true,"message":"","result":[{"server_id":9,"name":"Uncletopia | Atlanta | 1 | All Maps","name_short":"atl-1","host":"atl-1.us.uncletopia.com","port":27015,"enabled":true,"region":"us-east","cc":"us","latitude":33.753746,"longitude":-84.38633,"reserved":0,"last_update":"0001-01-01T00:00:00Z","name_a2s":"Uncletopia | Atlanta | 1 | All Maps","protocol":17,"map":"pl_badwater","folder":"tf","game":"Team Fortress","app_id":440,"player_count":24,"max_players":24,"Bots":0,"server_type":"Dedicated","server_os":"Linux","password":true,"vac":true,"version":"7757534","steam_id":85568392924469982,"keywords":["nocrits","nodmgspread","payload","uncletopia"],"game_id":440,"stv_port":27016,"stv_name":"Uncletopia | Atlanta | 1 | All Maps | STV","players":[{"user_id":490,"name":"Mr. Dick‚Ñ¢","steam_id":76561198047309044,"connected_time":227000000000,"state":"active","ping":41},{"user_id":480,"name":"troll","steam_id":76561198040890252,"connected_time":614000000000,"state":"active","ping":48},{"user_id":455,"name":"The Horselords and Animal Gods","steam_id":76561197975094050,"connected_time":2160000000000,"state":"active","ping":107},{"user_id":481,"name":"D r e a d ‚ò¢üíØ","steam_id":76561198059216451,"connected_time":601000000000,"state":"active","ping":69},{"user_id":482,"name":"Missing Minus","steam_id":76561198120822928,"connected_time":543000000000,"state":"active","ping":46},{"user_id":483,"name":"DolphiN | RGL.gg","steam_id":76561198048614515,"connected_time":526000000000,"state":"active","ping":46},{"user_id":453,"name":"urban legend","steam_id":76561198069188276,"connected_time":2196000000000,"state":"active","ping":97},{"user_id":468,"name":"Jeremy","steam_id":76561198352333793,"connected_time":1176000000000,"state":"active","ping":82},{"user_id":488,"name":"frizzle fried","steam_id":76561198062991744,"connected_time":260000000000,"state":"active","ping":59},{"user_id":364,"name":"lker","steam_id":76561197976975075,"connected_time":8185000000000,"state":"active","ping":39},{"user_id":465,"name":"Sol","steam_id":76561199008085020,"connected_time":1397000000000,"state":"active","ping":58},{"user_id":484,"name":"‚ù§ Ashley ‚ù§","steam_id":76561198056428303,"connected_time":421000000000,"state":"active","ping":105},{"user_id":485,"name":"Whoops!","steam_id":76561198151315898,"connected_time":383000000000,"state":"active","ping":81},{"user_id":467,"name":"Nicolas Cage Kisses Mace Windu","steam_id":76561198046127710,"connected_time":1200000000000,"state":"active","ping":70},{"user_id":458,"name":"Elvis Depressedly","steam_id":76561198943694656,"connected_time":2046000000000,"state":"active","ping":90},{"user_id":489,"name":"Mommy Cloud Audios Gaming","steam_id":76561198880304614,"connected_time":248000000000,"state":"active","ping":60},{"user_id":472,"name":"carrion goat she/it","steam_id":76561198262064871,"connected_time":1052000000000,"state":"active","ping":66},{"user_id":427,"name":"Decolour","steam_id":76561199045608372,"connected_time":4144000000000,"state":"active","ping":79},{"user_id":491,"name":"toastman","steam_id":76561198207073088,"connected_time":189000000000,"state":"active","ping":85},{"user_id":473,"name":"SpagetMan","steam_id":76561198409640547,"connected_time":1035000000000,"state":"active","ping":68},{"user_id":390,"name":"lil hog","steam_id":76561199230929836,"connected_time":6428000000000,"state":"active","ping":79},{"user_id":487,"name":"Lord Dragon","steam_id":76561198310300373,"connected_time":346000000000,"state":"active","ping":85},{"user_id":492,"name":"Midnight Flame","steam_id":76561198279692754,"connected_time":186000000000,"state":"active","ping":75},{"user_id":448,"name":"ATL1 | Pango","steam_id":76561198069811545,"connected_time":3091000000000,"state":"active","ping":46}]},{"server_id":400,"name":"Uncletopia | Atlanta | 3 | Community","name_short":"atl-3","host":"atl-1.us.uncletopia.com","port":27035,"enabled":true,"region":"us-east","cc":"us","latitude":33.753746,"longitude":-84.38633,"reserved":0,"last_update":"0001-01-01T00:00:00Z","name_a2s":"Uncletopia | Atlanta | 3 | Community","protocol":17,"map":"workshop/koth_trenchfoot_b1a.ugc731436616","folder":"tf","game":"Team Fortress","app_id":440,"player_count":0,"max_players":32,"Bots":0,"server_type":"Dedicated","server_os":"Linux","password":true,"vac":true,"version":"7757534","steam_id":85568392924515187,"keywords":["cp","increased_maxplayers","nocrits","nodmgspread","uncletopia"],"game_id":440,"stv_port":27036,"stv_name":"Uncletopia | Atlanta | 3 | Community | STV","players":null},{"server_id":401,"name":"Uncletopia | Atlanta | 4 | No Payload","name_short":"atl-4","host":"atl-1.us.uncletopia.com","port":27045,"enabled":true,"region":"us-east","cc":"us","latitude":33.753746,"longitude":-84.38633,"reserved":0,"last_update":"0001-01-01T00:00:00Z","name_a2s":"","protocol":0,"map":"","folder":"","game":"","app_id":0,"player_count":0,"max_players":0,"Bots":0,"server_type":"","server_os":"","password":false,"vac":false,"version":"","steam_id":0,"keywords":null,"game_id":0,"stv_port":0,"stv_name":"","players":null},{"server_id":2,"name":"Uncletopia | Chicago | 1 | All Maps","name_short":"chi-1","host":"chi-1.us.uncletopia.com","port":27015,"enabled":true,"region":"us-central","cc":"us","latitude":41.881832,"longitude":-87.62318,"reserved":0,"last_update":"0001-01-01T00:00:00Z","name_a2s":"Uncletopia | Chicago | 1 | All Maps","protocol":17,"map":"koth_king","folder":"tf","game":"Team Fortress","app_id":440,"player_count":19,"max_players":24,"Bots":0,"server_type":"Dedicated","server_os":"Linux","password":true,"vac":true,"version":"7757534","steam_id":85568392924469984,"keywords":["cp","nocrits","nodmgspread","uncletopia"],"game_id":440,"stv_port":27016,"stv_name":"Uncletopia | Chicago | 1 | All Maps | STV","players":[{"user_id":636,"name":"ItsTanleyCrunch","steam_id":76561198037915942,"connected_time":531000000000,"state":"active","ping":81},{"user_id":638,"name":"OH...SQUEEG","steam_id":76561198215238845,"connected_time":521000000000,"state":"active","ping":78},{"user_id":649,"name":"is that a Jerma reference?","steam_id":76561198258543709,"connected_time":178000000000,"state":"active","ping":59},{"user_id":619,"name":"gabagool","steam_id":76561198012131766,"connected_time":2093000000000,"state":"active","ping":46},{"user_id":646,"name":"wepry","steam_id":76561198114091417,"connected_time":309000000000,"state":"active","ping":81},{"user_id":650,"name":"zach stop","steam_id":76561198105640030,"connected_time":72000000000,"state":"active","ping":31},{"user_id":633,"name":"Picked Wiss","steam_id":76561198057745131,"connected_time":710000000000,"state":"active","ping":46},{"user_id":615,"name":"smelly boy james(he stinkin)","steam_id":76561197997006216,"connected_time":2206000000000,"state":"active","ping":55},{"user_id":635,"name":"Pyronautica","steam_id":76561198032490218,"connected_time":603000000000,"state":"active","ping":97},{"user_id":641,"name":"Maxxycat","steam_id":76561198194062681,"connected_time":500000000000,"state":"active","ping":51},{"user_id":631,"name":"AER0.exe","steam_id":76561198062940197,"connected_time":866000000000,"state":"active","ping":60},{"user_id":642,"name":"The Drunk Clown","steam_id":76561197986850426,"connected_time":461000000000,"state":"active","ping":75},{"user_id":634,"name":"Clit Connoisseur","steam_id":76561198166880794,"connected_time":624000000000,"state":"active","ping":70},{"user_id":618,"name":"Zelumie","steam_id":76561198147335801,"connected_time":2159000000000,"state":"active","ping":86},{"user_id":632,"name":"Ryan","steam_id":76561198397037834,"connected_time":729000000000,"state":"active","ping":73},{"user_id":643,"name":"the monkey's paw curls","steam_id":76561198039909187,"connected_time":400000000000,"state":"active","ping":50},{"user_id":644,"name":"Post nut clarity","steam_id":76561198060246831,"connected_time":387000000000,"state":"active","ping":84},{"user_id":645,"name":"‡∂û","steam_id":76561198275101482,"connected_time":340000000000,"state":"active","ping":134},{"user_id":553,"name":"SuperFresh","steam_id":76561198200723198,"connected_time":8334000000000,"state":"active","ping":39}]},{"server_id":106,"name":"Uncletopia | Chicago | 2 | All Maps","name_short":"chi-2","host":"chi-1.us.uncletopia.com","port":27025,"enabled":true,"region":"us-central","cc":"us","latitude":41.881832,"longitude":-87.62318,"reserved":0,"last_update":"0001-01-01T00:00:00Z","name_a2s":"Uncletopia | Chicago | 2 | All Maps","protocol":17,"map":"pl_swiftwater_final1","folder":"tf","game":"Team Fortress","app_id":440,"player_count":24,"max_players":24,"Bots":0,"server_type":"Dedicated","server_os":"Linux","password":true,"vac":true,"version":"7757534","steam_id":85568392924469985,"keywords":["nocrits","nodmgspread","payload","uncletopia"],"game_id":440,"stv_port":27026,"stv_name":"Uncletopia | Chicago | 2 | All Maps | STV","players":[{"user_id":351,"name":"Fiendish Frog","steam_id":76561198029478821,"connected_time":2657000000000,"state":"active","ping":75},{"user_id":389,"name":"Lore","steam_id":76561198098407538,"connected_time":84000000000,"state":"active","ping":46},{"user_id":333,"name":"Mush","steam_id":76561198393461065,"connected_time":3709000000000,"state":"active","ping":75},{"user_id":378,"name":"blank","steam_id":76561198105529673,"connected_time":1012000000000,"state":"active","ping":89},{"user_id":349,"name":"Glad","steam_id":76561199388372220,"connected_time":2787000000000,"state":"active","ping":72},{"user_id":390,"name":"Positronic‚ô•June (they/she)","steam_id":76561198042556857,"connected_time":65000000000,"state":"active","ping":54},{"user_id":376,"name":"The cringefest","steam_id":76561198840872782,"connected_time":1154000000000,"state":"active","ping":73},{"user_id":355,"name":"elite enemy gamer","steam_id":76561198395437335,"connected_time":2621000000000,"state":"active","ping":116},{"user_id":375,"name":"[SK] Punish ‚ô• ÁâßÊøëÁ∫¢ËéâÊ†ñ","steam_id":76561198207987376,"connected_time":1348000000000,"state":"active","ping":63},{"user_id":388,"name":"to be a constellation","steam_id":76561198048992536,"connected_time":130000000000,"state":"active","ping":77},{"user_id":330,"name":"Anderred","steam_id":76561198149983847,"connected_time":3922000000000,"state":"active","ping":79},{"user_id":380,"name":"sopmod","steam_id":76561198453203619,"connected_time":878000000000,"state":"active","ping":105},{"user_id":381,"name":"Tingus Pingus","steam_id":76561198155412348,"connected_time":858000000000,"state":"active","ping":63},{"user_id":382,"name":"cyborgor","steam_id":76561198040782513,"connected_time":851000000000,"state":"active","ping":92},{"user_id":369,"name":"yayte","steam_id":76561198311004039,"connected_time":2103000000000,"state":"active","ping":90},{"user_id":383,"name":"Cousin Corn on the Cob","steam_id":76561198049837377,"connected_time":851000000000,"state":"active","ping":50},{"user_id":393,"name":"graphik","steam_id":76561199011880402,"connected_time":19000000000,"state":"active","ping":89},{"user_id":363,"name":"MHzSr","steam_id":76561198240890158,"connected_time":2486000000000,"state":"active","ping":69},{"user_id":343,"name":"SpinetinglingToast","steam_id":76561198099470670,"connected_time":3172000000000,"state":"active","ping":73},{"user_id":387,"name":"bladee","steam_id":76561198209795841,"connected_time":495000000000,"state":"active","ping":86},{"user_id":385,"name":"Thundermonkey (SMOKE)","steam_id":76561198017631728,"connected_time":686000000000,"state":"active","ping":60},{"user_id":364,"name":"hemethe1st","steam_id":76561199142532480,"connected_time":2485000000000,"state":"active","ping":114},{"user_id":366,"name":"Distou","steam_id":76561198397886545,"connected_time":2423000000000,"state":"active","ping":108},{"user_id":386,"name":"Remy the rat","steam_id":76561198080519558,"connected_time":679000000000,"state":"active","ping":82}]},{"server_id":402,"name":"Uncletopia | Chicago | 3 | All Maps","name_short":"chi-3","host":"chi-1.us.uncletopia.com","port":27035,"enabled":true,"region":"us-central","cc":"us","latitude":41.881832,"longitude":-87.62318,"reserved":0,"last_update":"0001-01-01T00:00:00Z","name_a2s":"Uncletopia | Chicago | 3 | All Maps","protocol":17,"map":"pl_pier","folder":"tf","game":"Team Fortress","app_id":440,"player_count":24,"max_players":24,"Bots":0,"server_type":"Dedicated","server_os":"Linux","password":true,"vac":true,"version":"7757534","steam_id":85568392924515191,"keywords":["nocrits","nodmgspread","payload","uncletopia"],"game_id":440,"stv_port":27036,"stv_name":"Uncletopia | Chicago | 3 | All Maps | STV","players":[{"user_id":611,"name":"[DEEP] Danmar33","steam_id":76561198056453091,"connected_time":2937000000000,"state":"active","ping":52},{"user_id":627,"name":"TheFallenFox","steam_id":76561199074190919,"connected_time":2577000000000,"state":"active","ping":140},{"user_id":616,"name":"Uncle Majic the Hip Hop Magicia","steam_id":76561198107924303,"connected_time":2793000000000,"state":"active","ping":57},{"user_id":575,"name":"Dr. Dick","steam_id":76561198138011922,"connected_time":3997000000000,"state":"active","ping":84},{"user_id":531,"name":"Nilantive","steam_id":76561198177565082,"connected_time":6350000000000,"state":"active","ping":60},{"user_id":646,"name":"debin","steam_id":76561198070711217,"connected_time":316000000000,"state":"active","ping":55},{"user_id":613,"name":"AFK BRB","steam_id":76561198104939612,"connected_time":2923000000000,"state":"active","ping":55},{"user_id":515,"name":"mischievous imp","steam_id":76561199074875663,"connected_time":7726000000000,"state":"active","ping":80},{"user_id":643,"name":"Bubbles","steam_id":76561198071240096,"connected_time":667000000000,"state":"active","ping":57},{"user_id":615,"name":"Mewysty","steam_id":76561199200480562,"connected_time":2902000000000,"state":"active","ping":119},{"user_id":638,"name":"DAG","steam_id":76561198219508244,"connected_time":791000000000,"state":"active","ping":77},{"user_id":634,"name":"Whorse","steam_id":76561198114141445,"connected_time":1321000000000,"state":"active","ping":76},{"user_id":619,"name":"Take a Sip of Dilk","steam_id":76561198083738022,"connected_time":2772000000000,"state":"active","ping":107},{"user_id":639,"name":"Matella","steam_id":76561198097427947,"connected_time":783000000000,"state":"active","ping":144},{"user_id":622,"name":"Dosario","steam_id":76561198298095535,"connected_time":2726000000000,"state":"active","ping":108},{"user_id":645,"name":"Joseph Stalin","steam_id":76561198126234142,"connected_time":496000000000,"state":"active","ping":85},{"user_id":642,"name":"Queen Frau the Round","steam_id":76561197999942134,"connected_time":687000000000,"state":"active","ping":45},{"user_id":647,"name":"Ye ( I Love Caulk ) West","steam_id":76561198068830312,"connected_time":213000000000,"state":"active","ping":51},{"user_id":535,"name":"THGAwesome","steam_id":76561198162847218,"connected_time":6339000000000,"state":"active","ping":85},{"user_id":644,"name":"Satan-2","steam_id":76561199231742764,"connected_time":622000000000,"state":"active","ping":75},{"user_id":633,"name":"Sudo","steam_id":76561198123714026,"connected_time":2211000000000,"state":"active","ping":108},{"user_id":641,"name":"Saristan","steam_id":76561198093346048,"connected_time":781000000000,"state":"active","ping":61},{"user_id":630,"name":"kitchen crusader","steam_id":76561199217620385,"connected_time":2458000000000,"state":"active","ping":78},{"user_id":586,"name":"vira","steam_id":76561198161412482,"connected_time":3595000000000,"state":"active","ping":94}]},{"server_id":403,"name":"Uncletopia | Chicago | 4 | All Maps","name_short":"chi-4","host":"chi-1.us.uncletopia.com","port":27045,"enabled":true,"region":"us-central","cc":"us","latitude":41.881832,"longitude":-87.62318,"reserved":0,"last_update":"0001-01-01T00:00:00Z","name_a2s":"Uncletopia | Chicago | 4 | All Maps","protocol":17,"map":"koth_viaduct","folder":"tf","game":"Team Fortress","app_id":440,"player_count":12,"max_players":24,"Bots":0,"server_type":"Dedicated","server_os":"Linux","password":true,"vac":true,"version":"7757534","steam_id":85568392924515193,"keywords":["cp","nocrits","nodmgspread","uncletopia"],"game_id":440,"stv_port":27046,"stv_name":"Uncletopia | Chicago | 4 | All Maps | STV","players":[{"user_id":800,"name":"Slashes","steam_id":76561197968573499,"connected_time":15000000000,"state":"active","ping":51},{"user_id":786,"name":"DO NOT call me BART SIMPSON!!","steam_id":76561198069113375,"connected_time":1417000000000,"state":"active","ping":67},{"user_id":794,"name":"groond","steam_id":76561198309426720,"connected_time":439000000000,"state":"active","ping":59},{"user_id":771,"name":"PENIS_DIFFED3180","steam_id":76561198041017977,"connected_time":2136000000000,"state":"active","ping":72},{"user_id":780,"name":"The Muffin Man","steam_id":76561199088286427,"connected_time":1622000000000,"state":"active","ping":100},{"user_id":785,"name":"Nodin","steam_id":76561198135757376,"connected_time":1439000000000,"state":"active","ping":57},{"user_id":753,"name":"O(log 2 n)","steam_id":76561198149666258,"connected_time":3039000000000,"state":"active","ping":45},{"user_id":688,"name":"Bullwinkle J. Moose","steam_id":76561198075977196,"connected_time":6955000000000,"state":"active","ping":75},{"user_id":759,"name":"FROYO yumyum","steam_id":76561198150567198,"connected_time":2912000000000,"state":"active","ping":60},{"user_id":782,"name":"fat","steam_id":76561198101352327,"connected_time":1598000000000,"state":"active","ping":49},{"user_id":626,"name":"dbelow_","steam_id":76561198056148853,"connected_time":10367000000000,"state":"active","ping":63},{"user_id":789,"name":"Dispenser (Twan)","steam_id":76561197991064908,"connected_time":1231000000000,"state":"active","ping":57}]},{"server_id":36,"name":"Uncletopia | Chicago | 5 | All Maps","name_short":"chi-5","host":"chi-2.us.uncletopia.com","port":27015,"enabled":true,"region":"us-central","cc":"us","latitude":41.881832,"longitude":-87.62318,"reserved":0,"last_update":"0001-01-01T00:00:00Z","name_a2s":"Uncletopia | Chicago | 5 | All Maps","protocol":17,"map":"pl_borneo","folder":"tf","game":"Team Fortress","app_id":440,"player_count":24,"max_players":24,"Bots":0,"server_type":"Dedicated","server_os":"Linux","password":true,"vac":true,"version":"7757534","steam_id":85568392924866362,"keywords":["nocrits","nodmgspread","payload","uncletopia"],"game_id":440,"stv_port":27016,"stv_name":"Uncletopia | Chicago | 5 | All Maps | STV","players":[{"user_id":287,"name":"Deep Peepus","steam_id":76561198205395757,"connected_time":2949000000000,"state":"active","ping":93},{"user_id":309,"name":"[DATS‚û°] Sugar Meowth","steam_id":76561197995251793,"connected_time":1379000000000,"state":"active","ping":92},{"user_id":269,"name":"Max","steam_id":76561198029782094,"connected_time":5045000000000,"state":"active","ping":69},{"user_id":307,"name":"fish","steam_id":76561198059510391,"connected_time":2260000000000,"state":"active","ping":92},{"user_id":310,"name":"Geight","steam_id":76561197991645292,"connected_time":1342000000000,"state":"active","ping":116},{"user_id":329,"name":"BigOrca54","steam_id":76561198181360271,"connected_time":206000000000,"state":"active","ping":56},{"user_id":325,"name":"Small tiny feet","steam_id":76561199141538581,"connected_time":556000000000,"state":"active","ping":115},{"user_id":312,"name":"kametro4","steam_id":76561198835430429,"connected_time":1288000000000,"state":"active","ping":82},{"user_id":330,"name":"Sarbanes-Oxley","steam_id":76561197975898479,"connected_time":193000000000,"state":"active","ping":73},{"user_id":326,"name":"Pie‚Ñ¢","steam_id":76561198158312625,"connected_time":514000000000,"state":"active","ping":118},{"user_id":327,"name":"Highway Gothic","steam_id":76561198118102935,"connected_time":502000000000,"state":"active","ping":60},{"user_id":294,"name":"doo doo","steam_id":76561198049784197,"connected_time":2845000000000,"state":"active","ping":92},{"user_id":314,"name":"blonde","steam_id":76561198335823677,"connected_time":1279000000000,"state":"active","ping":83},{"user_id":316,"name":"[S]Mr. X [No Monitor]","steam_id":76561197963746035,"connected_time":1203000000000,"state":"active","ping":107},{"user_id":298,"name":"shart","steam_id":76561198039002838,"connected_time":2753000000000,"state":"active","ping":77},{"user_id":331,"name":"Papi Pescado","steam_id":76561198039500575,"connected_time":190000000000,"state":"active","ping":74},{"user_id":323,"name":"KB","steam_id":76561198314767260,"connected_time":749000000000,"state":"active","ping":85},{"user_id":299,"name":"4oh4","steam_id":76561198388047861,"connected_time":2735000000000,"state":"active","ping":84},{"user_id":317,"name":"Droz misses shots","steam_id":76561198072555204,"connected_time":1194000000000,"state":"active","ping":53},{"user_id":318,"name":"potateking","steam_id":76561198066579830,"connected_time":1192000000000,"state":"active","ping":167},{"user_id":319,"name":"Six","steam_id":76561198052472822,"connected_time":1190000000000,"state":"active","ping":71},{"user_id":320,"name":"Resident Dumbfox","steam_id":76561198049019822,"connected_time":1183000000000,"state":"active","ping":71},{"user_id":306,"name":"Chumber","steam_id":76561198098433947,"connected_time":2463000000000,"state":"active","ping":110},{"user_id":332,"name":"Warzard","steam_id":76561199154051413,"connected_time":95000000000,"state":"active","ping":122}]},{"server_id":37,"name":"Uncletopia | Chicago | 6 | All Maps","name_short":"chi-6","host":"chi-2.us.uncletopia.com","port":27025,"enabled":true,"region":"us-central","cc":"us","latitude":41.881832,"longitude":-87.62318,"reserved":0,"last_update":"0001-01-01T00:00:00Z","name_a2s":"Uncletopia | Chicago | 6 | All Maps","protocol":17,"map":"koth_lakeside_final","folder":"tf","game":"Team Fortress","app_id":440,"player_count":24,"max_players":24,"Bots":0,"server_type":"Dedicated","server_os":"Linux","password":true,"vac":true,"version":"7757534","steam_id":85568392924866363,"keywords":["cp","nocrits","nodmgspread","uncletopia"],"game_id":440,"stv_port":27026,"stv_name":"Uncletopia | Chicago | 6 | All Maps | STV","players":[{"user_id":221,"name":"Tuchpi","steam_id":76561197967581205,"connected_time":1977000000000,"state":"active","ping":67},{"user_id":243,"name":"the entire cast of shrek 2","steam_id":76561198367019006,"connected_time":977000000000,"state":"active","ping":67},{"user_id":222,"name":"Dot.","steam_id":76561198149463984,"connected_time":1972000000000,"state":"active","ping":51},{"user_id":98,"name":"nah","steam_id":76561198130671890,"connected_time":9398000000000,"state":"active","ping":45},{"user_id":220,"name":"Reed.Dook","steam_id":76561198046625664,"connected_time":2124000000000,"state":"active","ping":63},{"user_id":242,"name":"Your Local NPR Station","steam_id":76561198143830279,"connected_time":1026000000000,"state":"active","ping":56},{"user_id":244,"name":"soup","steam_id":76561198099977572,"connected_time":960000000000,"state":"active","ping":51},{"user_id":207,"name":"Piyono","steam_id":76561197962188504,"connected_time":3251000000000,"state":"active","ping":68},{"user_id":204,"name":"moist","steam_id":76561198301176077,"connected_time":3391000000000,"state":"active","ping":60},{"user_id":255,"name":"bottom pride burger","steam_id":76561198322247602,"connected_time":418000000000,"state":"active","ping":105},{"user_id":250,"name":"CeigeBirb","steam_id":76561198068538473,"connected_time":754000000000,"state":"active","ping":77},{"user_id":257,"name":"MIST","steam_id":76561198225551836,"connected_time":246000000000,"state":"active","ping":48},{"user_id":253,"name":"leonardo doujinshi","steam_id":76561198025810326,"connected_time":664000000000,"state":"active","ping":60},{"user_id":226,"name":"MC-ReN‚Ñ¢","steam_id":76561197974243668,"connected_time":1881000000000,"state":"active","ping":59},{"user_id":251,"name":"Coober","steam_id":76561199138880533,"connected_time":734000000000,"state":"active","ping":77},{"user_id":254,"name":"bass player","steam_id":76561198203357580,"connected_time":502000000000,"state":"active","ping":72},{"user_id":237,"name":"‚Ö£ Rebel","steam_id":76561198056377621,"connected_time":1258000000000,"state":"active","ping":60},{"user_id":97,"name":"parsuh","steam_id":76561198057197772,"connected_time":9432000000000,"state":"active","ping":94},{"user_id":256,"name":"Fostrel","steam_id":76561198152160601,"connected_time":366000000000,"state":"active","ping":81},{"user_id":247,"name":"Cheesfist","steam_id":76561198065674398,"connected_time":913000000000,"state":"active","ping":93},{"user_id":248,"name":"DrPeprico","steam_id":76561198072503137,"connected_time":910000000000,"state":"active","ping":73},{"user_id":249,"name":"Plz Don't Uber I'm Shit","steam_id":76561198344624703,"connected_time":905000000000,"state":"active","ping":88},{"user_id":241,"name":"Ëß£ÊîæÈ¶ôÊ∏ØÊó∂‰ª£ÁöÑÈù©ÂëΩ","steam_id":76561198003230524,"connected_time":1111000000000,"state":"active","ping":47},{"user_id":191,"name":"mcdoubble","steam_id":76561198089126832,"connected_time":4115000000000,"state":"active","ping":82}]},{"server_id":38,"name":"Uncletopia | Chicago | 7 | Stopwatch Beta","name_short":"chi-7","host":"chi-2.us.uncletopia.com","port":27035,"enabled":true,"region":"us-central","cc":"us","latitude":41.881832,"longitude":-87.62318,"reserved":0,"last_update":"0001-01-01T00:00:00Z","name_a2s":"Uncletopia | Chicago | 7 | Stopwatch Beta","protocol":17,"map":"workshop/koth_ramjam_rc1.ugc459778887","folder":"tf","game":"Team Fortress","app_id":440,"player_count":0,"max_players":24,"Bots":0,"server_type":"Dedicated","server_os":"Linux","password":true,"vac":true,"version":"7757534","steam_id":85568392924866364,"keywords":["cp","nocrits","nodmgspread","uncletopia"],"game_id":440,"stv_port":27036,"stv_name":"Uncletopia | Chicago | 7 | Stopwatch Beta | STV","players":null},{"server_id":39,"name":"Uncletopia | Chicago | 8 | Community","name_short":"chi-8","host":"chi-2.us.uncletopia.com","port":27045,"enabled":true,"region":"us-central","cc":"us","latitude":41.881832,"longitude":-87.62318,"reserved":0,"last_update":"0001-01-01T00:00:00Z","name_a2s":"Uncletopia | Chicago | 8 | Community","protocol":17,"map":"workshop/pl_boundary_final1.ugc456799153","folder":"tf","game":"Team Fortress","app_id":440,"player_count":0,"max_players":24,"Bots":0,"server_type":"Dedicated","server_os":"Linux","password":true,"vac":true,"version":"7757534","steam_id":85568392924866365,"keywords":["nocrits","nodmgspread","payload","uncletopia"],"game_id":440,"stv_port":27046,"stv_name":"Uncletopia | Chicago | 8 | Community | STV","players":null},{"server_id":8,"name":"Uncletopia | Dallas | 1 | All Maps","name_short":"dal-1","host":"dal-1.us.uncletopia.com","port":27015,"enabled":true,"region":"us-central","cc":"us","latitude":32.779167,"longitude":-96.80889,"reserved":0,"last_update":"0001-01-01T00:00:00Z","name_a2s":"Uncletopia | Dallas | 1 | All Maps","protocol":17,"map":"koth_cascade","folder":"tf","game":"Team Fortress","app_id":440,"player_count":24,"max_players":24,"Bots":0,"server_type":"Dedicated","server_os":"Linux","password":true,"vac":true,"version":"7757534","steam_id":85568392924469986,"keywords":["cp","nocrits","nodmgspread","uncletopia"],"game_id":440,"stv_port":27016,"stv_name":"Uncletopia | Dallas | 1 | All Maps | STV","players":[{"user_id":554,"name":"giura","steam_id":76561197986794525,"connected_time":323000000000,"state":"active","ping":82},{"user_id":285,"name":"Brass beast heavy","steam_id":76561198274197623,"connected_time":20146000000000,"state":"active","ping":159},{"user_id":541,"name":"tls123","steam_id":76561198093357928,"connected_time":1108000000000,"state":"active","ping":80},{"user_id":474,"name":"Mitty","steam_id":76561198014177684,"connected_time":8212000000000,"state":"active","ping":85},{"user_id":542,"name":"Anti-Capitalist","steam_id":76561198131179644,"connected_time":901000000000,"state":"active","ping":71},{"user_id":555,"name":"HP OfficeJet Pro 8600 Plus N911","steam_id":76561198828043376,"connected_time":108000000000,"state":"active","ping":123},{"user_id":552,"name":"eryn üó∫","steam_id":76561198004433070,"connected_time":555000000000,"state":"active","ping":48},{"user_id":551,"name":"Luffa Rigno","steam_id":76561197998700507,"connected_time":710000000000,"state":"active","ping":107},{"user_id":515,"name":"Toasty","steam_id":76561198001136776,"connected_time":3575000000000,"state":"active","ping":55},{"user_id":556,"name":"Dad","steam_id":76561199091290729,"connected_time":82000000000,"state":"active","ping":66},{"user_id":540,"name":"Pneumo.","steam_id":76561197987911883,"connected_time":1328000000000,"state":"active","ping":121},{"user_id":544,"name":"Scromch","steam_id":76561198045211728,"connected_time":894000000000,"state":"active","ping":100},{"user_id":463,"name":"Grinski","steam_id":76561198054787727,"connected_time":8977000000000,"state":"active","ping":104},{"user_id":531,"name":"Kritz enjoyer","steam_id":76561197979056451,"connected_time":2269000000000,"state":"active","ping":91},{"user_id":548,"name":"Yuurg","steam_id":76561198057035968,"connected_time":850000000000,"state":"active","ping":89},{"user_id":546,"name":"xthyl","steam_id":76561199361299006,"connected_time":874000000000,"state":"active","ping":78},{"user_id":547,"name":"LazyPix3l","steam_id":76561198830323952,"connected_time":864000000000,"state":"active","ping":121},{"user_id":472,"name":"The Robot Menace","steam_id":76561198043390413,"connected_time":8220000000000,"state":"active","ping":53},{"user_id":525,"name":"iluvtoust","steam_id":76561198869269207,"connected_time":2351000000000,"state":"active","ping":54},{"user_id":499,"name":"Dictator Noodle","steam_id":76561198277243768,"connected_time":4965000000000,"state":"active","ping":84},{"user_id":553,"name":"Arrythmia","steam_id":76561198093748123,"connected_time":546000000000,"state":"active","ping":105},{"user_id":550,"name":"Seller of Waffles","steam_id":76561198296018138,"connected_time":833000000000,"state":"active","ping":74},{"user_id":539,"name":"bballbhuddababyboy","steam_id":76561198079516052,"connected_time":1371000000000,"state":"active","ping":80},{"user_id":467,"name":"„ÄåJimbo Reference„Äç","steam_id":76561198016078541,"connected_time":8761000000000,"state":"active","ping":86}]},{"server_id":108,"name":"Uncletopia | Dallas | 2 | All Maps","name_short":"dal-2","host":"dal-1.us.uncletopia.com","port":27025,"enabled":true,"region":"us-central","cc":"us","latitude":32.779167,"longitude":-96.80889,"reserved":0,"last_update":"0001-01-01T00:00:00Z","name_a2s":"Uncletopia | Dallas | 2 | All Maps","protocol":17,"map":"pl_frontier_final","folder":"tf","game":"Team Fortress","app_id":440,"player_count":23,"max_players":24,"Bots":0,"server_type":"Dedicated","server_os":"Linux","password":true,"vac":true,"version":"7757534","steam_id":85568392924469988,"keywords":["nocrits","nodmgspread","payload","uncletopia"],"game_id":440,"stv_port":27026,"stv_name":"Uncletopia | Dallas | 2 | All Maps | STV","players":[{"user_id":236,"name":"poggerchamp","steam_id":76561199145124973,"connected_time":5333000000000,"state":"active","ping":63},{"user_id":306,"name":"blademiss","steam_id":76561198062083019,"connected_time":186000000000,"state":"active","ping":82},{"user_id":290,"name":"Black Mesa","steam_id":76561198262864682,"connected_time":1278000000000,"state":"active","ping":95},{"user_id":303,"name":"NBA Youngboy","steam_id":76561199118797200,"connected_time":742000000000,"state":"active","ping":53},{"user_id":291,"name":"boobies arc","steam_id":76561198316753540,"connected_time":1258000000000,"state":"active","ping":30},{"user_id":244,"name":"Kaya #SaveTF2","steam_id":76561198053907503,"connected_time":4870000000000,"state":"active","ping":91},{"user_id":278,"name":"PaintMyMeow","steam_id":76561198056860387,"connected_time":2167000000000,"state":"active","ping":71},{"user_id":307,"name":"Krow","steam_id":76561198010392099,"connected_time":101000000000,"state":"active","ping":53},{"user_id":269,"name":"Pak Industrial","steam_id":76561198057900166,"connected_time":3426000000000,"state":"active","ping":57},{"user_id":308,"name":"fimbrescesar11","steam_id":76561199474053926,"connected_time":99000000000,"state":"active","ping":59},{"user_id":302,"name":"Keg","steam_id":76561198242688458,"connected_time":830000000000,"state":"active","ping":64},{"user_id":309,"name":"Quietsharp","steam_id":76561198277968438,"connected_time":97000000000,"state":"active","ping":85},{"user_id":268,"name":"Weebsbros","steam_id":76561198056750224,"connected_time":3435000000000,"state":"active","ping":91},{"user_id":299,"name":"Alf Creepypasta","steam_id":76561198841844093,"connected_time":1017000000000,"state":"active","ping":77},{"user_id":289,"name":"It's Filthy in There!","steam_id":76561198030171717,"connected_time":1515000000000,"state":"active","ping":85},{"user_id":220,"name":"pie","steam_id":76561198210234779,"connected_time":6065000000000,"state":"active","ping":80},{"user_id":310,"name":"Psych03","steam_id":76561198061753667,"connected_time":85000000000,"state":"active","ping":71},{"user_id":311,"name":"John16Mark","steam_id":76561198119445407,"connected_time":62000000000,"state":"active","ping":63},{"user_id":305,"name":"Rude Dog","steam_id":76561197980385816,"connected_time":246000000000,"state":"active","ping":114},{"user_id":312,"name":"The Trash Man","steam_id":76561198071375772,"connected_time":43000000000,"state":"active","ping":70},{"user_id":296,"name":"Shichinitzi","steam_id":76561198003833732,"connected_time":1120000000000,"state":"active","ping":62},{"user_id":295,"name":"merge without looking","steam_id":76561198056702628,"connected_time":1198000000000,"state":"active","ping":44},{"user_id":221,"name":"Toadisveryscary","steam_id":76561198208432761,"connected_time":6063000000000,"state":"active","ping":65}]},{"server_id":5,"name":"Uncletopia | Frankfurt | 1 | All Maps","name_short":"frk-1","host":"frk-1.de.uncletopia.com","port":27015,"enabled":true,"region":"eu","cc":"de","latitude":50.110924,"longitude":8.682127,"reserved":0,"last_update":"0001-01-01T00:00:00Z","name_a2s":"Uncletopia | Frankfurt | 1 | All Maps","protocol":17,"map":"pl_snowycoast","folder":"tf","game":"Team Fortress","app_id":440,"player_count":0,"max_players":24,"Bots":0,"server_type":"Dedicated","server_os":"Linux","password":true,"vac":true,"version":"7757534","steam_id":85568392924469989,"keywords":["nocrits","nodmgspread","payload","uncletopia"],"game_id":440,"stv_port":27016,"stv_name":"Uncletopia | Frankfurt | 1 | All Maps | STV","players":null},{"server_id":110,"name":"Uncletopia | Frankfurt | 2 | All Maps","name_short":"frk-2","host":"frk-1.de.uncletopia.com","port":27025,"enabled":true,"region":"eu","cc":"de","latitude":50.110924,"longitude":8.682127,"reserved":0,"last_update":"0001-01-01T00:00:00Z","name_a2s":"Uncletopia | Frankfurt | 2 | All Maps","protocol":17,"map":"pl_snowycoast","folder":"tf","game":"Team Fortress","app_id":440,"player_count":0,"max_players":24,"Bots":0,"server_type":"Dedicated","server_os":"Linux","password":true,"vac":true,"version":"7757534","steam_id":85568392924469990,"keywords":["nocrits","nodmgspread","payload","uncletopia"],"game_id":440,"stv_port":27026,"stv_name":"Uncletopia | Frankfurt | 2 | All Maps | STV","players":null},{"server_id":308,"name":"Uncletopia | Frankfurt | 3 | All Maps","name_short":"frk-3","host":"frk-1.de.uncletopia.com","port":27035,"enabled":true,"region":"eu","cc":"de","latitude":50.110924,"longitude":8.682127,"reserved":0,"last_update":"0001-01-01T00:00:00Z","name_a2s":"Uncletopia | Frankfurt | 3 | All Maps","protocol":17,"map":"cp_altitude","folder":"tf","game":"Team Fortress","app_id":440,"player_count":0,"max_players":24,"Bots":0,"server_type":"Dedicated","server_os":"Linux","password":true,"vac":true,"version":"7757534","steam_id":85568392924504274,"keywords":["cp","nocrits","nodmgspread","uncletopia"],"game_id":440,"stv_port":27036,"stv_name":"Uncletopia | Frankfurt | 3 | All Maps | STV","players":null},{"server_id":309,"name":"Uncletopia | Frankfurt | 4 | All Maps","name_short":"frk-4","host":"frk-1.de.uncletopia.com","port":27045,"enabled":true,"region":"eu","cc":"de","latitude":50.110924,"longitude":8.682127,"reserved":0,"last_update":"0001-01-01T00:00:00Z","name_a2s":"Uncletopia | Frankfurt | 4 | All Maps","protocol":17,"map":"cp_altitude","folder":"tf","game":"Team Fortress","app_id":440,"player_count":0,"max_players":24,"Bots":0,"server_type":"Dedicated","server_os":"Linux","password":true,"vac":true,"version":"7757534","steam_id":85568392924504275,"keywords":["cp","nocrits","nodmgspread","uncletopia"],"game_id":440,"stv_port":27046,"stv_name":"Uncletopia | Frankfurt | 4 | All Maps | STV","players":null},{"server_id":310,"name":"Uncletopia | Frankfurt | 5 | All Maps","name_short":"frk-5","host":"frk-1.de.uncletopia.com","port":27055,"enabled":true,"region":"eu","cc":"de","latitude":50.110924,"longitude":8.682127,"reserved":0,"last_update":"0001-01-01T00:00:00Z","name_a2s":"Uncletopia | Frankfurt | 5 | All Maps","protocol":17,"map":"cp_altitude","folder":"tf","game":"Team Fortress","app_id":440,"player_count":0,"max_players":24,"Bots":0,"server_type":"Dedicated","server_os":"Linux","password":true,"vac":true,"version":"7757534","steam_id":85568392924504277,"keywords":["cp","nocrits","nodmgspread","uncletopia"],"game_id":440,"stv_port":27056,"stv_name":"Uncletopia | Frankfurt | 5 | All Maps | STV","players":null},{"server_id":311,"name":"Uncletopia | Frankfurt | 6 | All Maps","name_short":"frk-6","host":"frk-1.de.uncletopia.com","port":27065,"enabled":true,"region":"eu","cc":"de","latitude":50.110924,"longitude":8.682127,"reserved":0,"last_update":"0001-01-01T00:00:00Z","name_a2s":"Uncletopia | Frankfurt | 6 | All Maps","protocol":17,"map":"koth_highpass","folder":"tf","game":"Team Fortress","app_id":440,"player_count":0,"max_players":24,"Bots":0,"server_type":"Dedicated","server_os":"Linux","password":true,"vac":true,"version":"7757534","steam_id":85568392924504278,"keywords":["cp","nocrits","nodmgspread","uncletopia"],"game_id":440,"stv_port":27066,"stv_name":"Uncletopia | Frankfurt | 6 | All Maps | STV","players":null},{"server_id":23,"name":"Uncletopia | Frankfurt | 7 | Stopwatch Beta","name_short":"frk-7","host":"frk-1.de.uncletopia.com","port":27075,"enabled":true,"region":"eu","cc":"de","latitude":50.110924,"longitude":8.682127,"reserved":0,"last_update":"0001-01-01T00:00:00Z","name_a2s":"Uncletopia | Frankfurt | 7 | Stopwatch Beta","protocol":17,"map":"pl_frontier_final","folder":"tf","game":"Team Fortress","app_id":440,"player_count":0,"max_players":24,"Bots":0,"server_type":"Dedicated","server_os":"Linux","password":true,"vac":true,"version":"7757534","steam_id":85568392924742827,"keywords":["nocrits","nodmgspread","payload","uncletopia"],"game_id":440,"stv_port":27076,"stv_name":"Uncletopia | Frankfurt | 7 | Stopwatch Beta | STV","players":null},{"server_id":24,"name":"Uncletopia | Frankfurt | 8 | Community","name_short":"frk-8","host":"frk-1.de.uncletopia.com","port":27085,"enabled":true,"region":"eu","cc":"de","latitude":50.110924,"longitude":8.682127,"reserved":0,"last_update":"0001-01-01T00:00:00Z","name_a2s":"Uncletopia | Frankfurt | 8 | Community","protocol":17,"map":"pl_badwater","folder":"tf","game":"Team Fortress","app_id":440,"player_count":0,"max_players":24,"Bots":0,"server_type":"Dedicated","server_os":"Linux","password":true,"vac":true,"version":"7757534","steam_id":85568392924742828,"keywords":["nocrits","nodmgspread","payload","uncletopia"],"game_id":440,"stv_port":27086,"stv_name":"Uncletopia | Frankfurt | 8 | Community | STV","players":null},{"server_id":202,"name":"Uncletopia | Hong Kong | 1 | All Maps","name_short":"hgk-1","host":"hgk-1.hk.uncletopia.com","port":27015,"enabled":true,"region":"asia","cc":"hk","latitude":22.302711,"longitude":114.177216,"reserved":0,"last_update":"0001-01-01T00:00:00Z","name_a2s":"Uncletopia | Hong Kong | 1 | All Maps","protocol":17,"map":"pl_barnblitz","folder":"tf","game":"Team Fortress","app_id":440,"player_count":1,"max_players":24,"Bots":0,"server_type":"Dedicated","server_os":"Linux","password":true,"vac":true,"version":"7757534","steam_id":85568392924494504,"keywords":["nocrits","nodmgspread","payload","uncletopia"],"game_id":440,"stv_port":27016,"stv_name":"Uncletopia | Hong Kong | 1 | All Maps | STV","players":[{"user_id":28,"name":"corpse_cadaver","steam_id":76561199225360457,"connected_time":330000000000,"state":"active","ping":62}]},{"server_id":1,"name":"Uncletopia | Los Angeles | 1 | All Maps","name_short":"lax-1","host":"lax-1.us.uncletopia.com","port":27015,"enabled":true,"region":"us-west","cc":"us","latitude":33.94279,"longitude":-118.41004,"reserved":0,"last_update":"0001-01-01T00:00:00Z","name_a2s":"Uncletopia | Los Angeles | 1 | All Maps","protocol":17,"map":"cp_dustbowl","folder":"tf","game":"Team Fortress","app_id":440,"player_count":24,"max_players":24,"Bots":0,"server_type":"Dedicated","server_os":"Linux","password":true,"vac":true,"version":"7757534","steam_id":85568392924469991,"keywords":["cp","nocrits","nodmgspread","uncletopia"],"game_id":440,"stv_port":27016,"stv_name":"Uncletopia | Los Angeles | 1 | All Maps | STV","players":[{"user_id":299,"name":"online","steam_id":76561198192531745,"connected_time":604000000000,"state":"active","ping":54},{"user_id":243,"name":"≈ölimak","steam_id":76561198296476784,"connected_time":4308000000000,"state":"active","ping":166},{"user_id":300,"name":"Razz","steam_id":76561198148353186,"connected_time":564000000000,"state":"active","ping":54},{"user_id":275,"name":"Uprightmoss7528","steam_id":76561199200138486,"connected_time":2720000000000,"state":"active","ping":57},{"user_id":303,"name":"Doctor X (Michiko Daemon)","steam_id":76561199106264424,"connected_time":295000000000,"state":"active","ping":107},{"user_id":177,"name":"matto1120","steam_id":76561198201321499,"connected_time":10898000000000,"state":"active","ping":57},{"user_id":301,"name":"Tcmano","steam_id":76561198057233847,"connected_time":564000000000,"state":"active","ping":46},{"user_id":197,"name":"times table","steam_id":76561198341452558,"connected_time":9609000000000,"state":"active","ping":78},{"user_id":304,"name":"An00bis","steam_id":76561198044084508,"connected_time":285000000000,"state":"active","ping":49},{"user_id":201,"name":"hoopswoop9","steam_id":76561199203050556,"connected_time":9149000000000,"state":"active","ping":58},{"user_id":296,"name":"Swag5","steam_id":76561198065311356,"connected_time":906000000000,"state":"active","ping":67},{"user_id":257,"name":"Shamrock Shake Oct.10.2020 @8pm","steam_id":76561198833313201,"connected_time":3889000000000,"state":"active","ping":54},{"user_id":292,"name":"Burgie","steam_id":76561198066425198,"connected_time":1041000000000,"state":"active","ping":45},{"user_id":251,"name":"The Horny","steam_id":76561198863639459,"connected_time":4041000000000,"state":"active","ping":79},{"user_id":290,"name":"Opiee05","steam_id":76561198213181016,"connected_time":1078000000000,"state":"active","ping":85},{"user_id":267,"name":"r u guys going trick or treatin","steam_id":76561199074585110,"connected_time":2939000000000,"state":"active","ping":31},{"user_id":233,"name":"Frazzer","steam_id":76561198088679707,"connected_time":5602000000000,"state":"active","ping":52},{"user_id":253,"name":"Incredible Donk","steam_id":76561198427360423,"connected_time":3970000000000,"state":"active","ping":78},{"user_id":264,"name":"compulsive","steam_id":76561198212421513,"connected_time":3364000000000,"state":"active","ping":45},{"user_id":282,"name":"pooblygonzooly2012","steam_id":76561198982054880,"connected_time":2310000000000,"state":"active","ping":56},{"user_id":298,"name":"Swag6","steam_id":76561198064110837,"connected_time":819000000000,"state":"active","ping":52},{"user_id":242,"name":"Krazy","steam_id":76561198835502709,"connected_time":4328000000000,"state":"active","ping":36},{"user_id":293,"name":"pete_the_cat_2014","steam_id":76561198199266047,"connected_time":1039000000000,"state":"active","ping":90},{"user_id":294,"name":"Batso","steam_id":76561198106589452,"connected_time":1037000000000,"state":"active","ping":50}]},{"server_id":112,"name":"Uncletopia | Los Angeles | 2 | All Maps","name_short":"lax-2","host":"lax-1.us.uncletopia.com","port":27025,"enabled":true,"region":"us-west","cc":"us","latitude":33.94279,"longitude":-118.41004,"reserved":0,"last_update":"0001-01-01T00:00:00Z","name_a2s":"Uncletopia | Los Angeles | 2 | All Maps","protocol":17,"map":"pl_frontier_final","folder":"tf","game":"Team Fortress","app_id":440,"player_count":0,"max_players":24,"Bots":0,"server_type":"Dedicated","server_os":"Linux","password":true,"vac":true,"version":"7757534","steam_id":85568392924469992,"keywords":["nocrits","nodmgspread","payload","uncletopia"],"game_id":440,"stv_port":27026,"stv_name":"Uncletopia | Los Angeles | 2 | All Maps | STV","players":null},{"server_id":324,"name":"Uncletopia | Los Angeles | 3 | All Maps","name_short":"lax-3","host":"lax-1.us.uncletopia.com","port":27035,"enabled":true,"region":"us-west","cc":"us","latitude":33.94279,"longitude":-118.41004,"reserved":0,"last_update":"0001-01-01T00:00:00Z","name_a2s":"Uncletopia | Los Angeles | 3 | All Maps","protocol":17,"map":"cp_altitude","folder":"tf","game":"Team Fortress","app_id":440,"player_count":23,"max_players":24,"Bots":0,"server_type":"Dedicated","server_os":"Linux","password":true,"vac":true,"version":"7757534","steam_id":85568392924510198,"keywords":["cp","nocrits","nodmgspread","uncletopia"],"game_id":440,"stv_port":27036,"stv_name":"Uncletopia | Los Angeles | 3 | All Maps | STV","players":[{"user_id":89,"name":"Kyna._","steam_id":76561198142758338,"connected_time":2206000000000,"state":"active","ping":56},{"user_id":116,"name":"pneu","steam_id":76561198109052796,"connected_time":473000000000,"state":"active","ping":81},{"user_id":110,"name":"saucy jack","steam_id":76561198307012859,"connected_time":667000000000,"state":"active","ping":225},{"user_id":106,"name":"xbot668","steam_id":76561198018679959,"connected_time":769000000000,"state":"active","ping":86},{"user_id":107,"name":"MrJokester","steam_id":76561198019101367,"connected_time":743000000000,"state":"active","ping":88},{"user_id":113,"name":"computer gaming","steam_id":76561197996284353,"connected_time":522000000000,"state":"active","ping":102},{"user_id":37,"name":"jimbo","steam_id":76561198821535846,"connected_time":5676000000000,"state":"active","ping":107},{"user_id":38,"name":"your mom calls me princess too","steam_id":76561198020400899,"connected_time":5664000000000,"state":"active","ping":74},{"user_id":39,"name":"Poopie Babie","steam_id":76561198047500494,"connected_time":5657000000000,"state":"active","ping":74},{"user_id":117,"name":"THE BIG MAN","steam_id":76561198072179960,"connected_time":413000000000,"state":"active","ping":95},{"user_id":75,"name":"Dentivent","steam_id":76561197971953043,"connected_time":3212000000000,"state":"active","ping":62},{"user_id":114,"name":"poompis","steam_id":76561198160850933,"connected_time":512000000000,"state":"active","ping":45},{"user_id":112,"name":"Seojer","steam_id":76561198234965408,"connected_time":650000000000,"state":"active","ping":110},{"user_id":101,"name":"Antzen","steam_id":76561198041343470,"connected_time":1302000000000,"state":"active","ping":57},{"user_id":119,"name":"Neon","steam_id":76561198315452125,"connected_time":218000000000,"state":"active","ping":56},{"user_id":118,"name":"cilo","steam_id":76561198046163502,"connected_time":310000000000,"state":"active","ping":80},{"user_id":120,"name":"John F. Kennedy","steam_id":76561199014626362,"connected_time":215000000000,"state":"active","ping":67},{"user_id":121,"name":"ketsu","steam_id":76561197966171554,"connected_time":197000000000,"state":"active","ping":161},{"user_id":122,"name":"RoFroYo","steam_id":76561198055760040,"connected_time":187000000000,"state":"active","ping":67},{"user_id":123,"name":"ayaya?","steam_id":76561199000188109,"connected_time":49000000000,"state":"active","ping":50},{"user_id":102,"name":"shy guy","steam_id":76561198151246059,"connected_time":1256000000000,"state":"active","ping":48},{"user_id":124,"name":"Hezb","steam_id":76561199216455504,"connected_time":9000000000,"state":"active","ping":83},{"user_id":56,"name":"‚ô•love my medic gf‚ô•","steam_id":76561198052177917,"connected_time":5295000000000,"state":"active","ping":77}]},{"server_id":25,"name":"Uncletopia | Los Angeles | 4 | Stopwatch Beta","name_short":"lax-4","host":"lax-1.us.uncletopia.com","port":27045,"enabled":true,"region":"us-west","cc":"us","latitude":33.94279,"longitude":-118.41004,"reserved":0,"last_update":"0001-01-01T00:00:00Z","name_a2s":"Uncletopia | Los Angeles | 4 | Stopwatch Beta","protocol":17,"map":"pl_frontier_final","folder":"tf","game":"Team Fortress","app_id":440,"player_count":0,"max_players":24,"Bots":0,"server_type":"Dedicated","server_os":"Linux","password":true,"vac":true,"version":"7757534","steam_id":85568392924510199,"keywords":["nocrits","nodmgspread","payload","uncletopia"],"game_id":440,"stv_port":27046,"stv_name":"Uncletopia | Los Angeles | 4 | Stopwatch Beta | STV","players":null},{"server_id":11,"name":"Uncletopia | London | 1 | All Maps","name_short":"lon-1","host":"lon-1.uk.uncletopia.com","port":27015,"enabled":true,"region":"eu","cc":"gb","latitude":51.509865,"longitude":-0.118092,"reserved":0,"last_update":"0001-01-01T00:00:00Z","name_a2s":"Uncletopia | London | 1 | All Maps","protocol":17,"map":"koth_viaduct","folder":"tf","game":"Team Fortress","app_id":440,"player_count":0,"max_players":24,"Bots":0,"server_type":"Dedicated","server_os":"Linux","password":true,"vac":true,"version":"7757534","steam_id":85568392924367362,"keywords":["cp","nocrits","nodmgspread","uncletopia"],"game_id":440,"stv_port":27016,"stv_name":"Uncletopia | London | 1 | All Maps | STV","players":null},{"server_id":114,"name":"Uncletopia | London | 2 | All Maps","name_short":"lon-2","host":"lon-1.uk.uncletopia.com","port":27025,"enabled":true,"region":"eu","cc":"gb","latitude":51.509865,"longitude":-0.118092,"reserved":0,"last_update":"0001-01-01T00:00:00Z","name_a2s":"Uncletopia | London | 2 | All Maps","protocol":17,"map":"cp_process_final","folder":"tf","game":"Team Fortress","app_id":440,"player_count":0,"max_players":24,"Bots":0,"server_type":"Dedicated","server_os":"Linux","password":true,"vac":true,"version":"7757534","steam_id":85568392924470941,"keywords":["cp","nocrits","nodmgspread","uncletopia"],"game_id":440,"stv_port":27026,"stv_name":"Uncletopia | London | 2 | All Maps | STV","players":null},{"server_id":320,"name":"Uncletopia | London | 3 | All Maps","name_short":"lon-3","host":"lon-1.uk.uncletopia.com","port":27035,"enabled":true,"region":"eu","cc":"gb","latitude":51.509865,"longitude":-0.118092,"reserved":0,"last_update":"0001-01-01T00:00:00Z","name_a2s":"Uncletopia | London | 3 | All Maps","protocol":17,"map":"koth_viaduct","folder":"tf","game":"Team Fortress","app_id":440,"player_count":0,"max_players":24,"Bots":0,"server_type":"Dedicated","server_os":"Linux","password":true,"vac":true,"version":"7757534","steam_id":85568392924510192,"keywords":["cp","nocrits","nodmgspread","uncletopia"],"game_id":440,"stv_port":27036,"stv_name":"Uncletopia | London | 3 | All Maps | STV","players":null},{"server_id":321,"name":"Uncletopia | London | 4 | All Maps","name_short":"lon-4","host":"lon-1.uk.uncletopia.com","port":27045,"enabled":true,"region":"eu","cc":"gb","latitude":51.509865,"longitude":-0.118092,"reserved":0,"last_update":"0001-01-01T00:00:00Z","name_a2s":"Uncletopia | London | 4 | All Maps","protocol":17,"map":"koth_viaduct","folder":"tf","game":"Team Fortress","app_id":440,"player_count":0,"max_players":24,"Bots":0,"server_type":"Dedicated","server_os":"Linux","password":true,"vac":true,"version":"7757534","steam_id":85568392924510193,"keywords":["cp","nocrits","nodmgspread","uncletopia"],"game_id":440,"stv_port":27046,"stv_name":"Uncletopia | London | 4 | All Maps | STV","players":null},{"server_id":21,"name":"Uncletopia | London | 5 | All Maps","name_short":"lon-5","host":"lon-1.uk.uncletopia.com","port":27055,"enabled":true,"region":"eu","cc":"gb","latitude":51.509865,"longitude":-0.118092,"reserved":0,"last_update":"0001-01-01T00:00:00Z","name_a2s":"Uncletopia | London | 5 | All Maps","protocol":17,"map":"cp_process_final","folder":"tf","game":"Team Fortress","app_id":440,"player_count":0,"max_players":24,"Bots":0,"server_type":"Dedicated","server_os":"Linux","password":true,"vac":true,"version":"7757534","steam_id":85568392924742829,"keywords":["cp","nocrits","nodmgspread","uncletopia"],"game_id":440,"stv_port":27056,"stv_name":"Uncletopia | London | 5 | All Maps | STV","players":null},{"server_id":22,"name":"Uncletopia | London | 6 | All Maps","name_short":"lon-6","host":"lon-1.uk.uncletopia.com","port":27065,"enabled":true,"region":"eu","cc":"gb","latitude":51.509865,"longitude":-0.118092,"reserved":0,"last_update":"0001-01-01T00:00:00Z","name_a2s":"Uncletopia | London | 6 | All Maps","protocol":17,"map":"koth_cascade","folder":"tf","game":"Team Fortress","app_id":440,"player_count":0,"max_players":24,"Bots":0,"server_type":"Dedicated","server_os":"Linux","password":true,"vac":true,"version":"7757534","steam_id":85568392924742830,"keywords":["cp","nocrits","nodmgspread","uncletopia"],"game_id":440,"stv_port":27066,"stv_name":"Uncletopia | London | 6 | All Maps | STV","players":null},{"server_id":40,"name":"Uncletopia | London | 7 | No Payload","name_short":"lon-7","host":"lon-1.uk.uncletopia.com","port":27075,"enabled":true,"region":"eu","cc":"gb","latitude":51.509865,"longitude":-0.118092,"reserved":0,"last_update":"0001-01-01T00:00:00Z","name_a2s":"Uncletopia | London | 7 | No Payload","protocol":17,"map":"cp_sunshine","folder":"tf","game":"Team Fortress","app_id":440,"player_count":0,"max_players":24,"Bots":0,"server_type":"Dedicated","server_os":"Linux","password":true,"vac":true,"version":"7757534","steam_id":85568392924964314,"keywords":["cp","nocrits","nodmgspread","uncletopia"],"game_id":440,"stv_port":27076,"stv_name":"Uncletopia | London | 7 | No Payload | STV","players":null},{"server_id":41,"name":"Uncletopia | London | 8 | Community","name_short":"lon-8","host":"lon-1.uk.uncletopia.com","port":27085,"enabled":true,"region":"eu","cc":"gb","latitude":51.509865,"longitude":-0.118092,"reserved":0,"last_update":"0001-01-01T00:00:00Z","name_a2s":"Uncletopia | London | 8 | Community","protocol":17,"map":"workshop/koth_ashville_final.ugc2130459942","folder":"tf","game":"Team Fortress","app_id":440,"player_count":0,"max_players":24,"Bots":0,"server_type":"Dedicated","server_os":"Linux","password":true,"vac":true,"version":"7757534","steam_id":85568392924964315,"keywords":["cp","nocrits","nodmgspread","uncletopia"],"game_id":440,"stv_port":27086,"stv_name":"Uncletopia | London | 8 | Community | STV","players":null},{"server_id":300,"name":"Uncletopia | Montr√©al | 1 | All Maps","name_short":"mtl-1","host":"mtl-1.ca.uncletopia.com","port":27015,"enabled":true,"region":"us-east","cc":"ca","latitude":45.50889,"longitude":-73.56167,"reserved":0,"last_update":"0001-01-01T00:00:00Z","name_a2s":"Uncletopia | Montr√©al | 1 | All Maps","protocol":17,"map":"pl_swiftwater_final1","folder":"tf","game":"Team Fortress","app_id":440,"player_count":0,"max_players":24,"Bots":0,"server_type":"Dedicated","server_os":"Linux","password":true,"vac":true,"version":"7757534","steam_id":85568392924500087,"keywords":["nocrits","nodmgspread","payload","uncletopia"],"game_id":440,"stv_port":27016,"stv_name":"Uncletopia | Montr√©al | 1 | All Maps | STV","players":null},{"server_id":301,"name":"Uncletopia | Montr√©al | 2 | All Maps","name_short":"mtl-2","host":"mtl-1.ca.uncletopia.com","port":27025,"enabled":true,"region":"us-east","cc":"ca","latitude":45.50889,"longitude":-73.56167,"reserved":0,"last_update":"0001-01-01T00:00:00Z","name_a2s":"Uncletopia | Montr√©al | 2 | All Maps","protocol":17,"map":"koth_viaduct","folder":"tf","game":"Team Fortress","app_id":440,"player_count":0,"max_players":24,"Bots":0,"server_type":"Dedicated","server_os":"Linux","password":true,"vac":true,"version":"7757534","steam_id":85568392924500088,"keywords":["cp","nocrits","nodmgspread","uncletopia"],"game_id":440,"stv_port":27026,"stv_name":"Uncletopia | Montr√©al | 2 | All Maps | STV","players":null},{"server_id":302,"name":"Uncletopia | Montr√©al | 3 | All Maps","name_short":"mtl-3","host":"mtl-1.ca.uncletopia.com","port":27035,"enabled":true,"region":"us-east","cc":"ca","latitude":45.50889,"longitude":-73.56167,"reserved":0,"last_update":"0001-01-01T00:00:00Z","name_a2s":"Uncletopia | Montr√©al | 3 | All Maps","protocol":17,"map":"pl_swiftwater_final1","folder":"tf","game":"Team Fortress","app_id":440,"player_count":0,"max_players":24,"Bots":0,"server_type":"Dedicated","server_os":"Linux","password":true,"vac":true,"version":"7757534","steam_id":85568392924500089,"keywords":["nocrits","nodmgspread","payload","uncletopia"],"game_id":440,"stv_port":27036,"stv_name":"Uncletopia | Montr√©al | 3 | All Maps | STV","players":null},{"server_id":303,"name":"Uncletopia | Montr√©al | 4 | No Payload","name_short":"mtl-4","host":"mtl-1.ca.uncletopia.com","port":27045,"enabled":true,"region":"us-east","cc":"ca","latitude":45.50889,"longitude":-73.56167,"reserved":0,"last_update":"0001-01-01T00:00:00Z","name_a2s":"Uncletopia | Montr√©al | 4 | No Payload","protocol":17,"map":"ctf_doublecross","folder":"tf","game":"Team Fortress","app_id":440,"player_count":0,"max_players":24,"Bots":0,"server_type":"Dedicated","server_os":"Linux","password":true,"vac":true,"version":"7757534","steam_id":85568392924500090,"keywords":["ctf","nocrits","nodmgspread","uncletopia"],"game_id":440,"stv_port":27046,"stv_name":"Uncletopia | Montr√©al | 4 | No Payload | STV","players":null},{"server_id":13,"name":"Uncletopia | New York City | 1 | All Maps","name_short":"nyc-1","host":"nyc-1.us.uncletopia.com","port":27015,"enabled":true,"region":"us-east","cc":"us","latitude":40.73061,"longitude":-73.93524,"reserved":0,"last_update":"0001-01-01T00:00:00Z","name_a2s":"Uncletopia | New York City | 1 | All Maps","protocol":17,"map":"pl_frontier_final","folder":"tf","game":"Team Fortress","app_id":440,"player_count":1,"max_players":24,"Bots":0,"server_type":"Dedicated","server_os":"Linux","password":true,"vac":true,"version":"7757534","steam_id":85568392924469993,"keywords":["nocrits","nodmgspread","payload","uncletopia"],"game_id":440,"stv_port":27016,"stv_name":"Uncletopia | New York City | 1 | All Maps | STV","players":[{"user_id":677,"name":"Caffeine Queen","steam_id":76561199042221198,"connected_time":34000000000,"state":"active","ping":47}]},{"server_id":14,"name":"Uncletopia | New York City | 2 | All Maps","name_short":"nyc-2","host":"nyc-1.us.uncletopia.com","port":27025,"enabled":true,"region":"us-east","cc":"us","latitude":40.73061,"longitude":-73.93524,"reserved":0,"last_update":"0001-01-01T00:00:00Z","name_a2s":"Uncletopia | New York City | 2 | All Maps","protocol":17,"map":"pl_borneo","folder":"tf","game":"Team Fortress","app_id":440,"player_count":24,"max_players":24,"Bots":0,"server_type":"Dedicated","server_os":"Linux","password":true,"vac":true,"version":"7757534","steam_id":85568392924469994,"keywords":["nocrits","nodmgspread","payload","uncletopia"],"game_id":440,"stv_port":27026,"stv_name":"Uncletopia | New York City | 2 | All Maps | STV","players":[{"user_id":525,"name":"Ziath","steam_id":76561198094009164,"connected_time":3568000000000,"state":"active","ping":46},{"user_id":549,"name":"snow","steam_id":76561198018184698,"connected_time":1698000000000,"state":"active","ping":59},{"user_id":562,"name":"bl8demast3r","steam_id":76561198006308462,"connected_time":969000000000,"state":"active","ping":58},{"user_id":567,"name":"jaycap","steam_id":76561198061608598,"connected_time":687000000000,"state":"active","ping":65},{"user_id":550,"name":"primordialheath","steam_id":76561199386942638,"connected_time":1696000000000,"state":"active","ping":79},{"user_id":543,"name":"The Lonely Croc","steam_id":76561198123241396,"connected_time":2768000000000,"state":"active","ping":99},{"user_id":548,"name":"fork found in kitchen","steam_id":76561198047689205,"connected_time":1720000000000,"state":"active","ping":54},{"user_id":565,"name":"Sqiddwr","steam_id":76561197998071622,"connected_time":757000000000,"state":"active","ping":89},{"user_id":535,"name":"Luis wid a mic","steam_id":76561198349570006,"connected_time":3308000000000,"state":"active","ping":41},{"user_id":552,"name":"Horrizan","steam_id":76561197965028480,"connected_time":1641000000000,"state":"active","ping":88},{"user_id":544,"name":"lemN","steam_id":76561198079251036,"connected_time":2722000000000,"state":"active","ping":63},{"user_id":560,"name":"Wique","steam_id":76561198071217597,"connected_time":1170000000000,"state":"active","ping":68},{"user_id":554,"name":"lamadre07","steam_id":76561198067337453,"connected_time":1554000000000,"state":"active","ping":119},{"user_id":557,"name":"Darghul the Skeleton Lord","steam_id":76561198004140161,"connected_time":1329000000000,"state":"active","ping":60},{"user_id":538,"name":"kornelius korn","steam_id":76561199228839582,"connected_time":3193000000000,"state":"active","ping":141},{"user_id":561,"name":"Yelowchy","steam_id":76561198199416121,"connected_time":1082000000000,"state":"active","ping":142},{"user_id":517,"name":"Jake","steam_id":76561198018166984,"connected_time":4182000000000,"state":"active","ping":44},{"user_id":556,"name":"Dumb shark enjoyer","steam_id":76561198025646032,"connected_time":1438000000000,"state":"active","ping":68},{"user_id":520,"name":"Phil Collins","steam_id":76561198068868644,"connected_time":4152000000000,"state":"active","ping":116},{"user_id":570,"name":"Heropon","steam_id":76561198105224481,"connected_time":78000000000,"state":"active","ping":57},{"user_id":559,"name":"Wumps","steam_id":76561198207226825,"connected_time":1297000000000,"state":"active","ping":60},{"user_id":569,"name":"NeoN","steam_id":76561198117608366,"connected_time":652000000000,"state":"active","ping":45},{"user_id":519,"name":"deadpixel","steam_id":76561198150249843,"connected_time":4177000000000,"state":"active","ping":75},{"user_id":522,"name":"vvichael","steam_id":76561198238148528,"connected_time":3942000000000,"state":"active","ping":52}]},{"server_id":15,"name":"Uncletopia | New York City | 3 | Stopwatch Beta","name_short":"nyc-3","host":"nyc-1.us.uncletopia.com","port":27035,"enabled":true,"region":"us-east","cc":"us","latitude":40.73061,"longitude":-73.93524,"reserved":0,"last_update":"0001-01-01T00:00:00Z","name_a2s":"Uncletopia | New York City | 3 | Stopwatch Beta","protocol":17,"map":"koth_highpass","folder":"tf","game":"Team Fortress","app_id":440,"player_count":0,"max_players":24,"Bots":0,"server_type":"Dedicated","server_os":"Linux","password":true,"vac":true,"version":"7757534","steam_id":85568392924742820,"keywords":["cp","nocrits","nodmgspread","uncletopia"],"game_id":440,"stv_port":27036,"stv_name":"Uncletopia | New York City | 3 | Stopwatch Beta | STV","players":null},{"server_id":16,"name":"Uncletopia | New York City | 4 | Community","name_short":"nyc-4","host":"nyc-1.us.uncletopia.com","port":27045,"enabled":true,"region":"us-east","cc":"us","latitude":40.73061,"longitude":-73.93524,"reserved":0,"last_update":"0001-01-01T00:00:00Z","name_a2s":"Uncletopia | New York City | 4 | Community","protocol":17,"map":"workshop/koth_ashville_final.ugc2130459942","folder":"tf","game":"Team Fortress","app_id":440,"player_count":0,"max_players":24,"Bots":0,"server_type":"Dedicated","server_os":"Linux","password":true,"vac":true,"version":"7757534","steam_id":85568392924742821,"keywords":["cp","nocrits","nodmgspread","uncletopia"],"game_id":440,"stv_port":27046,"stv_name":"Uncletopia | New York City | 4 | Community | STV","players":null},{"server_id":142,"name":"Uncletopia | S√£o Paulo | 1 | All Maps","name_short":"sao-1","host":"sao-1.br.uncletopia.com","port":27015,"enabled":true,"region":"sa","cc":"br","latitude":-23.533773,"longitude":-46.62529,"reserved":0,"last_update":"0001-01-01T00:00:00Z","name_a2s":"Uncletopia | S√£o Paulo | 1 | All Maps","protocol":17,"map":"koth_cascade","folder":"tf","game":"Team Fortress","app_id":440,"player_count":0,"max_players":24,"Bots":0,"server_type":"Dedicated","server_os":"Linux","password":true,"vac":true,"version":"7757534","steam_id":85568392924469996,"keywords":["cp","nocrits","nodmgspread","uncletopia"],"game_id":440,"stv_port":27016,"stv_name":"Uncletopia | S√£o Paulo | 1 | All Maps | STV","players":null},{"server_id":143,"name":"Uncletopia | S√£o Paulo | 2 | All Maps","name_short":"sao-2","host":"sao-2.br.uncletopia.com","port":27015,"enabled":true,"region":"sa","cc":"br","latitude":-23.533773,"longitude":-46.62529,"reserved":0,"last_update":"0001-01-01T00:00:00Z","name_a2s":"Uncletopia | S√£o Paulo | 2 | All Maps","protocol":17,"map":"koth_highpass","folder":"tf","game":"Team Fortress","app_id":440,"player_count":0,"max_players":24,"Bots":0,"server_type":"Dedicated","server_os":"Linux","password":true,"vac":true,"version":"7757534","steam_id":85568392924485349,"keywords":["cp","nocrits","nodmgspread","uncletopia"],"game_id":440,"stv_port":27016,"stv_name":"Uncletopia | S√£o Paulo | 2 | All Maps | STV","players":null},{"server_id":7,"name":"Uncletopia | Seattle | 1 | All Maps","name_short":"sea-1","host":"sea-1.us.uncletopia.com","port":27015,"enabled":true,"region":"us-west","cc":"us","latitude":47.608013,"longitude":-122.33517,"reserved":0,"last_update":"0001-01-01T00:00:00Z","name_a2s":"Uncletopia | Seattle | 1 | All Maps","protocol":17,"map":"pl_barnblitz","folder":"tf","game":"Team Fortress","app_id":440,"player_count":24,"max_players":24,"Bots":0,"server_type":"Dedicated","server_os":"Linux","password":true,"vac":true,"version":"7757534","steam_id":85568392924469997,"keywords":["nocrits","nodmgspread","payload","uncletopia"],"game_id":440,"stv_port":27016,"stv_name":"Uncletopia | Seattle | 1 | All Maps | STV","players":[{"user_id":659,"name":"doopsies","steam_id":76561198083000867,"connected_time":2352000000000,"state":"active","ping":52},{"user_id":660,"name":"Indefiable","steam_id":76561198219238953,"connected_time":2318000000000,"state":"active","ping":45},{"user_id":684,"name":"Lord Hater","steam_id":76561199158148782,"connected_time":683000000000,"state":"active","ping":57},{"user_id":573,"name":"rat gets the cheese","steam_id":76561198031234032,"connected_time":8441000000000,"state":"active","ping":102},{"user_id":654,"name":"THAT CAT","steam_id":76561198010828625,"connected_time":2434000000000,"state":"active","ping":44},{"user_id":667,"name":"Defeat","steam_id":76561198065203818,"connected_time":1736000000000,"state":"active","ping":42},{"user_id":690,"name":"A Real Human Person","steam_id":76561198144064796,"connected_time":185000000000,"state":"active","ping":83},{"user_id":669,"name":"Crake","steam_id":76561198001959071,"connected_time":1661000000000,"state":"active","ping":59},{"user_id":683,"name":"reiidaya","steam_id":76561198325306660,"connected_time":694000000000,"state":"active","ping":62},{"user_id":679,"name":"goldhed","steam_id":76561198051751133,"connected_time":1043000000000,"state":"active","ping":60},{"user_id":680,"name":"m o ss","steam_id":76561198061341744,"connected_time":891000000000,"state":"active","ping":47},{"user_id":626,"name":"S Q U I S H E  T H A T  C A T","steam_id":76561198293865429,"connected_time":3977000000000,"state":"active","ping":43},{"user_id":607,"name":"Mr.Thirteen","steam_id":76561198047468836,"connected_time":4748000000000,"state":"active","ping":70},{"user_id":685,"name":"hypeoftim","steam_id":76561199195639694,"connected_time":660000000000,"state":"active","ping":97},{"user_id":666,"name":"Res Ipsa","steam_id":76561198041349210,"connected_time":1783000000000,"state":"active","ping":76},{"user_id":687,"name":"o o o o o o o o o","steam_id":76561197993757506,"connected_time":510000000000,"state":"active","ping":74},{"user_id":681,"name":"Jazz Hands","steam_id":76561199225708271,"connected_time":701000000000,"state":"active","ping":61},{"user_id":670,"name":"Flexicus","steam_id":76561198041863013,"connected_time":1590000000000,"state":"active","ping":54},{"user_id":689,"name":"loco503","steam_id":76561198827495121,"connected_time":371000000000,"state":"active","ping":82},{"user_id":671,"name":"MatchMatch","steam_id":76561198048925904,"connected_time":1579000000000,"state":"active","ping":93},{"user_id":619,"name":"The Professor","steam_id":76561198113760863,"connected_time":4261000000000,"state":"active","ping":117},{"user_id":675,"name":"resting neutral face","steam_id":76561197999259502,"connected_time":1260000000000,"state":"active","ping":62},{"user_id":686,"name":"h","steam_id":76561198092186935,"connected_time":648000000000,"state":"active","ping":179},{"user_id":676,"name":"Sleuth","steam_id":76561198418288939,"connected_time":1259000000000,"state":"active","ping":81}]},{"server_id":119,"name":"Uncletopia | Seattle | 2 | All Maps","name_short":"sea-2","host":"sea-1.us.uncletopia.com","port":27025,"enabled":true,"region":"us-west","cc":"us","latitude":47.608013,"longitude":-122.33517,"reserved":0,"last_update":"0001-01-01T00:00:00Z","name_a2s":"Uncletopia | Seattle | 2 | All Maps","protocol":17,"map":"pl_snowycoast","folder":"tf","game":"Team Fortress","app_id":440,"player_count":24,"max_players":24,"Bots":0,"server_type":"Dedicated","server_os":"Linux","password":true,"vac":true,"version":"7757534","steam_id":85568392924469998,"keywords":["nocrits","nodmgspread","payload","uncletopia"],"game_id":440,"stv_port":27026,"stv_name":"Uncletopia | Seattle | 2 | All Maps | STV","players":[{"user_id":471,"name":"Gr8butnotreally","steam_id":76561198133924450,"connected_time":1918000000000,"state":"active","ping":90},{"user_id":464,"name":"Disc0","steam_id":76561198067337267,"connected_time":2187000000000,"state":"active","ping":49},{"user_id":466,"name":"Starbound","steam_id":76561198417285529,"connected_time":2118000000000,"state":"active","ping":95},{"user_id":481,"name":"MonteJT","steam_id":76561198055409360,"connected_time":858000000000,"state":"active","ping":41},{"user_id":472,"name":"gun spy gaming","steam_id":76561198880739963,"connected_time":1875000000000,"state":"active","ping":57},{"user_id":455,"name":"John Calibur","steam_id":76561197999986606,"connected_time":3140000000000,"state":"active","ping":74},{"user_id":470,"name":"Kal3b","steam_id":76561198236708484,"connected_time":2050000000000,"state":"active","ping":63},{"user_id":482,"name":"JanPinyon610","steam_id":76561199238454799,"connected_time":687000000000,"state":"active","ping":48},{"user_id":478,"name":"KingTinkerer","steam_id":76561198226856548,"connected_time":1099000000000,"state":"active","ping":79},{"user_id":453,"name":"John Johnson","steam_id":76561198347510093,"connected_time":3163000000000,"state":"active","ping":63},{"user_id":467,"name":"General Fisticuffs","steam_id":76561198255721392,"connected_time":2105000000000,"state":"active","ping":117},{"user_id":447,"name":"exephur","steam_id":76561198135763234,"connected_time":4051000000000,"state":"active","ping":72},{"user_id":486,"name":"Tybalt","steam_id":76561198142464684,"connected_time":297000000000,"state":"active","ping":90},{"user_id":446,"name":"oo","steam_id":76561198119626492,"connected_time":4069000000000,"state":"active","ping":92},{"user_id":488,"name":"ndvr","steam_id":76561199379200102,"connected_time":134000000000,"state":"active","ping":125},{"user_id":423,"name":"2 Point Tom","steam_id":76561198087617008,"connected_time":5658000000000,"state":"active","ping":56},{"user_id":458,"name":"cool #1 weezer fan","steam_id":76561199172518546,"connected_time":3090000000000,"state":"active","ping":104},{"user_id":485,"name":"SvicidalBug","steam_id":76561198221390504,"connected_time":348000000000,"state":"active","ping":63},{"user_id":487,"name":"Maid 'n' China","steam_id":76561198423392976,"connected_time":293000000000,"state":"active","ping":66},{"user_id":469,"name":"WalkinMan","steam_id":76561198047941142,"connected_time":2058000000000,"state":"active","ping":57},{"user_id":480,"name":"Luami","steam_id":76561198873330971,"connected_time":1060000000000,"state":"active","ping":120},{"user_id":477,"name":"fragadelphia","steam_id":76561198066116363,"connected_time":1106000000000,"state":"active","ping":53},{"user_id":483,"name":"Squid121","steam_id":76561198038832034,"connected_time":670000000000,"state":"active","ping":59},{"user_id":416,"name":"DaBigA","steam_id":76561198326492538,"connected_time":6052000000000,"state":"active","ping":54}]},{"server_id":406,"name":"Uncletopia | Seattle | 3 | Stopwatch Beta","name_short":"sea-3","host":"sea-1.us.uncletopia.com","port":27035,"enabled":true,"region":"us-west","cc":"us","latitude":47.608013,"longitude":-122.33517,"reserved":0,"last_update":"0001-01-01T00:00:00Z","name_a2s":"Uncletopia | Seattle | 3 | Stopwatch Beta","protocol":17,"map":"workshop/cp_reckoner_rc6.ugc674719999","folder":"tf","game":"Team Fortress","app_id":440,"player_count":0,"max_players":24,"Bots":0,"server_type":"Dedicated","server_os":"Linux","password":true,"vac":true,"version":"7757534","steam_id":85568392924515217,"keywords":["cp","nocrits","nodmgspread","uncletopia"],"game_id":440,"stv_port":27036,"stv_name":"Uncletopia | Seattle | 3 | Stopwatch Beta | STV","players":null},{"server_id":17,"name":"Uncletopia | San Francisco | 1 | All Maps","name_short":"sfo-1","host":"sfo-1.us.uncletopia.com","port":27015,"enabled":true,"region":"us-west","cc":"us","latitude":37.77397,"longitude":-122.4313,"reserved":0,"last_update":"0001-01-01T00:00:00Z","name_a2s":"Uncletopia | San Francisco | 1 | All Maps","protocol":17,"map":"cp_dustbowl","folder":"tf","game":"Team Fortress","app_id":440,"player_count":0,"max_players":24,"Bots":0,"server_type":"Dedicated","server_os":"Linux","password":true,"vac":true,"version":"7757534","steam_id":85568392924469999,"keywords":["cp","nocrits","nodmgspread","uncletopia"],"game_id":440,"stv_port":27016,"stv_name":"Uncletopia | San Francisco | 1 | All Maps | STV","players":null},{"server_id":18,"name":"Uncletopia | San Francisco | 2 | All Maps","name_short":"sfo-2","host":"sfo-1.us.uncletopia.com","port":27025,"enabled":true,"region":"us-west","cc":"us","latitude":37.77397,"longitude":-122.4313,"reserved":0,"last_update":"0001-01-01T00:00:00Z","name_a2s":"Uncletopia | San Francisco | 2 | All Maps","protocol":17,"map":"pl_frontier_final","folder":"tf","game":"Team Fortress","app_id":440,"player_count":0,"max_players":24,"Bots":0,"server_type":"Dedicated","server_os":"Linux","password":true,"vac":true,"version":"7757534","steam_id":85568392924470000,"keywords":["nocrits","nodmgspread","payload","uncletopia"],"game_id":440,"stv_port":27026,"stv_name":"Uncletopia | San Francisco | 2 | All Maps | STV","players":null},{"server_id":19,"name":"Uncletopia | San Francisco | 3 | Stopwatch Beta","name_short":"sfo-3","host":"sfo-1.us.uncletopia.com","port":27035,"enabled":true,"region":"us-west","cc":"us","latitude":37.77397,"longitude":-122.4313,"reserved":0,"last_update":"0001-01-01T00:00:00Z","name_a2s":"Uncletopia | San Francisco | 3 | Stopwatch Beta","protocol":17,"map":"pl_borneo","folder":"tf","game":"Team Fortress","app_id":440,"player_count":0,"max_players":24,"Bots":0,"server_type":"Dedicated","server_os":"Linux","password":true,"vac":true,"version":"7757534","steam_id":85568392924742824,"keywords":["nocrits","nodmgspread","payload","uncletopia"],"game_id":440,"stv_port":27036,"stv_name":"Uncletopia | San Francisco | 3 | Stopwatch Beta | STV","players":null},{"server_id":20,"name":"Uncletopia | San Francisco | 4 | Community","name_short":"sfo-4","host":"sfo-1.us.uncletopia.com","port":27045,"enabled":true,"region":"us-west","cc":"us","latitude":37.77397,"longitude":-122.4313,"reserved":0,"last_update":"0001-01-01T00:00:00Z","name_a2s":"Uncletopia | San Francisco | 4 | Community","protocol":17,"map":"workshop/cp_hazyfort_rc6.ugc1365963729","folder":"tf","game":"Team Fortress","app_id":440,"player_count":0,"max_players":24,"Bots":0,"server_type":"Dedicated","server_os":"Linux","password":true,"vac":true,"version":"7757534","steam_id":85568392924742826,"keywords":["cp","nocrits","nodmgspread","uncletopia"],"game_id":440,"stv_port":27046,"stv_name":"Uncletopia | San Francisco | 4 | Community | STV","players":null},{"server_id":141,"name":"Uncletopia | Sydney | 1 | All Maps","name_short":"syd-1","host":"syd-1.au.uncletopia.com","port":27015,"enabled":true,"region":"au","cc":"au","latitude":-33.865143,"longitude":151.2099,"reserved":0,"last_update":"0001-01-01T00:00:00Z","name_a2s":"Uncletopia | Sydney | 1 | All Maps","protocol":17,"map":"pl_badwater","folder":"tf","game":"Team Fortress","app_id":440,"player_count":24,"max_players":24,"Bots":0,"server_type":"Dedicated","server_os":"Linux","password":true,"vac":true,"version":"7757534","steam_id":85568392924470001,"keywords":["nocrits","nodmgspread","payload","uncletopia"],"game_id":440,"stv_port":27016,"stv_name":"Uncletopia | Sydney | 1 | All Maps | STV","players":[{"user_id":300,"name":"Atlas","steam_id":76561198069332870,"connected_time":608000000000,"state":"active","ping":52},{"user_id":280,"name":"the rot doesn't consume","steam_id":76561198866538028,"connected_time":1789000000000,"state":"active","ping":81},{"user_id":301,"name":"oxandrolone?!?!","steam_id":76561198162482376,"connected_time":551000000000,"state":"active","ping":67},{"user_id":290,"name":"Sinister80s","steam_id":76561198343540472,"connected_time":1220000000000,"state":"active","ping":72},{"user_id":269,"name":"DIY Miracle","steam_id":76561198046228152,"connected_time":2294000000000,"state":"active","ping":57},{"user_id":308,"name":"Cart Pusher 5000","steam_id":76561198150917840,"connected_time":156000000000,"state":"active","ping":81},{"user_id":289,"name":"Dragondude_FX","steam_id":76561198993814246,"connected_time":1258000000000,"state":"active","ping":87},{"user_id":291,"name":"AJD","steam_id":76561198093462874,"connected_time":1220000000000,"state":"active","ping":70},{"user_id":208,"name":"Blazey ‰ºäÈÅî ÊîøÂÆó","steam_id":76561197971082275,"connected_time":6256000000000,"state":"active","ping":113},{"user_id":307,"name":"ÎëêÎ∂Ä‚ô•ÏòàÎÇò","steam_id":76561198096162124,"connected_time":288000000000,"state":"active","ping":87},{"user_id":305,"name":"Ninjanoah5","steam_id":76561198858613596,"connected_time":345000000000,"state":"active","ping":51},{"user_id":297,"name":"Dad","steam_id":76561198190255859,"connected_time":931000000000,"state":"active","ping":88},{"user_id":306,"name":"Bamooxa","steam_id":76561198067160709,"connected_time":319000000000,"state":"active","ping":88},{"user_id":309,"name":"Doodles ‚ôõ","steam_id":76561198023807247,"connected_time":81000000000,"state":"active","ping":60},{"user_id":294,"name":"Genuline","steam_id":76561198126426787,"connected_time":1150000000000,"state":"active","ping":48},{"user_id":310,"name":"yew","steam_id":76561198042711548,"connected_time":17000000000,"state":"active","ping":58},{"user_id":203,"name":"Gasoline","steam_id":76561198879023728,"connected_time":6744000000000,"state":"active","ping":103},{"user_id":255,"name":"Spring Yawd Zown","steam_id":76561198340730741,"connected_time":3118000000000,"state":"active","ping":60},{"user_id":285,"name":"grumbleau","steam_id":76561199062322060,"connected_time":1527000000000,"state":"active","ping":70},{"user_id":302,"name":"Dr Barry Mundy PhD","steam_id":76561198034512686,"connected_time":399000000000,"state":"active","ping":72},{"user_id":277,"name":"Jagonite","steam_id":76561198089124961,"connected_time":1901000000000,"state":"active","ping":103},{"user_id":281,"name":"Hippity_Hoppity","steam_id":76561198861050395,"connected_time":1767000000000,"state":"active","ping":68},{"user_id":298,"name":"Pompadouraus","steam_id":76561198327530525,"connected_time":924000000000,"state":"active","ping":77},{"user_id":284,"name":"Zeron","steam_id":76561198125778202,"connected_time":1716000000000,"state":"active","ping":51}]},{"server_id":123,"name":"Uncletopia | Sydney | 2 | All Maps","name_short":"syd-2","host":"syd-1.au.uncletopia.com","port":27025,"enabled":true,"region":"au","cc":"au","latitude":-33.865143,"longitude":151.2099,"reserved":0,"last_update":"0001-01-01T00:00:00Z","name_a2s":"Uncletopia | Sydney | 2 | All Maps","protocol":17,"map":"koth_lakeside_final","folder":"tf","game":"Team Fortress","app_id":440,"player_count":10,"max_players":24,"Bots":0,"server_type":"Dedicated","server_os":"Linux","password":true,"vac":true,"version":"7757534","steam_id":85568392924470002,"keywords":["cp","nocrits","nodmgspread","uncletopia"],"game_id":440,"stv_port":27026,"stv_name":"Uncletopia | Sydney | 2 | All Maps | STV","players":[{"user_id":21,"name":"Peteydog","steam_id":76561198376474981,"connected_time":1072000000000,"state":"active","ping":29},{"user_id":24,"name":"AuroraEchoes","steam_id":76561198288973026,"connected_time":715000000000,"state":"active","ping":40},{"user_id":25,"name":"¬Ø\\_(„ÉÑ)_/¬Ø","steam_id":76561199206182584,"connected_time":660000000000,"state":"active","ping":61},{"user_id":30,"name":"its meckin raw","steam_id":76561199446773766,"connected_time":182000000000,"state":"active","ping":80},{"user_id":27,"name":"Svenge the Oslo Dentist","steam_id":76561199446716139,"connected_time":397000000000,"state":"active","ping":265},{"user_id":28,"name":"DICK KICKEM","steam_id":76561198430721311,"connected_time":363000000000,"state":"active","ping":271},{"user_id":31,"name":"shaymii","steam_id":76561198058562392,"connected_time":164000000000,"state":"active","ping":80},{"user_id":32,"name":"NollReed","steam_id":76561198098501571,"connected_time":93000000000,"state":"active","ping":62},{"user_id":35,"name":"fatal exception error","steam_id":76561198115584374,"connected_time":42000000000,"state":"active","ping":52},{"user_id":34,"name":"Mikey","steam_id":76561198438203131,"connected_time":62000000000,"state":"active","ping":53}]},{"server_id":395,"name":"Uncletopia | Sydney | 3 | All Maps","name_short":"syd-3","host":"syd-1.au.uncletopia.com","port":27035,"enabled":true,"region":"au","cc":"au","latitude":-33.865143,"longitude":151.2099,"reserved":0,"last_update":"0001-01-01T00:00:00Z","name_a2s":"Uncletopia | Sydney | 3 | All Maps","protocol":17,"map":"pl_badwater","folder":"tf","game":"Team Fortress","app_id":440,"player_count":0,"max_players":24,"Bots":0,"server_type":"Dedicated","server_os":"Linux","password":true,"vac":true,"version":"7757534","steam_id":85568392925194467,"keywords":["nocrits","nodmgspread","payload","uncletopia"],"game_id":440,"stv_port":27036,"stv_name":"Uncletopia | Sydney | 3 | All Maps | STV","players":null},{"server_id":396,"name":"Uncletopia | Sydney | 4 | All Maps","name_short":"syd-4","host":"syd-1.au.uncletopia.com","port":27045,"enabled":true,"region":"au","cc":"au","latitude":-33.865143,"longitude":151.2099,"reserved":0,"last_update":"0001-01-01T00:00:00Z","name_a2s":"Uncletopia | Sydney | 4 | All Maps","protocol":17,"map":"koth_cascade","folder":"tf","game":"Team Fortress","app_id":440,"player_count":0,"max_players":24,"Bots":0,"server_type":"Dedicated","server_os":"Linux","password":true,"vac":true,"version":"7757534","steam_id":85568392925397958,"keywords":["cp","nocrits","nodmgspread","uncletopia"],"game_id":440,"stv_port":27046,"stv_name":"Uncletopia | Sydney | 4 | All Maps | STV","players":null},{"server_id":58,"name":"Uncletopia | Sydney | 5 | Stopwatch Beta","name_short":"syd-5","host":"syd-1.au.uncletopia.com","port":27055,"enabled":true,"region":"au","cc":"au","latitude":-33.865143,"longitude":151.2099,"reserved":0,"last_update":"0001-01-01T00:00:00Z","name_a2s":"Uncletopia | Sydney | 5 | Stopwatch Beta","protocol":17,"map":"koth_highpass","folder":"tf","game":"Team Fortress","app_id":440,"player_count":0,"max_players":24,"Bots":0,"server_type":"Dedicated","server_os":"Linux","password":true,"vac":true,"version":"7757534","steam_id":85568392925397959,"keywords":["cp","nocrits","nodmgspread","uncletopia"],"game_id":440,"stv_port":27056,"stv_name":"Uncletopia | Sydney | 5 | Stopwatch Beta | STV","players":null},{"server_id":59,"name":"Uncletopia | Sydney | 6 | Community","name_short":"syd-6","host":"syd-1.au.uncletopia.com","port":27065,"enabled":true,"region":"au","cc":"au","latitude":-33.865143,"longitude":151.2099,"reserved":0,"last_update":"0001-01-01T00:00:00Z","name_a2s":"Uncletopia | Sydney | 6 | Community","protocol":17,"map":"workshop/koth_slaughter_rc1.ugc1712845210","folder":"tf","game":"Team Fortress","app_id":440,"player_count":0,"max_players":24,"Bots":0,"server_type":"Dedicated","server_os":"Linux","password":true,"vac":true,"version":"7757534","steam_id":85568392925397960,"keywords":["cp","nocrits","nodmgspread","uncletopia"],"game_id":440,"stv_port":27066,"stv_name":"Uncletopia | Sydney | 6 | Community | STV","players":null},{"server_id":49,"name":"Uncletopia | Warsaw | 1 | All Maps","name_short":"waw-1","host":"waw-1.pl.uncletopia.com","port":27015,"enabled":true,"region":"eu","cc":"pl","latitude":52.2297,"longitude":21.017532,"reserved":0,"last_update":"0001-01-01T00:00:00Z","name_a2s":"","protocol":0,"map":"","folder":"","game":"","app_id":0,"player_count":0,"max_players":0,"Bots":0,"server_type":"","server_os":"","password":false,"vac":false,"version":"","steam_id":0,"keywords":null,"game_id":0,"stv_port":0,"stv_name":"","players":null},{"server_id":50,"name":"Uncletopia | Warsaw | 2 | All Maps","name_short":"waw-2","host":"waw-1.pl.uncletopia.com","port":27025,"enabled":true,"region":"eu","cc":"pl","latitude":52.2297,"longitude":21.017532,"reserved":0,"last_update":"0001-01-01T00:00:00Z","name_a2s":"Uncletopia | Warsaw | 2 | All Maps","protocol":17,"map":"cp_process_final","folder":"tf","game":"Team Fortress","app_id":440,"player_count":0,"max_players":24,"Bots":0,"server_type":"Dedicated","server_os":"Linux","password":true,"vac":true,"version":"7757534","steam_id":85568392925397851,"keywords":["cp","nocrits","nodmgspread","uncletopia"],"game_id":440,"stv_port":27026,"stv_name":"Uncletopia | Warsaw | 2 | All Maps | STV","players":null},{"server_id":51,"name":"Uncletopia | Warsaw | 3 | All Maps","name_short":"waw-3","host":"waw-1.pl.uncletopia.com","port":27035,"enabled":true,"region":"eu","cc":"pl","latitude":52.2297,"longitude":21.017532,"reserved":0,"last_update":"0001-01-01T00:00:00Z","name_a2s":"Uncletopia | Warsaw | 3 | All Maps","protocol":17,"map":"pl_barnblitz","folder":"tf","game":"Team Fortress","app_id":440,"player_count":0,"max_players":24,"Bots":0,"server_type":"Dedicated","server_os":"Linux","password":true,"vac":true,"version":"7757534","steam_id":85568392925397852,"keywords":["nocrits","nodmgspread","payload","uncletopia"],"game_id":440,"stv_port":27036,"stv_name":"Uncletopia | Warsaw | 3 | All Maps | STV","players":null},{"server_id":52,"name":"Uncletopia | Warsaw | 4 | All Maps","name_short":"waw-4","host":"waw-1.pl.uncletopia.com","port":27045,"enabled":true,"region":"eu","cc":"pl","latitude":52.2297,"longitude":21.017532,"reserved":0,"last_update":"0001-01-01T00:00:00Z","name_a2s":"Uncletopia | Warsaw | 4 | All Maps","protocol":17,"map":"pl_snowycoast","folder":"tf","game":"Team Fortress","app_id":440,"player_count":0,"max_players":24,"Bots":0,"server_type":"Dedicated","server_os":"Linux","password":true,"vac":true,"version":"7757534","steam_id":85568392925397853,"keywords":["nocrits","nodmgspread","payload","uncletopia"],"game_id":440,"stv_port":27046,"stv_name":"Uncletopia | Warsaw | 4 | All Maps | STV","players":null},{"server_id":53,"name":"Uncletopia | Warsaw | 5 | Stopwatch Beta","name_short":"waw-5","host":"waw-1.pl.uncletopia.com","port":27055,"enabled":true,"region":"eu","cc":"pl","latitude":52.2297,"longitude":21.017532,"reserved":0,"last_update":"0001-01-01T00:00:00Z","name_a2s":"Uncletopia | Warsaw | 5 | Stopwatch Beta","protocol":17,"map":"pl_barnblitz","folder":"tf","game":"Team Fortress","app_id":440,"player_count":0,"max_players":24,"Bots":0,"server_type":"Dedicated","server_os":"Linux","password":true,"vac":true,"version":"7757534","steam_id":85568392925397854,"keywords":["nocrits","nodmgspread","payload","uncletopia"],"game_id":440,"stv_port":27056,"stv_name":"Uncletopia | Warsaw | 5 | Stopwatch Beta | STV","players":null},{"server_id":54,"name":"Uncletopia | Warsaw | 6 | Community","name_short":"waw-6","host":"waw-1.pl.uncletopia.com","port":27065,"enabled":true,"region":"eu","cc":"pl","latitude":52.2297,"longitude":21.017532,"reserved":0,"last_update":"0001-01-01T00:00:00Z","name_a2s":"Uncletopia | Warsaw | 6 | Community","protocol":17,"map":"pl_swiftwater_final1","folder":"tf","game":"Team Fortress","app_id":440,"player_count":0,"max_players":24,"Bots":0,"server_type":"Dedicated","server_os":"Linux","password":true,"vac":true,"version":"7757534","steam_id":85568392925397856,"keywords":["nocrits","nodmgspread","payload","uncletopia"],"game_id":440,"stv_port":27066,"stv_name":"Uncletopia | Warsaw | 6 | Community | STV","players":null}]}