{"status":true,"message":"","result":[{"server_id":9,"name":"Uncletopia | Atlanta | 1 | All Maps","name_short":"atl-1","host":"atl-1.us.uncletopia.com","port":27015,"enabled":true,"region":"us-east","cc":"us","latitude":33.753746,"longitude":-84.38633,"reserved":0,"last_update":"0001-01-01T00:00:00Z","name_a2s":"Uncletopia | Atlanta | 1 | All Maps","protocol":17,"map":"pl_badwater","folder":"tf","game":"Team Fortress","app_id":440,"player_count":25,"max_players":24,"Bots":0,"server_type":"Dedicated","server_os":"Linux","password":true,"vac":true,"version":"7757534","steam_id":85568392924469982,"keywords":["nocrits","nodmgspread","payload","uncletopia"],"game_id":440,"stv_port":27016,"stv_name":"Uncletopia | Atlanta | 1 | All Maps | STV","players":[{"user_id":84,"name":"The Goat","steam_id":76561197960432083,"connected_time":4976000000000,"state":"active","ping":89},{"user_id":85,"name":"Sloppy Toppy","steam_id":76561198079481387,"connected_time":4964000000000,"state":"active","ping":86},{"user_id":150,"name":"‚õß","steam_id":76561198021308963,"connected_time":925000000000,"state":"active","ping":76},{"user_id":159,"name":"dr drip.","steam_id":76561198393681429,"connected_time":126000000000,"state":"active","ping":83},{"user_id":136,"name":"A_Malebolgia","steam_id":76561198097722818,"connected_time":1221000000000,"state":"active","ping":79},{"user_id":149,"name":"barker bill","steam_id":76561198018451994,"connected_time":1036000000000,"state":"active","ping":72},{"user_id":160,"name":"ItsBrieDude","steam_id":76561198051971306,"connected_time":112000000000,"state":"active","ping":36},{"user_id":124,"name":"rmx^-^","steam_id":76561197961779026,"connected_time":2821000000000,"state":"active","ping":103},{"user_id":152,"name":"hunterbunney (TRUE BUT REAL)","steam_id":76561198070672899,"connected_time":844000000000,"state":"active","ping":58},{"user_id":81,"name":"truundrscr","steam_id":76561198213525809,"connected_time":5482000000000,"state":"active","ping":111},{"user_id":75,"name":"floofy","steam_id":76561198389769098,"connected_time":5868000000000,"state":"active","ping":74},{"user_id":112,"name":"Mintie","steam_id":76561198120727649,"connected_time":3288000000000,"state":"active","ping":160},{"user_id":157,"name":"HarryjusttHarry","steam_id":76561198982810452,"connected_time":184000000000,"state":"active","ping":112},{"user_id":130,"name":"Rollerlane‚Ñ¢","steam_id":76561198073614732,"connected_time":2148000000000,"state":"active","ping":78},{"user_id":155,"name":"sansa musa","steam_id":76561198163723555,"connected_time":551000000000,"state":"active","ping":73},{"user_id":146,"name":"SUSSY AMOGUS o_O","steam_id":76561199401875693,"connected_time":1091000000000,"state":"active","ping":71},{"user_id":138,"name":"GailusTerran","steam_id":76561198319509387,"connected_time":1145000000000,"state":"active","ping":62},{"user_id":135,"name":"RED1 | icyy","steam_id":76561198968001329,"connected_time":1604000000000,"state":"active","ping":47},{"user_id":148,"name":"MR.PO","steam_id":76561198272031863,"connected_time":1080000000000,"state":"active","ping":85},{"user_id":151,"name":"nhbiker","steam_id":76561198081277675,"connected_time":877000000000,"state":"active","ping":59},{"user_id":161,"name":"Tanner Jarring","steam_id":76561198172024365,"connected_time":105000000000,"state":"connecting","ping":0},{"user_id":133,"name":"joyeuxnoelle","steam_id":76561198062423120,"connected_time":2116000000000,"state":"active","ping":70},{"user_id":128,"name":"Sideways","steam_id":76561198068436083,"connected_time":2632000000000,"state":"active","ping":63},{"user_id":162,"name":"Johnny Esports","steam_id":76561198115812405,"connected_time":82000000000,"state":"active","ping":89},{"user_id":72,"name":"lil hog","steam_id":76561199230929836,"connected_time":6283000000000,"state":"active","ping":83}]},{"server_id":400,"name":"Uncletopia | Atlanta | 3 | Community","name_short":"atl-3","host":"atl-1.us.uncletopia.com","port":27035,"enabled":true,"region":"us-east","cc":"us","latitude":33.753746,"longitude":-84.38633,"reserved":0,"last_update":"0001-01-01T00:00:00Z","name_a2s":"Uncletopia | Atlanta | 3 | Community","protocol":17,"map":"workshop/koth_bagel_rc5.ugc2514036946","folder":"tf","game":"Team Fortress","app_id":440,"player_count":0,"max_players":24,"Bots":0,"server_type":"Dedicated","server_os":"Linux","password":true,"vac":true,"version":"7757534","steam_id":85568392924515187,"keywords":["cp","nocrits","nodmgspread","uncletopia"],"game_id":440,"stv_port":27036,"stv_name":"Uncletopia | Atlanta | 3 | Community | STV","players":null},{"server_id":401,"name":"Uncletopia | Atlanta | 4 | No Payload","name_short":"atl-4","host":"atl-1.us.uncletopia.com","port":27045,"enabled":true,"region":"us-east","cc":"us","latitude":33.753746,"longitude":-84.38633,"reserved":0,"last_update":"0001-01-01T00:00:00Z","name_a2s":"","protocol":0,"map":"","folder":"","game":"","app_id":0,"player_count":0,"max_players":0,"Bots":0,"server_type":"","server_os":"","password":false,"vac":false,"version":"","steam_id":0,"keywords":null,"game_id":0,"stv_port":0,"stv_name":"","players":null},{"server_id":2,"name":"Uncletopia | Chicago | 1 | All Maps","name_short":"chi-1","host":"chi-1.us.uncletopia.com","port":27015,"enabled":true,"region":"us-central","cc":"us","latitude":41.881832,"longitude":-87.62318,"reserved":0,"last_update":"0001-01-01T00:00:00Z","name_a2s":"Uncletopia | Chicago | 1 | All Maps","protocol":17,"map":"pl_borneo","folder":"tf","game":"Team Fortress","app_id":440,"player_count":24,"max_players":24,"Bots":0,"server_type":"Dedicated","server_os":"Linux","password":true,"vac":true,"version":"7757534","steam_id":85568392924469984,"keywords":["nocrits","nodmgspread","payload","uncletopia"],"game_id":440,"stv_port":27016,"stv_name":"Uncletopia | Chicago | 1 | All Maps | STV","players":[{"user_id":371,"name":"PKBEAST_7","steam_id":76561198177136537,"connected_time":9132000000000,"state":"active","ping":89},{"user_id":479,"name":"Enron Hubbard","steam_id":76561198012951411,"connected_time":79000000000,"state":"active","ping":60},{"user_id":429,"name":"defs98","steam_id":76561198134813102,"connected_time":3327000000000,"state":"active","ping":64},{"user_id":465,"name":"SparksKitsune","steam_id":76561198066890691,"connected_time":1151000000000,"state":"active","ping":62},{"user_id":400,"name":"Im High","steam_id":76561198049954886,"connected_time":5504000000000,"state":"active","ping":65},{"user_id":458,"name":"gangster tom","steam_id":76561198031675881,"connected_time":1407000000000,"state":"active","ping":70},{"user_id":459,"name":"Swifgz","steam_id":76561198162875756,"connected_time":1402000000000,"state":"active","ping":62},{"user_id":439,"name":"Bacchus","steam_id":76561198161907499,"connected_time":2336000000000,"state":"active","ping":71},{"user_id":442,"name":"Duckywinner","steam_id":76561198254828139,"connected_time":2267000000000,"state":"active","ping":86},{"user_id":469,"name":"Crimson","steam_id":76561198129326627,"connected_time":755000000000,"state":"active","ping":75},{"user_id":461,"name":"Johnny Lawrence #JohnnyMaxxing","steam_id":76561199367141671,"connected_time":1388000000000,"state":"active","ping":61},{"user_id":478,"name":"jorjor wells","steam_id":76561199073429082,"connected_time":190000000000,"state":"active","ping":75},{"user_id":449,"name":"Nic0","steam_id":76561198305690218,"connected_time":1993000000000,"state":"active","ping":61},{"user_id":430,"name":"gasparmx","steam_id":76561197998611994,"connected_time":3251000000000,"state":"active","ping":107},{"user_id":473,"name":"Big Phony","steam_id":76561199092395311,"connected_time":552000000000,"state":"active","ping":65},{"user_id":450,"name":"‚ô• Femboy‚ô•Ventily ‚ô•","steam_id":76561198157260335,"connected_time":1652000000000,"state":"active","ping":51},{"user_id":436,"name":"Jill the Owl","steam_id":76561197999210583,"connected_time":2390000000000,"state":"active","ping":71},{"user_id":463,"name":"Quark","steam_id":76561198328155605,"connected_time":1378000000000,"state":"active","ping":56},{"user_id":468,"name":"THE SUN","steam_id":76561198357428939,"connected_time":868000000000,"state":"active","ping":78},{"user_id":476,"name":"kametro4","steam_id":76561198835430429,"connected_time":373000000000,"state":"active","ping":81},{"user_id":357,"name":"gaming is for girls","steam_id":76561198240344950,"connected_time":10415000000000,"state":"active","ping":114},{"user_id":445,"name":"fax","steam_id":76561198094228710,"connected_time":2237000000000,"state":"active","ping":148},{"user_id":448,"name":"GamingDC51","steam_id":76561198255089520,"connected_time":2058000000000,"state":"active","ping":63},{"user_id":451,"name":"Craterfist","steam_id":76561198089673771,"connected_time":1453000000000,"state":"active","ping":113}]},{"server_id":106,"name":"Uncletopia | Chicago | 2 | All Maps","name_short":"chi-2","host":"chi-1.us.uncletopia.com","port":27025,"enabled":true,"region":"us-central","cc":"us","latitude":41.881832,"longitude":-87.62318,"reserved":0,"last_update":"0001-01-01T00:00:00Z","name_a2s":"Uncletopia | Chicago | 2 | All Maps","protocol":17,"map":"pl_barnblitz","folder":"tf","game":"Team Fortress","app_id":440,"player_count":24,"max_players":24,"Bots":0,"server_type":"Dedicated","server_os":"Linux","password":true,"vac":true,"version":"7757534","steam_id":85568392924469985,"keywords":["nocrits","nodmgspread","payload","uncletopia"],"game_id":440,"stv_port":27026,"stv_name":"Uncletopia | Chicago | 2 | All Maps | STV","players":[{"user_id":215,"name":"Stormz64","steam_id":76561198239036482,"connected_time":1049000000000,"state":"active","ping":47},{"user_id":210,"name":"gnome_Chompski","steam_id":76561198962543984,"connected_time":2137000000000,"state":"active","ping":87},{"user_id":183,"name":"William Wallace","steam_id":76561199343316814,"connected_time":4257000000000,"state":"active","ping":71},{"user_id":138,"name":"Squid121","steam_id":76561198038832034,"connected_time":5331000000000,"state":"active","ping":114},{"user_id":199,"name":"ExtremeDucks","steam_id":76561198351756464,"connected_time":2869000000000,"state":"active","ping":74},{"user_id":225,"name":"North","steam_id":76561199173696836,"connected_time":612000000000,"state":"active","ping":85},{"user_id":231,"name":"$3.99 Shrimps","steam_id":76561198077272494,"connected_time":311000000000,"state":"active","ping":48},{"user_id":186,"name":"pumba","steam_id":76561198207881077,"connected_time":4060000000000,"state":"active","ping":80},{"user_id":219,"name":"vinny6","steam_id":76561198386735728,"connected_time":849000000000,"state":"active","ping":64},{"user_id":187,"name":"howtobepker","steam_id":76561198115053865,"connected_time":4041000000000,"state":"active","ping":106},{"user_id":216,"name":"hummus in my tummus","steam_id":76561199438698036,"connected_time":1016000000000,"state":"active","ping":51},{"user_id":220,"name":"[chef] iron","steam_id":76561197970888616,"connected_time":835000000000,"state":"active","ping":46},{"user_id":227,"name":"Elizabeth truss","steam_id":76561198058250979,"connected_time":570000000000,"state":"active","ping":100},{"user_id":189,"name":"Fuegan Ra","steam_id":76561198287923849,"connected_time":3975000000000,"state":"active","ping":54},{"user_id":198,"name":"Yuhh","steam_id":76561199112894955,"connected_time":2881000000000,"state":"active","ping":84},{"user_id":192,"name":"turret","steam_id":76561198407070037,"connected_time":3912000000000,"state":"active","ping":65},{"user_id":206,"name":"Hertz Donut","steam_id":76561197983040945,"connected_time":2525000000000,"state":"active","ping":66},{"user_id":204,"name":"Raingnome @SaveTF2","steam_id":76561198007394958,"connected_time":2573000000000,"state":"active","ping":146},{"user_id":223,"name":"7thhelden","steam_id":76561198297428761,"connected_time":737000000000,"state":"active","ping":64},{"user_id":229,"name":"Jaydyn","steam_id":76561198140326797,"connected_time":494000000000,"state":"active","ping":84},{"user_id":228,"name":"MyamE","steam_id":76561198133278462,"connected_time":563000000000,"state":"active","ping":94},{"user_id":213,"name":"Yukon Cornelius","steam_id":76561198261512781,"connected_time":1378000000000,"state":"active","ping":68},{"user_id":209,"name":"Aviyarn","steam_id":76561199074194652,"connected_time":2324000000000,"state":"active","ping":81},{"user_id":218,"name":"Depresso Amber","steam_id":76561198074209737,"connected_time":863000000000,"state":"active","ping":61}]},{"server_id":402,"name":"Uncletopia | Chicago | 3 | All Maps","name_short":"chi-3","host":"chi-1.us.uncletopia.com","port":27035,"enabled":true,"region":"us-central","cc":"us","latitude":41.881832,"longitude":-87.62318,"reserved":0,"last_update":"0001-01-01T00:00:00Z","name_a2s":"Uncletopia | Chicago | 3 | All Maps","protocol":17,"map":"cp_dustbowl","folder":"tf","game":"Team Fortress","app_id":440,"player_count":24,"max_players":24,"Bots":0,"server_type":"Dedicated","server_os":"Linux","password":true,"vac":true,"version":"7757534","steam_id":85568392924515191,"keywords":["cp","nocrits","nodmgspread","uncletopia"],"game_id":440,"stv_port":27036,"stv_name":"Uncletopia | Chicago | 3 | All Maps | STV","players":[{"user_id":80,"name":"Legit_Jaxer","steam_id":76561198172234053,"connected_time":1557000000000,"state":"active","ping":125},{"user_id":95,"name":"Scott","steam_id":76561198161597056,"connected_time":158000000000,"state":"active","ping":67},{"user_id":9,"name":"Jesus Loves You57","steam_id":76561199058833769,"connected_time":5752000000000,"state":"active","ping":102},{"user_id":96,"name":"morbissey","steam_id":76561198072592880,"connected_time":66000000000,"state":"active","ping":45},{"user_id":87,"name":"sky.to16","steam_id":76561199211313763,"connected_time":992000000000,"state":"active","ping":66},{"user_id":51,"name":"RiverEgg","steam_id":76561198888913405,"connected_time":3529000000000,"state":"active","ping":58},{"user_id":89,"name":"C papi","steam_id":76561198027779564,"connected_time":923000000000,"state":"active","ping":75},{"user_id":71,"name":"Roberto Del Fuego","steam_id":76561198043458554,"connected_time":1676000000000,"state":"active","ping":46},{"user_id":88,"name":"evan_is_sauce","steam_id":76561199086802383,"connected_time":942000000000,"state":"active","ping":108},{"user_id":91,"name":"(‚óî) Neville","steam_id":76561198025637970,"connected_time":586000000000,"state":"active","ping":81},{"user_id":81,"name":"Protoshake","steam_id":76561198840276176,"connected_time":1546000000000,"state":"active","ping":73},{"user_id":83,"name":"Chambersite","steam_id":76561198197022399,"connected_time":1380000000000,"state":"active","ping":176},{"user_id":27,"name":"Lawrence Pemberton","steam_id":76561198180863090,"connected_time":4493000000000,"state":"active","ping":81},{"user_id":74,"name":"Slondermin","steam_id":76561198320301349,"connected_time":1657000000000,"state":"active","ping":79},{"user_id":86,"name":"Rappitor (washed)","steam_id":76561198105613110,"connected_time":1010000000000,"state":"active","ping":59},{"user_id":63,"name":"Goromi from the hit game Yakuza","steam_id":76561198173087634,"connected_time":2846000000000,"state":"active","ping":113},{"user_id":38,"name":"abomination","steam_id":76561198167974713,"connected_time":4259000000000,"state":"active","ping":75},{"user_id":85,"name":"Xete","steam_id":76561198403414092,"connected_time":1080000000000,"state":"active","ping":66},{"user_id":33,"name":"Mug Moment Gaming","steam_id":76561198233098136,"connected_time":4358000000000,"state":"active","ping":71},{"user_id":65,"name":"Limasio","steam_id":76561198198176191,"connected_time":2617000000000,"state":"active","ping":89},{"user_id":76,"name":"MrhobbitRequiem","steam_id":76561198976215013,"connected_time":1646000000000,"state":"active","ping":72},{"user_id":77,"name":"BayanTheBear","steam_id":76561198134537476,"connected_time":1646000000000,"state":"active","ping":84},{"user_id":94,"name":"TheManOWar #SaveTF2","steam_id":76561198192268385,"connected_time":302000000000,"state":"active","ping":69},{"user_id":93,"name":"Mervous Thrifty","steam_id":76561198063250819,"connected_time":473000000000,"state":"active","ping":44}]},{"server_id":403,"name":"Uncletopia | Chicago | 4 | All Maps","name_short":"chi-4","host":"chi-1.us.uncletopia.com","port":27045,"enabled":true,"region":"us-central","cc":"us","latitude":41.881832,"longitude":-87.62318,"reserved":0,"last_update":"0001-01-01T00:00:00Z","name_a2s":"Uncletopia | Chicago | 4 | All Maps","protocol":17,"map":"koth_viaduct","folder":"tf","game":"Team Fortress","app_id":440,"player_count":0,"max_players":24,"Bots":0,"server_type":"Dedicated","server_os":"Linux","password":true,"vac":true,"version":"7757534","steam_id":85568392924515193,"keywords":["cp","nocrits","nodmgspread","uncletopia"],"game_id":440,"stv_port":27046,"stv_name":"Uncletopia | Chicago | 4 | All Maps | STV","players":null},{"server_id":36,"name":"Uncletopia | Chicago | 5 | All Maps","name_short":"chi-5","host":"chi-2.us.uncletopia.com","port":27015,"enabled":true,"region":"us-central","cc":"us","latitude":41.881832,"longitude":-87.62318,"reserved":0,"last_update":"0001-01-01T00:00:00Z","name_a2s":"Uncletopia | Chicago | 5 | All Maps","protocol":17,"map":"cp_gorge","folder":"tf","game":"Team Fortress","app_id":440,"player_count":24,"max_players":24,"Bots":0,"server_type":"Dedicated","server_os":"Linux","password":true,"vac":true,"version":"7757534","steam_id":85568392924866362,"keywords":["cp","nocrits","nodmgspread","uncletopia"],"game_id":440,"stv_port":27016,"stv_name":"Uncletopia | Chicago | 5 | All Maps | STV","players":[{"user_id":282,"name":"lukamine","steam_id":76561198166827208,"connected_time":133000000000,"state":"active","ping":104},{"user_id":285,"name":"Snimca","steam_id":76561198453519709,"connected_time":16000000000,"state":"active","ping":68},{"user_id":286,"name":"neet","steam_id":76561197968115168,"connected_time":14000000000,"state":"active","ping":53},{"user_id":272,"name":"Weak","steam_id":76561198857135096,"connected_time":1961000000000,"state":"active","ping":79},{"user_id":269,"name":"Herr M√ºller","steam_id":76561198064876829,"connected_time":1974000000000,"state":"active","ping":94},{"user_id":270,"name":"Fresh0c0","steam_id":76561198271933283,"connected_time":1972000000000,"state":"active","ping":62},{"user_id":271,"name":"StarLy","steam_id":76561198174428289,"connected_time":1962000000000,"state":"active","ping":70},{"user_id":281,"name":"Warzard","steam_id":76561199154051413,"connected_time":141000000000,"state":"active","ping":111},{"user_id":262,"name":"Totouri","steam_id":76561198004229789,"connected_time":2253000000000,"state":"active","ping":64},{"user_id":242,"name":"Blitzy","steam_id":76561198149472890,"connected_time":4044000000000,"state":"active","ping":71},{"user_id":265,"name":"Inevitable","steam_id":76561198210050169,"connected_time":2027000000000,"state":"active","ping":75},{"user_id":273,"name":"MEDIC!","steam_id":76561198149344029,"connected_time":1933000000000,"state":"active","ping":69},{"user_id":283,"name":"Kasane","steam_id":76561198209006780,"connected_time":128000000000,"state":"active","ping":79},{"user_id":274,"name":"Some wet dude","steam_id":76561198143744178,"connected_time":1914000000000,"state":"active","ping":63},{"user_id":276,"name":"All 24 Pok√©mon movies at once","steam_id":76561198164738311,"connected_time":1673000000000,"state":"active","ping":71},{"user_id":253,"name":"Room","steam_id":76561199174579733,"connected_time":3494000000000,"state":"active","ping":82},{"user_id":266,"name":"rustyorion","steam_id":76561198439186347,"connected_time":2022000000000,"state":"active","ping":116},{"user_id":259,"name":"Carl, Good to see you","steam_id":76561198070574075,"connected_time":2640000000000,"state":"active","ping":70},{"user_id":277,"name":"lost in spaaaaace","steam_id":76561199085974120,"connected_time":1545000000000,"state":"active","ping":69},{"user_id":130,"name":"mars (she/they)","steam_id":76561198127459772,"connected_time":13471000000000,"state":"active","ping":70},{"user_id":227,"name":"Windex","steam_id":76561198105561395,"connected_time":4971000000000,"state":"active","ping":75},{"user_id":252,"name":"Fudgely","steam_id":76561198039425862,"connected_time":3498000000000,"state":"active","ping":63},{"user_id":279,"name":"Dispenser (Twan)","steam_id":76561197991064908,"connected_time":241000000000,"state":"active","ping":63},{"user_id":244,"name":"üÖúüÖîüÖîüÖöüÖ¢üÖ£üÖî\ufffd\ufffd\ufffd","steam_id":76561197999748343,"connected_time":4036000000000,"state":"active","ping":63}]},{"server_id":37,"name":"Uncletopia | Chicago | 6 | All Maps","name_short":"chi-6","host":"chi-2.us.uncletopia.com","port":27025,"enabled":true,"region":"us-central","cc":"us","latitude":41.881832,"longitude":-87.62318,"reserved":0,"last_update":"0001-01-01T00:00:00Z","name_a2s":"Uncletopia | Chicago | 6 | All Maps","protocol":17,"map":"koth_cascade","folder":"tf","game":"Team Fortress","app_id":440,"player_count":0,"max_players":24,"Bots":0,"server_type":"Dedicated","server_os":"Linux","password":true,"vac":true,"version":"7757534","steam_id":85568392924866363,"keywords":["cp","nocrits","nodmgspread","uncletopia"],"game_id":440,"stv_port":27026,"stv_name":"Uncletopia | Chicago | 6 | All Maps | STV","players":null},{"server_id":38,"name":"Uncletopia | Chicago | 7 | Stopwatch Beta","name_short":"chi-7","host":"chi-2.us.uncletopia.com","port":27035,"enabled":true,"region":"us-central","cc":"us","latitude":41.881832,"longitude":-87.62318,"reserved":0,"last_update":"0001-01-01T00:00:00Z","name_a2s":"Uncletopia | Chicago | 7 | Stopwatch Beta","protocol":17,"map":"pl_upward","folder":"tf","game":"Team Fortress","app_id":440,"player_count":0,"max_players":24,"Bots":0,"server_type":"Dedicated","server_os":"Linux","password":true,"vac":true,"version":"7757534","steam_id":85568392924866364,"keywords":["nocrits","nodmgspread","payload","uncletopia"],"game_id":440,"stv_port":27036,"stv_name":"Uncletopia | Chicago | 7 | Stopwatch Beta | STV","players":null},{"server_id":39,"name":"Uncletopia | Chicago | 8 | Community","name_short":"chi-8","host":"chi-2.us.uncletopia.com","port":27045,"enabled":true,"region":"us-central","cc":"us","latitude":41.881832,"longitude":-87.62318,"reserved":0,"last_update":"0001-01-01T00:00:00Z","name_a2s":"Uncletopia | Chicago | 8 | Community","protocol":17,"map":"workshop/cp_hazyfort_rc6.ugc1365963729","folder":"tf","game":"Team Fortress","app_id":440,"player_count":2,"max_players":24,"Bots":0,"server_type":"Dedicated","server_os":"Linux","password":true,"vac":true,"version":"7757534","steam_id":85568392924866365,"keywords":["cp","nocrits","nodmgspread","uncletopia"],"game_id":440,"stv_port":27046,"stv_name":"Uncletopia | Chicago | 8 | Community | STV","players":[{"user_id":21,"name":"BIGGEST MAC","steam_id":76561198847517098,"connected_time":455000000000,"state":"active","ping":80},{"user_id":23,"name":"Alex Jones","steam_id":76561198272738226,"connected_time":284000000000,"state":"active","ping":87}]},{"server_id":8,"name":"Uncletopia | Dallas | 1 | All Maps","name_short":"dal-1","host":"dal-1.us.uncletopia.com","port":27015,"enabled":true,"region":"us-central","cc":"us","latitude":32.779167,"longitude":-96.80889,"reserved":0,"last_update":"0001-01-01T00:00:00Z","name_a2s":"Uncletopia | Dallas | 1 | All Maps","protocol":17,"map":"cp_dustbowl","folder":"tf","game":"Team Fortress","app_id":440,"player_count":22,"max_players":24,"Bots":0,"server_type":"Dedicated","server_os":"Linux","password":true,"vac":true,"version":"7757534","steam_id":85568392924469986,"keywords":["cp","nocrits","nodmgspread","uncletopia"],"game_id":440,"stv_port":27016,"stv_name":"Uncletopia | Dallas | 1 | All Maps | STV","players":[{"user_id":448,"name":"whool","steam_id":76561198332704108,"connected_time":511000000000,"state":"active","ping":75},{"user_id":442,"name":"RipHunter77","steam_id":76561198272973014,"connected_time":595000000000,"state":"active","ping":77},{"user_id":455,"name":"NW","steam_id":76561199092907535,"connected_time":54000000000,"state":"active","ping":131},{"user_id":450,"name":"dog","steam_id":76561198263873491,"connected_time":442000000000,"state":"active","ping":58},{"user_id":454,"name":"Wolbey","steam_id":76561198042148095,"connected_time":141000000000,"state":"active","ping":72},{"user_id":457,"name":"nigiri emoji","steam_id":76561197999527768,"connected_time":7000000000,"state":"spawning","ping":61},{"user_id":395,"name":"Hunto","steam_id":76561198328052562,"connected_time":2185000000000,"state":"active","ping":104},{"user_id":372,"name":"Junky","steam_id":76561198049612322,"connected_time":3039000000000,"state":"active","ping":73},{"user_id":341,"name":"Drakon","steam_id":76561198078210822,"connected_time":5611000000000,"state":"active","ping":89},{"user_id":453,"name":"Reyoku","steam_id":76561199119948282,"connected_time":203000000000,"state":"active","ping":46},{"user_id":444,"name":"the12xu","steam_id":76561198197086561,"connected_time":582000000000,"state":"active","ping":95},{"user_id":446,"name":"oxbudy","steam_id":76561198022120207,"connected_time":560000000000,"state":"active","ping":62},{"user_id":351,"name":"\"Gay Panic\"","steam_id":76561198132531594,"connected_time":4858000000000,"state":"active","ping":75},{"user_id":405,"name":"Fat Retard","steam_id":76561198054261312,"connected_time":1793000000000,"state":"active","ping":80},{"user_id":390,"name":"Cookies The Fox","steam_id":76561198200960402,"connected_time":2329000000000,"state":"active","ping":113},{"user_id":443,"name":"Ap1hw","steam_id":76561199122883466,"connected_time":593000000000,"state":"active","ping":57},{"user_id":376,"name":"AAAAAAAAAAAAAAAAAAAAAAAAAAAAAAA","steam_id":76561198125467937,"connected_time":2783000000000,"state":"active","ping":97},{"user_id":445,"name":"Jambalaya","steam_id":76561198072147746,"connected_time":581000000000,"state":"active","ping":72},{"user_id":456,"name":"Randy \"the Man\" Johnson","steam_id":76561198039124445,"connected_time":53000000000,"state":"active","ping":92},{"user_id":447,"name":"ewer","steam_id":76561198046613374,"connected_time":554000000000,"state":"active","ping":102},{"user_id":440,"name":"box","steam_id":76561198985635309,"connected_time":882000000000,"state":"active","ping":93},{"user_id":381,"name":"Blue Protogen - 001198","steam_id":76561198145791867,"connected_time":2550000000000,"state":"active","ping":81}]},{"server_id":108,"name":"Uncletopia | Dallas | 2 | All Maps","name_short":"dal-2","host":"dal-1.us.uncletopia.com","port":27025,"enabled":true,"region":"us-central","cc":"us","latitude":32.779167,"longitude":-96.80889,"reserved":0,"last_update":"0001-01-01T00:00:00Z","name_a2s":"Uncletopia | Dallas | 2 | All Maps","protocol":17,"map":"pl_frontier_final","folder":"tf","game":"Team Fortress","app_id":440,"player_count":25,"max_players":24,"Bots":0,"server_type":"Dedicated","server_os":"Linux","password":true,"vac":true,"version":"7757534","steam_id":85568392924469988,"keywords":["nocrits","nodmgspread","payload","uncletopia"],"game_id":440,"stv_port":27026,"stv_name":"Uncletopia | Dallas | 2 | All Maps | STV","players":[{"user_id":270,"name":"reece","steam_id":76561198065924206,"connected_time":669000000000,"state":"active","ping":86},{"user_id":255,"name":"Colonel Salt","steam_id":76561198207009563,"connected_time":1480000000000,"state":"active","ping":55},{"user_id":233,"name":"TheSmolPopato","steam_id":76561199076606348,"connected_time":2978000000000,"state":"active","ping":82},{"user_id":253,"name":"MerkyWaters","steam_id":76561197998853063,"connected_time":1984000000000,"state":"active","ping":79},{"user_id":256,"name":"Aurora","steam_id":76561198271981179,"connected_time":1463000000000,"state":"active","ping":75},{"user_id":228,"name":"Cambonieboo","steam_id":76561198139174433,"connected_time":3366000000000,"state":"active","ping":74},{"user_id":260,"name":"carlosalobog17","steam_id":76561199412962152,"connected_time":1372000000000,"state":"active","ping":187},{"user_id":254,"name":"Project_Counter","steam_id":76561198152786076,"connected_time":1837000000000,"state":"active","ping":54},{"user_id":261,"name":"TheRiGuy21","steam_id":76561199466243640,"connected_time":1370000000000,"state":"active","ping":77},{"user_id":275,"name":"c0dy","steam_id":76561198847749278,"connected_time":195000000000,"state":"active","ping":46},{"user_id":273,"name":"Quansen","steam_id":76561198151594550,"connected_time":225000000000,"state":"active","ping":77},{"user_id":237,"name":"PotatoIsUs","steam_id":76561198241109482,"connected_time":2386000000000,"state":"active","ping":54},{"user_id":259,"name":"bottom pride burger","steam_id":76561198322247602,"connected_time":1400000000000,"state":"active","ping":90},{"user_id":269,"name":"catrinaisahuman","steam_id":76561198281355729,"connected_time":820000000000,"state":"active","ping":61},{"user_id":265,"name":"Jailbreaker186","steam_id":76561199079970931,"connected_time":1284000000000,"state":"active","ping":158},{"user_id":276,"name":"Cam(era)","steam_id":76561198285054047,"connected_time":160000000000,"state":"active","ping":66},{"user_id":277,"name":"Tanner Jarring","steam_id":76561198172024365,"connected_time":98000000000,"state":"connecting","ping":0},{"user_id":266,"name":"Revolver Ocelot","steam_id":76561198282747929,"connected_time":1225000000000,"state":"active","ping":112},{"user_id":271,"name":"–°–ª–æ–∂–∏–≤–µ–π! :o3","steam_id":76561199121632136,"connected_time":535000000000,"state":"active","ping":68},{"user_id":223,"name":"JUNKIL D. JUNKIL","steam_id":76561198835144780,"connected_time":3680000000000,"state":"active","ping":102},{"user_id":224,"name":"K o y ≈ç t e","steam_id":76561198397407059,"connected_time":3666000000000,"state":"active","ping":99},{"user_id":133,"name":"That70sDog","steam_id":76561198119396142,"connected_time":10707000000000,"state":"active","ping":70},{"user_id":250,"name":"Paco","steam_id":76561198023504958,"connected_time":2038000000000,"state":"active","ping":71},{"user_id":272,"name":"Romo","steam_id":76561198243101572,"connected_time":308000000000,"state":"active","ping":70},{"user_id":278,"name":"NerdyEnforcement","steam_id":76561198437710820,"connected_time":69000000000,"state":"active","ping":88}]},{"server_id":5,"name":"Uncletopia | Frankfurt | 1 | All Maps","name_short":"frk-1","host":"frk-1.de.uncletopia.com","port":27015,"enabled":true,"region":"eu","cc":"de","latitude":50.110924,"longitude":8.682127,"reserved":0,"last_update":"0001-01-01T00:00:00Z","name_a2s":"Uncletopia | Frankfurt | 1 | All Maps","protocol":17,"map":"pl_barnblitz","folder":"tf","game":"Team Fortress","app_id":440,"player_count":18,"max_players":24,"Bots":0,"server_type":"Dedicated","server_os":"Linux","password":true,"vac":true,"version":"7757534","steam_id":85568392924469989,"keywords":["nocrits","nodmgspread","payload","uncletopia"],"game_id":440,"stv_port":27016,"stv_name":"Uncletopia | Frankfurt | 1 | All Maps | STV","players":[{"user_id":522,"name":"Archos","steam_id":76561198181820631,"connected_time":164000000000,"state":"active","ping":95},{"user_id":512,"name":"‚ô•Femboy Alabamo‚ô•","steam_id":76561198307037169,"connected_time":342000000000,"state":"active","ping":83},{"user_id":523,"name":"w4gthp0h","steam_id":76561198133193445,"connected_time":152000000000,"state":"active","ping":77},{"user_id":517,"name":"xristosblin","steam_id":76561199043074852,"connected_time":274000000000,"state":"active","ping":86},{"user_id":509,"name":"tomydjoh","steam_id":76561198077421906,"connected_time":541000000000,"state":"active","ping":48},{"user_id":412,"name":"Fat Pigeon","steam_id":76561198817940142,"connected_time":8839000000000,"state":"active","ping":49},{"user_id":513,"name":"Yngwie J. Malmsteen","steam_id":76561198242834532,"connected_time":338000000000,"state":"active","ping":61},{"user_id":514,"name":"Pan Pan","steam_id":76561199074670515,"connected_time":332000000000,"state":"active","ping":77},{"user_id":518,"name":"UptownFall","steam_id":76561198356707725,"connected_time":267000000000,"state":"active","ping":53},{"user_id":460,"name":"Arcader","steam_id":76561198109860110,"connected_time":6805000000000,"state":"active","ping":60},{"user_id":502,"name":"pink sunset","steam_id":76561198089183373,"connected_time":1195000000000,"state":"active","ping":55},{"user_id":521,"name":"Roe Jogan","steam_id":76561198871991529,"connected_time":201000000000,"state":"active","ping":73},{"user_id":516,"name":"Yung Pussy Baker","steam_id":76561198353865337,"connected_time":323000000000,"state":"active","ping":58},{"user_id":524,"name":"shiny","steam_id":76561198074416851,"connected_time":148000000000,"state":"active","ping":75},{"user_id":442,"name":"Suetolog","steam_id":76561199053090212,"connected_time":7960000000000,"state":"active","ping":52},{"user_id":505,"name":"mohemmedmokhter2005","steam_id":76561199197650506,"connected_time":832000000000,"state":"active","ping":108},{"user_id":525,"name":"dan","steam_id":76561198098572024,"connected_time":144000000000,"state":"active","ping":64},{"user_id":526,"name":"BIGGERDANGO","steam_id":76561198247876394,"connected_time":136000000000,"state":"active","ping":62}]},{"server_id":110,"name":"Uncletopia | Frankfurt | 2 | All Maps","name_short":"frk-2","host":"frk-1.de.uncletopia.com","port":27025,"enabled":true,"region":"eu","cc":"de","latitude":50.110924,"longitude":8.682127,"reserved":0,"last_update":"0001-01-01T00:00:00Z","name_a2s":"Uncletopia | Frankfurt | 2 | All Maps","protocol":17,"map":"pl_frontier_final","folder":"tf","game":"Team Fortress","app_id":440,"player_count":22,"max_players":24,"Bots":0,"server_type":"Dedicated","server_os":"Linux","password":true,"vac":true,"version":"7757534","steam_id":85568392924469990,"keywords":["nocrits","nodmgspread","payload","uncletopia"],"game_id":440,"stv_port":27026,"stv_name":"Uncletopia | Frankfurt | 2 | All Maps | STV","players":[{"user_id":270,"name":"Deacon Dracul","steam_id":76561198046880663,"connected_time":258000000000,"state":"active","ping":108},{"user_id":245,"name":"mishka.*","steam_id":76561198040003628,"connected_time":1192000000000,"state":"active","ping":61},{"user_id":272,"name":"Cosmetic brain","steam_id":76561198055936410,"connected_time":55000000000,"state":"active","ping":75},{"user_id":269,"name":"Wade Wilson's Spoilt C4","steam_id":76561198013884709,"connected_time":431000000000,"state":"active","ping":71},{"user_id":241,"name":"Fart Sniffer","steam_id":76561198064513206,"connected_time":1436000000000,"state":"active","ping":72},{"user_id":242,"name":"Vanta_BlackLD","steam_id":76561198346271576,"connected_time":1397000000000,"state":"active","ping":56},{"user_id":266,"name":"Cocsam","steam_id":76561198050827179,"connected_time":653000000000,"state":"active","ping":58},{"user_id":271,"name":":)","steam_id":76561198103988618,"connected_time":198000000000,"state":"active","ping":66},{"user_id":250,"name":"Laax","steam_id":76561198938409558,"connected_time":1156000000000,"state":"active","ping":86},{"user_id":256,"name":"Mad Szalinski","steam_id":76561198003572454,"connected_time":913000000000,"state":"active","ping":61},{"user_id":249,"name":"sv_opor 13123","steam_id":76561198002229612,"connected_time":1159000000000,"state":"active","ping":71},{"user_id":251,"name":"nynon","steam_id":76561197998432126,"connected_time":1155000000000,"state":"active","ping":84},{"user_id":253,"name":"Elon Ma","steam_id":76561199018053264,"connected_time":1010000000000,"state":"active","ping":67},{"user_id":273,"name":"LeP0tato","steam_id":76561198077615937,"connected_time":37000000000,"state":"active","ping":57},{"user_id":257,"name":"Sub Symmetry","steam_id":76561198314410168,"connected_time":911000000000,"state":"active","ping":174},{"user_id":258,"name":"Enormous F.A.G.","steam_id":76561198023956144,"connected_time":909000000000,"state":"active","ping":75},{"user_id":265,"name":"frbuz","steam_id":76561198327135462,"connected_time":678000000000,"state":"active","ping":156},{"user_id":143,"name":"Jesus","steam_id":76561198042593027,"connected_time":7363000000000,"state":"active","ping":86},{"user_id":262,"name":"Inquisitor","steam_id":76561198015064675,"connected_time":750000000000,"state":"active","ping":64},{"user_id":206,"name":"Matteo Besho","steam_id":76561199159657855,"connected_time":3831000000000,"state":"active","ping":57},{"user_id":263,"name":"Volcyy","steam_id":76561198063979124,"connected_time":747000000000,"state":"active","ping":42},{"user_id":267,"name":"Smormu","steam_id":76561198156178153,"connected_time":620000000000,"state":"spawning","ping":63}]},{"server_id":308,"name":"Uncletopia | Frankfurt | 3 | All Maps","name_short":"frk-3","host":"frk-1.de.uncletopia.com","port":27035,"enabled":true,"region":"eu","cc":"de","latitude":50.110924,"longitude":8.682127,"reserved":0,"last_update":"0001-01-01T00:00:00Z","name_a2s":"Uncletopia | Frankfurt | 3 | All Maps","protocol":17,"map":"pl_barnblitz","folder":"tf","game":"Team Fortress","app_id":440,"player_count":24,"max_players":24,"Bots":0,"server_type":"Dedicated","server_os":"Linux","password":true,"vac":true,"version":"7757534","steam_id":85568392924504274,"keywords":["nocrits","nodmgspread","payload","uncletopia"],"game_id":440,"stv_port":27036,"stv_name":"Uncletopia | Frankfurt | 3 | All Maps | STV","players":[{"user_id":720,"name":"mp1mp2mp3","steam_id":76561198088967665,"connected_time":108000000000,"state":"active","ping":96},{"user_id":710,"name":"jones","steam_id":76561198044434971,"connected_time":1077000000000,"state":"active","ping":55},{"user_id":713,"name":"TW1STaL1CKY","steam_id":76561198026479532,"connected_time":822000000000,"state":"active","ping":46},{"user_id":682,"name":"goktwoxd","steam_id":76561198065114415,"connected_time":2102000000000,"state":"active","ping":74},{"user_id":687,"name":"Dooble donk man look at me donk","steam_id":76561198225523596,"connected_time":1985000000000,"state":"active","ping":62},{"user_id":704,"name":"let me cook","steam_id":76561198010380786,"connected_time":1657000000000,"state":"active","ping":60},{"user_id":721,"name":"Bobo","steam_id":76561198052308399,"connected_time":81000000000,"state":"active","ping":63},{"user_id":717,"name":"Immortalyes","steam_id":76561198050800698,"connected_time":784000000000,"state":"active","ping":66},{"user_id":715,"name":"Sam.","steam_id":76561198009604336,"connected_time":804000000000,"state":"active","ping":66},{"user_id":640,"name":"Doom","steam_id":76561198987558651,"connected_time":4919000000000,"state":"active","ping":79},{"user_id":658,"name":"P Diddy","steam_id":76561198829344838,"connected_time":3619000000000,"state":"active","ping":78},{"user_id":703,"name":"Yony","steam_id":76561199070569941,"connected_time":1692000000000,"state":"active","ping":55},{"user_id":695,"name":"kloada","steam_id":76561198082113271,"connected_time":1787000000000,"state":"active","ping":88},{"user_id":662,"name":"Extra-Crispy","steam_id":76561198871762093,"connected_time":3384000000000,"state":"active","ping":70},{"user_id":707,"name":"YEEET","steam_id":76561198914938199,"connected_time":1462000000000,"state":"active","ping":93},{"user_id":716,"name":"Pyr0s_Fx","steam_id":76561198057201503,"connected_time":800000000000,"state":"active","ping":53},{"user_id":711,"name":"hnz","steam_id":76561198136606222,"connected_time":938000000000,"state":"active","ping":49},{"user_id":718,"name":"Mortuus","steam_id":76561198040743288,"connected_time":773000000000,"state":"active","ping":60},{"user_id":709,"name":"Grote piemel","steam_id":76561198166357571,"connected_time":1257000000000,"state":"active","ping":66},{"user_id":712,"name":"MateMO","steam_id":76561198146180114,"connected_time":932000000000,"state":"active","ping":94},{"user_id":671,"name":"Piteras","steam_id":76561198858532207,"connected_time":2980000000000,"state":"active","ping":71},{"user_id":719,"name":"aseu.","steam_id":76561199011293286,"connected_time":761000000000,"state":"active","ping":84},{"user_id":724,"name":"Big Benn","steam_id":76561199024168373,"connected_time":3000000000,"state":"connecting","ping":0},{"user_id":675,"name":"ZePequenio","steam_id":76561197968506094,"connected_time":2782000000000,"state":"active","ping":65}]},{"server_id":309,"name":"Uncletopia | Frankfurt | 4 | All Maps","name_short":"frk-4","host":"frk-1.de.uncletopia.com","port":27045,"enabled":true,"region":"eu","cc":"de","latitude":50.110924,"longitude":8.682127,"reserved":0,"last_update":"0001-01-01T00:00:00Z","name_a2s":"Uncletopia | Frankfurt | 4 | All Maps","protocol":17,"map":"koth_lakeside_final","folder":"tf","game":"Team Fortress","app_id":440,"player_count":0,"max_players":24,"Bots":0,"server_type":"Dedicated","server_os":"Linux","password":true,"vac":true,"version":"7757534","steam_id":85568392924504275,"keywords":["cp","nocrits","nodmgspread","uncletopia"],"game_id":440,"stv_port":27046,"stv_name":"Uncletopia | Frankfurt | 4 | All Maps | STV","players":null},{"server_id":310,"name":"Uncletopia | Frankfurt | 5 | All Maps","name_short":"frk-5","host":"frk-1.de.uncletopia.com","port":27055,"enabled":true,"region":"eu","cc":"de","latitude":50.110924,"longitude":8.682127,"reserved":0,"last_update":"0001-01-01T00:00:00Z","name_a2s":"Uncletopia | Frankfurt | 5 | All Maps","protocol":17,"map":"cp_dustbowl","folder":"tf","game":"Team Fortress","app_id":440,"player_count":0,"max_players":24,"Bots":0,"server_type":"Dedicated","server_os":"Linux","password":true,"vac":true,"version":"7757534","steam_id":85568392924504277,"keywords":["cp","nocrits","nodmgspread","uncletopia"],"game_id":440,"stv_port":27056,"stv_name":"Uncletopia | Frankfurt | 5 | All Maps | STV","players":null},{"server_id":311,"name":"Uncletopia | Frankfurt | 6 | All Maps","name_short":"frk-6","host":"frk-1.de.uncletopia.com","port":27065,"enabled":true,"region":"eu","cc":"de","latitude":50.110924,"longitude":8.682127,"reserved":0,"last_update":"0001-01-01T00:00:00Z","name_a2s":"Uncletopia | Frankfurt | 6 | All Maps","protocol":17,"map":"pl_pier","folder":"tf","game":"Team Fortress","app_id":440,"player_count":23,"max_players":24,"Bots":0,"server_type":"Dedicated","server_os":"Linux","password":true,"vac":true,"version":"7757534","steam_id":85568392924504278,"keywords":["nocrits","nodmgspread","payload","uncletopia"],"game_id":440,"stv_port":27066,"stv_name":"Uncletopia | Frankfurt | 6 | All Maps | STV","players":[{"user_id":328,"name":"Funky Dude","steam_id":76561198271837212,"connected_time":1062000000000,"state":"active","ping":59},{"user_id":275,"name":"Kurage","steam_id":76561198021221288,"connected_time":4778000000000,"state":"active","ping":58},{"user_id":329,"name":"skittles","steam_id":76561198028107584,"connected_time":1055000000000,"state":"active","ping":62},{"user_id":297,"name":"Sch","steam_id":76561198071341689,"connected_time":3362000000000,"state":"active","ping":58},{"user_id":298,"name":"meriones","steam_id":76561198034234373,"connected_time":3356000000000,"state":"active","ping":56},{"user_id":311,"name":"ike","steam_id":76561198039573338,"connected_time":2925000000000,"state":"active","ping":92},{"user_id":327,"name":"Economic crisis","steam_id":76561198063562843,"connected_time":1272000000000,"state":"active","ping":57},{"user_id":330,"name":"Fortuit","steam_id":76561198065143703,"connected_time":1044000000000,"state":"active","ping":74},{"user_id":340,"name":"Bitbucket Pipeline","steam_id":76561198072233046,"connected_time":760000000000,"state":"active","ping":86},{"user_id":344,"name":"lvl. 50 honkler","steam_id":76561198061688660,"connected_time":355000000000,"state":"active","ping":100},{"user_id":267,"name":"KittyKate ‚ù§","steam_id":76561198116340817,"connected_time":5281000000000,"state":"active","ping":72},{"user_id":290,"name":"CosminSL","steam_id":76561198055827684,"connected_time":3802000000000,"state":"active","ping":77},{"user_id":334,"name":"Zero (Orbital Gear Mastermind)","steam_id":76561198017416816,"connected_time":1001000000000,"state":"active","ping":60},{"user_id":335,"name":"SoupER","steam_id":76561198063056668,"connected_time":995000000000,"state":"active","ping":63},{"user_id":308,"name":"Steen","steam_id":76561198122992510,"connected_time":2993000000000,"state":"active","ping":46},{"user_id":305,"name":"Cornmac","steam_id":76561198104780569,"connected_time":3179000000000,"state":"active","ping":80},{"user_id":304,"name":"Segra blw.tf","steam_id":76561198441974031,"connected_time":3205000000000,"state":"active","ping":73},{"user_id":336,"name":"Bl_ue2th","steam_id":76561198804551869,"connected_time":985000000000,"state":"active","ping":106},{"user_id":345,"name":"night.s","steam_id":76561198326287823,"connected_time":352000000000,"state":"active","ping":75},{"user_id":342,"name":"ScarredPixel123","steam_id":76561199165112703,"connected_time":464000000000,"state":"active","ping":81},{"user_id":338,"name":"komantoN^-","steam_id":76561198017929662,"connected_time":946000000000,"state":"active","ping":68},{"user_id":323,"name":"BuzzBees ‚ù§","steam_id":76561198101502273,"connected_time":1912000000000,"state":"active","ping":60},{"user_id":281,"name":"ant753","steam_id":76561198103458889,"connected_time":4672000000000,"state":"active","ping":77}]},{"server_id":23,"name":"Uncletopia | Frankfurt | 7 | Stopwatch Beta","name_short":"frk-7","host":"frk-1.de.uncletopia.com","port":27075,"enabled":true,"region":"eu","cc":"de","latitude":50.110924,"longitude":8.682127,"reserved":0,"last_update":"0001-01-01T00:00:00Z","name_a2s":"Uncletopia | Frankfurt | 7 | Stopwatch Beta","protocol":17,"map":"workshop/koth_bagel_rc5.ugc2514036946","folder":"tf","game":"Team Fortress","app_id":440,"player_count":3,"max_players":24,"Bots":0,"server_type":"Dedicated","server_os":"Linux","password":true,"vac":true,"version":"7757534","steam_id":85568392924742827,"keywords":["cp","nocrits","nodmgspread","uncletopia"],"game_id":440,"stv_port":27076,"stv_name":"Uncletopia | Frankfurt | 7 | Stopwatch Beta | STV","players":[{"user_id":192,"name":"Mandele","steam_id":76561199183213205,"connected_time":644000000000,"state":"active","ping":83},{"user_id":193,"name":"Incomprehensible","steam_id":76561198305808645,"connected_time":465000000000,"state":"active","ping":68},{"user_id":186,"name":"vi","steam_id":76561198303147966,"connected_time":5905000000000,"state":"active","ping":57}]},{"server_id":24,"name":"Uncletopia | Frankfurt | 8 | Community","name_short":"frk-8","host":"frk-1.de.uncletopia.com","port":27085,"enabled":true,"region":"eu","cc":"de","latitude":50.110924,"longitude":8.682127,"reserved":0,"last_update":"0001-01-01T00:00:00Z","name_a2s":"Uncletopia | Frankfurt | 8 | Community","protocol":17,"map":"workshop/pl_divulgence_b4b.ugc2884808746","folder":"tf","game":"Team Fortress","app_id":440,"player_count":1,"max_players":24,"Bots":0,"server_type":"Dedicated","server_os":"Linux","password":true,"vac":true,"version":"7757534","steam_id":85568392924742828,"keywords":["nocrits","nodmgspread","payload","uncletopia"],"game_id":440,"stv_port":27086,"stv_name":"Uncletopia | Frankfurt | 8 | Community | STV","players":[{"user_id":147,"name":"Kali","steam_id":76561198070745106,"connected_time":590000000000,"state":"active","ping":79}]},{"server_id":202,"name":"Uncletopia | Hong Kong | 1 | All Maps","name_short":"hgk-1","host":"hgk-1.hk.uncletopia.com","port":27015,"enabled":true,"region":"asia","cc":"hk","latitude":22.302711,"longitude":114.177216,"reserved":0,"last_update":"0001-01-01T00:00:00Z","name_a2s":"Uncletopia | Hong Kong | 1 | All Maps","protocol":17,"map":"koth_cascade","folder":"tf","game":"Team Fortress","app_id":440,"player_count":0,"max_players":24,"Bots":0,"server_type":"Dedicated","server_os":"Linux","password":true,"vac":true,"version":"7757534","steam_id":85568392924494504,"keywords":["cp","nocrits","nodmgspread","uncletopia"],"game_id":440,"stv_port":27016,"stv_name":"Uncletopia | Hong Kong | 1 | All Maps | STV","players":null},{"server_id":1,"name":"Uncletopia | Los Angeles | 1 | All Maps","name_short":"lax-1","host":"lax-1.us.uncletopia.com","port":27015,"enabled":true,"region":"us-west","cc":"us","latitude":33.94279,"longitude":-118.41004,"reserved":0,"last_update":"0001-01-01T00:00:00Z","name_a2s":"Uncletopia | Los Angeles | 1 | All Maps","protocol":17,"map":"ctf_2fort","folder":"tf","game":"Team Fortress","app_id":440,"player_count":24,"max_players":24,"Bots":0,"server_type":"Dedicated","server_os":"Linux","password":true,"vac":true,"version":"7757534","steam_id":85568392924469991,"keywords":["ctf","nocrits","nodmgspread","uncletopia"],"game_id":440,"stv_port":27016,"stv_name":"Uncletopia | Los Angeles | 1 | All Maps | STV","players":[{"user_id":119,"name":"StarBrigade","steam_id":76561198150224428,"connected_time":1100000000000,"state":"active","ping":61},{"user_id":95,"name":"Zykron","steam_id":76561199056400800,"connected_time":3211000000000,"state":"active","ping":55},{"user_id":124,"name":"Koko","steam_id":76561199227724794,"connected_time":916000000000,"state":"active","ping":144},{"user_id":113,"name":"BloodyRevel","steam_id":76561198286519652,"connected_time":2052000000000,"state":"active","ping":67},{"user_id":117,"name":"Random","steam_id":76561199026420650,"connected_time":1677000000000,"state":"active","ping":54},{"user_id":130,"name":"Hsepirn","steam_id":76561198152395431,"connected_time":684000000000,"state":"active","ping":56},{"user_id":131,"name":"Moss","steam_id":76561198110843978,"connected_time":436000000000,"state":"active","ping":48},{"user_id":121,"name":"nexus","steam_id":76561198795914625,"connected_time":978000000000,"state":"active","ping":97},{"user_id":107,"name":"Crit Sponge","steam_id":76561198153785307,"connected_time":2732000000000,"state":"active","ping":58},{"user_id":123,"name":"tani","steam_id":76561198137381904,"connected_time":943000000000,"state":"active","ping":58},{"user_id":133,"name":"spherewithahat","steam_id":76561199122192660,"connected_time":68000000000,"state":"active","ping":116},{"user_id":68,"name":"LazyDoll","steam_id":76561198053186338,"connected_time":5019000000000,"state":"active","ping":47},{"user_id":132,"name":"SpottedRuby","steam_id":76561198871250632,"connected_time":389000000000,"state":"active","ping":68},{"user_id":111,"name":"Ry","steam_id":76561198101364702,"connected_time":2596000000000,"state":"active","ping":54},{"user_id":126,"name":"Dubstepninjas","steam_id":76561198258038232,"connected_time":852000000000,"state":"active","ping":108},{"user_id":103,"name":"cognitohazard comprehender","steam_id":76561198992914023,"connected_time":2835000000000,"state":"active","ping":109},{"user_id":127,"name":"Anxiety","steam_id":76561198365627687,"connected_time":844000000000,"state":"active","ping":54},{"user_id":118,"name":"big mob guy","steam_id":76561199105925296,"connected_time":1605000000000,"state":"active","ping":122},{"user_id":110,"name":"Waffle House's New Host","steam_id":76561199096024712,"connected_time":2621000000000,"state":"active","ping":112},{"user_id":58,"name":"‡ºò ‚ãÜÀöüéßCaffeine‚òï*Àñ¬∞","steam_id":76561199259309294,"connected_time":5567000000000,"state":"active","ping":162},{"user_id":116,"name":"Pizza Steve","steam_id":76561198797736979,"connected_time":1776000000000,"state":"active","ping":63},{"user_id":128,"name":"autumn","steam_id":76561199000378486,"connected_time":833000000000,"state":"active","ping":92},{"user_id":129,"name":"Tiny","steam_id":76561198840220161,"connected_time":829000000000,"state":"active","ping":98},{"user_id":63,"name":"Belmore","steam_id":76561198009355231,"connected_time":5518000000000,"state":"active","ping":48}]},{"server_id":112,"name":"Uncletopia | Los Angeles | 2 | All Maps","name_short":"lax-2","host":"lax-1.us.uncletopia.com","port":27025,"enabled":true,"region":"us-west","cc":"us","latitude":33.94279,"longitude":-118.41004,"reserved":0,"last_update":"0001-01-01T00:00:00Z","name_a2s":"Uncletopia | Los Angeles | 2 | All Maps","protocol":17,"map":"koth_cascade","folder":"tf","game":"Team Fortress","app_id":440,"player_count":0,"max_players":24,"Bots":0,"server_type":"Dedicated","server_os":"Linux","password":true,"vac":true,"version":"7757534","steam_id":85568392924469992,"keywords":["cp","nocrits","nodmgspread","uncletopia"],"game_id":440,"stv_port":27026,"stv_name":"Uncletopia | Los Angeles | 2 | All Maps | STV","players":null},{"server_id":324,"name":"Uncletopia | Los Angeles | 3 | All Maps","name_short":"lax-3","host":"lax-1.us.uncletopia.com","port":27035,"enabled":true,"region":"us-west","cc":"us","latitude":33.94279,"longitude":-118.41004,"reserved":0,"last_update":"0001-01-01T00:00:00Z","name_a2s":"Uncletopia | Los Angeles | 3 | All Maps","protocol":17,"map":"koth_viaduct","folder":"tf","game":"Team Fortress","app_id":440,"player_count":0,"max_players":24,"Bots":0,"server_type":"Dedicated","server_os":"Linux","password":true,"vac":true,"version":"7757534","steam_id":85568392924510198,"keywords":["cp","nocrits","nodmgspread","uncletopia"],"game_id":440,"stv_port":27036,"stv_name":"Uncletopia | Los Angeles | 3 | All Maps | STV","players":null},{"server_id":25,"name":"Uncletopia | Los Angeles | 4 | Stopwatch Beta","name_short":"lax-4","host":"lax-1.us.uncletopia.com","port":27045,"enabled":true,"region":"us-west","cc":"us","latitude":33.94279,"longitude":-118.41004,"reserved":0,"last_update":"0001-01-01T00:00:00Z","name_a2s":"Uncletopia | Los Angeles | 4 | Stopwatch Beta","protocol":17,"map":"pl_frontier_final","folder":"tf","game":"Team Fortress","app_id":440,"player_count":0,"max_players":24,"Bots":0,"server_type":"Dedicated","server_os":"Linux","password":true,"vac":true,"version":"7757534","steam_id":85568392924510199,"keywords":["nocrits","nodmgspread","payload","uncletopia"],"game_id":440,"stv_port":27046,"stv_name":"Uncletopia | Los Angeles | 4 | Stopwatch Beta | STV","players":null},{"server_id":11,"name":"Uncletopia | London | 1 | All Maps","name_short":"lon-1","host":"lon-1.uk.uncletopia.com","port":27015,"enabled":true,"region":"eu","cc":"gb","latitude":51.509865,"longitude":-0.118092,"reserved":0,"last_update":"0001-01-01T00:00:00Z","name_a2s":"Uncletopia | London | 1 | All Maps","protocol":17,"map":"pl_swiftwater_final1","folder":"tf","game":"Team Fortress","app_id":440,"player_count":24,"max_players":24,"Bots":0,"server_type":"Dedicated","server_os":"Linux","password":true,"vac":true,"version":"7757534","steam_id":85568392924367362,"keywords":["nocrits","nodmgspread","payload","uncletopia"],"game_id":440,"stv_port":27016,"stv_name":"Uncletopia | London | 1 | All Maps | STV","players":[{"user_id":489,"name":"MarioThePlumber","steam_id":76561198314229530,"connected_time":969000000000,"state":"active","ping":76},{"user_id":497,"name":"The Power","steam_id":76561198060566884,"connected_time":281000000000,"state":"active","ping":41},{"user_id":493,"name":"Dominus.","steam_id":76561199065917088,"connected_time":469000000000,"state":"active","ping":64},{"user_id":398,"name":"dec","steam_id":76561198009660168,"connected_time":7983000000000,"state":"active","ping":45},{"user_id":462,"name":"betterthanyou'lleverbe-AA-","steam_id":76561198102195119,"connected_time":2307000000000,"state":"active","ping":30},{"user_id":456,"name":"Max Andrew","steam_id":76561198158955194,"connected_time":3357000000000,"state":"active","ping":58},{"user_id":463,"name":"Samus","steam_id":76561198045943019,"connected_time":2306000000000,"state":"active","ping":60},{"user_id":402,"name":"nudjura","steam_id":76561198281986139,"connected_time":7408000000000,"state":"active","ping":45},{"user_id":464,"name":"Bob Sacamano","steam_id":76561198085610701,"connected_time":2305000000000,"state":"active","ping":100},{"user_id":483,"name":"ignitor \u003c3","steam_id":76561198218996844,"connected_time":1345000000000,"state":"active","ping":59},{"user_id":488,"name":"DarkFady","steam_id":76561198179099523,"connected_time":1029000000000,"state":"active","ping":114},{"user_id":466,"name":"TheFlames","steam_id":76561198179314694,"connected_time":2263000000000,"state":"active","ping":60},{"user_id":492,"name":"Bumpin'Scrunts","steam_id":76561198069641252,"connected_time":515000000000,"state":"active","ping":53},{"user_id":495,"name":"snowii","steam_id":76561198836246326,"connected_time":378000000000,"state":"active","ping":45},{"user_id":468,"name":"DiscoTraveler","steam_id":76561199240168088,"connected_time":2219000000000,"state":"active","ping":121},{"user_id":498,"name":"Wedgeridoo","steam_id":76561198082813907,"connected_time":152000000000,"state":"active","ping":144},{"user_id":496,"name":"S'all good, man","steam_id":76561198363882056,"connected_time":363000000000,"state":"active","ping":61},{"user_id":487,"name":"Qwerty","steam_id":76561198023525894,"connected_time":1189000000000,"state":"active","ping":94},{"user_id":471,"name":"Lucoa Enjoyer","steam_id":76561198842622419,"connected_time":2131000000000,"state":"active","ping":102},{"user_id":477,"name":"paguro","steam_id":76561198119560871,"connected_time":1709000000000,"state":"active","ping":66},{"user_id":478,"name":"Egtu","steam_id":76561198013757235,"connected_time":1693000000000,"state":"active","ping":72},{"user_id":494,"name":"beamer","steam_id":76561198206037191,"connected_time":447000000000,"state":"active","ping":61},{"user_id":429,"name":"Pronton","steam_id":76561198082502910,"connected_time":4975000000000,"state":"active","ping":70},{"user_id":485,"name":"ivanmixo","steam_id":76561198160213989,"connected_time":1309000000000,"state":"active","ping":69}]},{"server_id":114,"name":"Uncletopia | London | 2 | All Maps","name_short":"lon-2","host":"lon-1.uk.uncletopia.com","port":27025,"enabled":true,"region":"eu","cc":"gb","latitude":51.509865,"longitude":-0.118092,"reserved":0,"last_update":"0001-01-01T00:00:00Z","name_a2s":"Uncletopia | London | 2 | All Maps","protocol":17,"map":"pl_pier","folder":"tf","game":"Team Fortress","app_id":440,"player_count":23,"max_players":24,"Bots":0,"server_type":"Dedicated","server_os":"Linux","password":true,"vac":true,"version":"7757534","steam_id":85568392924470941,"keywords":["nocrits","nodmgspread","payload","uncletopia"],"game_id":440,"stv_port":27026,"stv_name":"Uncletopia | London | 2 | All Maps | STV","players":[{"user_id":657,"name":"Clamor_","steam_id":76561198104368295,"connected_time":2544000000000,"state":"active","ping":79},{"user_id":651,"name":"Johan","steam_id":76561197999517316,"connected_time":2931000000000,"state":"active","ping":80},{"user_id":671,"name":"Toon","steam_id":76561198065421595,"connected_time":1790000000000,"state":"active","ping":63},{"user_id":420,"name":"Mozza","steam_id":76561198035915570,"connected_time":12111000000000,"state":"active","ping":83},{"user_id":696,"name":"FoOzTV","steam_id":76561197998636728,"connected_time":1012000000000,"state":"active","ping":71},{"user_id":691,"name":"sareena","steam_id":76561198810194062,"connected_time":1121000000000,"state":"active","ping":74},{"user_id":401,"name":"bum","steam_id":76561198060105180,"connected_time":12415000000000,"state":"active","ping":61},{"user_id":670,"name":"Fori","steam_id":76561198377310820,"connected_time":1837000000000,"state":"active","ping":38},{"user_id":705,"name":"Pintarolas","steam_id":76561198124839451,"connected_time":309000000000,"state":"active","ping":99},{"user_id":655,"name":"Sgreff","steam_id":76561198036304365,"connected_time":2672000000000,"state":"active","ping":44},{"user_id":664,"name":"Zoodly","steam_id":76561198080594440,"connected_time":2142000000000,"state":"active","ping":54},{"user_id":669,"name":"Frazzle","steam_id":76561198262577951,"connected_time":1956000000000,"state":"active","ping":68},{"user_id":708,"name":"Shibe","steam_id":76561198071312153,"connected_time":144000000000,"state":"active","ping":75},{"user_id":702,"name":"ULTIMATE_GORDON","steam_id":76561198044470038,"connected_time":521000000000,"state":"active","ping":34},{"user_id":704,"name":"pip","steam_id":76561198731151359,"connected_time":393000000000,"state":"active","ping":104},{"user_id":659,"name":"AFerociousTeddyBearSlayer","steam_id":76561198247447256,"connected_time":2495000000000,"state":"active","ping":50},{"user_id":687,"name":"NotNecessary","steam_id":76561199451938365,"connected_time":1197000000000,"state":"active","ping":63},{"user_id":700,"name":"Huhso","steam_id":76561198219443271,"connected_time":680000000000,"state":"active","ping":113},{"user_id":707,"name":"darktheif54","steam_id":76561198043650119,"connected_time":188000000000,"state":"active","ping":55},{"user_id":682,"name":"83TB of Genshin Impact hentai","steam_id":76561198329640236,"connected_time":1340000000000,"state":"active","ping":49},{"user_id":701,"name":"Dr. Le Quack","steam_id":76561197995711176,"connected_time":589000000000,"state":"active","ping":97},{"user_id":688,"name":"dochris.2","steam_id":76561198026478625,"connected_time":1149000000000,"state":"active","ping":59},{"user_id":706,"name":"randompixel","steam_id":76561198003941207,"connected_time":234000000000,"state":"active","ping":59}]},{"server_id":320,"name":"Uncletopia | London | 3 | All Maps","name_short":"lon-3","host":"lon-1.uk.uncletopia.com","port":27035,"enabled":true,"region":"eu","cc":"gb","latitude":51.509865,"longitude":-0.118092,"reserved":0,"last_update":"0001-01-01T00:00:00Z","name_a2s":"Uncletopia | London | 3 | All Maps","protocol":17,"map":"pl_upward","folder":"tf","game":"Team Fortress","app_id":440,"player_count":0,"max_players":24,"Bots":0,"server_type":"Dedicated","server_os":"Linux","password":true,"vac":true,"version":"7757534","steam_id":85568392924510192,"keywords":["nocrits","nodmgspread","payload","uncletopia"],"game_id":440,"stv_port":27036,"stv_name":"Uncletopia | London | 3 | All Maps | STV","players":null},{"server_id":321,"name":"Uncletopia | London | 4 | All Maps","name_short":"lon-4","host":"lon-1.uk.uncletopia.com","port":27045,"enabled":true,"region":"eu","cc":"gb","latitude":51.509865,"longitude":-0.118092,"reserved":0,"last_update":"0001-01-01T00:00:00Z","name_a2s":"Uncletopia | London | 4 | All Maps","protocol":17,"map":"pl_borneo","folder":"tf","game":"Team Fortress","app_id":440,"player_count":24,"max_players":24,"Bots":0,"server_type":"Dedicated","server_os":"Linux","password":true,"vac":true,"version":"7757534","steam_id":85568392924510193,"keywords":["nocrits","nodmgspread","payload","uncletopia"],"game_id":440,"stv_port":27046,"stv_name":"Uncletopia | London | 4 | All Maps | STV","players":[{"user_id":364,"name":"f√©nix","steam_id":76561198083199151,"connected_time":1544000000000,"state":"active","ping":55},{"user_id":338,"name":"The Proclaimers","steam_id":76561198934886665,"connected_time":3314000000000,"state":"active","ping":97},{"user_id":378,"name":"Handy","steam_id":76561198125055365,"connected_time":557000000000,"state":"active","ping":64},{"user_id":291,"name":"Autumnsky","steam_id":76561198055161203,"connected_time":5448000000000,"state":"active","ping":61},{"user_id":319,"name":"glyph","steam_id":76561197980736364,"connected_time":4143000000000,"state":"active","ping":85},{"user_id":342,"name":"Johnny Cockroach","steam_id":76561198049648277,"connected_time":2687000000000,"state":"active","ping":104},{"user_id":358,"name":"d u k k i","steam_id":76561198071807437,"connected_time":1914000000000,"state":"active","ping":89},{"user_id":343,"name":"Aoshi","steam_id":76561198043868358,"connected_time":2652000000000,"state":"active","ping":61},{"user_id":355,"name":"yush","steam_id":76561198121688934,"connected_time":2054000000000,"state":"active","ping":86},{"user_id":348,"name":"It's Salt","steam_id":76561198003994592,"connected_time":2538000000000,"state":"active","ping":50},{"user_id":215,"name":"Welder","steam_id":76561198355300561,"connected_time":10973000000000,"state":"active","ping":75},{"user_id":368,"name":"a team of ants doing their best","steam_id":76561198440145948,"connected_time":956000000000,"state":"active","ping":115},{"user_id":365,"name":"Punkyn The Medic","steam_id":76561198822993026,"connected_time":1467000000000,"state":"active","ping":36},{"user_id":369,"name":"S164","steam_id":76561198802694108,"connected_time":948000000000,"state":"active","ping":88},{"user_id":370,"name":"Sketchthekiller91","steam_id":76561197972578692,"connected_time":947000000000,"state":"active","ping":46},{"user_id":361,"name":"Mr.B","steam_id":76561199204478925,"connected_time":1687000000000,"state":"active","ping":110},{"user_id":371,"name":"Syd","steam_id":76561198020515027,"connected_time":933000000000,"state":"active","ping":89},{"user_id":377,"name":"FilipeLuk","steam_id":76561198150675438,"connected_time":604000000000,"state":"active","ping":60},{"user_id":350,"name":"Fancy","steam_id":76561198350658462,"connected_time":2523000000000,"state":"active","ping":84},{"user_id":362,"name":"KingPotatoChips","steam_id":76561198035156465,"connected_time":1680000000000,"state":"active","ping":69},{"user_id":375,"name":"Tamer","steam_id":76561199101501051,"connected_time":722000000000,"state":"active","ping":67},{"user_id":373,"name":"SausageRoll","steam_id":76561197994072622,"connected_time":927000000000,"state":"active","ping":52},{"user_id":363,"name":"Camo Leaf","steam_id":76561197999456575,"connected_time":1671000000000,"state":"active","ping":64},{"user_id":374,"name":"kaelan!","steam_id":76561198001425310,"connected_time":927000000000,"state":"active","ping":72}]},{"server_id":21,"name":"Uncletopia | London | 5 | All Maps","name_short":"lon-5","host":"lon-1.uk.uncletopia.com","port":27055,"enabled":true,"region":"eu","cc":"gb","latitude":51.509865,"longitude":-0.118092,"reserved":0,"last_update":"0001-01-01T00:00:00Z","name_a2s":"Uncletopia | London | 5 | All Maps","protocol":17,"map":"pl_badwater","folder":"tf","game":"Team Fortress","app_id":440,"player_count":24,"max_players":24,"Bots":0,"server_type":"Dedicated","server_os":"Linux","password":true,"vac":true,"version":"7757534","steam_id":85568392924742829,"keywords":["nocrits","nodmgspread","payload","uncletopia"],"game_id":440,"stv_port":27056,"stv_name":"Uncletopia | London | 5 | All Maps | STV","players":[{"user_id":151,"name":".quickfast.","steam_id":76561199438900919,"connected_time":2665000000000,"state":"active","ping":45},{"user_id":114,"name":"Milk","steam_id":76561198059344490,"connected_time":4633000000000,"state":"active","ping":67},{"user_id":170,"name":"‚Ä¢stepbro‚Ä¢","steam_id":76561198119607160,"connected_time":1691000000000,"state":"active","ping":79},{"user_id":152,"name":"Zhongding Construction Group Lt","steam_id":76561198065915748,"connected_time":2658000000000,"state":"active","ping":54},{"user_id":173,"name":"rizook","steam_id":76561198055010039,"connected_time":1437000000000,"state":"active","ping":74},{"user_id":174,"name":"Munibe","steam_id":76561198107967904,"connected_time":1421000000000,"state":"active","ping":69},{"user_id":187,"name":"Djingis Khan","steam_id":76561197967864460,"connected_time":382000000000,"state":"active","ping":49},{"user_id":178,"name":"koira","steam_id":76561197996199669,"connected_time":1354000000000,"state":"active","ping":84},{"user_id":177,"name":"step2","steam_id":76561198900565837,"connected_time":1378000000000,"state":"active","ping":62},{"user_id":181,"name":"Carol Olston","steam_id":76561198080257273,"connected_time":833000000000,"state":"active","ping":39},{"user_id":171,"name":"BobTheBox","steam_id":76561198080894136,"connected_time":1596000000000,"state":"active","ping":71},{"user_id":182,"name":"Penis Contortionist","steam_id":76561198073663784,"connected_time":823000000000,"state":"active","ping":43},{"user_id":186,"name":"Regan","steam_id":76561198100631086,"connected_time":654000000000,"state":"active","ping":59},{"user_id":129,"name":"IndigoJones","steam_id":76561198050284262,"connected_time":4125000000000,"state":"active","ping":49},{"user_id":172,"name":"stankyleg","steam_id":76561199169616120,"connected_time":1447000000000,"state":"active","ping":50},{"user_id":183,"name":"Grinch Gun","steam_id":76561198097789669,"connected_time":810000000000,"state":"active","ping":68},{"user_id":148,"name":"Bell","steam_id":76561199454586928,"connected_time":2837000000000,"state":"active","ping":129},{"user_id":166,"name":"Hydnhof","steam_id":76561198120989805,"connected_time":1899000000000,"state":"active","ping":71},{"user_id":191,"name":"Mophead","steam_id":76561198161328553,"connected_time":268000000000,"state":"active","ping":52},{"user_id":184,"name":"Gnaisse","steam_id":76561198010560642,"connected_time":809000000000,"state":"active","ping":90},{"user_id":179,"name":"SneKeTo","steam_id":76561198199302578,"connected_time":1323000000000,"state":"active","ping":81},{"user_id":192,"name":"hello kitty gaming","steam_id":76561197972008326,"connected_time":141000000000,"state":"active","ping":76},{"user_id":159,"name":"Happy Little Accidents","steam_id":76561198153810367,"connected_time":2490000000000,"state":"active","ping":74},{"user_id":190,"name":"Alexei","steam_id":76561197987169026,"connected_time":289000000000,"state":"active","ping":50}]},{"server_id":22,"name":"Uncletopia | London | 6 | All Maps","name_short":"lon-6","host":"lon-1.uk.uncletopia.com","port":27065,"enabled":true,"region":"eu","cc":"gb","latitude":51.509865,"longitude":-0.118092,"reserved":0,"last_update":"0001-01-01T00:00:00Z","name_a2s":"Uncletopia | London | 6 | All Maps","protocol":17,"map":"pl_barnblitz","folder":"tf","game":"Team Fortress","app_id":440,"player_count":24,"max_players":24,"Bots":0,"server_type":"Dedicated","server_os":"Linux","password":true,"vac":true,"version":"7757534","steam_id":85568392924742830,"keywords":["nocrits","nodmgspread","payload","uncletopia"],"game_id":440,"stv_port":27066,"stv_name":"Uncletopia | London | 6 | All Maps | STV","players":[{"user_id":141,"name":"Skip","steam_id":76561199014240063,"connected_time":381000000000,"state":"active","ping":110},{"user_id":137,"name":"_Context_","steam_id":76561199163359312,"connected_time":559000000000,"state":"active","ping":61},{"user_id":112,"name":"Guuse","steam_id":76561198030956814,"connected_time":1835000000000,"state":"active","ping":70},{"user_id":136,"name":"Mr_Pulse_","steam_id":76561198095001602,"connected_time":1122000000000,"state":"active","ping":112},{"user_id":120,"name":"QuimKong","steam_id":76561198176501842,"connected_time":1738000000000,"state":"active","ping":88},{"user_id":48,"name":"Sentry Man","steam_id":76561198088417596,"connected_time":7562000000000,"state":"active","ping":74},{"user_id":131,"name":"steakman10","steam_id":76561198152584691,"connected_time":1472000000000,"state":"active","ping":75},{"user_id":133,"name":"Dewotter","steam_id":76561198007653168,"connected_time":1372000000000,"state":"active","ping":59},{"user_id":100,"name":"eeeeee","steam_id":76561198017786875,"connected_time":3458000000000,"state":"active","ping":73},{"user_id":126,"name":"Spinejuice","steam_id":76561197991832997,"connected_time":1654000000000,"state":"active","ping":73},{"user_id":138,"name":"Dirt Road","steam_id":76561198210372012,"connected_time":541000000000,"state":"active","ping":144},{"user_id":139,"name":"noobdog","steam_id":76561198036486671,"connected_time":524000000000,"state":"active","ping":60},{"user_id":132,"name":"s a i","steam_id":76561197970379754,"connected_time":1443000000000,"state":"active","ping":65},{"user_id":130,"name":"\u003c\u003cD.A.E.\u003e\u003e","steam_id":76561198992220268,"connected_time":1517000000000,"state":"active","ping":103},{"user_id":119,"name":"Juiceydough","steam_id":76561197997323419,"connected_time":1752000000000,"state":"active","ping":84},{"user_id":110,"name":"Blank","steam_id":76561198212308677,"connected_time":1975000000000,"state":"active","ping":71},{"user_id":134,"name":"Rizzy","steam_id":76561198164237267,"connected_time":1261000000000,"state":"active","ping":80},{"user_id":121,"name":"Corvet","steam_id":76561198090748651,"connected_time":1731000000000,"state":"active","ping":110},{"user_id":122,"name":"Khoreo","steam_id":76561198208096339,"connected_time":1711000000000,"state":"active","ping":47},{"user_id":103,"name":"Carrotcracker","steam_id":76561198034862396,"connected_time":3267000000000,"state":"active","ping":83},{"user_id":140,"name":"gareth bale","steam_id":76561198091154451,"connected_time":458000000000,"state":"active","ping":62},{"user_id":85,"name":"_zipfile","steam_id":76561198066133808,"connected_time":5712000000000,"state":"active","ping":74},{"user_id":124,"name":"Kosten","steam_id":76561198039013154,"connected_time":1695000000000,"state":"active","ping":59},{"user_id":127,"name":"Tiziano","steam_id":76561198038358974,"connected_time":1653000000000,"state":"active","ping":73}]},{"server_id":40,"name":"Uncletopia | London | 7 | No Payload","name_short":"lon-7","host":"lon-1.uk.uncletopia.com","port":27075,"enabled":true,"region":"eu","cc":"gb","latitude":51.509865,"longitude":-0.118092,"reserved":0,"last_update":"0001-01-01T00:00:00Z","name_a2s":"Uncletopia | London | 7 | No Payload","protocol":17,"map":"koth_badlands","folder":"tf","game":"Team Fortress","app_id":440,"player_count":0,"max_players":24,"Bots":0,"server_type":"Dedicated","server_os":"Linux","password":true,"vac":true,"version":"7757534","steam_id":85568392924964314,"keywords":["cp","nocrits","nodmgspread","uncletopia"],"game_id":440,"stv_port":27076,"stv_name":"Uncletopia | London | 7 | No Payload | STV","players":null},{"server_id":41,"name":"Uncletopia | London | 8 | Community","name_short":"lon-8","host":"lon-1.uk.uncletopia.com","port":27085,"enabled":true,"region":"eu","cc":"gb","latitude":51.509865,"longitude":-0.118092,"reserved":0,"last_update":"0001-01-01T00:00:00Z","name_a2s":"Uncletopia | London | 8 | Community","protocol":17,"map":"workshop/pl_eruption_b9a.ugc2807898013","folder":"tf","game":"Team Fortress","app_id":440,"player_count":0,"max_players":24,"Bots":0,"server_type":"Dedicated","server_os":"Linux","password":true,"vac":true,"version":"7757534","steam_id":85568392924964315,"keywords":["nocrits","nodmgspread","payload","uncletopia"],"game_id":440,"stv_port":27086,"stv_name":"Uncletopia | London | 8 | Community | STV","players":null},{"server_id":300,"name":"Uncletopia | Montr√©al | 1 | All Maps","name_short":"mtl-1","host":"mtl-1.ca.uncletopia.com","port":27015,"enabled":true,"region":"us-east","cc":"ca","latitude":45.50889,"longitude":-73.56167,"reserved":0,"last_update":"0001-01-01T00:00:00Z","name_a2s":"Uncletopia | Montr√©al | 1 | All Maps","protocol":17,"map":"pl_snowycoast","folder":"tf","game":"Team Fortress","app_id":440,"player_count":0,"max_players":24,"Bots":0,"server_type":"Dedicated","server_os":"Linux","password":true,"vac":true,"version":"7757534","steam_id":85568392924500087,"keywords":["nocrits","nodmgspread","payload","uncletopia"],"game_id":440,"stv_port":27016,"stv_name":"Uncletopia | Montr√©al | 1 | All Maps | STV","players":null},{"server_id":301,"name":"Uncletopia | Montr√©al | 2 | All Maps","name_short":"mtl-2","host":"mtl-1.ca.uncletopia.com","port":27025,"enabled":true,"region":"us-east","cc":"ca","latitude":45.50889,"longitude":-73.56167,"reserved":0,"last_update":"0001-01-01T00:00:00Z","name_a2s":"Uncletopia | Montr√©al | 2 | All Maps","protocol":17,"map":"pl_snowycoast","folder":"tf","game":"Team Fortress","app_id":440,"player_count":0,"max_players":24,"Bots":0,"server_type":"Dedicated","server_os":"Linux","password":true,"vac":true,"version":"7757534","steam_id":85568392924500088,"keywords":["nocrits","nodmgspread","payload","uncletopia"],"game_id":440,"stv_port":27026,"stv_name":"Uncletopia | Montr√©al | 2 | All Maps | STV","players":null},{"server_id":302,"name":"Uncletopia | Montr√©al | 3 | All Maps","name_short":"mtl-3","host":"mtl-1.ca.uncletopia.com","port":27035,"enabled":true,"region":"us-east","cc":"ca","latitude":45.50889,"longitude":-73.56167,"reserved":0,"last_update":"0001-01-01T00:00:00Z","name_a2s":"Uncletopia | Montr√©al | 3 | All Maps","protocol":17,"map":"cp_dustbowl","folder":"tf","game":"Team Fortress","app_id":440,"player_count":0,"max_players":24,"Bots":0,"server_type":"Dedicated","server_os":"Linux","password":true,"vac":true,"version":"7757534","steam_id":85568392924500089,"keywords":["cp","nocrits","nodmgspread","uncletopia"],"game_id":440,"stv_port":27036,"stv_name":"Uncletopia | Montr√©al | 3 | All Maps | STV","players":null},{"server_id":303,"name":"Uncletopia | Montr√©al | 4 | No Payload","name_short":"mtl-4","host":"mtl-1.ca.uncletopia.com","port":27045,"enabled":true,"region":"us-east","cc":"ca","latitude":45.50889,"longitude":-73.56167,"reserved":0,"last_update":"0001-01-01T00:00:00Z","name_a2s":"Uncletopia | Montr√©al | 4 | No Payload","protocol":17,"map":"pl_borneo","folder":"tf","game":"Team Fortress","app_id":440,"player_count":0,"max_players":24,"Bots":0,"server_type":"Dedicated","server_os":"Linux","password":true,"vac":true,"version":"7757534","steam_id":85568392924500090,"keywords":["nocrits","nodmgspread","payload","uncletopia"],"game_id":440,"stv_port":27046,"stv_name":"Uncletopia | Montr√©al | 4 | No Payload | STV","players":null},{"server_id":13,"name":"Uncletopia | New York City | 1 | All Maps","name_short":"nyc-1","host":"nyc-1.us.uncletopia.com","port":27015,"enabled":true,"region":"us-east","cc":"us","latitude":40.73061,"longitude":-73.93524,"reserved":0,"last_update":"0001-01-01T00:00:00Z","name_a2s":"Uncletopia | New York City | 1 | All Maps","protocol":17,"map":"pl_swiftwater_final1","folder":"tf","game":"Team Fortress","app_id":440,"player_count":24,"max_players":24,"Bots":0,"server_type":"Dedicated","server_os":"Linux","password":true,"vac":true,"version":"7757534","steam_id":85568392924469993,"keywords":["nocrits","nodmgspread","payload","uncletopia"],"game_id":440,"stv_port":27016,"stv_name":"Uncletopia | New York City | 1 | All Maps | STV","players":[{"user_id":128,"name":"Salmon","steam_id":76561198285883040,"connected_time":1916000000000,"state":"active","ping":130},{"user_id":148,"name":"BowlzingShoes","steam_id":76561199127110073,"connected_time":30000000000,"state":"active","ping":87},{"user_id":135,"name":"Uncle Majic the Hip Hop Magicia","steam_id":76561198107924303,"connected_time":1065000000000,"state":"active","ping":30},{"user_id":129,"name":"Bigtimefan5","steam_id":76561199047490167,"connected_time":1855000000000,"state":"active","ping":68},{"user_id":26,"name":"moodi catgirl","steam_id":76561198124028045,"connected_time":10067000000000,"state":"active","ping":83},{"user_id":134,"name":"Chicken Nugget","steam_id":76561198082601232,"connected_time":1072000000000,"state":"active","ping":59},{"user_id":130,"name":"the_capybara_bandit","steam_id":76561198372030749,"connected_time":1653000000000,"state":"active","ping":87},{"user_id":103,"name":"Fedsmoker","steam_id":76561198047372130,"connected_time":4317000000000,"state":"active","ping":215},{"user_id":34,"name":"Buswolley","steam_id":76561197995205571,"connected_time":9873000000000,"state":"active","ping":115},{"user_id":142,"name":"FobbyDongleJr.","steam_id":76561198971626811,"connected_time":527000000000,"state":"active","ping":60},{"user_id":137,"name":"lumber joN","steam_id":76561198135507236,"connected_time":764000000000,"state":"active","ping":55},{"user_id":143,"name":"Definitely Not A Replicant.","steam_id":76561198087464370,"connected_time":525000000000,"state":"active","ping":113},{"user_id":147,"name":"Claw","steam_id":76561198309244890,"connected_time":232000000000,"state":"active","ping":45},{"user_id":145,"name":"Alexthegreat","steam_id":76561197996796222,"connected_time":460000000000,"state":"active","ping":45},{"user_id":117,"name":"Snugboo","steam_id":76561198147970327,"connected_time":3456000000000,"state":"active","ping":40},{"user_id":140,"name":"TomTheBomb061","steam_id":76561199178716418,"connected_time":584000000000,"state":"active","ping":59},{"user_id":139,"name":"Bee","steam_id":76561198074681324,"connected_time":671000000000,"state":"active","ping":47},{"user_id":120,"name":"R4wb33fG4m1ng73","steam_id":76561198121372198,"connected_time":3047000000000,"state":"active","ping":84},{"user_id":141,"name":"2manyman","steam_id":76561198067156972,"connected_time":568000000000,"state":"active","ping":64},{"user_id":122,"name":"HollyBlocky","steam_id":76561198030156100,"connected_time":2875000000000,"state":"active","ping":76},{"user_id":44,"name":"Public Library Warrior","steam_id":76561198817866879,"connected_time":9567000000000,"state":"active","ping":64},{"user_id":149,"name":"GamingWithOmer","steam_id":76561198993152191,"connected_time":0,"state":"spawning","ping":52},{"user_id":83,"name":"ndvr","steam_id":76561199379200102,"connected_time":5926000000000,"state":"active","ping":55},{"user_id":127,"name":"Grubbie","steam_id":76561199023562280,"connected_time":2066000000000,"state":"active","ping":70}]},{"server_id":14,"name":"Uncletopia | New York City | 2 | All Maps","name_short":"nyc-2","host":"nyc-1.us.uncletopia.com","port":27025,"enabled":true,"region":"us-east","cc":"us","latitude":40.73061,"longitude":-73.93524,"reserved":0,"last_update":"0001-01-01T00:00:00Z","name_a2s":"Uncletopia | New York City | 2 | All Maps","protocol":17,"map":"koth_lakeside_final","folder":"tf","game":"Team Fortress","app_id":440,"player_count":0,"max_players":24,"Bots":0,"server_type":"Dedicated","server_os":"Linux","password":true,"vac":true,"version":"7757534","steam_id":85568392924469994,"keywords":["cp","nocrits","nodmgspread","uncletopia"],"game_id":440,"stv_port":27026,"stv_name":"Uncletopia | New York City | 2 | All Maps | STV","players":null},{"server_id":15,"name":"Uncletopia | New York City | 3 | Stopwatch Beta","name_short":"nyc-3","host":"nyc-1.us.uncletopia.com","port":27035,"enabled":true,"region":"us-east","cc":"us","latitude":40.73061,"longitude":-73.93524,"reserved":0,"last_update":"0001-01-01T00:00:00Z","name_a2s":"Uncletopia | New York City | 3 | Stopwatch Beta","protocol":17,"map":"cp_granary","folder":"tf","game":"Team Fortress","app_id":440,"player_count":0,"max_players":24,"Bots":0,"server_type":"Dedicated","server_os":"Linux","password":true,"vac":true,"version":"7757534","steam_id":85568392924742820,"keywords":["cp","nocrits","nodmgspread","uncletopia"],"game_id":440,"stv_port":27036,"stv_name":"Uncletopia | New York City | 3 | Stopwatch Beta | STV","players":null},{"server_id":16,"name":"Uncletopia | New York City | 4 | Community","name_short":"nyc-4","host":"nyc-1.us.uncletopia.com","port":27045,"enabled":true,"region":"us-east","cc":"us","latitude":40.73061,"longitude":-73.93524,"reserved":0,"last_update":"0001-01-01T00:00:00Z","name_a2s":"Uncletopia | New York City | 4 | Community","protocol":17,"map":"workshop/cp_indulge.ugc528106646","folder":"tf","game":"Team Fortress","app_id":440,"player_count":0,"max_players":24,"Bots":0,"server_type":"Dedicated","server_os":"Linux","password":true,"vac":true,"version":"7757534","steam_id":85568392924742821,"keywords":["cp","nocrits","nodmgspread","uncletopia"],"game_id":440,"stv_port":27046,"stv_name":"Uncletopia | New York City | 4 | Community | STV","players":null},{"server_id":142,"name":"Uncletopia | S√£o Paulo | 1 | All Maps","name_short":"sao-1","host":"sao-1.br.uncletopia.com","port":27015,"enabled":true,"region":"sa","cc":"br","latitude":-23.533773,"longitude":-46.62529,"reserved":0,"last_update":"0001-01-01T00:00:00Z","name_a2s":"Uncletopia | S√£o Paulo | 1 | All Maps","protocol":17,"map":"cp_mountainlab","folder":"tf","game":"Team Fortress","app_id":440,"player_count":0,"max_players":24,"Bots":0,"server_type":"Dedicated","server_os":"Linux","password":true,"vac":true,"version":"7757534","steam_id":85568392924469996,"keywords":["cp","nocrits","nodmgspread","uncletopia"],"game_id":440,"stv_port":27016,"stv_name":"Uncletopia | S√£o Paulo | 1 | All Maps | STV","players":null},{"server_id":143,"name":"Uncletopia | S√£o Paulo | 2 | All Maps","name_short":"sao-2","host":"sao-2.br.uncletopia.com","port":27015,"enabled":true,"region":"sa","cc":"br","latitude":-23.533773,"longitude":-46.62529,"reserved":0,"last_update":"0001-01-01T00:00:00Z","name_a2s":"Uncletopia | S√£o Paulo | 2 | All Maps","protocol":17,"map":"koth_viaduct","folder":"tf","game":"Team Fortress","app_id":440,"player_count":0,"max_players":24,"Bots":0,"server_type":"Dedicated","server_os":"Linux","password":true,"vac":true,"version":"7757534","steam_id":85568392924485349,"keywords":["cp","nocrits","nodmgspread","uncletopia"],"game_id":440,"stv_port":27016,"stv_name":"Uncletopia | S√£o Paulo | 2 | All Maps | STV","players":null},{"server_id":7,"name":"Uncletopia | Seattle | 1 | All Maps","name_short":"sea-1","host":"sea-1.us.uncletopia.com","port":27015,"enabled":true,"region":"us-west","cc":"us","latitude":47.608013,"longitude":-122.33517,"reserved":0,"last_update":"0001-01-01T00:00:00Z","name_a2s":"Uncletopia | Seattle | 1 | All Maps","protocol":17,"map":"koth_cascade","folder":"tf","game":"Team Fortress","app_id":440,"player_count":0,"max_players":24,"Bots":0,"server_type":"Dedicated","server_os":"Linux","password":true,"vac":true,"version":"7757534","steam_id":85568392924469997,"keywords":["cp","nocrits","nodmgspread","uncletopia"],"game_id":440,"stv_port":27016,"stv_name":"Uncletopia | Seattle | 1 | All Maps | STV","players":null},{"server_id":119,"name":"Uncletopia | Seattle | 2 | All Maps","name_short":"sea-2","host":"sea-1.us.uncletopia.com","port":27025,"enabled":true,"region":"us-west","cc":"us","latitude":47.608013,"longitude":-122.33517,"reserved":0,"last_update":"0001-01-01T00:00:00Z","name_a2s":"Uncletopia | Seattle | 2 | All Maps","protocol":17,"map":"pl_badwater","folder":"tf","game":"Team Fortress","app_id":440,"player_count":24,"max_players":24,"Bots":0,"server_type":"Dedicated","server_os":"Linux","password":true,"vac":true,"version":"7757534","steam_id":85568392924469998,"keywords":["nocrits","nodmgspread","payload","uncletopia"],"game_id":440,"stv_port":27026,"stv_name":"Uncletopia | Seattle | 2 | All Maps | STV","players":[{"user_id":342,"name":"InfernoFlower64","steam_id":76561198181097391,"connected_time":1303000000000,"state":"active","ping":133},{"user_id":285,"name":"Court Wizard, Sir Dr. Clydesdal","steam_id":76561198149267697,"connected_time":6269000000000,"state":"active","ping":66},{"user_id":311,"name":"chanoc","steam_id":76561198026734746,"connected_time":3540000000000,"state":"active","ping":65},{"user_id":293,"name":"m1","steam_id":76561198004133638,"connected_time":5492000000000,"state":"active","ping":80},{"user_id":354,"name":"Lazy","steam_id":76561198802747832,"connected_time":2000000000,"state":"spawning","ping":47},{"user_id":302,"name":"YuuriDaThrilla","steam_id":76561198184814466,"connected_time":4428000000000,"state":"active","ping":44},{"user_id":338,"name":"bbbbb","steam_id":76561198095480838,"connected_time":1740000000000,"state":"active","ping":45},{"user_id":350,"name":"KingTinkerer","steam_id":76561198226856548,"connected_time":453000000000,"state":"active","ping":74},{"user_id":274,"name":"Cloud","steam_id":76561198272454184,"connected_time":7378000000000,"state":"active","ping":171},{"user_id":329,"name":"Dimple","steam_id":76561198980324190,"connected_time":2058000000000,"state":"active","ping":49},{"user_id":266,"name":"lami","steam_id":76561198798667624,"connected_time":8033000000000,"state":"active","ping":44},{"user_id":332,"name":"shane","steam_id":76561198060491451,"connected_time":1826000000000,"state":"active","ping":84},{"user_id":339,"name":"–≥—Ä—É—Å—Ç–Ω—ã–π","steam_id":76561198274550638,"connected_time":1669000000000,"state":"active","ping":111},{"user_id":346,"name":"squash","steam_id":76561198150281353,"connected_time":1086000000000,"state":"active","ping":57},{"user_id":295,"name":"pizzaguy4","steam_id":76561198058821622,"connected_time":5140000000000,"state":"active","ping":90},{"user_id":308,"name":"R√∂ntgen","steam_id":76561197993492325,"connected_time":3643000000000,"state":"active","ping":78},{"user_id":335,"name":"Ash!‚ù§","steam_id":76561198070398840,"connected_time":1802000000000,"state":"active","ping":77},{"user_id":347,"name":"fwoov","steam_id":76561198129166260,"connected_time":1086000000000,"state":"active","ping":89},{"user_id":314,"name":"jacix3 [gay wolfgirl]{she/it}","steam_id":76561198205004165,"connected_time":3227000000000,"state":"active","ping":63},{"user_id":341,"name":"Mario Trapped in a Piano","steam_id":76561198116765135,"connected_time":1341000000000,"state":"active","ping":46},{"user_id":340,"name":"giant_dork","steam_id":76561199105606956,"connected_time":1545000000000,"state":"active","ping":111},{"user_id":349,"name":"mega","steam_id":76561198089520959,"connected_time":481000000000,"state":"active","ping":95},{"user_id":306,"name":"yeemsta supreme","steam_id":76561199141828157,"connected_time":3694000000000,"state":"active","ping":64},{"user_id":353,"name":"„Ä£dust„Ä£ -she/her-","steam_id":76561198045218909,"connected_time":56000000000,"state":"active","ping":35}]},{"server_id":406,"name":"Uncletopia | Seattle | 3 | Stopwatch Beta","name_short":"sea-3","host":"sea-1.us.uncletopia.com","port":27035,"enabled":true,"region":"us-west","cc":"us","latitude":47.608013,"longitude":-122.33517,"reserved":0,"last_update":"0001-01-01T00:00:00Z","name_a2s":"Uncletopia | Seattle | 3 | Stopwatch Beta","protocol":17,"map":"pl_barnblitz","folder":"tf","game":"Team Fortress","app_id":440,"player_count":0,"max_players":24,"Bots":0,"server_type":"Dedicated","server_os":"Linux","password":true,"vac":true,"version":"7757534","steam_id":85568392924515217,"keywords":["nocrits","nodmgspread","payload","uncletopia"],"game_id":440,"stv_port":27036,"stv_name":"Uncletopia | Seattle | 3 | Stopwatch Beta | STV","players":null},{"server_id":17,"name":"Uncletopia | San Francisco | 1 | All Maps","name_short":"sfo-1","host":"sfo-1.us.uncletopia.com","port":27015,"enabled":true,"region":"us-west","cc":"us","latitude":37.77397,"longitude":-122.4313,"reserved":0,"last_update":"0001-01-01T00:00:00Z","name_a2s":"Uncletopia | San Francisco | 1 | All Maps","protocol":17,"map":"pl_pier","folder":"tf","game":"Team Fortress","app_id":440,"player_count":24,"max_players":24,"Bots":0,"server_type":"Dedicated","server_os":"Linux","password":true,"vac":true,"version":"7757534","steam_id":85568392924469999,"keywords":["nocrits","nodmgspread","payload","uncletopia"],"game_id":440,"stv_port":27016,"stv_name":"Uncletopia | San Francisco | 1 | All Maps | STV","players":[{"user_id":11,"name":"TheMilkMan","steam_id":76561199068930228,"connected_time":2717000000000,"state":"active","ping":101},{"user_id":12,"name":"Drowse","steam_id":76561198029794548,"connected_time":2654000000000,"state":"active","ping":64},{"user_id":57,"name":"The Super Mario Bros. Movie","steam_id":76561198871692156,"connected_time":38000000000,"state":"active","ping":72},{"user_id":21,"name":"goldhed","steam_id":76561198051751133,"connected_time":1815000000000,"state":"active","ping":97},{"user_id":42,"name":"MORE BOUNCE TO THE OUNCE","steam_id":76561198243399336,"connected_time":978000000000,"state":"active","ping":66},{"user_id":16,"name":"diymo","steam_id":76561198017600790,"connected_time":2244000000000,"state":"active","ping":51},{"user_id":17,"name":"Nexo Fighter","steam_id":76561199187418090,"connected_time":2230000000000,"state":"active","ping":159},{"user_id":55,"name":"run.","steam_id":76561198861436861,"connected_time":134000000000,"state":"active","ping":69},{"user_id":19,"name":"Dauntless Duelist","steam_id":76561198025056018,"connected_time":1851000000000,"state":"active","ping":66},{"user_id":48,"name":"WazL","steam_id":76561198065113895,"connected_time":416000000000,"state":"active","ping":78},{"user_id":50,"name":"Taste Of Pancakes","steam_id":76561198158784641,"connected_time":369000000000,"state":"active","ping":68},{"user_id":56,"name":"blamo","steam_id":76561198044769147,"connected_time":127000000000,"state":"active","ping":44},{"user_id":59,"name":"maxresdefault","steam_id":76561198185980055,"connected_time":5000000000,"state":"spawning","ping":90},{"user_id":26,"name":"Shark Sandwich","steam_id":76561198025007938,"connected_time":1646000000000,"state":"active","ping":81},{"user_id":52,"name":"timB","steam_id":76561198045840264,"connected_time":297000000000,"state":"active","ping":116},{"user_id":32,"name":"alexwasherefirst","steam_id":76561198846755124,"connected_time":1300000000000,"state":"active","ping":68},{"user_id":41,"name":"GamerMan","steam_id":76561199058616824,"connected_time":1187000000000,"state":"active","ping":95},{"user_id":33,"name":"ComputerFritz","steam_id":76561198368730970,"connected_time":1277000000000,"state":"active","ping":76},{"user_id":53,"name":"touca","steam_id":76561198986534519,"connected_time":289000000000,"state":"active","ping":46},{"user_id":45,"name":"spy","steam_id":76561198364943570,"connected_time":845000000000,"state":"active","ping":121},{"user_id":37,"name":"impactzack","steam_id":76561198065931053,"connected_time":1213000000000,"state":"active","ping":122},{"user_id":38,"name":"Akkawi","steam_id":76561198203159952,"connected_time":1198000000000,"state":"active","ping":59},{"user_id":54,"name":"Dangerous_Dave76","steam_id":76561199230056550,"connected_time":264000000000,"state":"active","ping":77},{"user_id":40,"name":"Chatito1010","steam_id":76561198799371009,"connected_time":1191000000000,"state":"active","ping":76}]},{"server_id":18,"name":"Uncletopia | San Francisco | 2 | All Maps","name_short":"sfo-2","host":"sfo-1.us.uncletopia.com","port":27025,"enabled":true,"region":"us-west","cc":"us","latitude":37.77397,"longitude":-122.4313,"reserved":0,"last_update":"0001-01-01T00:00:00Z","name_a2s":"Uncletopia | San Francisco | 2 | All Maps","protocol":17,"map":"koth_highpass","folder":"tf","game":"Team Fortress","app_id":440,"player_count":4,"max_players":24,"Bots":0,"server_type":"Dedicated","server_os":"Linux","password":true,"vac":true,"version":"7757534","steam_id":85568392924470000,"keywords":["cp","nocrits","nodmgspread","uncletopia"],"game_id":440,"stv_port":27026,"stv_name":"Uncletopia | San Francisco | 2 | All Maps | STV","players":[{"user_id":18,"name":"John Fortress 2","steam_id":76561199241277109,"connected_time":1865000000000,"state":"active","ping":108},{"user_id":19,"name":"Festive Turnip","steam_id":76561198215801344,"connected_time":1802000000000,"state":"active","ping":76},{"user_id":20,"name":"The One True Pineapple #SaveTF2","steam_id":76561198083157236,"connected_time":1095000000000,"state":"active","ping":94},{"user_id":23,"name":"Warrenator","steam_id":76561198132094572,"connected_time":112000000000,"state":"active","ping":100}]},{"server_id":19,"name":"Uncletopia | San Francisco | 3 | Stopwatch Beta","name_short":"sfo-3","host":"sfo-1.us.uncletopia.com","port":27035,"enabled":true,"region":"us-west","cc":"us","latitude":37.77397,"longitude":-122.4313,"reserved":0,"last_update":"0001-01-01T00:00:00Z","name_a2s":"Uncletopia | San Francisco | 3 | Stopwatch Beta","protocol":17,"map":"pl_borneo","folder":"tf","game":"Team Fortress","app_id":440,"player_count":0,"max_players":24,"Bots":0,"server_type":"Dedicated","server_os":"Linux","password":true,"vac":true,"version":"7757534","steam_id":85568392924742824,"keywords":["nocrits","nodmgspread","payload","uncletopia"],"game_id":440,"stv_port":27036,"stv_name":"Uncletopia | San Francisco | 3 | Stopwatch Beta | STV","players":null},{"server_id":20,"name":"Uncletopia | San Francisco | 4 | Community","name_short":"sfo-4","host":"sfo-1.us.uncletopia.com","port":27045,"enabled":true,"region":"us-west","cc":"us","latitude":37.77397,"longitude":-122.4313,"reserved":0,"last_update":"0001-01-01T00:00:00Z","name_a2s":"Uncletopia | San Francisco | 4 | Community","protocol":17,"map":"koth_highpass","folder":"tf","game":"Team Fortress","app_id":440,"player_count":0,"max_players":24,"Bots":0,"server_type":"Dedicated","server_os":"Linux","password":true,"vac":true,"version":"7757534","steam_id":85568392924742826,"keywords":["cp","nocrits","nodmgspread","uncletopia"],"game_id":440,"stv_port":27046,"stv_name":"Uncletopia | San Francisco | 4 | Community | STV","players":null},{"server_id":141,"name":"Uncletopia | Sydney | 1 | All Maps","name_short":"syd-1","host":"syd-1.au.uncletopia.com","port":27015,"enabled":true,"region":"au","cc":"au","latitude":-33.865143,"longitude":151.2099,"reserved":0,"last_update":"0001-01-01T00:00:00Z","name_a2s":"Uncletopia | Sydney | 1 | All Maps","protocol":17,"map":"cp_process_final","folder":"tf","game":"Team Fortress","app_id":440,"player_count":0,"max_players":24,"Bots":0,"server_type":"Dedicated","server_os":"Linux","password":true,"vac":true,"version":"7757534","steam_id":85568392924470001,"keywords":["cp","nocrits","nodmgspread","uncletopia"],"game_id":440,"stv_port":27016,"stv_name":"Uncletopia | Sydney | 1 | All Maps | STV","players":null},{"server_id":123,"name":"Uncletopia | Sydney | 2 | All Maps","name_short":"syd-2","host":"syd-1.au.uncletopia.com","port":27025,"enabled":true,"region":"au","cc":"au","latitude":-33.865143,"longitude":151.2099,"reserved":0,"last_update":"0001-01-01T00:00:00Z","name_a2s":"Uncletopia | Sydney | 2 | All Maps","protocol":17,"map":"koth_viaduct","folder":"tf","game":"Team Fortress","app_id":440,"player_count":0,"max_players":24,"Bots":0,"server_type":"Dedicated","server_os":"Linux","password":true,"vac":true,"version":"7757534","steam_id":85568392924470002,"keywords":["cp","nocrits","nodmgspread","uncletopia"],"game_id":440,"stv_port":27026,"stv_name":"Uncletopia | Sydney | 2 | All Maps | STV","players":null},{"server_id":395,"name":"Uncletopia | Sydney | 3 | All Maps","name_short":"syd-3","host":"syd-1.au.uncletopia.com","port":27035,"enabled":true,"region":"au","cc":"au","latitude":-33.865143,"longitude":151.2099,"reserved":0,"last_update":"0001-01-01T00:00:00Z","name_a2s":"Uncletopia | Sydney | 3 | All Maps","protocol":17,"map":"pl_upward","folder":"tf","game":"Team Fortress","app_id":440,"player_count":0,"max_players":24,"Bots":0,"server_type":"Dedicated","server_os":"Linux","password":true,"vac":true,"version":"7757534","steam_id":85568392925194467,"keywords":["nocrits","nodmgspread","payload","uncletopia"],"game_id":440,"stv_port":27036,"stv_name":"Uncletopia | Sydney | 3 | All Maps | STV","players":null},{"server_id":396,"name":"Uncletopia | Sydney | 4 | All Maps","name_short":"syd-4","host":"syd-1.au.uncletopia.com","port":27045,"enabled":true,"region":"au","cc":"au","latitude":-33.865143,"longitude":151.2099,"reserved":0,"last_update":"0001-01-01T00:00:00Z","name_a2s":"Uncletopia | Sydney | 4 | All Maps","protocol":17,"map":"koth_lakeside_final","folder":"tf","game":"Team Fortress","app_id":440,"player_count":0,"max_players":24,"Bots":0,"server_type":"Dedicated","server_os":"Linux","password":true,"vac":true,"version":"7757534","steam_id":85568392925397958,"keywords":["cp","nocrits","nodmgspread","uncletopia"],"game_id":440,"stv_port":27046,"stv_name":"Uncletopia | Sydney | 4 | All Maps | STV","players":null},{"server_id":58,"name":"Uncletopia | Sydney | 5 | Stopwatch Beta","name_short":"syd-5","host":"syd-1.au.uncletopia.com","port":27055,"enabled":true,"region":"au","cc":"au","latitude":-33.865143,"longitude":151.2099,"reserved":0,"last_update":"0001-01-01T00:00:00Z","name_a2s":"Uncletopia | Sydney | 5 | Stopwatch Beta","protocol":17,"map":"koth_highpass","folder":"tf","game":"Team Fortress","app_id":440,"player_count":0,"max_players":24,"Bots":0,"server_type":"Dedicated","server_os":"Linux","password":true,"vac":true,"version":"7757534","steam_id":85568392925397959,"keywords":["cp","nocrits","nodmgspread","uncletopia"],"game_id":440,"stv_port":27056,"stv_name":"Uncletopia | Sydney | 5 | Stopwatch Beta | STV","players":null},{"server_id":59,"name":"Uncletopia | Sydney | 6 | Community","name_short":"syd-6","host":"syd-1.au.uncletopia.com","port":27065,"enabled":true,"region":"au","cc":"au","latitude":-33.865143,"longitude":151.2099,"reserved":0,"last_update":"0001-01-01T00:00:00Z","name_a2s":"Uncletopia | Sydney | 6 | Community","protocol":17,"map":"cp_sunshine","folder":"tf","game":"Team Fortress","app_id":440,"player_count":0,"max_players":24,"Bots":0,"server_type":"Dedicated","server_os":"Linux","password":true,"vac":true,"version":"7757534","steam_id":85568392925397960,"keywords":["cp","nocrits","nodmgspread","uncletopia"],"game_id":440,"stv_port":27066,"stv_name":"Uncletopia | Sydney | 6 | Community | STV","players":null},{"server_id":49,"name":"Uncletopia | Warsaw | 1 | All Maps","name_short":"waw-1","host":"waw-1.pl.uncletopia.com","port":27015,"enabled":true,"region":"eu","cc":"pl","latitude":52.2297,"longitude":21.017532,"reserved":0,"last_update":"0001-01-01T00:00:00Z","name_a2s":"","protocol":0,"map":"","folder":"","game":"","app_id":0,"player_count":0,"max_players":0,"Bots":0,"server_type":"","server_os":"","password":false,"vac":false,"version":"","steam_id":0,"keywords":null,"game_id":0,"stv_port":0,"stv_name":"","players":null},{"server_id":50,"name":"Uncletopia | Warsaw | 2 | All Maps","name_short":"waw-2","host":"waw-1.pl.uncletopia.com","port":27025,"enabled":true,"region":"eu","cc":"pl","latitude":52.2297,"longitude":21.017532,"reserved":0,"last_update":"0001-01-01T00:00:00Z","name_a2s":"Uncletopia | Warsaw | 2 | All Maps","protocol":17,"map":"cp_snakewater_final1","folder":"tf","game":"Team Fortress","app_id":440,"player_count":0,"max_players":24,"Bots":0,"server_type":"Dedicated","server_os":"Linux","password":true,"vac":true,"version":"7757534","steam_id":85568392925397851,"keywords":["cp","nocrits","nodmgspread","uncletopia"],"game_id":440,"stv_port":27026,"stv_name":"Uncletopia | Warsaw | 2 | All Maps | STV","players":null},{"server_id":51,"name":"Uncletopia | Warsaw | 3 | All Maps","name_short":"waw-3","host":"waw-1.pl.uncletopia.com","port":27035,"enabled":true,"region":"eu","cc":"pl","latitude":52.2297,"longitude":21.017532,"reserved":0,"last_update":"0001-01-01T00:00:00Z","name_a2s":"Uncletopia | Warsaw | 3 | All Maps","protocol":17,"map":"koth_highpass","folder":"tf","game":"Team Fortress","app_id":440,"player_count":2,"max_players":24,"Bots":0,"server_type":"Dedicated","server_os":"Linux","password":true,"vac":true,"version":"7757534","steam_id":85568392925397852,"keywords":["cp","nocrits","nodmgspread","uncletopia"],"game_id":440,"stv_port":27036,"stv_name":"Uncletopia | Warsaw | 3 | All Maps | STV","players":[{"user_id":20,"name":"Frank","steam_id":76561198086672774,"connected_time":261000000000,"state":"active","ping":85},{"user_id":21,"name":"sam","steam_id":76561198326103116,"connected_time":222000000000,"state":"active","ping":97}]},{"server_id":52,"name":"Uncletopia | Warsaw | 4 | All Maps","name_short":"waw-4","host":"waw-1.pl.uncletopia.com","port":27045,"enabled":true,"region":"eu","cc":"pl","latitude":52.2297,"longitude":21.017532,"reserved":0,"last_update":"0001-01-01T00:00:00Z","name_a2s":"Uncletopia | Warsaw | 4 | All Maps","protocol":17,"map":"pl_snowycoast","folder":"tf","game":"Team Fortress","app_id":440,"player_count":0,"max_players":24,"Bots":0,"server_type":"Dedicated","server_os":"Linux","password":true,"vac":true,"version":"7757534","steam_id":85568392925397853,"keywords":["nocrits","nodmgspread","payload","uncletopia"],"game_id":440,"stv_port":27046,"stv_name":"Uncletopia | Warsaw | 4 | All Maps | STV","players":null},{"server_id":53,"name":"Uncletopia | Warsaw | 5 | Stopwatch Beta","name_short":"waw-5","host":"waw-1.pl.uncletopia.com","port":27055,"enabled":true,"region":"eu","cc":"pl","latitude":52.2297,"longitude":21.017532,"reserved":0,"last_update":"0001-01-01T00:00:00Z","name_a2s":"Uncletopia | Warsaw | 5 | Stopwatch Beta","protocol":17,"map":"workshop/pl_badwater_pro_v12.ugc2142942074","folder":"tf","game":"Team Fortress","app_id":440,"player_count":0,"max_players":24,"Bots":0,"server_type":"Dedicated","server_os":"Linux","password":true,"vac":true,"version":"7757534","steam_id":85568392925397854,"keywords":["nocrits","nodmgspread","payload","uncletopia"],"game_id":440,"stv_port":27056,"stv_name":"Uncletopia | Warsaw | 5 | Stopwatch Beta | STV","players":null},{"server_id":54,"name":"Uncletopia | Warsaw | 6 | Community","name_short":"waw-6","host":"waw-1.pl.uncletopia.com","port":27065,"enabled":true,"region":"eu","cc":"pl","latitude":52.2297,"longitude":21.017532,"reserved":0,"last_update":"0001-01-01T00:00:00Z","name_a2s":"Uncletopia | Warsaw | 6 | Community","protocol":17,"map":"workshop/cp_logjam_rc12.ugc454812035","folder":"tf","game":"Team Fortress","app_id":440,"player_count":0,"max_players":24,"Bots":0,"server_type":"Dedicated","server_os":"Linux","password":true,"vac":true,"version":"7757534","steam_id":85568392925397856,"keywords":["cp","nocrits","nodmgspread","uncletopia"],"game_id":440,"stv_port":27066,"stv_name":"Uncletopia | Warsaw | 6 | Community | STV","players":null}]}