{"status":true,"message":"","result":[{"server_id":9,"name":"Uncletopia | Atlanta | 1 | All Maps","name_short":"atl-1","host":"atl-1.us.uncletopia.com","port":27015,"enabled":true,"region":"us-east","cc":"us","latitude":33.753746,"longitude":-84.38633,"reserved":0,"last_update":"0001-01-01T00:00:00Z","name_a2s":"Uncletopia | Atlanta | 1 | All Maps","protocol":17,"map":"pl_pier","folder":"tf","game":"Team Fortress","app_id":440,"player_count":24,"max_players":24,"Bots":0,"server_type":"Dedicated","server_os":"Linux","password":true,"vac":true,"version":"7757534","steam_id":85568392924469982,"keywords":["nocrits","nodmgspread","payload","uncletopia"],"game_id":440,"stv_port":27016,"stv_name":"Uncletopia | Atlanta | 1 | All Maps | STV","players":[{"user_id":174,"name":"melancholy","steam_id":76561198024301465,"connected_time":4773000000000,"state":"active","ping":44},{"user_id":217,"name":"troll","steam_id":76561198040890252,"connected_time":2945000000000,"state":"active","ping":45},{"user_id":232,"name":"Derpydude2002","steam_id":76561198811719519,"connected_time":1225000000000,"state":"active","ping":106},{"user_id":246,"name":"J O V A","steam_id":76561198090333536,"connected_time":23000000000,"state":"active","ping":75},{"user_id":212,"name":"Zho Biden","steam_id":76561198079224101,"connected_time":3012000000000,"state":"active","ping":36},{"user_id":227,"name":"garfield","steam_id":76561198114119308,"connected_time":1454000000000,"state":"active","ping":45},{"user_id":239,"name":"Nico","steam_id":76561198125701869,"connected_time":337000000000,"state":"active","ping":74},{"user_id":214,"name":"Transfem Furry \u003c3","steam_id":76561198288036403,"connected_time":3003000000000,"state":"active","ping":109},{"user_id":215,"name":"Gummie","steam_id":76561198807069433,"connected_time":2989000000000,"state":"active","ping":87},{"user_id":241,"name":"Wingm4n","steam_id":76561198064127012,"connected_time":173000000000,"state":"active","ping":46},{"user_id":234,"name":"Vobo","steam_id":76561199159418598,"connected_time":1217000000000,"state":"active","ping":114},{"user_id":229,"name":"BIG HOG","steam_id":76561198079923652,"connected_time":1260000000000,"state":"active","ping":61},{"user_id":237,"name":"Pxls_","steam_id":76561198151150175,"connected_time":1104000000000,"state":"active","ping":75},{"user_id":236,"name":"NatCracken","steam_id":76561198103461530,"connected_time":1171000000000,"state":"active","ping":99},{"user_id":219,"name":"lost in spaaaaace","steam_id":76561199085974120,"connected_time":2870000000000,"state":"active","ping":67},{"user_id":203,"name":"YOU CAN LIVE AT THE MALL","steam_id":76561198880969627,"connected_time":4134000000000,"state":"active","ping":57},{"user_id":151,"name":"Mango","steam_id":76561199209533440,"connected_time":7259000000000,"state":"active","ping":70},{"user_id":204,"name":"GPLv2","steam_id":76561198113096772,"connected_time":3924000000000,"state":"active","ping":105},{"user_id":109,"name":"RED1 | ma0re","steam_id":76561199231971506,"connected_time":10468000000000,"state":"active","ping":66},{"user_id":206,"name":"fi_ji","steam_id":76561198126087725,"connected_time":3477000000000,"state":"active","ping":64},{"user_id":213,"name":"RED1 | p4ka","steam_id":76561198315291317,"connected_time":3010000000000,"state":"active","ping":76},{"user_id":238,"name":"help","steam_id":76561199056338917,"connected_time":1091000000000,"state":"active","ping":100},{"user_id":171,"name":"com lag","steam_id":76561198019019392,"connected_time":4858000000000,"state":"active","ping":60},{"user_id":231,"name":"RoboWarrior0410a","steam_id":76561199106531261,"connected_time":1247000000000,"state":"active","ping":55}]},{"server_id":400,"name":"Uncletopia | Atlanta | 3 | Community","name_short":"atl-3","host":"atl-1.us.uncletopia.com","port":27035,"enabled":true,"region":"us-east","cc":"us","latitude":33.753746,"longitude":-84.38633,"reserved":0,"last_update":"0001-01-01T00:00:00Z","name_a2s":"Uncletopia | Atlanta | 3 | Community","protocol":17,"map":"workshop/cp_propaganda_b18.ugc1603743849","folder":"tf","game":"Team Fortress","app_id":440,"player_count":0,"max_players":32,"Bots":0,"server_type":"Dedicated","server_os":"Linux","password":true,"vac":true,"version":"7757534","steam_id":85568392924515187,"keywords":["cp","increased_maxplayers","nocrits","nodmgspread","uncletopia"],"game_id":440,"stv_port":27036,"stv_name":"Uncletopia | Atlanta | 3 | Community | STV","players":null},{"server_id":401,"name":"Uncletopia | Atlanta | 4 | No Payload","name_short":"atl-4","host":"atl-1.us.uncletopia.com","port":27045,"enabled":true,"region":"us-east","cc":"us","latitude":33.753746,"longitude":-84.38633,"reserved":0,"last_update":"0001-01-01T00:00:00Z","name_a2s":"","protocol":0,"map":"","folder":"","game":"","app_id":0,"player_count":0,"max_players":0,"Bots":0,"server_type":"","server_os":"","password":false,"vac":false,"version":"","steam_id":0,"keywords":null,"game_id":0,"stv_port":0,"stv_name":"","players":null},{"server_id":2,"name":"Uncletopia | Chicago | 1 | All Maps","name_short":"chi-1","host":"chi-1.us.uncletopia.com","port":27015,"enabled":true,"region":"us-central","cc":"us","latitude":41.881832,"longitude":-87.62318,"reserved":0,"last_update":"0001-01-01T00:00:00Z","name_a2s":"Uncletopia | Chicago | 1 | All Maps","protocol":17,"map":"pl_pier","folder":"tf","game":"Team Fortress","app_id":440,"player_count":24,"max_players":24,"Bots":0,"server_type":"Dedicated","server_os":"Linux","password":true,"vac":true,"version":"7757534","steam_id":85568392924469984,"keywords":["nocrits","nodmgspread","payload","uncletopia"],"game_id":440,"stv_port":27016,"stv_name":"Uncletopia | Chicago | 1 | All Maps | STV","players":[{"user_id":191,"name":"chloe","steam_id":76561198369849908,"connected_time":9372000000000,"state":"active","ping":69},{"user_id":272,"name":"A Pyro Main","steam_id":76561198421760112,"connected_time":1562000000000,"state":"active","ping":52},{"user_id":266,"name":"Dispenser (Twan)","steam_id":76561197991064908,"connected_time":2187000000000,"state":"active","ping":61},{"user_id":245,"name":"Local","steam_id":76561199042686473,"connected_time":4570000000000,"state":"active","ping":57},{"user_id":255,"name":"Stock Medic","steam_id":76561198065479730,"connected_time":3546000000000,"state":"active","ping":45},{"user_id":237,"name":"Not_Douglas","steam_id":76561199024184136,"connected_time":5103000000000,"state":"active","ping":66},{"user_id":274,"name":"Woomy","steam_id":76561198070242372,"connected_time":1182000000000,"state":"active","ping":89},{"user_id":256,"name":"Souperdude83","steam_id":76561198119727829,"connected_time":3080000000000,"state":"active","ping":71},{"user_id":271,"name":"Swifgz","steam_id":76561198162875756,"connected_time":1688000000000,"state":"active","ping":64},{"user_id":223,"name":"loscemo","steam_id":76561197994884609,"connected_time":6225000000000,"state":"active","ping":66},{"user_id":222,"name":"Furry Saul Goodman","steam_id":76561198069580305,"connected_time":6241000000000,"state":"active","ping":47},{"user_id":236,"name":"Johnny Lawrence #JohnnyMaxxing","steam_id":76561199367141671,"connected_time":5156000000000,"state":"active","ping":60},{"user_id":251,"name":"The Land Admiral","steam_id":76561198159356609,"connected_time":4019000000000,"state":"active","ping":71},{"user_id":277,"name":"threethree","steam_id":76561198177354155,"connected_time":804000000000,"state":"active","ping":71},{"user_id":280,"name":"Mycelion","steam_id":76561198024999530,"connected_time":736000000000,"state":"active","ping":87},{"user_id":263,"name":"Strike Force Lightning","steam_id":76561198271519776,"connected_time":2481000000000,"state":"active","ping":80},{"user_id":273,"name":"Riboflavin","steam_id":76561198077328593,"connected_time":1504000000000,"state":"active","ping":83},{"user_id":278,"name":"ArchdukeofSuno","steam_id":76561198068577739,"connected_time":747000000000,"state":"active","ping":84},{"user_id":279,"name":"volta","steam_id":76561199214283884,"connected_time":739000000000,"state":"active","ping":101},{"user_id":173,"name":"noot noot","steam_id":76561198318446417,"connected_time":10518000000000,"state":"active","ping":84},{"user_id":283,"name":"Bismarck","steam_id":76561198442873012,"connected_time":80000000000,"state":"active","ping":78},{"user_id":276,"name":"zero .","steam_id":76561198880290310,"connected_time":838000000000,"state":"active","ping":88},{"user_id":281,"name":"SuperFresh","steam_id":76561198200723198,"connected_time":735000000000,"state":"active","ping":45},{"user_id":270,"name":"BetoelAff es","steam_id":76561198377842585,"connected_time":1865000000000,"state":"active","ping":120}]},{"server_id":106,"name":"Uncletopia | Chicago | 2 | All Maps","name_short":"chi-2","host":"chi-1.us.uncletopia.com","port":27025,"enabled":true,"region":"us-central","cc":"us","latitude":41.881832,"longitude":-87.62318,"reserved":0,"last_update":"0001-01-01T00:00:00Z","name_a2s":"Uncletopia | Chicago | 2 | All Maps","protocol":17,"map":"pl_swiftwater_final1","folder":"tf","game":"Team Fortress","app_id":440,"player_count":24,"max_players":24,"Bots":0,"server_type":"Dedicated","server_os":"Linux","password":true,"vac":true,"version":"7757534","steam_id":85568392924469985,"keywords":["nocrits","nodmgspread","payload","uncletopia"],"game_id":440,"stv_port":27026,"stv_name":"Uncletopia | Chicago | 2 | All Maps | STV","players":[{"user_id":170,"name":"Exo","steam_id":76561199177658410,"connected_time":127000000000,"state":"active","ping":101},{"user_id":117,"name":"Mythical Lag","steam_id":76561198347031281,"connected_time":4173000000000,"state":"active","ping":74},{"user_id":171,"name":"Jaded.JD","steam_id":76561198084001852,"connected_time":122000000000,"state":"active","ping":107},{"user_id":161,"name":"Ghost","steam_id":76561198110914180,"connected_time":574000000000,"state":"active","ping":172},{"user_id":129,"name":"SSBM Pelican","steam_id":76561198040697907,"connected_time":3177000000000,"state":"active","ping":75},{"user_id":172,"name":"Blargian Snagglebeast","steam_id":76561198115831507,"connected_time":99000000000,"state":"active","ping":55},{"user_id":168,"name":"nyfteelive","steam_id":76561198141076169,"connected_time":156000000000,"state":"active","ping":69},{"user_id":96,"name":"Walkiing","steam_id":76561198074473413,"connected_time":5025000000000,"state":"active","ping":44},{"user_id":148,"name":"Broadsword","steam_id":76561198011160411,"connected_time":1558000000000,"state":"active","ping":94},{"user_id":159,"name":"herb","steam_id":76561198185980055,"connected_time":1189000000000,"state":"active","ping":62},{"user_id":164,"name":"laszlo","steam_id":76561198141198352,"connected_time":483000000000,"state":"active","ping":45},{"user_id":173,"name":"Riske","steam_id":76561198115840568,"connected_time":92000000000,"state":"active","ping":70},{"user_id":154,"name":"Violet42","steam_id":76561198072927887,"connected_time":1325000000000,"state":"active","ping":61},{"user_id":162,"name":"footoftheday","steam_id":76561198052712449,"connected_time":550000000000,"state":"active","ping":68},{"user_id":145,"name":"Paul Blart","steam_id":76561198068110623,"connected_time":2213000000000,"state":"active","ping":100},{"user_id":155,"name":"Quaker Oats","steam_id":76561197992800293,"connected_time":1283000000000,"state":"active","ping":96},{"user_id":165,"name":"xMystic_Fire","steam_id":76561198189961543,"connected_time":403000000000,"state":"active","ping":80},{"user_id":99,"name":"bary","steam_id":76561197988317087,"connected_time":4991000000000,"state":"active","ping":70},{"user_id":166,"name":"Jojoba üêπ","steam_id":76561198262218456,"connected_time":185000000000,"state":"active","ping":64},{"user_id":146,"name":"Rusty","steam_id":76561198055585129,"connected_time":1931000000000,"state":"active","ping":91},{"user_id":152,"name":"A Rhino with Coronavirus","steam_id":76561197999451366,"connected_time":1542000000000,"state":"active","ping":89},{"user_id":167,"name":"BONK! Official","steam_id":76561198198949259,"connected_time":176000000000,"state":"active","ping":57},{"user_id":158,"name":"Obama Gaming 2023","steam_id":76561199006905645,"connected_time":1200000000000,"state":"active","ping":112},{"user_id":174,"name":"clipsy11","steam_id":76561199185851191,"connected_time":66000000000,"state":"active","ping":158}]},{"server_id":402,"name":"Uncletopia | Chicago | 3 | All Maps","name_short":"chi-3","host":"chi-1.us.uncletopia.com","port":27035,"enabled":true,"region":"us-central","cc":"us","latitude":41.881832,"longitude":-87.62318,"reserved":0,"last_update":"0001-01-01T00:00:00Z","name_a2s":"Uncletopia | Chicago | 3 | All Maps","protocol":17,"map":"pl_goldrush","folder":"tf","game":"Team Fortress","app_id":440,"player_count":23,"max_players":24,"Bots":0,"server_type":"Dedicated","server_os":"Linux","password":true,"vac":true,"version":"7757534","steam_id":85568392924515191,"keywords":["nocrits","nodmgspread","payload","uncletopia"],"game_id":440,"stv_port":27036,"stv_name":"Uncletopia | Chicago | 3 | All Maps | STV","players":[{"user_id":207,"name":"Crunchy","steam_id":76561198060342804,"connected_time":676000000000,"state":"active","ping":72},{"user_id":210,"name":"Candy Sparkles","steam_id":76561198126871264,"connected_time":148000000000,"state":"active","ping":85},{"user_id":198,"name":"Big kahuna","steam_id":76561198142024812,"connected_time":1964000000000,"state":"active","ping":73},{"user_id":142,"name":"Poison Ivy","steam_id":76561198072384574,"connected_time":4539000000000,"state":"active","ping":52},{"user_id":208,"name":"Bread Baker","steam_id":76561198185335103,"connected_time":643000000000,"state":"active","ping":63},{"user_id":194,"name":"Kaluka","steam_id":76561198036861445,"connected_time":1997000000000,"state":"active","ping":61},{"user_id":193,"name":"DiscoTraveler","steam_id":76561199240168088,"connected_time":2002000000000,"state":"active","ping":63},{"user_id":211,"name":"Koishi","steam_id":76561198054541054,"connected_time":92000000000,"state":"active","ping":50},{"user_id":203,"name":"future milf manor contestant","steam_id":76561198081220016,"connected_time":1491000000000,"state":"active","ping":57},{"user_id":212,"name":"NUt","steam_id":76561198031007966,"connected_time":91000000000,"state":"active","ping":74},{"user_id":153,"name":"Crafty","steam_id":76561199217624073,"connected_time":3431000000000,"state":"active","ping":106},{"user_id":191,"name":"2 bit catgirl","steam_id":76561198399936004,"connected_time":2113000000000,"state":"active","ping":60},{"user_id":169,"name":"trinqette","steam_id":76561198119543621,"connected_time":3036000000000,"state":"active","ping":60},{"user_id":213,"name":"Colbolt Eon","steam_id":76561198169312143,"connected_time":70000000000,"state":"active","ping":78},{"user_id":175,"name":"Koi","steam_id":76561198064411172,"connected_time":2861000000000,"state":"active","ping":56},{"user_id":184,"name":"box","steam_id":76561198985635309,"connected_time":2516000000000,"state":"active","ping":95},{"user_id":205,"name":"Gachalover","steam_id":76561199231552074,"connected_time":1374000000000,"state":"active","ping":69},{"user_id":172,"name":"M4 Sherman","steam_id":76561198126990820,"connected_time":2953000000000,"state":"active","ping":87},{"user_id":215,"name":"uhooter","steam_id":76561198007829078,"connected_time":44000000000,"state":"active","ping":57},{"user_id":190,"name":"antwon from ghetto smosh","steam_id":76561198367019006,"connected_time":2198000000000,"state":"active","ping":71},{"user_id":209,"name":"Knifeagent701","steam_id":76561198080002386,"connected_time":343000000000,"state":"active","ping":81},{"user_id":201,"name":"Chachi","steam_id":76561199045511890,"connected_time":1587000000000,"state":"active","ping":85},{"user_id":186,"name":"pigeoncup","steam_id":76561198964926838,"connected_time":2501000000000,"state":"active","ping":61}]},{"server_id":403,"name":"Uncletopia | Chicago | 4 | All Maps","name_short":"chi-4","host":"chi-1.us.uncletopia.com","port":27045,"enabled":true,"region":"us-central","cc":"us","latitude":41.881832,"longitude":-87.62318,"reserved":0,"last_update":"0001-01-01T00:00:00Z","name_a2s":"Uncletopia | Chicago | 4 | All Maps","protocol":17,"map":"pl_upward","folder":"tf","game":"Team Fortress","app_id":440,"player_count":24,"max_players":24,"Bots":0,"server_type":"Dedicated","server_os":"Linux","password":true,"vac":true,"version":"7757534","steam_id":85568392924515193,"keywords":["nocrits","nodmgspread","payload","uncletopia"],"game_id":440,"stv_port":27046,"stv_name":"Uncletopia | Chicago | 4 | All Maps | STV","players":[{"user_id":21,"name":"shake","steam_id":76561199064204750,"connected_time":1737000000000,"state":"active","ping":76},{"user_id":49,"name":"GOBLIN MAN","steam_id":76561198845944025,"connected_time":875000000000,"state":"active","ping":83},{"user_id":12,"name":"Become girl, transition gender","steam_id":76561198200961750,"connected_time":1953000000000,"state":"active","ping":109},{"user_id":13,"name":"Dad 2","steam_id":76561198138546187,"connected_time":1951000000000,"state":"active","ping":75},{"user_id":59,"name":"Tepurcat","steam_id":76561199121115193,"connected_time":183000000000,"state":"active","ping":356},{"user_id":53,"name":"flange","steam_id":76561198040182692,"connected_time":502000000000,"state":"active","ping":129},{"user_id":57,"name":"The Pestilence","steam_id":76561199081252282,"connected_time":295000000000,"state":"active","ping":67},{"user_id":63,"name":"Stupid Tuna","steam_id":76561198048733643,"connected_time":50000000000,"state":"active","ping":71},{"user_id":54,"name":"Enzo","steam_id":76561197975076681,"connected_time":369000000000,"state":"active","ping":45},{"user_id":55,"name":"uncledanetoucheskids","steam_id":76561198177874665,"connected_time":349000000000,"state":"active","ping":99},{"user_id":35,"name":"cbbones","steam_id":76561198211946372,"connected_time":1528000000000,"state":"active","ping":102},{"user_id":24,"name":"Owl","steam_id":76561198248266580,"connected_time":1696000000000,"state":"active","ping":157},{"user_id":25,"name":"isha","steam_id":76561199041566425,"connected_time":1675000000000,"state":"active","ping":156},{"user_id":40,"name":"morbissey","steam_id":76561198072592880,"connected_time":1318000000000,"state":"active","ping":40},{"user_id":56,"name":"silly jester","steam_id":76561198079609974,"connected_time":335000000000,"state":"active","ping":111},{"user_id":29,"name":"rlty","steam_id":76561198009395055,"connected_time":1650000000000,"state":"active","ping":63},{"user_id":41,"name":"redindy","steam_id":76561198070154445,"connected_time":1292000000000,"state":"active","ping":73},{"user_id":31,"name":"roquette launcher","steam_id":76561197995620232,"connected_time":1626000000000,"state":"active","ping":53},{"user_id":58,"name":"Sad German","steam_id":76561198178100797,"connected_time":268000000000,"state":"active","ping":57},{"user_id":46,"name":"Microsoft Excel‚Ñ¢","steam_id":76561198145369662,"connected_time":910000000000,"state":"active","ping":89},{"user_id":61,"name":"salt","steam_id":76561198195623981,"connected_time":120000000000,"state":"active","ping":103},{"user_id":60,"name":"frank","steam_id":76561198045436159,"connected_time":171000000000,"state":"active","ping":78},{"user_id":43,"name":"Microsoft Powerpoint","steam_id":76561198212039509,"connected_time":1267000000000,"state":"active","ping":78},{"user_id":62,"name":"Shamrock Shake Oct.10.2020 @8pm","steam_id":76561198833313201,"connected_time":101000000000,"state":"active","ping":114}]},{"server_id":36,"name":"Uncletopia | Chicago | 5 | All Maps","name_short":"chi-5","host":"chi-2.us.uncletopia.com","port":27015,"enabled":true,"region":"us-central","cc":"us","latitude":41.881832,"longitude":-87.62318,"reserved":0,"last_update":"0001-01-01T00:00:00Z","name_a2s":"Uncletopia | Chicago | 5 | All Maps","protocol":17,"map":"pl_badwater","folder":"tf","game":"Team Fortress","app_id":440,"player_count":0,"max_players":24,"Bots":0,"server_type":"Dedicated","server_os":"Linux","password":true,"vac":true,"version":"7757534","steam_id":85568392924866362,"keywords":["nocrits","nodmgspread","payload","uncletopia"],"game_id":440,"stv_port":27016,"stv_name":"Uncletopia | Chicago | 5 | All Maps | STV","players":null},{"server_id":37,"name":"Uncletopia | Chicago | 6 | All Maps","name_short":"chi-6","host":"chi-2.us.uncletopia.com","port":27025,"enabled":true,"region":"us-central","cc":"us","latitude":41.881832,"longitude":-87.62318,"reserved":0,"last_update":"0001-01-01T00:00:00Z","name_a2s":"Uncletopia | Chicago | 6 | All Maps","protocol":17,"map":"koth_cascade","folder":"tf","game":"Team Fortress","app_id":440,"player_count":0,"max_players":24,"Bots":0,"server_type":"Dedicated","server_os":"Linux","password":true,"vac":true,"version":"7757534","steam_id":85568392924866363,"keywords":["cp","nocrits","nodmgspread","uncletopia"],"game_id":440,"stv_port":27026,"stv_name":"Uncletopia | Chicago | 6 | All Maps | STV","players":null},{"server_id":38,"name":"Uncletopia | Chicago | 7 | Stopwatch Beta","name_short":"chi-7","host":"chi-2.us.uncletopia.com","port":27035,"enabled":true,"region":"us-central","cc":"us","latitude":41.881832,"longitude":-87.62318,"reserved":0,"last_update":"0001-01-01T00:00:00Z","name_a2s":"Uncletopia | Chicago | 7 | Stopwatch Beta","protocol":17,"map":"pl_upward","folder":"tf","game":"Team Fortress","app_id":440,"player_count":0,"max_players":24,"Bots":0,"server_type":"Dedicated","server_os":"Linux","password":true,"vac":true,"version":"7757534","steam_id":85568392924866364,"keywords":["nocrits","nodmgspread","payload","uncletopia"],"game_id":440,"stv_port":27036,"stv_name":"Uncletopia | Chicago | 7 | Stopwatch Beta | STV","players":null},{"server_id":39,"name":"Uncletopia | Chicago | 8 | Community","name_short":"chi-8","host":"chi-2.us.uncletopia.com","port":27045,"enabled":true,"region":"us-central","cc":"us","latitude":41.881832,"longitude":-87.62318,"reserved":0,"last_update":"0001-01-01T00:00:00Z","name_a2s":"Uncletopia | Chicago | 8 | Community","protocol":17,"map":"pl_barnblitz","folder":"tf","game":"Team Fortress","app_id":440,"player_count":2,"max_players":24,"Bots":0,"server_type":"Dedicated","server_os":"Linux","password":true,"vac":true,"version":"7757534","steam_id":85568392924866365,"keywords":["nocrits","nodmgspread","payload","uncletopia"],"game_id":440,"stv_port":27046,"stv_name":"Uncletopia | Chicago | 8 | Community | STV","players":[{"user_id":6,"name":"Crash","steam_id":76561198251675490,"connected_time":48000000000,"state":"spawning","ping":55},{"user_id":7,"name":"magickxanadu","steam_id":76561199117360103,"connected_time":21000000000,"state":"active","ping":86}]},{"server_id":8,"name":"Uncletopia | Dallas | 1 | All Maps","name_short":"dal-1","host":"dal-1.us.uncletopia.com","port":27015,"enabled":true,"region":"us-central","cc":"us","latitude":32.779167,"longitude":-96.80889,"reserved":0,"last_update":"0001-01-01T00:00:00Z","name_a2s":"Uncletopia | Dallas | 1 | All Maps","protocol":17,"map":"koth_cascade","folder":"tf","game":"Team Fortress","app_id":440,"player_count":0,"max_players":24,"Bots":0,"server_type":"Dedicated","server_os":"Linux","password":true,"vac":true,"version":"7757534","steam_id":85568392924469986,"keywords":["cp","nocrits","nodmgspread","uncletopia"],"game_id":440,"stv_port":27016,"stv_name":"Uncletopia | Dallas | 1 | All Maps | STV","players":null},{"server_id":108,"name":"Uncletopia | Dallas | 2 | All Maps","name_short":"dal-2","host":"dal-1.us.uncletopia.com","port":27025,"enabled":true,"region":"us-central","cc":"us","latitude":32.779167,"longitude":-96.80889,"reserved":0,"last_update":"0001-01-01T00:00:00Z","name_a2s":"Uncletopia | Dallas | 2 | All Maps","protocol":17,"map":"pl_badwater","folder":"tf","game":"Team Fortress","app_id":440,"player_count":15,"max_players":24,"Bots":0,"server_type":"Dedicated","server_os":"Linux","password":true,"vac":true,"version":"7757534","steam_id":85568392924469988,"keywords":["nocrits","nodmgspread","payload","uncletopia"],"game_id":440,"stv_port":27026,"stv_name":"Uncletopia | Dallas | 2 | All Maps | STV","players":[{"user_id":177,"name":"PingableUsername","steam_id":76561198138760165,"connected_time":70000000000,"state":"active","ping":60},{"user_id":169,"name":"Jack from Jack in The Box","steam_id":76561199083594971,"connected_time":1282000000000,"state":"active","ping":64},{"user_id":178,"name":"WaywardFinn","steam_id":76561198040391296,"connected_time":35000000000,"state":"active","ping":86},{"user_id":27,"name":"bolainassr0","steam_id":76561199079078845,"connected_time":12631000000000,"state":"active","ping":100},{"user_id":165,"name":"|-[LINUX]-| Purple Pybro","steam_id":76561198093538786,"connected_time":1617000000000,"state":"active","ping":35},{"user_id":174,"name":"penis stealer","steam_id":76561199099203623,"connected_time":634000000000,"state":"active","ping":75},{"user_id":163,"name":"I bomb atomically","steam_id":76561198009818412,"connected_time":1915000000000,"state":"active","ping":49},{"user_id":175,"name":"Project_Counter","steam_id":76561198152786076,"connected_time":609000000000,"state":"active","ping":58},{"user_id":129,"name":"fuckterry","steam_id":76561198271957738,"connected_time":4481000000000,"state":"active","ping":63},{"user_id":173,"name":"Paolo","steam_id":76561198048134549,"connected_time":673000000000,"state":"active","ping":95},{"user_id":157,"name":"Quark","steam_id":76561198846915822,"connected_time":2766000000000,"state":"active","ping":120},{"user_id":127,"name":"P. Sebs","steam_id":76561198112354627,"connected_time":4950000000000,"state":"active","ping":32},{"user_id":171,"name":"tobrehto","steam_id":76561198097544038,"connected_time":976000000000,"state":"active","ping":68},{"user_id":92,"name":"[TF2Apples] Intense Green Apple","steam_id":76561198803561622,"connected_time":8274000000000,"state":"active","ping":101},{"user_id":159,"name":"TheTruthOfTheCessationOfDukkha","steam_id":76561198214370515,"connected_time":2685000000000,"state":"active","ping":74}]},{"server_id":5,"name":"Uncletopia | Frankfurt | 1 | All Maps","name_short":"frk-1","host":"frk-1.de.uncletopia.com","port":27015,"enabled":true,"region":"eu","cc":"de","latitude":50.110924,"longitude":8.682127,"reserved":0,"last_update":"0001-01-01T00:00:00Z","name_a2s":"Uncletopia | Frankfurt | 1 | All Maps","protocol":17,"map":"cp_steel","folder":"tf","game":"Team Fortress","app_id":440,"player_count":23,"max_players":24,"Bots":0,"server_type":"Dedicated","server_os":"Linux","password":true,"vac":true,"version":"7757534","steam_id":85568392924469989,"keywords":["cp","nocrits","nodmgspread","uncletopia"],"game_id":440,"stv_port":27016,"stv_name":"Uncletopia | Frankfurt | 1 | All Maps | STV","players":[{"user_id":604,"name":"Fridge","steam_id":76561198071665589,"connected_time":863000000000,"state":"active","ping":96},{"user_id":601,"name":"Old Hat","steam_id":76561197994673297,"connected_time":937000000000,"state":"active","ping":58},{"user_id":603,"name":"htraB","steam_id":76561198043122677,"connected_time":878000000000,"state":"active","ping":59},{"user_id":589,"name":"Lux","steam_id":76561198060417740,"connected_time":2440000000000,"state":"active","ping":47},{"user_id":607,"name":"googy doogy","steam_id":76561199025852100,"connected_time":710000000000,"state":"active","ping":137},{"user_id":628,"name":"the juniper","steam_id":76561198273513257,"connected_time":29000000000,"state":"active","ping":140},{"user_id":620,"name":"MorVill","steam_id":76561198809859945,"connected_time":434000000000,"state":"active","ping":60},{"user_id":622,"name":"robsan","steam_id":76561198137375391,"connected_time":387000000000,"state":"active","ping":71},{"user_id":612,"name":"Castellan","steam_id":76561197994861142,"connected_time":618000000000,"state":"active","ping":55},{"user_id":621,"name":"jan09102004","steam_id":76561198445458615,"connected_time":428000000000,"state":"active","ping":91},{"user_id":616,"name":"Jack.Orlando","steam_id":76561198802400236,"connected_time":535000000000,"state":"active","ping":73},{"user_id":598,"name":"Dirty Harry","steam_id":76561198813079990,"connected_time":1260000000000,"state":"active","ping":56},{"user_id":534,"name":"Arcader","steam_id":76561198109860110,"connected_time":6522000000000,"state":"active","ping":64},{"user_id":625,"name":"Fofenho #NerfTheKunai","steam_id":76561198436817109,"connected_time":347000000000,"state":"active","ping":60},{"user_id":581,"name":"wepon","steam_id":76561198097789669,"connected_time":2713000000000,"state":"active","ping":48},{"user_id":582,"name":"Big Mac Gaming","steam_id":76561198158209651,"connected_time":2662000000000,"state":"active","ping":62},{"user_id":623,"name":"Deva Path","steam_id":76561198085763542,"connected_time":366000000000,"state":"active","ping":70},{"user_id":626,"name":"Artur ‚òª","steam_id":76561198264297604,"connected_time":311000000000,"state":"active","ping":70},{"user_id":551,"name":"shoras","steam_id":76561198019680159,"connected_time":4862000000000,"state":"active","ping":79},{"user_id":629,"name":"k a t  /·ê†.Íûà.·êü\\","steam_id":76561199208236999,"connected_time":15000000000,"state":"spawning","ping":69},{"user_id":606,"name":"swag warrior","steam_id":76561198796600155,"connected_time":747000000000,"state":"active","ping":86},{"user_id":557,"name":"giclure :;","steam_id":76561197986362828,"connected_time":4804000000000,"state":"active","ping":64},{"user_id":614,"name":"Pyro","steam_id":76561198860424456,"connected_time":575000000000,"state":"active","ping":60}]},{"server_id":110,"name":"Uncletopia | Frankfurt | 2 | All Maps","name_short":"frk-2","host":"frk-1.de.uncletopia.com","port":27025,"enabled":true,"region":"eu","cc":"de","latitude":50.110924,"longitude":8.682127,"reserved":0,"last_update":"0001-01-01T00:00:00Z","name_a2s":"Uncletopia | Frankfurt | 2 | All Maps","protocol":17,"map":"pl_badwater","folder":"tf","game":"Team Fortress","app_id":440,"player_count":24,"max_players":24,"Bots":0,"server_type":"Dedicated","server_os":"Linux","password":true,"vac":true,"version":"7757534","steam_id":85568392924469990,"keywords":["nocrits","nodmgspread","payload","uncletopia"],"game_id":440,"stv_port":27026,"stv_name":"Uncletopia | Frankfurt | 2 | All Maps | STV","players":[{"user_id":455,"name":"big hoops","steam_id":76561198004703799,"connected_time":3624000000000,"state":"active","ping":47},{"user_id":487,"name":"Kotlet schabowy","steam_id":76561198048983509,"connected_time":1306000000000,"state":"active","ping":74},{"user_id":497,"name":"Crocodile","steam_id":76561197984680667,"connected_time":540000000000,"state":"active","ping":68},{"user_id":479,"name":"stuntz","steam_id":76561197974814348,"connected_time":1751000000000,"state":"active","ping":73},{"user_id":499,"name":"Eivind","steam_id":76561198159927980,"connected_time":522000000000,"state":"active","ping":74},{"user_id":498,"name":"Muppburg","steam_id":76561198031070682,"connected_time":539000000000,"state":"active","ping":74},{"user_id":489,"name":"the joy of recycling","steam_id":76561198415564349,"connected_time":1287000000000,"state":"active","ping":62},{"user_id":443,"name":"tiia (cold hends)","steam_id":76561198046196005,"connected_time":3996000000000,"state":"active","ping":41},{"user_id":495,"name":"JohnDies","steam_id":76561198171063246,"connected_time":715000000000,"state":"active","ping":69},{"user_id":500,"name":"Suetolog","steam_id":76561199053090212,"connected_time":512000000000,"state":"active","ping":55},{"user_id":463,"name":"Mussolini","steam_id":76561198218384865,"connected_time":3263000000000,"state":"active","ping":106},{"user_id":485,"name":"Rarky","steam_id":76561198054398642,"connected_time":1336000000000,"state":"active","ping":50},{"user_id":470,"name":"Donnie_Frisco","steam_id":76561198046018714,"connected_time":2238000000000,"state":"active","ping":67},{"user_id":480,"name":"Plubu","steam_id":76561198082511092,"connected_time":1624000000000,"state":"active","ping":122},{"user_id":397,"name":"mumbler","steam_id":76561197970641239,"connected_time":5949000000000,"state":"active","ping":45},{"user_id":465,"name":"poopcorn","steam_id":76561198435246575,"connected_time":3150000000000,"state":"active","ping":62},{"user_id":483,"name":"Volcyy","steam_id":76561198063979124,"connected_time":1356000000000,"state":"active","ping":42},{"user_id":469,"name":"Paul Penix","steam_id":76561197996941396,"connected_time":2248000000000,"state":"active","ping":53},{"user_id":493,"name":"owz","steam_id":76561198054517262,"connected_time":837000000000,"state":"active","ping":79},{"user_id":406,"name":"soda","steam_id":76561198202990635,"connected_time":5656000000000,"state":"active","ping":61},{"user_id":486,"name":"Oki (Bon)","steam_id":76561199047748534,"connected_time":1334000000000,"state":"active","ping":67},{"user_id":496,"name":"fogings","steam_id":76561198044165284,"connected_time":592000000000,"state":"active","ping":45},{"user_id":449,"name":"pringles can dan","steam_id":76561198057961506,"connected_time":3927000000000,"state":"active","ping":74},{"user_id":490,"name":"jo bidn' | ETLARTORM","steam_id":76561198869576262,"connected_time":1287000000000,"state":"active","ping":107}]},{"server_id":308,"name":"Uncletopia | Frankfurt | 3 | All Maps","name_short":"frk-3","host":"frk-1.de.uncletopia.com","port":27035,"enabled":true,"region":"eu","cc":"de","latitude":50.110924,"longitude":8.682127,"reserved":0,"last_update":"0001-01-01T00:00:00Z","name_a2s":"Uncletopia | Frankfurt | 3 | All Maps","protocol":17,"map":"pl_snowycoast","folder":"tf","game":"Team Fortress","app_id":440,"player_count":24,"max_players":24,"Bots":0,"server_type":"Dedicated","server_os":"Linux","password":true,"vac":true,"version":"7757534","steam_id":85568392924504274,"keywords":["nocrits","nodmgspread","payload","uncletopia"],"game_id":440,"stv_port":27036,"stv_name":"Uncletopia | Frankfurt | 3 | All Maps | STV","players":[{"user_id":260,"name":"Rashid Besythe","steam_id":76561198081477129,"connected_time":286000000000,"state":"active","ping":67},{"user_id":138,"name":"Economic crisis","steam_id":76561198063562843,"connected_time":2595000000000,"state":"active","ping":53},{"user_id":262,"name":"Ale Hodjason","steam_id":76561198046324091,"connected_time":68000000000,"state":"spawning","ping":89},{"user_id":89,"name":"Mr. Mundy","steam_id":76561198132008918,"connected_time":5910000000000,"state":"active","ping":74},{"user_id":167,"name":"marsel","steam_id":76561198116168271,"connected_time":1493000000000,"state":"active","ping":71},{"user_id":154,"name":"Arturias","steam_id":76561198188720263,"connected_time":1717000000000,"state":"active","ping":45},{"user_id":256,"name":"mohemmedmokhter2005","steam_id":76561199197650506,"connected_time":344000000000,"state":"active","ping":113},{"user_id":257,"name":"üÉî Nugg1t(sme/lly)","steam_id":76561198065652251,"connected_time":335000000000,"state":"active","ping":40},{"user_id":157,"name":"kamekame","steam_id":76561198047108054,"connected_time":1645000000000,"state":"active","ping":98},{"user_id":182,"name":"ricky pee pee","steam_id":76561198152620745,"connected_time":1188000000000,"state":"active","ping":74},{"user_id":108,"name":"Mike Rizzowski","steam_id":76561198798657045,"connected_time":4636000000000,"state":"active","ping":75},{"user_id":100,"name":"Hexagon","steam_id":76561198151205758,"connected_time":5196000000000,"state":"active","ping":56},{"user_id":118,"name":"sometimes i chew on the tea bag","steam_id":76561198058012525,"connected_time":3491000000000,"state":"active","ping":71},{"user_id":261,"name":"Choruptian","steam_id":76561198017686366,"connected_time":113000000000,"state":"active","ping":59},{"user_id":123,"name":"Sweat Plantation","steam_id":76561198025086883,"connected_time":3022000000000,"state":"active","ping":117},{"user_id":258,"name":"Jedi Knight","steam_id":76561198039030709,"connected_time":324000000000,"state":"active","ping":54},{"user_id":259,"name":"cat","steam_id":76561199045736884,"connected_time":318000000000,"state":"active","ping":62},{"user_id":144,"name":"benifis163","steam_id":76561198420973492,"connected_time":2451000000000,"state":"active","ping":105},{"user_id":250,"name":"AsuX","steam_id":76561197990333289,"connected_time":487000000000,"state":"active","ping":60},{"user_id":125,"name":"SgtRookie","steam_id":76561198030230427,"connected_time":3020000000000,"state":"active","ping":93},{"user_id":145,"name":"Kari","steam_id":76561198979596179,"connected_time":2439000000000,"state":"active","ping":102},{"user_id":99,"name":"ALARM","steam_id":76561198120686521,"connected_time":5659000000000,"state":"active","ping":63},{"user_id":146,"name":"Festive Erma","steam_id":76561198038718342,"connected_time":2431000000000,"state":"active","ping":84},{"user_id":253,"name":"_Starlight_","steam_id":76561197993885738,"connected_time":395000000000,"state":"active","ping":90}]},{"server_id":309,"name":"Uncletopia | Frankfurt | 4 | All Maps","name_short":"frk-4","host":"frk-1.de.uncletopia.com","port":27045,"enabled":true,"region":"eu","cc":"de","latitude":50.110924,"longitude":8.682127,"reserved":0,"last_update":"0001-01-01T00:00:00Z","name_a2s":"Uncletopia | Frankfurt | 4 | All Maps","protocol":17,"map":"koth_nucleus","folder":"tf","game":"Team Fortress","app_id":440,"player_count":24,"max_players":24,"Bots":0,"server_type":"Dedicated","server_os":"Linux","password":true,"vac":true,"version":"7757534","steam_id":85568392924504275,"keywords":["cp","nocrits","nodmgspread","uncletopia"],"game_id":440,"stv_port":27046,"stv_name":"Uncletopia | Frankfurt | 4 | All Maps | STV","players":[{"user_id":387,"name":"SODA!!!!!!!","steam_id":76561198107362485,"connected_time":151000000000,"state":"active","ping":61},{"user_id":368,"name":"TheKlin","steam_id":76561198032331453,"connected_time":1336000000000,"state":"active","ping":97},{"user_id":376,"name":"Use The Finger","steam_id":76561198050203563,"connected_time":498000000000,"state":"active","ping":69},{"user_id":388,"name":"‚ô•‚ô•dj_damian( Õ°¬∞ Õú ñ Õ°¬∞","steam_id":76561198321091340,"connected_time":108000000000,"state":"active","ping":95},{"user_id":377,"name":"1812","steam_id":76561198036824480,"connected_time":491000000000,"state":"active","ping":65},{"user_id":390,"name":"Argonmist","steam_id":76561198009309292,"connected_time":47000000000,"state":"active","ping":63},{"user_id":386,"name":"FoOzTV","steam_id":76561197998636728,"connected_time":223000000000,"state":"active","ping":74},{"user_id":345,"name":"zabloing","steam_id":76561198339480413,"connected_time":2380000000000,"state":"active","ping":70},{"user_id":334,"name":"TSx* {Demon-Angel}","steam_id":76561198151486463,"connected_time":2734000000000,"state":"active","ping":77},{"user_id":384,"name":"Medic","steam_id":76561198072321620,"connected_time":270000000000,"state":"active","ping":71},{"user_id":327,"name":"TSx* Naxer","steam_id":76561198011986779,"connected_time":3055000000000,"state":"active","ping":74},{"user_id":367,"name":"Big They/Them is watching YOU","steam_id":76561198307598168,"connected_time":1377000000000,"state":"active","ping":46},{"user_id":351,"name":"worlds sanest vaccinator user","steam_id":76561198152602785,"connected_time":2245000000000,"state":"active","ping":59},{"user_id":389,"name":"Tramuntana","steam_id":76561198241843480,"connected_time":98000000000,"state":"active","ping":89},{"user_id":338,"name":"eduardo","steam_id":76561198014491925,"connected_time":2482000000000,"state":"active","ping":76},{"user_id":383,"name":"Fran","steam_id":76561199070516960,"connected_time":295000000000,"state":"active","ping":60},{"user_id":335,"name":"TSx* Osa__PL","steam_id":76561198027016799,"connected_time":2721000000000,"state":"active","ping":74},{"user_id":340,"name":"chr","steam_id":76561198073016365,"connected_time":2473000000000,"state":"active","ping":89},{"user_id":363,"name":"Michael","steam_id":76561198106684566,"connected_time":1683000000000,"state":"active","ping":78},{"user_id":342,"name":"Barbo","steam_id":76561198067554169,"connected_time":2448000000000,"state":"active","ping":62},{"user_id":343,"name":"TSx* Bargal","steam_id":76561198040266872,"connected_time":2446000000000,"state":"active","ping":76},{"user_id":380,"name":"KingVoker","steam_id":76561198039602539,"connected_time":456000000000,"state":"active","ping":61},{"user_id":374,"name":"The pot-bellied hobgoblin","steam_id":76561199190918059,"connected_time":890000000000,"state":"active","ping":68},{"user_id":391,"name":"homeinvasion$","steam_id":76561199111905021,"connected_time":25000000000,"state":"spawning","ping":91}]},{"server_id":310,"name":"Uncletopia | Frankfurt | 5 | All Maps","name_short":"frk-5","host":"frk-1.de.uncletopia.com","port":27055,"enabled":true,"region":"eu","cc":"de","latitude":50.110924,"longitude":8.682127,"reserved":0,"last_update":"0001-01-01T00:00:00Z","name_a2s":"Uncletopia | Frankfurt | 5 | All Maps","protocol":17,"map":"koth_viaduct","folder":"tf","game":"Team Fortress","app_id":440,"player_count":23,"max_players":24,"Bots":0,"server_type":"Dedicated","server_os":"Linux","password":true,"vac":true,"version":"7757534","steam_id":85568392924504277,"keywords":["cp","nocrits","nodmgspread","uncletopia"],"game_id":440,"stv_port":27056,"stv_name":"Uncletopia | Frankfurt | 5 | All Maps | STV","players":[{"user_id":156,"name":"perq","steam_id":76561198353183551,"connected_time":212000000000,"state":"active","ping":90},{"user_id":127,"name":"LoliCatgirls.swf","steam_id":76561198055900955,"connected_time":1541000000000,"state":"active","ping":70},{"user_id":157,"name":"Krabs","steam_id":76561198161679477,"connected_time":189000000000,"state":"active","ping":55},{"user_id":130,"name":"Speedyjoestar","steam_id":76561198907130963,"connected_time":1514000000000,"state":"active","ping":79},{"user_id":144,"name":"japanese TF2EASY.COM | blw.tf","steam_id":76561198382064472,"connected_time":1048000000000,"state":"active","ping":58},{"user_id":131,"name":"average cpp programmer","steam_id":76561198259249173,"connected_time":1497000000000,"state":"active","ping":53},{"user_id":150,"name":"Bond","steam_id":76561198070654906,"connected_time":871000000000,"state":"active","ping":57},{"user_id":139,"name":"X45Y","steam_id":76561198112534025,"connected_time":1333000000000,"state":"active","ping":45},{"user_id":134,"name":"m.morhac123","steam_id":76561199202883261,"connected_time":1435000000000,"state":"active","ping":67},{"user_id":143,"name":"Vidrox #savetf2","steam_id":76561199217854983,"connected_time":1150000000000,"state":"active","ping":97},{"user_id":81,"name":"Captain HandicappedCock","steam_id":76561198109850402,"connected_time":4146000000000,"state":"active","ping":68},{"user_id":114,"name":"Dr. Le Quack","steam_id":76561197995711176,"connected_time":2768000000000,"state":"active","ping":88},{"user_id":149,"name":"relic_","steam_id":76561199053114167,"connected_time":898000000000,"state":"active","ping":108},{"user_id":76,"name":"kektuse","steam_id":76561198088426580,"connected_time":4345000000000,"state":"active","ping":60},{"user_id":135,"name":"‚òûLaZe‚òú","steam_id":76561198202191400,"connected_time":1405000000000,"state":"active","ping":77},{"user_id":121,"name":"gxoul","steam_id":76561199091006994,"connected_time":2053000000000,"state":"active","ping":72},{"user_id":140,"name":"Viking Jeff","steam_id":76561198062000324,"connected_time":1282000000000,"state":"active","ping":64},{"user_id":162,"name":"Chambersite","steam_id":76561198197022399,"connected_time":30000000000,"state":"active","ping":68},{"user_id":160,"name":"-makina","steam_id":76561198273042780,"connected_time":136000000000,"state":"active","ping":61},{"user_id":159,"name":"Tywhip","steam_id":76561199207545191,"connected_time":181000000000,"state":"active","ping":67},{"user_id":138,"name":"--","steam_id":76561198837706438,"connected_time":1390000000000,"state":"active","ping":75},{"user_id":124,"name":"dirty","steam_id":76561197995572935,"connected_time":1652000000000,"state":"active","ping":86},{"user_id":100,"name":"Daga","steam_id":76561198055450219,"connected_time":3381000000000,"state":"active","ping":55}]},{"server_id":311,"name":"Uncletopia | Frankfurt | 6 | All Maps","name_short":"frk-6","host":"frk-1.de.uncletopia.com","port":27065,"enabled":true,"region":"eu","cc":"de","latitude":50.110924,"longitude":8.682127,"reserved":0,"last_update":"0001-01-01T00:00:00Z","name_a2s":"Uncletopia | Frankfurt | 6 | All Maps","protocol":17,"map":"pl_barnblitz","folder":"tf","game":"Team Fortress","app_id":440,"player_count":10,"max_players":24,"Bots":0,"server_type":"Dedicated","server_os":"Linux","password":true,"vac":true,"version":"7757534","steam_id":85568392924504278,"keywords":["nocrits","nodmgspread","payload","uncletopia"],"game_id":440,"stv_port":27066,"stv_name":"Uncletopia | Frankfurt | 6 | All Maps | STV","players":[{"user_id":714,"name":"Kitten","steam_id":76561198019027657,"connected_time":65000000000,"state":"active","ping":66},{"user_id":712,"name":"aslloc((sizeof(U64) \u003c\u003c 0xff));","steam_id":76561198365870439,"connected_time":151000000000,"state":"active","ping":99},{"user_id":715,"name":"Buckminsterfullerene","steam_id":76561198218076629,"connected_time":27000000000,"state":"active","ping":77},{"user_id":693,"name":"arim","steam_id":76561197994600818,"connected_time":1172000000000,"state":"active","ping":44},{"user_id":706,"name":"Elon Ma","steam_id":76561199018053264,"connected_time":318000000000,"state":"active","ping":59},{"user_id":711,"name":"medium rare chicken enjoyer","steam_id":76561198050214002,"connected_time":169000000000,"state":"active","ping":55},{"user_id":656,"name":"dddd","steam_id":76561198120894372,"connected_time":3777000000000,"state":"active","ping":105},{"user_id":700,"name":"elio","steam_id":76561198142662131,"connected_time":534000000000,"state":"active","ping":77},{"user_id":657,"name":"luma","steam_id":76561198081649669,"connected_time":3767000000000,"state":"active","ping":63},{"user_id":697,"name":"Sirzen","steam_id":76561198170155434,"connected_time":630000000000,"state":"active","ping":45}]},{"server_id":23,"name":"Uncletopia | Frankfurt | 7 | Stopwatch Beta","name_short":"frk-7","host":"frk-1.de.uncletopia.com","port":27075,"enabled":true,"region":"eu","cc":"de","latitude":50.110924,"longitude":8.682127,"reserved":0,"last_update":"0001-01-01T00:00:00Z","name_a2s":"Uncletopia | Frankfurt | 7 | Stopwatch Beta","protocol":17,"map":"cp_sunshine","folder":"tf","game":"Team Fortress","app_id":440,"player_count":0,"max_players":24,"Bots":0,"server_type":"Dedicated","server_os":"Linux","password":true,"vac":true,"version":"7757534","steam_id":85568392924742827,"keywords":["cp","nocrits","nodmgspread","uncletopia"],"game_id":440,"stv_port":27076,"stv_name":"Uncletopia | Frankfurt | 7 | Stopwatch Beta | STV","players":null},{"server_id":24,"name":"Uncletopia | Frankfurt | 8 | Community","name_short":"frk-8","host":"frk-1.de.uncletopia.com","port":27085,"enabled":true,"region":"eu","cc":"de","latitude":50.110924,"longitude":8.682127,"reserved":0,"last_update":"0001-01-01T00:00:00Z","name_a2s":"Uncletopia | Frankfurt | 8 | Community","protocol":17,"map":"workshop/koth_ashville_final.ugc2130459942","folder":"tf","game":"Team Fortress","app_id":440,"player_count":4,"max_players":24,"Bots":0,"server_type":"Dedicated","server_os":"Linux","password":true,"vac":true,"version":"7757534","steam_id":85568392924742828,"keywords":["cp","nocrits","nodmgspread","uncletopia"],"game_id":440,"stv_port":27086,"stv_name":"Uncletopia | Frankfurt | 8 | Community | STV","players":[{"user_id":53,"name":"king251311","steam_id":76561199063310889,"connected_time":549000000000,"state":"active","ping":79},{"user_id":55,"name":"TryTane","steam_id":76561198133293111,"connected_time":155000000000,"state":"active","ping":44},{"user_id":45,"name":"Chucky","steam_id":76561198891579362,"connected_time":1136000000000,"state":"active","ping":70},{"user_id":50,"name":"TrockG","steam_id":76561198815449851,"connected_time":800000000000,"state":"active","ping":46}]},{"server_id":202,"name":"Uncletopia | Hong Kong | 1 | All Maps","name_short":"hgk-1","host":"hgk-1.hk.uncletopia.com","port":27015,"enabled":true,"region":"asia","cc":"hk","latitude":22.302711,"longitude":114.177216,"reserved":0,"last_update":"0001-01-01T00:00:00Z","name_a2s":"Uncletopia | Hong Kong | 1 | All Maps","protocol":17,"map":"ctf_2fort","folder":"tf","game":"Team Fortress","app_id":440,"player_count":0,"max_players":24,"Bots":0,"server_type":"Dedicated","server_os":"Linux","password":true,"vac":true,"version":"7757534","steam_id":85568392924494504,"keywords":["ctf","nocrits","nodmgspread","uncletopia"],"game_id":440,"stv_port":27016,"stv_name":"Uncletopia | Hong Kong | 1 | All Maps | STV","players":null},{"server_id":1,"name":"Uncletopia | Los Angeles | 1 | All Maps","name_short":"lax-1","host":"lax-1.us.uncletopia.com","port":27015,"enabled":true,"region":"us-west","cc":"us","latitude":33.94279,"longitude":-118.41004,"reserved":0,"last_update":"0001-01-01T00:00:00Z","name_a2s":"Uncletopia | Los Angeles | 1 | All Maps","protocol":17,"map":"cp_process_final","folder":"tf","game":"Team Fortress","app_id":440,"player_count":23,"max_players":24,"Bots":0,"server_type":"Dedicated","server_os":"Linux","password":true,"vac":true,"version":"7757534","steam_id":85568392924469991,"keywords":["cp","nocrits","nodmgspread","uncletopia"],"game_id":440,"stv_port":27016,"stv_name":"Uncletopia | Los Angeles | 1 | All Maps | STV","players":[{"user_id":3,"name":"Manx","steam_id":76561197977134062,"connected_time":3697000000000,"state":"active","ping":70},{"user_id":4,"name":"Nibotshooter","steam_id":76561199284825579,"connected_time":3694000000000,"state":"active","ping":71},{"user_id":5,"name":"PianoDeep","steam_id":76561199182813963,"connected_time":3675000000000,"state":"active","ping":73},{"user_id":38,"name":"A Puppy","steam_id":76561198828184456,"connected_time":1318000000000,"state":"active","ping":98},{"user_id":55,"name":"K.A.R.M.A.","steam_id":76561198240750142,"connected_time":97000000000,"state":"active","ping":43},{"user_id":43,"name":"bbbbbbbbbbbbbbbbbbbbbbbbbbbbbbb","steam_id":76561198339644583,"connected_time":1215000000000,"state":"active","ping":97},{"user_id":30,"name":"Oktayey","steam_id":76561198143213426,"connected_time":1853000000000,"state":"active","ping":53},{"user_id":53,"name":"mas que nada","steam_id":76561198102681457,"connected_time":228000000000,"state":"active","ping":107},{"user_id":56,"name":"oil","steam_id":76561198099980149,"connected_time":70000000000,"state":"active","ping":50},{"user_id":34,"name":"Soap Man","steam_id":76561198000490235,"connected_time":1500000000000,"state":"active","ping":103},{"user_id":16,"name":"Schiz-doe-phrenic","steam_id":76561198086475372,"connected_time":2599000000000,"state":"active","ping":69},{"user_id":44,"name":"Obelix","steam_id":76561198274715109,"connected_time":1193000000000,"state":"active","ping":103},{"user_id":52,"name":"Chad MorningWood","steam_id":76561198139832291,"connected_time":384000000000,"state":"active","ping":56},{"user_id":57,"name":"Son of Slop","steam_id":76561198042816721,"connected_time":63000000000,"state":"active","ping":51},{"user_id":20,"name":"Raven","steam_id":76561198046552871,"connected_time":2359000000000,"state":"active","ping":113},{"user_id":31,"name":"üÖúüÖîüÖîüÖöüÖ¢üÖ£üÖî\ufffd\ufffd\ufffd","steam_id":76561197999748343,"connected_time":1692000000000,"state":"active","ping":68},{"user_id":49,"name":"Duncle Frazzle","steam_id":76561198145596626,"connected_time":853000000000,"state":"active","ping":66},{"user_id":23,"name":"Blitzy","steam_id":76561198149472890,"connected_time":2305000000000,"state":"active","ping":91},{"user_id":24,"name":"IPlayGamez","steam_id":76561198041387508,"connected_time":2301000000000,"state":"active","ping":104},{"user_id":25,"name":"GlitchGame","steam_id":76561198935134697,"connected_time":2266000000000,"state":"active","ping":99},{"user_id":26,"name":"MrrPickle","steam_id":76561198122046514,"connected_time":2261000000000,"state":"active","ping":109},{"user_id":50,"name":"^_^","steam_id":76561198971354161,"connected_time":717000000000,"state":"active","ping":101},{"user_id":58,"name":"flo rida","steam_id":76561198226169704,"connected_time":41000000000,"state":"spawning","ping":54}]},{"server_id":112,"name":"Uncletopia | Los Angeles | 2 | All Maps","name_short":"lax-2","host":"lax-1.us.uncletopia.com","port":27025,"enabled":true,"region":"us-west","cc":"us","latitude":33.94279,"longitude":-118.41004,"reserved":0,"last_update":"0001-01-01T00:00:00Z","name_a2s":"Uncletopia | Los Angeles | 2 | All Maps","protocol":17,"map":"koth_cascade","folder":"tf","game":"Team Fortress","app_id":440,"player_count":0,"max_players":24,"Bots":0,"server_type":"Dedicated","server_os":"Linux","password":true,"vac":true,"version":"7757534","steam_id":85568392924469992,"keywords":["cp","nocrits","nodmgspread","uncletopia"],"game_id":440,"stv_port":27026,"stv_name":"Uncletopia | Los Angeles | 2 | All Maps | STV","players":null},{"server_id":324,"name":"Uncletopia | Los Angeles | 3 | All Maps","name_short":"lax-3","host":"lax-1.us.uncletopia.com","port":27035,"enabled":true,"region":"us-west","cc":"us","latitude":33.94279,"longitude":-118.41004,"reserved":0,"last_update":"0001-01-01T00:00:00Z","name_a2s":"Uncletopia | Los Angeles | 3 | All Maps","protocol":17,"map":"cp_process_final","folder":"tf","game":"Team Fortress","app_id":440,"player_count":0,"max_players":24,"Bots":0,"server_type":"Dedicated","server_os":"Linux","password":true,"vac":true,"version":"7757534","steam_id":85568392924510198,"keywords":["cp","nocrits","nodmgspread","uncletopia"],"game_id":440,"stv_port":27036,"stv_name":"Uncletopia | Los Angeles | 3 | All Maps | STV","players":null},{"server_id":25,"name":"Uncletopia | Los Angeles | 4 | Stopwatch Beta","name_short":"lax-4","host":"lax-1.us.uncletopia.com","port":27045,"enabled":true,"region":"us-west","cc":"us","latitude":33.94279,"longitude":-118.41004,"reserved":0,"last_update":"0001-01-01T00:00:00Z","name_a2s":"Uncletopia | Los Angeles | 4 | Stopwatch Beta","protocol":17,"map":"pl_frontier_final","folder":"tf","game":"Team Fortress","app_id":440,"player_count":0,"max_players":24,"Bots":0,"server_type":"Dedicated","server_os":"Linux","password":true,"vac":true,"version":"7757534","steam_id":85568392924510199,"keywords":["nocrits","nodmgspread","payload","uncletopia"],"game_id":440,"stv_port":27046,"stv_name":"Uncletopia | Los Angeles | 4 | Stopwatch Beta | STV","players":null},{"server_id":11,"name":"Uncletopia | London | 1 | All Maps","name_short":"lon-1","host":"lon-1.uk.uncletopia.com","port":27015,"enabled":true,"region":"eu","cc":"gb","latitude":51.509865,"longitude":-0.118092,"reserved":0,"last_update":"0001-01-01T00:00:00Z","name_a2s":"Uncletopia | London | 1 | All Maps","protocol":17,"map":"pl_upward","folder":"tf","game":"Team Fortress","app_id":440,"player_count":24,"max_players":24,"Bots":0,"server_type":"Dedicated","server_os":"Linux","password":true,"vac":true,"version":"7757534","steam_id":85568392924367362,"keywords":["nocrits","nodmgspread","payload","uncletopia"],"game_id":440,"stv_port":27016,"stv_name":"Uncletopia | London | 1 | All Maps | STV","players":[{"user_id":232,"name":"RadialMount","steam_id":76561198063002562,"connected_time":3405000000000,"state":"active","ping":71},{"user_id":266,"name":"Pls.do.it!","steam_id":76561198211638119,"connected_time":1709000000000,"state":"active","ping":94},{"user_id":240,"name":"gnarly business","steam_id":76561198832688767,"connected_time":2821000000000,"state":"active","ping":48},{"user_id":278,"name":"Pyro TF2 (real)","steam_id":76561199017872113,"connected_time":1253000000000,"state":"active","ping":82},{"user_id":289,"name":"MrXtr","steam_id":76561198966247397,"connected_time":572000000000,"state":"active","ping":93},{"user_id":244,"name":"dopamine overdose","steam_id":76561199032511302,"connected_time":2720000000000,"state":"active","ping":110},{"user_id":259,"name":"Joseph Stalin","steam_id":76561198033199746,"connected_time":1989000000000,"state":"active","ping":49},{"user_id":288,"name":"caps.","steam_id":76561198116528817,"connected_time":636000000000,"state":"active","ping":60},{"user_id":287,"name":"Jeikku","steam_id":76561198078651679,"connected_time":696000000000,"state":"active","ping":44},{"user_id":268,"name":"EdSuedi","steam_id":76561199387956486,"connected_time":1678000000000,"state":"active","ping":61},{"user_id":291,"name":"Katie","steam_id":76561198056193753,"connected_time":540000000000,"state":"active","ping":48},{"user_id":296,"name":"Tlad2","steam_id":76561198854897667,"connected_time":309000000000,"state":"active","ping":69},{"user_id":220,"name":"sneb","steam_id":76561198039381855,"connected_time":4658000000000,"state":"active","ping":61},{"user_id":294,"name":"Kray","steam_id":76561198063585742,"connected_time":504000000000,"state":"active","ping":55},{"user_id":269,"name":"Circular","steam_id":76561198001536710,"connected_time":1676000000000,"state":"active","ping":45},{"user_id":276,"name":"Kwizine","steam_id":76561198147999400,"connected_time":1298000000000,"state":"active","ping":65},{"user_id":262,"name":"Boil em mash em","steam_id":76561198026508026,"connected_time":1770000000000,"state":"active","ping":78},{"user_id":295,"name":"profreshional cactus","steam_id":76561198837919828,"connected_time":503000000000,"state":"active","ping":113},{"user_id":273,"name":"subway vergil","steam_id":76561199110064166,"connected_time":1426000000000,"state":"active","ping":66},{"user_id":275,"name":"Grim the lemon","steam_id":76561199083433988,"connected_time":1408000000000,"state":"active","ping":198},{"user_id":255,"name":"Fishum","steam_id":76561198148556559,"connected_time":2551000000000,"state":"active","ping":59},{"user_id":224,"name":"pepperonikorv","steam_id":76561198040665006,"connected_time":4262000000000,"state":"active","ping":71},{"user_id":237,"name":"When Life gives you Lemons","steam_id":76561198318290663,"connected_time":3293000000000,"state":"active","ping":59},{"user_id":277,"name":"bored","steam_id":76561198981796805,"connected_time":1297000000000,"state":"active","ping":67}]},{"server_id":114,"name":"Uncletopia | London | 2 | All Maps","name_short":"lon-2","host":"lon-1.uk.uncletopia.com","port":27025,"enabled":true,"region":"eu","cc":"gb","latitude":51.509865,"longitude":-0.118092,"reserved":0,"last_update":"0001-01-01T00:00:00Z","name_a2s":"Uncletopia | London | 2 | All Maps","protocol":17,"map":"koth_viaduct","folder":"tf","game":"Team Fortress","app_id":440,"player_count":0,"max_players":24,"Bots":0,"server_type":"Dedicated","server_os":"Linux","password":true,"vac":true,"version":"7757534","steam_id":85568392924470941,"keywords":["cp","nocrits","nodmgspread","uncletopia"],"game_id":440,"stv_port":27026,"stv_name":"Uncletopia | London | 2 | All Maps | STV","players":null},{"server_id":320,"name":"Uncletopia | London | 3 | All Maps","name_short":"lon-3","host":"lon-1.uk.uncletopia.com","port":27035,"enabled":true,"region":"eu","cc":"gb","latitude":51.509865,"longitude":-0.118092,"reserved":0,"last_update":"0001-01-01T00:00:00Z","name_a2s":"Uncletopia | London | 3 | All Maps","protocol":17,"map":"koth_harvest_final","folder":"tf","game":"Team Fortress","app_id":440,"player_count":24,"max_players":24,"Bots":0,"server_type":"Dedicated","server_os":"Linux","password":true,"vac":true,"version":"7757534","steam_id":85568392924510192,"keywords":["cp","nocrits","nodmgspread","uncletopia"],"game_id":440,"stv_port":27036,"stv_name":"Uncletopia | London | 3 | All Maps | STV","players":[{"user_id":433,"name":"Enda","steam_id":76561198202980164,"connected_time":318000000000,"state":"active","ping":91},{"user_id":415,"name":"rosepinkyfuzz","steam_id":76561198018546334,"connected_time":2051000000000,"state":"active","ping":78},{"user_id":435,"name":"Superiumentarius","steam_id":76561198081642249,"connected_time":270000000000,"state":"active","ping":60},{"user_id":436,"name":"jovi_","steam_id":76561198449280552,"connected_time":248000000000,"state":"active","ping":52},{"user_id":434,"name":"Mawnster","steam_id":76561198023392404,"connected_time":314000000000,"state":"active","ping":57},{"user_id":437,"name":"Anri Okita's Massive Milkers","steam_id":76561199186352720,"connected_time":245000000000,"state":"active","ping":53},{"user_id":438,"name":"Silverdarlin","steam_id":76561198118540970,"connected_time":219000000000,"state":"active","ping":53},{"user_id":381,"name":"dotdotdot","steam_id":76561198057628751,"connected_time":4068000000000,"state":"active","ping":67},{"user_id":446,"name":"Dachowiec","steam_id":76561198195408281,"connected_time":12000000000,"state":"active","ping":72},{"user_id":439,"name":"Flyingmeadow","steam_id":76561198144687723,"connected_time":214000000000,"state":"active","ping":119},{"user_id":397,"name":"Fat Pigeon","steam_id":76561198817940142,"connected_time":3112000000000,"state":"active","ping":46},{"user_id":440,"name":"Setter Ball Gaul","steam_id":76561198130427881,"connected_time":205000000000,"state":"active","ping":165},{"user_id":413,"name":"goblin","steam_id":76561199010825303,"connected_time":2331000000000,"state":"active","ping":75},{"user_id":445,"name":"Flex","steam_id":76561197970482191,"connected_time":100000000000,"state":"active","ping":57},{"user_id":419,"name":"Nobody","steam_id":76561199113947978,"connected_time":1743000000000,"state":"active","ping":91},{"user_id":444,"name":"Drusalem","steam_id":76561199078547218,"connected_time":176000000000,"state":"active","ping":183},{"user_id":399,"name":"teddyswk","steam_id":76561198404939571,"connected_time":3096000000000,"state":"active","ping":93},{"user_id":443,"name":"nie mam komputera","steam_id":76561198963841479,"connected_time":186000000000,"state":"active","ping":92},{"user_id":394,"name":"Grillem Dafoe","steam_id":76561198306874574,"connected_time":3186000000000,"state":"active","ping":61},{"user_id":431,"name":"kbbq","steam_id":76561198346638308,"connected_time":661000000000,"state":"active","ping":50},{"user_id":426,"name":"Jon (alt)","steam_id":76561199380849468,"connected_time":872000000000,"state":"active","ping":62},{"user_id":422,"name":"The Red Herring","steam_id":76561198028036170,"connected_time":1602000000000,"state":"active","ping":70},{"user_id":428,"name":"MAKENTAKEN","steam_id":76561199127359587,"connected_time":855000000000,"state":"active","ping":97},{"user_id":430,"name":"spearfishNL","steam_id":76561199077022985,"connected_time":738000000000,"state":"active","ping":60}]},{"server_id":321,"name":"Uncletopia | London | 4 | All Maps","name_short":"lon-4","host":"lon-1.uk.uncletopia.com","port":27045,"enabled":true,"region":"eu","cc":"gb","latitude":51.509865,"longitude":-0.118092,"reserved":0,"last_update":"0001-01-01T00:00:00Z","name_a2s":"Uncletopia | London | 4 | All Maps","protocol":17,"map":"koth_viaduct","folder":"tf","game":"Team Fortress","app_id":440,"player_count":0,"max_players":24,"Bots":0,"server_type":"Dedicated","server_os":"Linux","password":true,"vac":true,"version":"7757534","steam_id":85568392924510193,"keywords":["cp","nocrits","nodmgspread","uncletopia"],"game_id":440,"stv_port":27046,"stv_name":"Uncletopia | London | 4 | All Maps | STV","players":null},{"server_id":21,"name":"Uncletopia | London | 5 | All Maps","name_short":"lon-5","host":"lon-1.uk.uncletopia.com","port":27055,"enabled":true,"region":"eu","cc":"gb","latitude":51.509865,"longitude":-0.118092,"reserved":0,"last_update":"0001-01-01T00:00:00Z","name_a2s":"Uncletopia | London | 5 | All Maps","protocol":17,"map":"pl_frontier_final","folder":"tf","game":"Team Fortress","app_id":440,"player_count":24,"max_players":24,"Bots":0,"server_type":"Dedicated","server_os":"Linux","password":true,"vac":true,"version":"7757534","steam_id":85568392924742829,"keywords":["nocrits","nodmgspread","payload","uncletopia"],"game_id":440,"stv_port":27056,"stv_name":"Uncletopia | London | 5 | All Maps | STV","players":[{"user_id":7,"name":"ran is running","steam_id":76561199443185667,"connected_time":7296000000000,"state":"active","ping":134},{"user_id":8,"name":"justin_ (f2p) (real)","steam_id":76561198839843428,"connected_time":7276000000000,"state":"active","ping":119},{"user_id":108,"name":"Alekk","steam_id":76561198093533143,"connected_time":1720000000000,"state":"active","ping":65},{"user_id":95,"name":"cloud","steam_id":76561198179768931,"connected_time":2891000000000,"state":"active","ping":57},{"user_id":109,"name":"FJADL","steam_id":76561198237008214,"connected_time":1665000000000,"state":"active","ping":62},{"user_id":113,"name":"doopsuiker","steam_id":76561198025916703,"connected_time":1398000000000,"state":"active","ping":68},{"user_id":20,"name":"mishka.*","steam_id":76561198040003628,"connected_time":6606000000000,"state":"active","ping":75},{"user_id":81,"name":"Mor'du","steam_id":76561198274105878,"connected_time":4250000000000,"state":"active","ping":88},{"user_id":106,"name":"GardenFungus","steam_id":76561198054894337,"connected_time":1916000000000,"state":"active","ping":45},{"user_id":101,"name":"Himmelsst√ºrmer","steam_id":76561198012699793,"connected_time":2063000000000,"state":"active","ping":85},{"user_id":110,"name":"bjrene64","steam_id":76561199387016566,"connected_time":1554000000000,"state":"active","ping":83},{"user_id":111,"name":"Tafrum","steam_id":76561198053868147,"connected_time":1550000000000,"state":"active","ping":96},{"user_id":94,"name":"Pancakes","steam_id":76561198196259989,"connected_time":2916000000000,"state":"active","ping":43},{"user_id":104,"name":"nightmare","steam_id":76561198386928726,"connected_time":1989000000000,"state":"active","ping":104},{"user_id":90,"name":"nachtraaf","steam_id":76561197960473205,"connected_time":3597000000000,"state":"active","ping":49},{"user_id":107,"name":"Miju","steam_id":76561198056029274,"connected_time":1769000000000,"state":"active","ping":57},{"user_id":46,"name":"sv_opor 13123","steam_id":76561198002229612,"connected_time":5431000000000,"state":"active","ping":73},{"user_id":37,"name":"Tomau5","steam_id":76561198027409468,"connected_time":5946000000000,"state":"active","ping":52},{"user_id":112,"name":"Uncle Owen","steam_id":76561198157999291,"connected_time":1439000000000,"state":"active","ping":90},{"user_id":93,"name":"Toast Nook","steam_id":76561199093949301,"connected_time":3218000000000,"state":"active","ping":86},{"user_id":40,"name":"Santa Andus A silly Robot","steam_id":76561198040830522,"connected_time":5894000000000,"state":"active","ping":81},{"user_id":97,"name":"Mean Green Peen","steam_id":76561198228455736,"connected_time":2475000000000,"state":"active","ping":46},{"user_id":120,"name":"nynon","steam_id":76561197998432126,"connected_time":979000000000,"state":"active","ping":90},{"user_id":79,"name":"Szymekc","steam_id":76561198009541119,"connected_time":4358000000000,"state":"active","ping":76}]},{"server_id":22,"name":"Uncletopia | London | 6 | All Maps","name_short":"lon-6","host":"lon-1.uk.uncletopia.com","port":27065,"enabled":true,"region":"eu","cc":"gb","latitude":51.509865,"longitude":-0.118092,"reserved":0,"last_update":"0001-01-01T00:00:00Z","name_a2s":"Uncletopia | London | 6 | All Maps","protocol":17,"map":"koth_cascade","folder":"tf","game":"Team Fortress","app_id":440,"player_count":0,"max_players":24,"Bots":0,"server_type":"Dedicated","server_os":"Linux","password":true,"vac":true,"version":"7757534","steam_id":85568392924742830,"keywords":["cp","nocrits","nodmgspread","uncletopia"],"game_id":440,"stv_port":27066,"stv_name":"Uncletopia | London | 6 | All Maps | STV","players":null},{"server_id":40,"name":"Uncletopia | London | 7 | No Payload","name_short":"lon-7","host":"lon-1.uk.uncletopia.com","port":27075,"enabled":true,"region":"eu","cc":"gb","latitude":51.509865,"longitude":-0.118092,"reserved":0,"last_update":"0001-01-01T00:00:00Z","name_a2s":"Uncletopia | London | 7 | No Payload","protocol":17,"map":"ctf_2fort","folder":"tf","game":"Team Fortress","app_id":440,"player_count":18,"max_players":24,"Bots":0,"server_type":"Dedicated","server_os":"Linux","password":true,"vac":true,"version":"7757534","steam_id":85568392924964314,"keywords":["ctf","nocrits","nodmgspread","uncletopia"],"game_id":440,"stv_port":27076,"stv_name":"Uncletopia | London | 7 | No Payload | STV","players":[{"user_id":82,"name":"akakez","steam_id":76561198095432821,"connected_time":5643000000000,"state":"active","ping":116},{"user_id":170,"name":"Senile Soup","steam_id":76561198174553741,"connected_time":582000000000,"state":"active","ping":51},{"user_id":140,"name":"rmaatn","steam_id":76561198123347982,"connected_time":1958000000000,"state":"active","ping":148},{"user_id":91,"name":"Bobo","steam_id":76561198052308399,"connected_time":4899000000000,"state":"active","ping":67},{"user_id":157,"name":"radders","steam_id":76561198087803430,"connected_time":1220000000000,"state":"active","ping":57},{"user_id":169,"name":"gabagool","steam_id":76561198307111838,"connected_time":742000000000,"state":"active","ping":45},{"user_id":175,"name":"Sparklysammon22","steam_id":76561198400790231,"connected_time":61000000000,"state":"active","ping":56},{"user_id":160,"name":"Lovely dove bombing diarrhea","steam_id":76561198042593027,"connected_time":1082000000000,"state":"active","ping":96},{"user_id":168,"name":"alshep00","steam_id":76561198079585198,"connected_time":759000000000,"state":"active","ping":53},{"user_id":173,"name":"Spliffendor","steam_id":76561198144020209,"connected_time":336000000000,"state":"active","ping":41},{"user_id":152,"name":"Phiphler","steam_id":76561197994055715,"connected_time":1320000000000,"state":"active","ping":73},{"user_id":153,"name":"Kotlin","steam_id":76561198443331716,"connected_time":1299000000000,"state":"active","ping":49},{"user_id":136,"name":"TheArmyGuy","steam_id":76561198024821078,"connected_time":2113000000000,"state":"active","ping":49},{"user_id":171,"name":"salmon meta","steam_id":76561199385280253,"connected_time":482000000000,"state":"active","ping":119},{"user_id":167,"name":"Mowelic","steam_id":76561198873641222,"connected_time":788000000000,"state":"active","ping":89},{"user_id":158,"name":"Swedde","steam_id":76561198297296440,"connected_time":1199000000000,"state":"active","ping":64},{"user_id":154,"name":"luckyastroman","steam_id":76561199027500574,"connected_time":1294000000000,"state":"active","ping":81},{"user_id":144,"name":"Michael","steam_id":76561198003146906,"connected_time":1799000000000,"state":"active","ping":46}]},{"server_id":41,"name":"Uncletopia | London | 8 | Community","name_short":"lon-8","host":"lon-1.uk.uncletopia.com","port":27085,"enabled":true,"region":"eu","cc":"gb","latitude":51.509865,"longitude":-0.118092,"reserved":0,"last_update":"0001-01-01T00:00:00Z","name_a2s":"Uncletopia | London | 8 | Community","protocol":17,"map":"workshop/cp_bruhstbowl_b5.ugc2878604990","folder":"tf","game":"Team Fortress","app_id":440,"player_count":0,"max_players":24,"Bots":0,"server_type":"Dedicated","server_os":"Linux","password":true,"vac":true,"version":"7757534","steam_id":85568392924964315,"keywords":["cp","nocrits","nodmgspread","uncletopia"],"game_id":440,"stv_port":27086,"stv_name":"Uncletopia | London | 8 | Community | STV","players":null},{"server_id":300,"name":"Uncletopia | Montr√©al | 1 | All Maps","name_short":"mtl-1","host":"mtl-1.ca.uncletopia.com","port":27015,"enabled":true,"region":"us-east","cc":"ca","latitude":45.50889,"longitude":-73.56167,"reserved":0,"last_update":"0001-01-01T00:00:00Z","name_a2s":"Uncletopia | Montr√©al | 1 | All Maps","protocol":17,"map":"pl_snowycoast","folder":"tf","game":"Team Fortress","app_id":440,"player_count":0,"max_players":24,"Bots":0,"server_type":"Dedicated","server_os":"Linux","password":true,"vac":true,"version":"7757534","steam_id":85568392924500087,"keywords":["nocrits","nodmgspread","payload","uncletopia"],"game_id":440,"stv_port":27016,"stv_name":"Uncletopia | Montr√©al | 1 | All Maps | STV","players":null},{"server_id":301,"name":"Uncletopia | Montr√©al | 2 | All Maps","name_short":"mtl-2","host":"mtl-1.ca.uncletopia.com","port":27025,"enabled":true,"region":"us-east","cc":"ca","latitude":45.50889,"longitude":-73.56167,"reserved":0,"last_update":"0001-01-01T00:00:00Z","name_a2s":"Uncletopia | Montr√©al | 2 | All Maps","protocol":17,"map":"pl_snowycoast","folder":"tf","game":"Team Fortress","app_id":440,"player_count":0,"max_players":24,"Bots":0,"server_type":"Dedicated","server_os":"Linux","password":true,"vac":true,"version":"7757534","steam_id":85568392924500088,"keywords":["nocrits","nodmgspread","payload","uncletopia"],"game_id":440,"stv_port":27026,"stv_name":"Uncletopia | Montr√©al | 2 | All Maps | STV","players":null},{"server_id":302,"name":"Uncletopia | Montr√©al | 3 | All Maps","name_short":"mtl-3","host":"mtl-1.ca.uncletopia.com","port":27035,"enabled":true,"region":"us-east","cc":"ca","latitude":45.50889,"longitude":-73.56167,"reserved":0,"last_update":"0001-01-01T00:00:00Z","name_a2s":"Uncletopia | Montr√©al | 3 | All Maps","protocol":17,"map":"cp_dustbowl","folder":"tf","game":"Team Fortress","app_id":440,"player_count":0,"max_players":24,"Bots":0,"server_type":"Dedicated","server_os":"Linux","password":true,"vac":true,"version":"7757534","steam_id":85568392924500089,"keywords":["cp","nocrits","nodmgspread","uncletopia"],"game_id":440,"stv_port":27036,"stv_name":"Uncletopia | Montr√©al | 3 | All Maps | STV","players":null},{"server_id":303,"name":"Uncletopia | Montr√©al | 4 | No Payload","name_short":"mtl-4","host":"mtl-1.ca.uncletopia.com","port":27045,"enabled":true,"region":"us-east","cc":"ca","latitude":45.50889,"longitude":-73.56167,"reserved":0,"last_update":"0001-01-01T00:00:00Z","name_a2s":"Uncletopia | Montr√©al | 4 | No Payload","protocol":17,"map":"pl_borneo","folder":"tf","game":"Team Fortress","app_id":440,"player_count":0,"max_players":24,"Bots":0,"server_type":"Dedicated","server_os":"Linux","password":true,"vac":true,"version":"7757534","steam_id":85568392924500090,"keywords":["nocrits","nodmgspread","payload","uncletopia"],"game_id":440,"stv_port":27046,"stv_name":"Uncletopia | Montr√©al | 4 | No Payload | STV","players":null},{"server_id":13,"name":"Uncletopia | New York City | 1 | All Maps","name_short":"nyc-1","host":"nyc-1.us.uncletopia.com","port":27015,"enabled":true,"region":"us-east","cc":"us","latitude":40.73061,"longitude":-73.93524,"reserved":0,"last_update":"0001-01-01T00:00:00Z","name_a2s":"Uncletopia | New York City | 1 | All Maps","protocol":17,"map":"koth_lakeside_final","folder":"tf","game":"Team Fortress","app_id":440,"player_count":0,"max_players":24,"Bots":0,"server_type":"Dedicated","server_os":"Linux","password":true,"vac":true,"version":"7757534","steam_id":85568392924469993,"keywords":["cp","nocrits","nodmgspread","uncletopia"],"game_id":440,"stv_port":27016,"stv_name":"Uncletopia | New York City | 1 | All Maps | STV","players":null},{"server_id":14,"name":"Uncletopia | New York City | 2 | All Maps","name_short":"nyc-2","host":"nyc-1.us.uncletopia.com","port":27025,"enabled":true,"region":"us-east","cc":"us","latitude":40.73061,"longitude":-73.93524,"reserved":0,"last_update":"0001-01-01T00:00:00Z","name_a2s":"Uncletopia | New York City | 2 | All Maps","protocol":17,"map":"koth_lakeside_final","folder":"tf","game":"Team Fortress","app_id":440,"player_count":1,"max_players":24,"Bots":0,"server_type":"Dedicated","server_os":"Linux","password":true,"vac":true,"version":"7757534","steam_id":85568392924469994,"keywords":["cp","nocrits","nodmgspread","uncletopia"],"game_id":440,"stv_port":27026,"stv_name":"Uncletopia | New York City | 2 | All Maps | STV","players":[{"user_id":10,"name":"stevefelber","steam_id":76561199467139120,"connected_time":502000000000,"state":"active","ping":59}]},{"server_id":15,"name":"Uncletopia | New York City | 3 | Stopwatch Beta","name_short":"nyc-3","host":"nyc-1.us.uncletopia.com","port":27035,"enabled":true,"region":"us-east","cc":"us","latitude":40.73061,"longitude":-73.93524,"reserved":0,"last_update":"0001-01-01T00:00:00Z","name_a2s":"Uncletopia | New York City | 3 | Stopwatch Beta","protocol":17,"map":"pl_borneo","folder":"tf","game":"Team Fortress","app_id":440,"player_count":0,"max_players":24,"Bots":0,"server_type":"Dedicated","server_os":"Linux","password":true,"vac":true,"version":"7757534","steam_id":85568392924742820,"keywords":["nocrits","nodmgspread","payload","uncletopia"],"game_id":440,"stv_port":27036,"stv_name":"Uncletopia | New York City | 3 | Stopwatch Beta | STV","players":null},{"server_id":16,"name":"Uncletopia | New York City | 4 | Community","name_short":"nyc-4","host":"nyc-1.us.uncletopia.com","port":27045,"enabled":true,"region":"us-east","cc":"us","latitude":40.73061,"longitude":-73.93524,"reserved":0,"last_update":"0001-01-01T00:00:00Z","name_a2s":"Uncletopia | New York City | 4 | Community","protocol":17,"map":"workshop/koth_kemptown_rc1.ugc767410655","folder":"tf","game":"Team Fortress","app_id":440,"player_count":0,"max_players":24,"Bots":0,"server_type":"Dedicated","server_os":"Linux","password":true,"vac":true,"version":"7757534","steam_id":85568392924742821,"keywords":["cp","nocrits","nodmgspread","uncletopia"],"game_id":440,"stv_port":27046,"stv_name":"Uncletopia | New York City | 4 | Community | STV","players":null},{"server_id":142,"name":"Uncletopia | S√£o Paulo | 1 | All Maps","name_short":"sao-1","host":"sao-1.br.uncletopia.com","port":27015,"enabled":true,"region":"sa","cc":"br","latitude":-23.533773,"longitude":-46.62529,"reserved":0,"last_update":"0001-01-01T00:00:00Z","name_a2s":"Uncletopia | S√£o Paulo | 1 | All Maps","protocol":17,"map":"pl_pier","folder":"tf","game":"Team Fortress","app_id":440,"player_count":0,"max_players":24,"Bots":0,"server_type":"Dedicated","server_os":"Linux","password":true,"vac":true,"version":"7757534","steam_id":85568392924469996,"keywords":["nocrits","nodmgspread","payload","uncletopia"],"game_id":440,"stv_port":27016,"stv_name":"Uncletopia | S√£o Paulo | 1 | All Maps | STV","players":null},{"server_id":143,"name":"Uncletopia | S√£o Paulo | 2 | All Maps","name_short":"sao-2","host":"sao-2.br.uncletopia.com","port":27015,"enabled":true,"region":"sa","cc":"br","latitude":-23.533773,"longitude":-46.62529,"reserved":0,"last_update":"0001-01-01T00:00:00Z","name_a2s":"Uncletopia | S√£o Paulo | 2 | All Maps","protocol":17,"map":"koth_viaduct","folder":"tf","game":"Team Fortress","app_id":440,"player_count":4,"max_players":24,"Bots":0,"server_type":"Dedicated","server_os":"Linux","password":true,"vac":true,"version":"7757534","steam_id":85568392924485349,"keywords":["cp","nocrits","nodmgspread","uncletopia"],"game_id":440,"stv_port":27016,"stv_name":"Uncletopia | S√£o Paulo | 2 | All Maps | STV","players":[{"user_id":6,"name":"burrildo_11","steam_id":76561199163140389,"connected_time":7663000000000,"state":"active","ping":60},{"user_id":8,"name":"Abrah√£o0100","steam_id":76561199135205416,"connected_time":7199000000000,"state":"active","ping":51},{"user_id":14,"name":"Egoistic Spy","steam_id":76561199294025748,"connected_time":3666000000000,"state":"active","ping":36},{"user_id":31,"name":"Novum","steam_id":76561198863734507,"connected_time":121000000000,"state":"active","ping":72}]},{"server_id":7,"name":"Uncletopia | Seattle | 1 | All Maps","name_short":"sea-1","host":"sea-1.us.uncletopia.com","port":27015,"enabled":true,"region":"us-west","cc":"us","latitude":47.608013,"longitude":-122.33517,"reserved":0,"last_update":"0001-01-01T00:00:00Z","name_a2s":"Uncletopia | Seattle | 1 | All Maps","protocol":17,"map":"pl_swiftwater_final1","folder":"tf","game":"Team Fortress","app_id":440,"player_count":23,"max_players":24,"Bots":0,"server_type":"Dedicated","server_os":"Linux","password":true,"vac":true,"version":"7757534","steam_id":85568392924469997,"keywords":["nocrits","nodmgspread","payload","uncletopia"],"game_id":440,"stv_port":27016,"stv_name":"Uncletopia | Seattle | 1 | All Maps | STV","players":[{"user_id":325,"name":"Rei Ayanami","steam_id":76561198853092631,"connected_time":1742000000000,"state":"active","ping":63},{"user_id":315,"name":"shy guy","steam_id":76561198151246059,"connected_time":2840000000000,"state":"active","ping":66},{"user_id":346,"name":"EatSomeBEES","steam_id":76561198047334307,"connected_time":113000000000,"state":"active","ping":82},{"user_id":348,"name":"Dad","steam_id":76561199091290729,"connected_time":31000000000,"state":"active","ping":108},{"user_id":327,"name":"DennethThaThinather","steam_id":76561198098121768,"connected_time":1689000000000,"state":"active","ping":59},{"user_id":323,"name":"mnk","steam_id":76561198107213976,"connected_time":2583000000000,"state":"active","ping":70},{"user_id":328,"name":"iNGNORX","steam_id":76561198807649258,"connected_time":1656000000000,"state":"active","ping":63},{"user_id":326,"name":"Recursive Gamer","steam_id":76561198042102952,"connected_time":1727000000000,"state":"active","ping":91},{"user_id":331,"name":"kebo","steam_id":76561198237159430,"connected_time":1250000000000,"state":"active","ping":86},{"user_id":347,"name":"Dr. Karl, the AUS Science Guy","steam_id":76561198031278747,"connected_time":102000000000,"state":"active","ping":44},{"user_id":343,"name":"Hank the Tank","steam_id":76561198424853684,"connected_time":265000000000,"state":"active","ping":160},{"user_id":279,"name":"John Dungus (the real one)","steam_id":76561198049191027,"connected_time":5228000000000,"state":"active","ping":99},{"user_id":341,"name":"gun spy gaming","steam_id":76561198880739963,"connected_time":500000000000,"state":"active","ping":56},{"user_id":312,"name":"The Sydney Sleeper Itself","steam_id":76561198180251763,"connected_time":3201000000000,"state":"active","ping":101},{"user_id":344,"name":"bompler","steam_id":76561198365949179,"connected_time":249000000000,"state":"active","ping":113},{"user_id":257,"name":"Kit Carson","steam_id":76561198115691546,"connected_time":6980000000000,"state":"active","ping":87},{"user_id":324,"name":"Skabbety","steam_id":76561198168044257,"connected_time":2042000000000,"state":"active","ping":41},{"user_id":291,"name":"1dk","steam_id":76561198135104742,"connected_time":4607000000000,"state":"active","ping":53},{"user_id":335,"name":"SpyBaconLord","steam_id":76561198238139802,"connected_time":1108000000000,"state":"active","ping":104},{"user_id":334,"name":"Mr.Bones","steam_id":76561198205170595,"connected_time":1152000000000,"state":"active","ping":53},{"user_id":104,"name":"THE NUT","steam_id":76561198067813626,"connected_time":17170000000000,"state":"active","ping":50},{"user_id":332,"name":"Ed Sheeran rapping","steam_id":76561198200485827,"connected_time":1232000000000,"state":"active","ping":44},{"user_id":345,"name":"kentuckyfriedsocks","steam_id":76561198311122883,"connected_time":202000000000,"state":"active","ping":132}]},{"server_id":119,"name":"Uncletopia | Seattle | 2 | All Maps","name_short":"sea-2","host":"sea-1.us.uncletopia.com","port":27025,"enabled":true,"region":"us-west","cc":"us","latitude":47.608013,"longitude":-122.33517,"reserved":0,"last_update":"0001-01-01T00:00:00Z","name_a2s":"Uncletopia | Seattle | 2 | All Maps","protocol":17,"map":"ctf_2fort","folder":"tf","game":"Team Fortress","app_id":440,"player_count":23,"max_players":24,"Bots":0,"server_type":"Dedicated","server_os":"Linux","password":true,"vac":true,"version":"7757534","steam_id":85568392924469998,"keywords":["ctf","nocrits","nodmgspread","uncletopia"],"game_id":440,"stv_port":27026,"stv_name":"Uncletopia | Seattle | 2 | All Maps | STV","players":[{"user_id":332,"name":"sleepy","steam_id":76561198450003554,"connected_time":1695000000000,"state":"active","ping":113},{"user_id":307,"name":"Nani?","steam_id":76561198130982692,"connected_time":3828000000000,"state":"active","ping":100},{"user_id":359,"name":"Dani","steam_id":76561198408146684,"connected_time":562000000000,"state":"active","ping":73},{"user_id":328,"name":"Klone","steam_id":76561198854485605,"connected_time":1913000000000,"state":"active","ping":108},{"user_id":352,"name":"Atomic Waffles","steam_id":76561197970935570,"connected_time":914000000000,"state":"active","ping":119},{"user_id":255,"name":"Broccoli248","steam_id":76561199162687374,"connected_time":6953000000000,"state":"active","ping":175},{"user_id":365,"name":"dinnerblaster82","steam_id":76561198059041027,"connected_time":73000000000,"state":"active","ping":54},{"user_id":350,"name":"Hatch","steam_id":76561197976815873,"connected_time":931000000000,"state":"active","ping":92},{"user_id":354,"name":"Cactus‚Ñ¢ ‚ô•","steam_id":76561198036441270,"connected_time":844000000000,"state":"active","ping":154},{"user_id":362,"name":"SubWay #SaveTf2","steam_id":76561198336722096,"connected_time":196000000000,"state":"active","ping":70},{"user_id":358,"name":"„Éå„Éô„Éº„É´ (Nubert)","steam_id":76561199121806567,"connected_time":598000000000,"state":"active","ping":185},{"user_id":324,"name":"Large Charles","steam_id":76561197999663001,"connected_time":2740000000000,"state":"active","ping":70},{"user_id":368,"name":"i push fat kids off bikes","steam_id":76561198106491249,"connected_time":22000000000,"state":"active","ping":85},{"user_id":360,"name":"PinguEnjoyer6","steam_id":76561199186723516,"connected_time":438000000000,"state":"active","ping":73},{"user_id":270,"name":"‡ºò ‚ãÜÀöüéßCaffeine‚òï*Àñ¬∞","steam_id":76561199259309294,"connected_time":6301000000000,"state":"active","ping":124},{"user_id":285,"name":"cardboardwarrior1","steam_id":76561199145044693,"connected_time":5918000000000,"state":"active","ping":95},{"user_id":322,"name":"Perfume Department","steam_id":76561198128299594,"connected_time":3147000000000,"state":"active","ping":80},{"user_id":298,"name":"Doc","steam_id":76561198453335611,"connected_time":4557000000000,"state":"active","ping":87},{"user_id":330,"name":"Piccadilly Willy","steam_id":76561198000312126,"connected_time":1813000000000,"state":"active","ping":104},{"user_id":275,"name":"Belmore","steam_id":76561198009355231,"connected_time":6268000000000,"state":"active","ping":87},{"user_id":320,"name":"Grammaring","steam_id":76561198867366139,"connected_time":3248000000000,"state":"active","ping":71},{"user_id":316,"name":"luca","steam_id":76561198069235730,"connected_time":3627000000000,"state":"active","ping":105},{"user_id":361,"name":"Magix","steam_id":76561198193020834,"connected_time":354000000000,"state":"active","ping":63}]},{"server_id":406,"name":"Uncletopia | Seattle | 3 | Stopwatch Beta","name_short":"sea-3","host":"sea-1.us.uncletopia.com","port":27035,"enabled":true,"region":"us-west","cc":"us","latitude":47.608013,"longitude":-122.33517,"reserved":0,"last_update":"0001-01-01T00:00:00Z","name_a2s":"Uncletopia | Seattle | 3 | Stopwatch Beta","protocol":17,"map":"pl_barnblitz","folder":"tf","game":"Team Fortress","app_id":440,"player_count":0,"max_players":24,"Bots":0,"server_type":"Dedicated","server_os":"Linux","password":true,"vac":true,"version":"7757534","steam_id":85568392924515217,"keywords":["nocrits","nodmgspread","payload","uncletopia"],"game_id":440,"stv_port":27036,"stv_name":"Uncletopia | Seattle | 3 | Stopwatch Beta | STV","players":null},{"server_id":17,"name":"Uncletopia | San Francisco | 1 | All Maps","name_short":"sfo-1","host":"sfo-1.us.uncletopia.com","port":27015,"enabled":true,"region":"us-west","cc":"us","latitude":37.77397,"longitude":-122.4313,"reserved":0,"last_update":"0001-01-01T00:00:00Z","name_a2s":"Uncletopia | San Francisco | 1 | All Maps","protocol":17,"map":"cp_sunshine","folder":"tf","game":"Team Fortress","app_id":440,"player_count":0,"max_players":24,"Bots":0,"server_type":"Dedicated","server_os":"Linux","password":true,"vac":true,"version":"7757534","steam_id":85568392924469999,"keywords":["cp","nocrits","nodmgspread","uncletopia"],"game_id":440,"stv_port":27016,"stv_name":"Uncletopia | San Francisco | 1 | All Maps | STV","players":null},{"server_id":18,"name":"Uncletopia | San Francisco | 2 | All Maps","name_short":"sfo-2","host":"sfo-1.us.uncletopia.com","port":27025,"enabled":true,"region":"us-west","cc":"us","latitude":37.77397,"longitude":-122.4313,"reserved":0,"last_update":"0001-01-01T00:00:00Z","name_a2s":"Uncletopia | San Francisco | 2 | All Maps","protocol":17,"map":"koth_cascade","folder":"tf","game":"Team Fortress","app_id":440,"player_count":0,"max_players":24,"Bots":0,"server_type":"Dedicated","server_os":"Linux","password":true,"vac":true,"version":"7757534","steam_id":85568392924470000,"keywords":["cp","nocrits","nodmgspread","uncletopia"],"game_id":440,"stv_port":27026,"stv_name":"Uncletopia | San Francisco | 2 | All Maps | STV","players":null},{"server_id":19,"name":"Uncletopia | San Francisco | 3 | Stopwatch Beta","name_short":"sfo-3","host":"sfo-1.us.uncletopia.com","port":27035,"enabled":true,"region":"us-west","cc":"us","latitude":37.77397,"longitude":-122.4313,"reserved":0,"last_update":"0001-01-01T00:00:00Z","name_a2s":"Uncletopia | San Francisco | 3 | Stopwatch Beta","protocol":17,"map":"pl_borneo","folder":"tf","game":"Team Fortress","app_id":440,"player_count":0,"max_players":24,"Bots":0,"server_type":"Dedicated","server_os":"Linux","password":true,"vac":true,"version":"7757534","steam_id":85568392924742824,"keywords":["nocrits","nodmgspread","payload","uncletopia"],"game_id":440,"stv_port":27036,"stv_name":"Uncletopia | San Francisco | 3 | Stopwatch Beta | STV","players":null},{"server_id":20,"name":"Uncletopia | San Francisco | 4 | Community","name_short":"sfo-4","host":"sfo-1.us.uncletopia.com","port":27045,"enabled":true,"region":"us-west","cc":"us","latitude":37.77397,"longitude":-122.4313,"reserved":0,"last_update":"0001-01-01T00:00:00Z","name_a2s":"Uncletopia | San Francisco | 4 | Community","protocol":17,"map":"koth_highpass","folder":"tf","game":"Team Fortress","app_id":440,"player_count":0,"max_players":24,"Bots":0,"server_type":"Dedicated","server_os":"Linux","password":true,"vac":true,"version":"7757534","steam_id":85568392924742826,"keywords":["cp","nocrits","nodmgspread","uncletopia"],"game_id":440,"stv_port":27046,"stv_name":"Uncletopia | San Francisco | 4 | Community | STV","players":null},{"server_id":141,"name":"Uncletopia | Sydney | 1 | All Maps","name_short":"syd-1","host":"syd-1.au.uncletopia.com","port":27015,"enabled":true,"region":"au","cc":"au","latitude":-33.865143,"longitude":151.2099,"reserved":0,"last_update":"0001-01-01T00:00:00Z","name_a2s":"Uncletopia | Sydney | 1 | All Maps","protocol":17,"map":"pl_pier","folder":"tf","game":"Team Fortress","app_id":440,"player_count":1,"max_players":24,"Bots":0,"server_type":"Dedicated","server_os":"Linux","password":true,"vac":true,"version":"7757534","steam_id":85568392924470001,"keywords":["nocrits","nodmgspread","payload","uncletopia"],"game_id":440,"stv_port":27016,"stv_name":"Uncletopia | Sydney | 1 | All Maps | STV","players":[{"user_id":4,"name":"JayTheLlamaKing","steam_id":76561198836354249,"connected_time":46000000000,"state":"spawning","ping":50}]},{"server_id":123,"name":"Uncletopia | Sydney | 2 | All Maps","name_short":"syd-2","host":"syd-1.au.uncletopia.com","port":27025,"enabled":true,"region":"au","cc":"au","latitude":-33.865143,"longitude":151.2099,"reserved":0,"last_update":"0001-01-01T00:00:00Z","name_a2s":"Uncletopia | Sydney | 2 | All Maps","protocol":17,"map":"koth_viaduct","folder":"tf","game":"Team Fortress","app_id":440,"player_count":0,"max_players":24,"Bots":0,"server_type":"Dedicated","server_os":"Linux","password":true,"vac":true,"version":"7757534","steam_id":85568392924470002,"keywords":["cp","nocrits","nodmgspread","uncletopia"],"game_id":440,"stv_port":27026,"stv_name":"Uncletopia | Sydney | 2 | All Maps | STV","players":null},{"server_id":395,"name":"Uncletopia | Sydney | 3 | All Maps","name_short":"syd-3","host":"syd-1.au.uncletopia.com","port":27035,"enabled":true,"region":"au","cc":"au","latitude":-33.865143,"longitude":151.2099,"reserved":0,"last_update":"0001-01-01T00:00:00Z","name_a2s":"Uncletopia | Sydney | 3 | All Maps","protocol":17,"map":"pl_upward","folder":"tf","game":"Team Fortress","app_id":440,"player_count":1,"max_players":24,"Bots":0,"server_type":"Dedicated","server_os":"Linux","password":true,"vac":true,"version":"7757534","steam_id":85568392925194467,"keywords":["nocrits","nodmgspread","payload","uncletopia"],"game_id":440,"stv_port":27036,"stv_name":"Uncletopia | Sydney | 3 | All Maps | STV","players":[{"user_id":7,"name":"CatWithAMatch","steam_id":76561199378844984,"connected_time":334000000000,"state":"active","ping":53}]},{"server_id":396,"name":"Uncletopia | Sydney | 4 | All Maps","name_short":"syd-4","host":"syd-1.au.uncletopia.com","port":27045,"enabled":true,"region":"au","cc":"au","latitude":-33.865143,"longitude":151.2099,"reserved":0,"last_update":"0001-01-01T00:00:00Z","name_a2s":"Uncletopia | Sydney | 4 | All Maps","protocol":17,"map":"koth_lakeside_final","folder":"tf","game":"Team Fortress","app_id":440,"player_count":0,"max_players":24,"Bots":0,"server_type":"Dedicated","server_os":"Linux","password":true,"vac":true,"version":"7757534","steam_id":85568392925397958,"keywords":["cp","nocrits","nodmgspread","uncletopia"],"game_id":440,"stv_port":27046,"stv_name":"Uncletopia | Sydney | 4 | All Maps | STV","players":null},{"server_id":58,"name":"Uncletopia | Sydney | 5 | Stopwatch Beta","name_short":"syd-5","host":"syd-1.au.uncletopia.com","port":27055,"enabled":true,"region":"au","cc":"au","latitude":-33.865143,"longitude":151.2099,"reserved":0,"last_update":"0001-01-01T00:00:00Z","name_a2s":"Uncletopia | Sydney | 5 | Stopwatch Beta","protocol":17,"map":"koth_highpass","folder":"tf","game":"Team Fortress","app_id":440,"player_count":0,"max_players":24,"Bots":0,"server_type":"Dedicated","server_os":"Linux","password":true,"vac":true,"version":"7757534","steam_id":85568392925397959,"keywords":["cp","nocrits","nodmgspread","uncletopia"],"game_id":440,"stv_port":27056,"stv_name":"Uncletopia | Sydney | 5 | Stopwatch Beta | STV","players":null},{"server_id":59,"name":"Uncletopia | Sydney | 6 | Community","name_short":"syd-6","host":"syd-1.au.uncletopia.com","port":27065,"enabled":true,"region":"au","cc":"au","latitude":-33.865143,"longitude":151.2099,"reserved":0,"last_update":"0001-01-01T00:00:00Z","name_a2s":"Uncletopia | Sydney | 6 | Community","protocol":17,"map":"cp_sunshine","folder":"tf","game":"Team Fortress","app_id":440,"player_count":0,"max_players":24,"Bots":0,"server_type":"Dedicated","server_os":"Linux","password":true,"vac":true,"version":"7757534","steam_id":85568392925397960,"keywords":["cp","nocrits","nodmgspread","uncletopia"],"game_id":440,"stv_port":27066,"stv_name":"Uncletopia | Sydney | 6 | Community | STV","players":null},{"server_id":49,"name":"Uncletopia | Warsaw | 1 | All Maps","name_short":"waw-1","host":"waw-1.pl.uncletopia.com","port":27015,"enabled":true,"region":"eu","cc":"pl","latitude":52.2297,"longitude":21.017532,"reserved":0,"last_update":"0001-01-01T00:00:00Z","name_a2s":"","protocol":0,"map":"","folder":"","game":"","app_id":0,"player_count":0,"max_players":0,"Bots":0,"server_type":"","server_os":"","password":false,"vac":false,"version":"","steam_id":0,"keywords":null,"game_id":0,"stv_port":0,"stv_name":"","players":null},{"server_id":50,"name":"Uncletopia | Warsaw | 2 | All Maps","name_short":"waw-2","host":"waw-1.pl.uncletopia.com","port":27025,"enabled":true,"region":"eu","cc":"pl","latitude":52.2297,"longitude":21.017532,"reserved":0,"last_update":"0001-01-01T00:00:00Z","name_a2s":"Uncletopia | Warsaw | 2 | All Maps","protocol":17,"map":"cp_process_final","folder":"tf","game":"Team Fortress","app_id":440,"player_count":0,"max_players":24,"Bots":0,"server_type":"Dedicated","server_os":"Linux","password":true,"vac":true,"version":"7757534","steam_id":85568392925397851,"keywords":["cp","nocrits","nodmgspread","uncletopia"],"game_id":440,"stv_port":27026,"stv_name":"Uncletopia | Warsaw | 2 | All Maps | STV","players":null},{"server_id":51,"name":"Uncletopia | Warsaw | 3 | All Maps","name_short":"waw-3","host":"waw-1.pl.uncletopia.com","port":27035,"enabled":true,"region":"eu","cc":"pl","latitude":52.2297,"longitude":21.017532,"reserved":0,"last_update":"0001-01-01T00:00:00Z","name_a2s":"Uncletopia | Warsaw | 3 | All Maps","protocol":17,"map":"cp_dustbowl","folder":"tf","game":"Team Fortress","app_id":440,"player_count":0,"max_players":24,"Bots":0,"server_type":"Dedicated","server_os":"Linux","password":true,"vac":true,"version":"7757534","steam_id":85568392925397852,"keywords":["cp","nocrits","nodmgspread","uncletopia"],"game_id":440,"stv_port":27036,"stv_name":"Uncletopia | Warsaw | 3 | All Maps | STV","players":null},{"server_id":52,"name":"Uncletopia | Warsaw | 4 | All Maps","name_short":"waw-4","host":"waw-1.pl.uncletopia.com","port":27045,"enabled":true,"region":"eu","cc":"pl","latitude":52.2297,"longitude":21.017532,"reserved":0,"last_update":"0001-01-01T00:00:00Z","name_a2s":"Uncletopia | Warsaw | 4 | All Maps","protocol":17,"map":"cp_process_final","folder":"tf","game":"Team Fortress","app_id":440,"player_count":0,"max_players":24,"Bots":0,"server_type":"Dedicated","server_os":"Linux","password":true,"vac":true,"version":"7757534","steam_id":85568392925397853,"keywords":["cp","nocrits","nodmgspread","uncletopia"],"game_id":440,"stv_port":27046,"stv_name":"Uncletopia | Warsaw | 4 | All Maps | STV","players":null},{"server_id":53,"name":"Uncletopia | Warsaw | 5 | Stopwatch Beta","name_short":"waw-5","host":"waw-1.pl.uncletopia.com","port":27055,"enabled":true,"region":"eu","cc":"pl","latitude":52.2297,"longitude":21.017532,"reserved":0,"last_update":"0001-01-01T00:00:00Z","name_a2s":"Uncletopia | Warsaw | 5 | Stopwatch Beta","protocol":17,"map":"pl_barnblitz","folder":"tf","game":"Team Fortress","app_id":440,"player_count":0,"max_players":24,"Bots":0,"server_type":"Dedicated","server_os":"Linux","password":true,"vac":true,"version":"7757534","steam_id":85568392925397854,"keywords":["nocrits","nodmgspread","payload","uncletopia"],"game_id":440,"stv_port":27056,"stv_name":"Uncletopia | Warsaw | 5 | Stopwatch Beta | STV","players":null},{"server_id":54,"name":"Uncletopia | Warsaw | 6 | Community","name_short":"waw-6","host":"waw-1.pl.uncletopia.com","port":27065,"enabled":true,"region":"eu","cc":"pl","latitude":52.2297,"longitude":21.017532,"reserved":0,"last_update":"0001-01-01T00:00:00Z","name_a2s":"Uncletopia | Warsaw | 6 | Community","protocol":17,"map":"pl_swiftwater_final1","folder":"tf","game":"Team Fortress","app_id":440,"player_count":0,"max_players":24,"Bots":0,"server_type":"Dedicated","server_os":"Linux","password":true,"vac":true,"version":"7757534","steam_id":85568392925397856,"keywords":["nocrits","nodmgspread","payload","uncletopia"],"game_id":440,"stv_port":27066,"stv_name":"Uncletopia | Warsaw | 6 | Community | STV","players":null}]}