{"status":true,"message":"","result":[{"server_id":9,"name":"Uncletopia | Atlanta | 1 | All Maps","name_short":"atl-1","host":"atl-1.us.uncletopia.com","port":27015,"enabled":true,"region":"us-east","cc":"us","latitude":33.753746,"longitude":-84.38633,"reserved":0,"last_update":"0001-01-01T00:00:00Z","name_a2s":"Uncletopia | Atlanta | 1 | All Maps","protocol":17,"map":"cp_dustbowl","folder":"tf","game":"Team Fortress","app_id":440,"player_count":24,"max_players":24,"Bots":0,"server_type":"Dedicated","server_os":"Linux","password":true,"vac":true,"version":"7757534","steam_id":85568392924469982,"keywords":["cp","nocrits","nodmgspread","uncletopia"],"game_id":440,"stv_port":27016,"stv_name":"Uncletopia | Atlanta | 1 | All Maps | STV","players":[{"user_id":414,"name":"vid_","steam_id":76561198065159053,"connected_time":4830000000000,"state":"active","ping":46},{"user_id":461,"name":"Aussi","steam_id":76561198140732688,"connected_time":216000000000,"state":"active","ping":82},{"user_id":453,"name":"Dog Goggles","steam_id":76561197995233692,"connected_time":338000000000,"state":"active","ping":85},{"user_id":456,"name":"ElectronX","steam_id":76561198116034988,"connected_time":289000000000,"state":"active","ping":106},{"user_id":434,"name":"hamal cine","steam_id":76561198079619374,"connected_time":2345000000000,"state":"active","ping":59},{"user_id":447,"name":"twitch.tv/blazingin","steam_id":76561198119873148,"connected_time":1032000000000,"state":"active","ping":73},{"user_id":441,"name":"Deerclops","steam_id":76561198257718445,"connected_time":1146000000000,"state":"active","ping":125},{"user_id":440,"name":"☙ Corrupt ❧","steam_id":76561197977631915,"connected_time":1160000000000,"state":"active","ping":71},{"user_id":457,"name":"Left Twix","steam_id":76561198319458801,"connected_time":270000000000,"state":"active","ping":83},{"user_id":455,"name":"NoShen","steam_id":76561198147434663,"connected_time":328000000000,"state":"active","ping":45},{"user_id":458,"name":"Sturdy Primate","steam_id":76561198057954897,"connected_time":240000000000,"state":"active","ping":83},{"user_id":462,"name":"Discourse","steam_id":76561198984286678,"connected_time":137000000000,"state":"active","ping":70},{"user_id":448,"name":"ATL1 | icyy","steam_id":76561198968001329,"connected_time":1000000000000,"state":"active","ping":46},{"user_id":407,"name":"shaderoses","steam_id":76561198070800500,"connected_time":6075000000000,"state":"active","ping":69},{"user_id":435,"name":"Shmoopy","steam_id":76561198030459152,"connected_time":2274000000000,"state":"active","ping":60},{"user_id":433,"name":"⇌ StriKer ⇋","steam_id":76561199389089862,"connected_time":2356000000000,"state":"active","ping":137},{"user_id":444,"name":"Xaja","steam_id":76561198081812321,"connected_time":1137000000000,"state":"active","ping":45},{"user_id":402,"name":"The Spy from TF2","steam_id":76561199121276474,"connected_time":7660000000000,"state":"active","ping":76},{"user_id":450,"name":"Char Aznable","steam_id":76561198041630663,"connected_time":795000000000,"state":"active","ping":60},{"user_id":459,"name":"Lionel Messi","steam_id":76561198143864870,"connected_time":240000000000,"state":"active","ping":82},{"user_id":460,"name":"rlty","steam_id":76561198009395055,"connected_time":239000000000,"state":"active","ping":60},{"user_id":463,"name":"mitya.t","steam_id":76561197975079473,"connected_time":68000000000,"state":"active","ping":114},{"user_id":451,"name":"no.1 dragonvale player","steam_id":76561198124365349,"connected_time":555000000000,"state":"active","ping":84},{"user_id":439,"name":"Dot.","steam_id":76561198149463984,"connected_time":1935000000000,"state":"active","ping":80}]},{"server_id":400,"name":"Uncletopia | Atlanta | 3 | Stopwatch Beta","name_short":"atl-3","host":"atl-1.us.uncletopia.com","port":27035,"enabled":true,"region":"us-east","cc":"us","latitude":33.753746,"longitude":-84.38633,"reserved":0,"last_update":"0001-01-01T00:00:00Z","name_a2s":"Uncletopia | Atlanta | 3 | Stopwatch Beta","protocol":17,"map":"workshop/koth_bagel_rc5.ugc2514036946","folder":"tf","game":"Team Fortress","app_id":440,"player_count":24,"max_players":24,"Bots":0,"server_type":"Dedicated","server_os":"Linux","password":true,"vac":true,"version":"7757534","steam_id":85568392924515187,"keywords":["cp","nocrits","nodmgspread","uncletopia"],"game_id":440,"stv_port":27036,"stv_name":"Uncletopia | Atlanta | 3 | Stopwatch Beta | STV","players":[{"user_id":591,"name":"Egyptian amogus","steam_id":76561198320353510,"connected_time":3717000000000,"state":"active","ping":131},{"user_id":594,"name":"Nekogaming1500","steam_id":76561198979123816,"connected_time":3640000000000,"state":"active","ping":117},{"user_id":639,"name":"Dad Rock Deluxe","steam_id":76561198051224819,"connected_time":1389000000000,"state":"active","ping":60},{"user_id":652,"name":"Aniz","steam_id":76561199226665024,"connected_time":253000000000,"state":"active","ping":153},{"user_id":646,"name":"PLATYPUS","steam_id":76561198255796625,"connected_time":586000000000,"state":"active","ping":116},{"user_id":596,"name":"Agentnickel","steam_id":76561199186723516,"connected_time":3305000000000,"state":"active","ping":94},{"user_id":643,"name":"JasonIsGold79","steam_id":76561198101441539,"connected_time":908000000000,"state":"active","ping":83},{"user_id":641,"name":"Bagaboned","steam_id":76561198043761335,"connected_time":1184000000000,"state":"active","ping":112},{"user_id":612,"name":"MagikarpEX","steam_id":76561198166172279,"connected_time":2850000000000,"state":"active","ping":74},{"user_id":635,"name":"DRPIELZ (QuePirata)","steam_id":76561198816135253,"connected_time":1560000000000,"state":"active","ping":82},{"user_id":648,"name":"Zelumie","steam_id":76561198147335801,"connected_time":563000000000,"state":"active","ping":66},{"user_id":599,"name":"Inevitable","steam_id":76561198210050169,"connected_time":3261000000000,"state":"active","ping":62},{"user_id":630,"name":"StarManMatt","steam_id":76561198125513574,"connected_time":1883000000000,"state":"active","ping":87},{"user_id":620,"name":"Throathurt","steam_id":76561198030711450,"connected_time":2417000000000,"state":"active","ping":78},{"user_id":653,"name":"FemboyNate","steam_id":76561198146636410,"connected_time":227000000000,"state":"active","ping":72},{"user_id":603,"name":"Spike Bones","steam_id":76561198234926120,"connected_time":3167000000000,"state":"active","ping":93},{"user_id":604,"name":"kametro4","steam_id":76561198835430429,"connected_time":3112000000000,"state":"active","ping":84},{"user_id":624,"name":"qjkxkcd","steam_id":76561198035922283,"connected_time":2173000000000,"state":"active","ping":69},{"user_id":625,"name":"Eins","steam_id":76561199030343810,"connected_time":2131000000000,"state":"active","ping":51},{"user_id":644,"name":"Team Fortress 2 Sex Update","steam_id":76561199466918607,"connected_time":869000000000,"state":"active","ping":82},{"user_id":650,"name":"Official The Last Thing You Saw","steam_id":76561198139023460,"connected_time":431000000000,"state":"active","ping":143},{"user_id":654,"name":"Actually a Shoggoth","steam_id":76561198065857964,"connected_time":97000000000,"state":"active","ping":75},{"user_id":610,"name":"ttv/bmpfile","steam_id":76561199000786530,"connected_time":3004000000000,"state":"active","ping":90},{"user_id":638,"name":"bobbyreinman2009","steam_id":76561198804763186,"connected_time":1435000000000,"state":"active","ping":61}]},{"server_id":401,"name":"Uncletopia | Atlanta | 4 | No Payload","name_short":"atl-4","host":"atl-1.us.uncletopia.com","port":27045,"enabled":true,"region":"us-east","cc":"us","latitude":33.753746,"longitude":-84.38633,"reserved":0,"last_update":"0001-01-01T00:00:00Z","name_a2s":"Uncletopia | Atlanta | 4 | No Payload","protocol":17,"map":"pl_pier","folder":"tf","game":"Team Fortress","app_id":440,"player_count":0,"max_players":24,"Bots":0,"server_type":"Dedicated","server_os":"Linux","password":true,"vac":true,"version":"7723704","steam_id":85568392924515188,"keywords":["nocrits","nodmgspread","payload","uncletopia"],"game_id":440,"stv_port":27046,"stv_name":"Uncletopia | Atlanta | 4 | No Payload | STV","players":null},{"server_id":2,"name":"Uncletopia | Chicago | 1 | All Maps","name_short":"chi-1","host":"chi-1.us.uncletopia.com","port":27015,"enabled":true,"region":"us-central","cc":"us","latitude":41.881832,"longitude":-87.62318,"reserved":0,"last_update":"0001-01-01T00:00:00Z","name_a2s":"Uncletopia | Chicago | 1 | All Maps","protocol":17,"map":"cp_steel","folder":"tf","game":"Team Fortress","app_id":440,"player_count":24,"max_players":24,"Bots":0,"server_type":"Dedicated","server_os":"Linux","password":true,"vac":true,"version":"7757534","steam_id":85568392924469984,"keywords":["cp","nocrits","nodmgspread","uncletopia"],"game_id":440,"stv_port":27016,"stv_name":"Uncletopia | Chicago | 1 | All Maps | STV","players":[{"user_id":612,"name":"donkeymucles","steam_id":76561199388275529,"connected_time":2436000000000,"state":"active","ping":68},{"user_id":663,"name":"Father Jon","steam_id":76561198324730919,"connected_time":36000000000,"state":"spawning","ping":88},{"user_id":658,"name":"Europa","steam_id":76561198416086593,"connected_time":118000000000,"state":"active","ping":141},{"user_id":505,"name":"capybara","steam_id":76561198798828328,"connected_time":12122000000000,"state":"active","ping":51},{"user_id":645,"name":"NULLRIDER","steam_id":76561198128363064,"connected_time":1022000000000,"state":"active","ping":62},{"user_id":661,"name":"Griff Applewood","steam_id":76561198091512776,"connected_time":55000000000,"state":"active","ping":56},{"user_id":640,"name":"{ST} bjc.","steam_id":76561199015842302,"connected_time":1083000000000,"state":"active","ping":82},{"user_id":637,"name":"David De Bergerac","steam_id":76561198010306294,"connected_time":1288000000000,"state":"active","ping":85},{"user_id":575,"name":"evan_is_sauce","steam_id":76561199086802383,"connected_time":5048000000000,"state":"active","ping":115},{"user_id":659,"name":"Spare(8)Ball","steam_id":76561197982432995,"connected_time":70000000000,"state":"active","ping":96},{"user_id":644,"name":"fresco","steam_id":76561199101199477,"connected_time":1045000000000,"state":"active","ping":56},{"user_id":653,"name":"crow","steam_id":76561198046802071,"connected_time":689000000000,"state":"active","ping":58},{"user_id":571,"name":"Getting sloppy at High Hrothgar","steam_id":76561198202195792,"connected_time":5682000000000,"state":"active","ping":69},{"user_id":646,"name":"SubSilk","steam_id":76561199075279215,"connected_time":955000000000,"state":"active","ping":78},{"user_id":615,"name":"DJ Pierce","steam_id":76561198394241466,"connected_time":2254000000000,"state":"active","ping":80},{"user_id":662,"name":"nell","steam_id":76561198136225723,"connected_time":53000000000,"state":"active","ping":72},{"user_id":626,"name":"Shaunhan","steam_id":76561198386596938,"connected_time":1905000000000,"state":"active","ping":59},{"user_id":664,"name":"Deno! 간부","steam_id":76561198041113335,"connected_time":15000000000,"state":"active","ping":100},{"user_id":634,"name":"GiraffeMan","steam_id":76561198042104084,"connected_time":1581000000000,"state":"active","ping":70},{"user_id":616,"name":"rude boi","steam_id":76561198006783260,"connected_time":2215000000000,"state":"active","ping":53},{"user_id":665,"name":"Sharmat","steam_id":76561198103492042,"connected_time":11000000000,"state":"spawning","ping":93},{"user_id":666,"name":"imma be spreading my wangs","steam_id":76561198122628769,"connected_time":5000000000,"state":"spawning","ping":57},{"user_id":566,"name":"Visual Depression","steam_id":76561198825918366,"connected_time":5745000000000,"state":"active","ping":99},{"user_id":649,"name":"Tyco","steam_id":76561197978414167,"connected_time":898000000000,"state":"active","ping":72}]},{"server_id":106,"name":"Uncletopia | Chicago | 2 | All Maps","name_short":"chi-2","host":"chi-1.us.uncletopia.com","port":27025,"enabled":true,"region":"us-central","cc":"us","latitude":41.881832,"longitude":-87.62318,"reserved":0,"last_update":"0001-01-01T00:00:00Z","name_a2s":"Uncletopia | Chicago | 2 | All Maps","protocol":17,"map":"pl_pier","folder":"tf","game":"Team Fortress","app_id":440,"player_count":24,"max_players":24,"Bots":0,"server_type":"Dedicated","server_os":"Linux","password":true,"vac":true,"version":"7757534","steam_id":85568392924469985,"keywords":["nocrits","nodmgspread","payload","uncletopia"],"game_id":440,"stv_port":27026,"stv_name":"Uncletopia | Chicago | 2 | All Maps | STV","players":[{"user_id":450,"name":"Caboom","steam_id":76561198040221007,"connected_time":2232000000000,"state":"active","ping":76},{"user_id":481,"name":"B/S/SuperBoof","steam_id":76561197992030936,"connected_time":358000000000,"state":"active","ping":73},{"user_id":474,"name":"happy birthday","steam_id":76561198105562651,"connected_time":621000000000,"state":"active","ping":60},{"user_id":470,"name":"Rukks","steam_id":76561197993918954,"connected_time":897000000000,"state":"active","ping":61},{"user_id":480,"name":"The Muffin Man","steam_id":76561199088286427,"connected_time":475000000000,"state":"active","ping":94},{"user_id":463,"name":"TÖZI","steam_id":76561198045268695,"connected_time":1328000000000,"state":"active","ping":55},{"user_id":464,"name":"PaD_Ding","steam_id":76561198831202965,"connected_time":1304000000000,"state":"active","ping":171},{"user_id":410,"name":"Finn","steam_id":76561198179960193,"connected_time":5899000000000,"state":"active","ping":132},{"user_id":445,"name":"SquarEgg","steam_id":76561198012575466,"connected_time":2433000000000,"state":"active","ping":93},{"user_id":483,"name":"I_Eat_Newborn_Infant","steam_id":76561198967397247,"connected_time":192000000000,"state":"active","ping":79},{"user_id":405,"name":"❤Graphite Muncher❤","steam_id":76561199200969139,"connected_time":5945000000000,"state":"active","ping":122},{"user_id":465,"name":"Josh","steam_id":76561198055691099,"connected_time":1288000000000,"state":"active","ping":75},{"user_id":469,"name":"p9 jorts","steam_id":76561199041179985,"connected_time":1039000000000,"state":"active","ping":115},{"user_id":478,"name":"dmitri","steam_id":76561198060559286,"connected_time":546000000000,"state":"active","ping":99},{"user_id":479,"name":"Ayayahuasca","steam_id":76561199002906056,"connected_time":527000000000,"state":"active","ping":95},{"user_id":372,"name":"iowaska cheese ridge","steam_id":76561198073269122,"connected_time":8036000000000,"state":"active","ping":61},{"user_id":453,"name":"Yukon Cornelius","steam_id":76561198261512781,"connected_time":2115000000000,"state":"active","ping":85},{"user_id":477,"name":"SCHMEED","steam_id":76561198141204302,"connected_time":594000000000,"state":"active","ping":69},{"user_id":458,"name":"Mr.Bacon","steam_id":76561198030890774,"connected_time":1718000000000,"state":"active","ping":74},{"user_id":461,"name":"loco503","steam_id":76561198827495121,"connected_time":1374000000000,"state":"active","ping":114},{"user_id":484,"name":"Rusty","steam_id":76561198055585129,"connected_time":78000000000,"state":"active","ping":95},{"user_id":457,"name":"faye","steam_id":76561198044176988,"connected_time":2035000000000,"state":"active","ping":53},{"user_id":460,"name":"WACKY JIM","steam_id":76561198961641122,"connected_time":1377000000000,"state":"active","ping":86},{"user_id":471,"name":"5392vin","steam_id":76561198880493511,"connected_time":742000000000,"state":"active","ping":91}]},{"server_id":402,"name":"Uncletopia | Chicago | 3 | All Maps","name_short":"chi-3","host":"chi-1.us.uncletopia.com","port":27035,"enabled":true,"region":"us-central","cc":"us","latitude":41.881832,"longitude":-87.62318,"reserved":0,"last_update":"0001-01-01T00:00:00Z","name_a2s":"Uncletopia | Chicago | 3 | All Maps","protocol":17,"map":"cp_snakewater_final1","folder":"tf","game":"Team Fortress","app_id":440,"player_count":23,"max_players":24,"Bots":0,"server_type":"Dedicated","server_os":"Linux","password":true,"vac":true,"version":"7757534","steam_id":85568392924515191,"keywords":["cp","nocrits","nodmgspread","uncletopia"],"game_id":440,"stv_port":27036,"stv_name":"Uncletopia | Chicago | 3 | All Maps | STV","players":[{"user_id":521,"name":"MemeyBoi3rd","steam_id":76561199443570634,"connected_time":1229000000000,"state":"active","ping":97},{"user_id":502,"name":"chiillz | youtube","steam_id":76561198271497771,"connected_time":2417000000000,"state":"active","ping":67},{"user_id":538,"name":"Anthoneeee","steam_id":76561199209220671,"connected_time":530000000000,"state":"active","ping":118},{"user_id":447,"name":"Limasio","steam_id":76561198198176191,"connected_time":6125000000000,"state":"active","ping":81},{"user_id":486,"name":"Potassium_","steam_id":76561199085021046,"connected_time":4115000000000,"state":"active","ping":69},{"user_id":522,"name":"alexwasherefirst","steam_id":76561198846755124,"connected_time":1183000000000,"state":"active","ping":109},{"user_id":466,"name":"Blinker city history","steam_id":76561198073455521,"connected_time":5347000000000,"state":"active","ping":55},{"user_id":519,"name":"ShadowDragon0125","steam_id":76561198343849022,"connected_time":1259000000000,"state":"active","ping":78},{"user_id":535,"name":"BernardBull","steam_id":76561198036138813,"connected_time":723000000000,"state":"active","ping":210},{"user_id":523,"name":"Bonniefan712","steam_id":76561199289809788,"connected_time":1158000000000,"state":"active","ping":107},{"user_id":544,"name":"Ozzyrockin","steam_id":76561198094899868,"connected_time":56000000000,"state":"active","ping":61},{"user_id":531,"name":"Phaze!","steam_id":76561198025267071,"connected_time":934000000000,"state":"active","ping":60},{"user_id":524,"name":"FTN | Shakaman","steam_id":76561198039829758,"connected_time":1131000000000,"state":"active","ping":70},{"user_id":528,"name":"Average Evil Magma Pea Enjoyer","steam_id":76561198201058206,"connected_time":1005000000000,"state":"active","ping":100},{"user_id":542,"name":"mommy","steam_id":76561198129195009,"connected_time":152000000000,"state":"active","ping":75},{"user_id":536,"name":"goopgrabber","steam_id":76561199029951083,"connected_time":619000000000,"state":"active","ping":92},{"user_id":529,"name":"Brass beast heavy","steam_id":76561198274197623,"connected_time":994000000000,"state":"active","ping":135},{"user_id":541,"name":"Huggle","steam_id":76561198141491662,"connected_time":232000000000,"state":"active","ping":62},{"user_id":532,"name":"Karma's Camera","steam_id":76561198059385185,"connected_time":905000000000,"state":"active","ping":75},{"user_id":533,"name":"checkswing","steam_id":76561198999816132,"connected_time":886000000000,"state":"active","ping":58},{"user_id":543,"name":"HobHob","steam_id":76561198145646314,"connected_time":63000000000,"state":"active","ping":85},{"user_id":539,"name":"MoonWolf","steam_id":76561198095735033,"connected_time":478000000000,"state":"active","ping":76},{"user_id":461,"name":"Baka!⑨⑨⑨⑨","steam_id":76561198152948254,"connected_time":5890000000000,"state":"active","ping":66}]},{"server_id":403,"name":"Uncletopia | Chicago | 4 | All Maps","name_short":"chi-4","host":"chi-1.us.uncletopia.com","port":27045,"enabled":true,"region":"us-central","cc":"us","latitude":41.881832,"longitude":-87.62318,"reserved":0,"last_update":"0001-01-01T00:00:00Z","name_a2s":"Uncletopia | Chicago | 4 | All Maps","protocol":17,"map":"pl_borneo","folder":"tf","game":"Team Fortress","app_id":440,"player_count":24,"max_players":24,"Bots":0,"server_type":"Dedicated","server_os":"Linux","password":true,"vac":true,"version":"7757534","steam_id":85568392924515193,"keywords":["nocrits","nodmgspread","payload","uncletopia"],"game_id":440,"stv_port":27046,"stv_name":"Uncletopia | Chicago | 4 | All Maps | STV","players":[{"user_id":780,"name":"veno","steam_id":76561198110261781,"connected_time":1435000000000,"state":"active","ping":80},{"user_id":753,"name":"Predicta","steam_id":76561198017630616,"connected_time":3754000000000,"state":"active","ping":49},{"user_id":778,"name":"HanakoToast","steam_id":76561198045233131,"connected_time":1838000000000,"state":"active","ping":104},{"user_id":781,"name":"Sarbanes-Oxley","steam_id":76561197975898479,"connected_time":1413000000000,"state":"active","ping":73},{"user_id":706,"name":"Lore","steam_id":76561198098407538,"connected_time":5695000000000,"state":"active","ping":54},{"user_id":772,"name":"Big ol' Willy Gaming","steam_id":76561198048545731,"connected_time":2370000000000,"state":"active","ping":89},{"user_id":796,"name":"asian","steam_id":76561198082561695,"connected_time":306000000000,"state":"active","ping":72},{"user_id":774,"name":"Octanoip","steam_id":76561199057752358,"connected_time":2301000000000,"state":"active","ping":61},{"user_id":745,"name":"King Kinyon","steam_id":76561198080525234,"connected_time":3957000000000,"state":"active","ping":86},{"user_id":759,"name":"Fluffeline","steam_id":76561198352909489,"connected_time":3161000000000,"state":"active","ping":154},{"user_id":763,"name":"The Michigan Troll Guy","steam_id":76561197995525419,"connected_time":2872000000000,"state":"active","ping":58},{"user_id":755,"name":"coffeeghost","steam_id":76561198155142385,"connected_time":3382000000000,"state":"active","ping":82},{"user_id":747,"name":"The Jackal","steam_id":76561198013726155,"connected_time":3940000000000,"state":"active","ping":83},{"user_id":782,"name":"MasterGeek.MX","steam_id":76561198063355220,"connected_time":1404000000000,"state":"active","ping":119},{"user_id":791,"name":"McSwingset","steam_id":76561198040417409,"connected_time":791000000000,"state":"active","ping":59},{"user_id":795,"name":"sand","steam_id":76561199238923581,"connected_time":492000000000,"state":"active","ping":121},{"user_id":777,"name":"Fishbeater77","steam_id":76561199001270160,"connected_time":2127000000000,"state":"active","ping":79},{"user_id":756,"name":"Vionas","steam_id":76561198012478039,"connected_time":3342000000000,"state":"active","ping":52},{"user_id":784,"name":"One Bar","steam_id":76561198100517050,"connected_time":1352000000000,"state":"active","ping":78},{"user_id":776,"name":"Zubats |TAOZ|","steam_id":76561198041819445,"connected_time":2246000000000,"state":"active","ping":59},{"user_id":757,"name":"CeigeBirb","steam_id":76561198068538473,"connected_time":3331000000000,"state":"active","ping":76},{"user_id":752,"name":"Muffim","steam_id":76561198056704533,"connected_time":3784000000000,"state":"active","ping":100},{"user_id":785,"name":"Rudy","steam_id":76561198013456828,"connected_time":1338000000000,"state":"active","ping":56},{"user_id":786,"name":"killer whales","steam_id":76561198214461775,"connected_time":1329000000000,"state":"active","ping":75}]},{"server_id":36,"name":"Uncletopia | Chicago | 5 | All Maps","name_short":"chi-5","host":"chi-2.us.uncletopia.com","port":27015,"enabled":true,"region":"us-central","cc":"us","latitude":41.881832,"longitude":-87.62318,"reserved":0,"last_update":"0001-01-01T00:00:00Z","name_a2s":"Uncletopia | Chicago | 5 | All Maps","protocol":17,"map":"pl_barnblitz","folder":"tf","game":"Team Fortress","app_id":440,"player_count":24,"max_players":24,"Bots":0,"server_type":"Dedicated","server_os":"Linux","password":true,"vac":true,"version":"7757534","steam_id":85568392924866362,"keywords":["nocrits","nodmgspread","payload","uncletopia"],"game_id":440,"stv_port":27016,"stv_name":"Uncletopia | Chicago | 5 | All Maps | STV","players":[{"user_id":747,"name":"thatbedrockblock","steam_id":76561199069286524,"connected_time":1319000000000,"state":"active","ping":104},{"user_id":666,"name":"El Mas Buscado","steam_id":76561198169291327,"connected_time":5981000000000,"state":"active","ping":95},{"user_id":743,"name":"Underachiever Mako","steam_id":76561198207943169,"connected_time":1762000000000,"state":"active","ping":67},{"user_id":723,"name":"Psychosis","steam_id":76561198078659070,"connected_time":3436000000000,"state":"active","ping":74},{"user_id":757,"name":"[chef] iron","steam_id":76561197970888616,"connected_time":1051000000000,"state":"active","ping":45},{"user_id":740,"name":"Puke Skyfucker","steam_id":76561198012846213,"connected_time":1833000000000,"state":"active","ping":69},{"user_id":770,"name":"PhatBoi","steam_id":76561198055859578,"connected_time":471000000000,"state":"active","ping":114},{"user_id":762,"name":"SomeScuffedKid","steam_id":76561198086113234,"connected_time":909000000000,"state":"active","ping":72},{"user_id":702,"name":"jimbo","steam_id":76561199052822567,"connected_time":4080000000000,"state":"active","ping":97},{"user_id":735,"name":"Not_Luke_Again","steam_id":76561198180891187,"connected_time":2078000000000,"state":"active","ping":74},{"user_id":769,"name":"ant5678910","steam_id":76561199036142684,"connected_time":489000000000,"state":"active","ping":102},{"user_id":751,"name":"CropFarmer","steam_id":76561198173712581,"connected_time":1244000000000,"state":"active","ping":96},{"user_id":741,"name":"dash23™","steam_id":76561198314951185,"connected_time":1824000000000,"state":"active","ping":104},{"user_id":713,"name":"ඞ","steam_id":76561198027779564,"connected_time":3641000000000,"state":"active","ping":61},{"user_id":722,"name":"SpottedRuby","steam_id":76561198871250632,"connected_time":3479000000000,"state":"active","ping":116},{"user_id":658,"name":"Sykes10","steam_id":76561198279623105,"connected_time":6736000000000,"state":"active","ping":109},{"user_id":712,"name":"Bliztank | RGL.gg","steam_id":76561198019252798,"connected_time":3670000000000,"state":"active","ping":58},{"user_id":763,"name":"Galemek","steam_id":76561198161410911,"connected_time":881000000000,"state":"active","ping":75},{"user_id":768,"name":"LF\u003eLEQT3.14GaymurGurlGFXDDDDDDD","steam_id":76561198040299384,"connected_time":634000000000,"state":"active","ping":92},{"user_id":774,"name":"Fred","steam_id":76561197983870604,"connected_time":346000000000,"state":"active","ping":92},{"user_id":738,"name":"NovaSc6ut","steam_id":76561198277163301,"connected_time":1917000000000,"state":"active","ping":68},{"user_id":766,"name":"a crazy hobo","steam_id":76561198289650060,"connected_time":749000000000,"state":"active","ping":92},{"user_id":776,"name":"ArnoldGaming","steam_id":76561198040140247,"connected_time":95000000000,"state":"active","ping":97},{"user_id":755,"name":"frank","steam_id":76561198045436159,"connected_time":1139000000000,"state":"active","ping":140}]},{"server_id":37,"name":"Uncletopia | Chicago | 6 | All Maps","name_short":"chi-6","host":"chi-2.us.uncletopia.com","port":27025,"enabled":true,"region":"us-central","cc":"us","latitude":41.881832,"longitude":-87.62318,"reserved":0,"last_update":"0001-01-01T00:00:00Z","name_a2s":"Uncletopia | Chicago | 6 | All Maps","protocol":17,"map":"cp_process_final","folder":"tf","game":"Team Fortress","app_id":440,"player_count":6,"max_players":24,"Bots":0,"server_type":"Dedicated","server_os":"Linux","password":true,"vac":true,"version":"7757534","steam_id":85568392924866363,"keywords":["cp","nocrits","nodmgspread","uncletopia"],"game_id":440,"stv_port":27026,"stv_name":"Uncletopia | Chicago | 6 | All Maps | STV","players":[{"user_id":96,"name":"azucar ❤","steam_id":76561199038054603,"connected_time":364000000000,"state":"active","ping":91},{"user_id":86,"name":"Hatefulz/Joker","steam_id":76561198964535584,"connected_time":791000000000,"state":"active","ping":105},{"user_id":87,"name":"Okas8","steam_id":76561198100697096,"connected_time":764000000000,"state":"active","ping":92},{"user_id":88,"name":"UnHolykingnoob","steam_id":76561198805219362,"connected_time":701000000000,"state":"active","ping":97},{"user_id":89,"name":"Spooky Wizard","steam_id":76561198052573339,"connected_time":682000000000,"state":"active","ping":89},{"user_id":91,"name":"OneFestiveCorvid","steam_id":76561199012953221,"connected_time":573000000000,"state":"active","ping":82}]},{"server_id":38,"name":"Uncletopia | Chicago | 7 | Stopwatch Beta","name_short":"chi-7","host":"chi-2.us.uncletopia.com","port":27035,"enabled":true,"region":"us-central","cc":"us","latitude":41.881832,"longitude":-87.62318,"reserved":0,"last_update":"0001-01-01T00:00:00Z","name_a2s":"Uncletopia | Chicago | 7 | Stopwatch Beta","protocol":17,"map":"workshop/koth_bagel_rc5.ugc2514036946","folder":"tf","game":"Team Fortress","app_id":440,"player_count":0,"max_players":24,"Bots":0,"server_type":"Dedicated","server_os":"Linux","password":true,"vac":true,"version":"7757534","steam_id":85568392924866364,"keywords":["cp","nocrits","nodmgspread","uncletopia"],"game_id":440,"stv_port":27036,"stv_name":"Uncletopia | Chicago | 7 | Stopwatch Beta | STV","players":null},{"server_id":39,"name":"Uncletopia | Chicago | 8 | Community","name_short":"chi-8","host":"chi-2.us.uncletopia.com","port":27045,"enabled":true,"region":"us-central","cc":"us","latitude":41.881832,"longitude":-87.62318,"reserved":0,"last_update":"0001-01-01T00:00:00Z","name_a2s":"Uncletopia | Chicago | 8 | Community","protocol":17,"map":"workshop/koth_product_final.ugc454272353","folder":"tf","game":"Team Fortress","app_id":440,"player_count":0,"max_players":24,"Bots":0,"server_type":"Dedicated","server_os":"Linux","password":true,"vac":true,"version":"7757534","steam_id":85568392924866365,"keywords":["cp","nocrits","nodmgspread","uncletopia"],"game_id":440,"stv_port":27046,"stv_name":"Uncletopia | Chicago | 8 | Community | STV","players":null},{"server_id":8,"name":"Uncletopia | Dallas | 1 | All Maps","name_short":"dal-1","host":"dal-1.us.uncletopia.com","port":27015,"enabled":true,"region":"us-central","cc":"us","latitude":32.779167,"longitude":-96.80889,"reserved":0,"last_update":"0001-01-01T00:00:00Z","name_a2s":"Uncletopia | Dallas | 1 | All Maps","protocol":17,"map":"plr_hightower","folder":"tf","game":"Team Fortress","app_id":440,"player_count":23,"max_players":24,"Bots":0,"server_type":"Dedicated","server_os":"Linux","password":true,"vac":true,"version":"7757534","steam_id":85568392924469986,"keywords":["nocrits","nodmgspread","payload","uncletopia"],"game_id":440,"stv_port":27016,"stv_name":"Uncletopia | Dallas | 1 | All Maps | STV","players":[{"user_id":698,"name":"kilroy_39","steam_id":76561198205173325,"connected_time":1980000000000,"state":"active","ping":78},{"user_id":641,"name":"I'm Vince with Piss-Chop","steam_id":76561198032313668,"connected_time":6453000000000,"state":"active","ping":66},{"user_id":613,"name":"gaming","steam_id":76561198338610196,"connected_time":8196000000000,"state":"active","ping":102},{"user_id":721,"name":"Malex","steam_id":76561198012216805,"connected_time":276000000000,"state":"active","ping":78},{"user_id":702,"name":"jake1west","steam_id":76561199468452444,"connected_time":1692000000000,"state":"active","ping":185},{"user_id":631,"name":"Gay","steam_id":76561198131631865,"connected_time":6819000000000,"state":"active","ping":72},{"user_id":726,"name":"LiquidDip","steam_id":76561198090529456,"connected_time":6000000000,"state":"spawning","ping":47},{"user_id":659,"name":"Professor Cuthbert Calculus","steam_id":76561198003257461,"connected_time":5132000000000,"state":"active","ping":100},{"user_id":700,"name":"TheMightyGod","steam_id":76561198220055968,"connected_time":1821000000000,"state":"active","ping":54},{"user_id":722,"name":"EmeraldCola","steam_id":76561198066663687,"connected_time":222000000000,"state":"active","ping":87},{"user_id":705,"name":"Pneumo.","steam_id":76561197987911883,"connected_time":1584000000000,"state":"active","ping":126},{"user_id":695,"name":"Mr. Sweet-and-Awful","steam_id":76561198352544325,"connected_time":2112000000000,"state":"active","ping":70},{"user_id":706,"name":"mike hawk","steam_id":76561198094806066,"connected_time":1580000000000,"state":"active","ping":72},{"user_id":723,"name":"mr_dripnsplash","steam_id":76561199145352716,"connected_time":220000000000,"state":"active","ping":53},{"user_id":664,"name":"Alset","steam_id":76561197993820174,"connected_time":5090000000000,"state":"active","ping":58},{"user_id":717,"name":"Crockpot Hero","steam_id":76561198036876675,"connected_time":439000000000,"state":"active","ping":55},{"user_id":574,"name":"Foomfa","steam_id":76561198007033616,"connected_time":11411000000000,"state":"active","ping":58},{"user_id":709,"name":"the smiling zombie","steam_id":76561199246231090,"connected_time":1316000000000,"state":"active","ping":78},{"user_id":693,"name":"woosh","steam_id":76561198173020438,"connected_time":2182000000000,"state":"active","ping":77},{"user_id":725,"name":"Chief Bro D","steam_id":76561198179392111,"connected_time":159000000000,"state":"active","ping":58},{"user_id":715,"name":"SpA_Ceyy","steam_id":76561199011611671,"connected_time":1056000000000,"state":"active","ping":67},{"user_id":711,"name":"tracker","steam_id":76561198046812440,"connected_time":1277000000000,"state":"active","ping":70},{"user_id":712,"name":"Beeveelution","steam_id":76561198331526301,"connected_time":1268000000000,"state":"active","ping":88}]},{"server_id":108,"name":"Uncletopia | Dallas | 2 | All Maps","name_short":"dal-2","host":"dal-1.us.uncletopia.com","port":27025,"enabled":true,"region":"us-central","cc":"us","latitude":32.779167,"longitude":-96.80889,"reserved":0,"last_update":"0001-01-01T00:00:00Z","name_a2s":"Uncletopia | Dallas | 2 | All Maps","protocol":17,"map":"koth_viaduct","folder":"tf","game":"Team Fortress","app_id":440,"player_count":24,"max_players":24,"Bots":0,"server_type":"Dedicated","server_os":"Linux","password":true,"vac":true,"version":"7757534","steam_id":85568392924469988,"keywords":["cp","nocrits","nodmgspread","uncletopia"],"game_id":440,"stv_port":27026,"stv_name":"Uncletopia | Dallas | 2 | All Maps | STV","players":[{"user_id":571,"name":"Czechoslovakia!","steam_id":76561198214713811,"connected_time":35000000000,"state":"spawning","ping":95},{"user_id":534,"name":"Ctrl And F4","steam_id":76561199367935846,"connected_time":2624000000000,"state":"active","ping":71},{"user_id":548,"name":"Mr. Worldwide","steam_id":76561198366440924,"connected_time":1885000000000,"state":"active","ping":85},{"user_id":556,"name":"Espresso Enjoyer","steam_id":76561198254238409,"connected_time":1022000000000,"state":"active","ping":75},{"user_id":491,"name":"Salazar9","steam_id":76561198049903973,"connected_time":6539000000000,"state":"active","ping":91},{"user_id":564,"name":"Alice Hiiragi","steam_id":76561198094078478,"connected_time":640000000000,"state":"active","ping":78},{"user_id":565,"name":"Taidhgind","steam_id":76561198840301023,"connected_time":626000000000,"state":"active","ping":103},{"user_id":560,"name":"||:♩♩♩♪:|| Opplydead","steam_id":76561198028630334,"connected_time":852000000000,"state":"active","ping":75},{"user_id":495,"name":"Nae Nae no Whip","steam_id":76561198138365728,"connected_time":5798000000000,"state":"active","ping":79},{"user_id":474,"name":"DarthJiggles","steam_id":76561198088383875,"connected_time":7851000000000,"state":"active","ping":76},{"user_id":543,"name":"Mr. Call You Back","steam_id":76561198025172811,"connected_time":2018000000000,"state":"active","ping":78},{"user_id":568,"name":"RaixaR","steam_id":76561198025289430,"connected_time":562000000000,"state":"active","ping":44},{"user_id":549,"name":"cixcin","steam_id":76561199215821942,"connected_time":1767000000000,"state":"active","ping":49},{"user_id":475,"name":"yeeye","steam_id":76561198094306054,"connected_time":7829000000000,"state":"active","ping":59},{"user_id":566,"name":"0","steam_id":76561197961095970,"connected_time":610000000000,"state":"active","ping":82},{"user_id":569,"name":"JimmySquid","steam_id":76561198254242530,"connected_time":159000000000,"state":"active","ping":65},{"user_id":567,"name":"Average OW lover","steam_id":76561198139024918,"connected_time":603000000000,"state":"active","ping":62},{"user_id":537,"name":"Pastel Ink","steam_id":76561199151508585,"connected_time":2427000000000,"state":"active","ping":95},{"user_id":538,"name":"Ace","steam_id":76561199202306398,"connected_time":2422000000000,"state":"active","ping":79},{"user_id":555,"name":"EatSports","steam_id":76561198009384115,"connected_time":1228000000000,"state":"active","ping":60},{"user_id":551,"name":"miner","steam_id":76561198073035221,"connected_time":1755000000000,"state":"active","ping":90},{"user_id":570,"name":"Moonflower ✦","steam_id":76561198191782483,"connected_time":87000000000,"state":"active","ping":64},{"user_id":540,"name":"pyr0m","steam_id":76561198062567022,"connected_time":2388000000000,"state":"active","ping":59},{"user_id":510,"name":"RedTheFoxisWow","steam_id":76561198827275380,"connected_time":4819000000000,"state":"active","ping":70}]},{"server_id":5,"name":"Uncletopia | Frankfurt | 1 | All Maps","name_short":"frk-1","host":"frk-1.de.uncletopia.com","port":27015,"enabled":true,"region":"eu","cc":"de","latitude":50.110924,"longitude":8.682127,"reserved":0,"last_update":"0001-01-01T00:00:00Z","name_a2s":"Uncletopia | Frankfurt | 1 | All Maps","protocol":17,"map":"pl_pier","folder":"tf","game":"Team Fortress","app_id":440,"player_count":0,"max_players":24,"Bots":0,"server_type":"Dedicated","server_os":"Linux","password":true,"vac":true,"version":"7757534","steam_id":85568392924469989,"keywords":["nocrits","nodmgspread","payload","uncletopia"],"game_id":440,"stv_port":27016,"stv_name":"Uncletopia | Frankfurt | 1 | All Maps | STV","players":null},{"server_id":110,"name":"Uncletopia | Frankfurt | 2 | All Maps","name_short":"frk-2","host":"frk-1.de.uncletopia.com","port":27025,"enabled":true,"region":"eu","cc":"de","latitude":50.110924,"longitude":8.682127,"reserved":0,"last_update":"0001-01-01T00:00:00Z","name_a2s":"Uncletopia | Frankfurt | 2 | All Maps","protocol":17,"map":"cp_altitude","folder":"tf","game":"Team Fortress","app_id":440,"player_count":0,"max_players":24,"Bots":0,"server_type":"Dedicated","server_os":"Linux","password":true,"vac":true,"version":"7757534","steam_id":85568392924469990,"keywords":["cp","nocrits","nodmgspread","uncletopia"],"game_id":440,"stv_port":27026,"stv_name":"Uncletopia | Frankfurt | 2 | All Maps | STV","players":null},{"server_id":308,"name":"Uncletopia | Frankfurt | 3 | All Maps","name_short":"frk-3","host":"frk-1.de.uncletopia.com","port":27035,"enabled":true,"region":"eu","cc":"de","latitude":50.110924,"longitude":8.682127,"reserved":0,"last_update":"0001-01-01T00:00:00Z","name_a2s":"Uncletopia | Frankfurt | 3 | All Maps","protocol":17,"map":"pl_barnblitz","folder":"tf","game":"Team Fortress","app_id":440,"player_count":0,"max_players":24,"Bots":0,"server_type":"Dedicated","server_os":"Linux","password":true,"vac":true,"version":"7757534","steam_id":85568392924504274,"keywords":["nocrits","nodmgspread","payload","uncletopia"],"game_id":440,"stv_port":27036,"stv_name":"Uncletopia | Frankfurt | 3 | All Maps | STV","players":null},{"server_id":309,"name":"Uncletopia | Frankfurt | 4 | All Maps","name_short":"frk-4","host":"frk-1.de.uncletopia.com","port":27045,"enabled":true,"region":"eu","cc":"de","latitude":50.110924,"longitude":8.682127,"reserved":0,"last_update":"0001-01-01T00:00:00Z","name_a2s":"Uncletopia | Frankfurt | 4 | All Maps","protocol":17,"map":"pl_snowycoast","folder":"tf","game":"Team Fortress","app_id":440,"player_count":0,"max_players":24,"Bots":0,"server_type":"Dedicated","server_os":"Linux","password":true,"vac":true,"version":"7757534","steam_id":85568392924504275,"keywords":["nocrits","nodmgspread","payload","uncletopia"],"game_id":440,"stv_port":27046,"stv_name":"Uncletopia | Frankfurt | 4 | All Maps | STV","players":null},{"server_id":310,"name":"Uncletopia | Frankfurt | 5 | All Maps","name_short":"frk-5","host":"frk-1.de.uncletopia.com","port":27055,"enabled":true,"region":"eu","cc":"de","latitude":50.110924,"longitude":8.682127,"reserved":0,"last_update":"0001-01-01T00:00:00Z","name_a2s":"Uncletopia | Frankfurt | 5 | All Maps","protocol":17,"map":"cp_altitude","folder":"tf","game":"Team Fortress","app_id":440,"player_count":0,"max_players":24,"Bots":0,"server_type":"Dedicated","server_os":"Linux","password":true,"vac":true,"version":"7757534","steam_id":85568392924504277,"keywords":["cp","nocrits","nodmgspread","uncletopia"],"game_id":440,"stv_port":27056,"stv_name":"Uncletopia | Frankfurt | 5 | All Maps | STV","players":null},{"server_id":311,"name":"Uncletopia | Frankfurt | 6 | All Maps","name_short":"frk-6","host":"frk-1.de.uncletopia.com","port":27065,"enabled":true,"region":"eu","cc":"de","latitude":50.110924,"longitude":8.682127,"reserved":0,"last_update":"0001-01-01T00:00:00Z","name_a2s":"Uncletopia | Frankfurt | 6 | All Maps","protocol":17,"map":"koth_highpass","folder":"tf","game":"Team Fortress","app_id":440,"player_count":0,"max_players":24,"Bots":0,"server_type":"Dedicated","server_os":"Linux","password":true,"vac":true,"version":"7757534","steam_id":85568392924504278,"keywords":["cp","nocrits","nodmgspread","uncletopia"],"game_id":440,"stv_port":27066,"stv_name":"Uncletopia | Frankfurt | 6 | All Maps | STV","players":null},{"server_id":23,"name":"Uncletopia | Frankfurt | 7 | Stopwatch Beta","name_short":"frk-7","host":"frk-1.de.uncletopia.com","port":27075,"enabled":true,"region":"eu","cc":"de","latitude":50.110924,"longitude":8.682127,"reserved":0,"last_update":"0001-01-01T00:00:00Z","name_a2s":"Uncletopia | Frankfurt | 7 | Stopwatch Beta","protocol":17,"map":"pl_borneo","folder":"tf","game":"Team Fortress","app_id":440,"player_count":0,"max_players":24,"Bots":0,"server_type":"Dedicated","server_os":"Linux","password":true,"vac":true,"version":"7757534","steam_id":85568392924742827,"keywords":["nocrits","nodmgspread","payload","uncletopia"],"game_id":440,"stv_port":27076,"stv_name":"Uncletopia | Frankfurt | 7 | Stopwatch Beta | STV","players":null},{"server_id":24,"name":"Uncletopia | Frankfurt | 8 | Community","name_short":"frk-8","host":"frk-1.de.uncletopia.com","port":27085,"enabled":true,"region":"eu","cc":"de","latitude":50.110924,"longitude":8.682127,"reserved":0,"last_update":"0001-01-01T00:00:00Z","name_a2s":"Uncletopia | Frankfurt | 8 | Community","protocol":17,"map":"koth_cascade","folder":"tf","game":"Team Fortress","app_id":440,"player_count":0,"max_players":24,"Bots":0,"server_type":"Dedicated","server_os":"Linux","password":true,"vac":true,"version":"7757534","steam_id":85568392924742828,"keywords":["cp","nocrits","nodmgspread","uncletopia"],"game_id":440,"stv_port":27086,"stv_name":"Uncletopia | Frankfurt | 8 | Community | STV","players":null},{"server_id":202,"name":"Uncletopia | Hong Kong | 1 | All Maps","name_short":"hgk-1","host":"hgk-1.hk.uncletopia.com","port":27015,"enabled":true,"region":"asia","cc":"hk","latitude":22.302711,"longitude":114.177216,"reserved":0,"last_update":"0001-01-01T00:00:00Z","name_a2s":"Uncletopia | Hong Kong | 1 | All Maps","protocol":17,"map":"pl_borneo","folder":"tf","game":"Team Fortress","app_id":440,"player_count":24,"max_players":24,"Bots":0,"server_type":"Dedicated","server_os":"Linux","password":true,"vac":true,"version":"7757534","steam_id":85568392924494504,"keywords":["nocrits","nodmgspread","payload","uncletopia"],"game_id":440,"stv_port":27016,"stv_name":"Uncletopia | Hong Kong | 1 | All Maps | STV","players":[{"user_id":127,"name":"MS PowerPoint","steam_id":76561198369523192,"connected_time":4487000000000,"state":"active","ping":59},{"user_id":88,"name":"TomCat","steam_id":76561198133744053,"connected_time":8122000000000,"state":"active","ping":109},{"user_id":99,"name":"chaechae","steam_id":76561198240627872,"connected_time":7415000000000,"state":"active","ping":51},{"user_id":112,"name":"MsD IV","steam_id":76561198059707655,"connected_time":5632000000000,"state":"active","ping":82},{"user_id":166,"name":"www77531","steam_id":76561198251038432,"connected_time":2396000000000,"state":"active","ping":51},{"user_id":174,"name":"Unskilled Gamer","steam_id":76561198186914066,"connected_time":752000000000,"state":"active","ping":59},{"user_id":167,"name":"Leroy","steam_id":76561199137927625,"connected_time":2387000000000,"state":"active","ping":94},{"user_id":177,"name":"dax.","steam_id":76561198321885643,"connected_time":733000000000,"state":"active","ping":40},{"user_id":172,"name":"Du57Y","steam_id":76561198120973476,"connected_time":769000000000,"state":"active","ping":81},{"user_id":175,"name":"Steve","steam_id":76561198429235506,"connected_time":752000000000,"state":"active","ping":81},{"user_id":79,"name":"pardo","steam_id":76561198230213828,"connected_time":9283000000000,"state":"active","ping":62},{"user_id":101,"name":"qb","steam_id":76561198412329672,"connected_time":7075000000000,"state":"active","ping":82},{"user_id":136,"name":"smol - est","steam_id":76561198293775978,"connected_time":3903000000000,"state":"active","ping":96},{"user_id":91,"name":"ocha お茶 전통차","steam_id":76561199224096189,"connected_time":7678000000000,"state":"active","ping":97},{"user_id":141,"name":"IZ*","steam_id":76561198834621927,"connected_time":3748000000000,"state":"active","ping":137},{"user_id":83,"name":"jerrybel","steam_id":76561198055553140,"connected_time":9019000000000,"state":"active","ping":79},{"user_id":178,"name":"spinach hero","steam_id":76561198042539541,"connected_time":529000000000,"state":"active","ping":77},{"user_id":149,"name":"Drutzhfer","steam_id":76561198299948446,"connected_time":3297000000000,"state":"active","ping":101},{"user_id":113,"name":"Smile :)","steam_id":76561199125493462,"connected_time":5632000000000,"state":"active","ping":140},{"user_id":180,"name":"timmy.1366","steam_id":76561199065433547,"connected_time":512000000000,"state":"active","ping":80},{"user_id":126,"name":"kaaaaa","steam_id":76561198400698408,"connected_time":4667000000000,"state":"active","ping":463},{"user_id":170,"name":"Foxyfiverz","steam_id":76561198999957871,"connected_time":1216000000000,"state":"active","ping":90},{"user_id":132,"name":"Urotsuki","steam_id":76561198074339034,"connected_time":3914000000000,"state":"active","ping":79},{"user_id":176,"name":"JayJ","steam_id":76561198324008555,"connected_time":751000000000,"state":"active","ping":58}]},{"server_id":1,"name":"Uncletopia | Los Angeles | 1 | All Maps","name_short":"lax-1","host":"lax-1.us.uncletopia.com","port":27015,"enabled":true,"region":"us-west","cc":"us","latitude":33.94279,"longitude":-118.41004,"reserved":0,"last_update":"0001-01-01T00:00:00Z","name_a2s":"Uncletopia | Los Angeles | 1 | All Maps","protocol":17,"map":"pl_upward","folder":"tf","game":"Team Fortress","app_id":440,"player_count":24,"max_players":24,"Bots":0,"server_type":"Dedicated","server_os":"Linux","password":true,"vac":true,"version":"7757534","steam_id":85568392924469991,"keywords":["nocrits","nodmgspread","payload","uncletopia"],"game_id":440,"stv_port":27016,"stv_name":"Uncletopia | Los Angeles | 1 | All Maps | STV","players":[{"user_id":16,"name":"Thicc Boi","steam_id":76561199163799116,"connected_time":6616000000000,"state":"active","ping":59},{"user_id":17,"name":"piggyplayz","steam_id":76561198844382126,"connected_time":6614000000000,"state":"active","ping":75},{"user_id":55,"name":"unnamed56565","steam_id":76561199082953233,"connected_time":3469000000000,"state":"active","ping":102},{"user_id":80,"name":"sara","steam_id":76561198283462369,"connected_time":1200000000000,"state":"active","ping":45},{"user_id":66,"name":"Plasmik","steam_id":76561199010140432,"connected_time":2502000000000,"state":"active","ping":70},{"user_id":69,"name":"dzcreeper","steam_id":76561198072250723,"connected_time":2370000000000,"state":"active","ping":77},{"user_id":81,"name":"lukednoob","steam_id":76561199158872193,"connected_time":774000000000,"state":"active","ping":57},{"user_id":26,"name":"Pinhead","steam_id":76561198207979440,"connected_time":4673000000000,"state":"active","ping":62},{"user_id":61,"name":"Leo","steam_id":76561198309760791,"connected_time":3064000000000,"state":"active","ping":134},{"user_id":62,"name":"MrButter","steam_id":76561198845773528,"connected_time":2984000000000,"state":"active","ping":100},{"user_id":31,"name":"goatz","steam_id":76561198163662622,"connected_time":4553000000000,"state":"active","ping":59},{"user_id":32,"name":"asm_ghost","steam_id":76561199205363547,"connected_time":4520000000000,"state":"active","ping":84},{"user_id":33,"name":"The Gremlin","steam_id":76561198419066993,"connected_time":4499000000000,"state":"active","ping":85},{"user_id":84,"name":"ixo","steam_id":76561198091018788,"connected_time":653000000000,"state":"active","ping":59},{"user_id":79,"name":"Plant","steam_id":76561198892328663,"connected_time":1444000000000,"state":"active","ping":46},{"user_id":77,"name":"Nowhe","steam_id":76561198037483737,"connected_time":1499000000000,"state":"active","ping":140},{"user_id":83,"name":"Donut Man","steam_id":76561198196940429,"connected_time":719000000000,"state":"active","ping":46},{"user_id":64,"name":"Peak","steam_id":76561198118772175,"connected_time":2917000000000,"state":"active","ping":43},{"user_id":78,"name":"ElShaggy","steam_id":76561198148870214,"connected_time":1458000000000,"state":"active","ping":62},{"user_id":65,"name":"Hordofood","steam_id":76561198154216907,"connected_time":2904000000000,"state":"active","ping":64},{"user_id":76,"name":"bad spy player","steam_id":76561198873699671,"connected_time":1560000000000,"state":"active","ping":67},{"user_id":60,"name":"LobsterPot","steam_id":76561198072225973,"connected_time":3219000000000,"state":"active","ping":106},{"user_id":74,"name":"epic guy tf2","steam_id":76561199090749498,"connected_time":2179000000000,"state":"active","ping":109},{"user_id":85,"name":"i ate atomic bomb","steam_id":76561198150406851,"connected_time":426000000000,"state":"active","ping":59}]},{"server_id":112,"name":"Uncletopia | Los Angeles | 2 | All Maps","name_short":"lax-2","host":"lax-1.us.uncletopia.com","port":27025,"enabled":true,"region":"us-west","cc":"us","latitude":33.94279,"longitude":-118.41004,"reserved":0,"last_update":"0001-01-01T00:00:00Z","name_a2s":"Uncletopia | Los Angeles | 2 | All Maps","protocol":17,"map":"cp_powerhouse","folder":"tf","game":"Team Fortress","app_id":440,"player_count":24,"max_players":24,"Bots":0,"server_type":"Dedicated","server_os":"Linux","password":true,"vac":true,"version":"7757534","steam_id":85568392924469992,"keywords":["cp","nocrits","nodmgspread","uncletopia"],"game_id":440,"stv_port":27026,"stv_name":"Uncletopia | Los Angeles | 2 | All Maps | STV","players":[{"user_id":763,"name":"ChibiFerrari","steam_id":76561198825330201,"connected_time":314000000000,"state":"active","ping":68},{"user_id":732,"name":"Nyges","steam_id":76561198139236154,"connected_time":3676000000000,"state":"active","ping":48},{"user_id":762,"name":"Cute Gatito","steam_id":76561198351147780,"connected_time":433000000000,"state":"active","ping":55},{"user_id":645,"name":"Spud","steam_id":76561198878000618,"connected_time":12032000000000,"state":"active","ping":48},{"user_id":751,"name":"AjProductions","steam_id":76561198217950125,"connected_time":2387000000000,"state":"active","ping":84},{"user_id":758,"name":"Farseer Ulwithy","steam_id":76561197965179245,"connected_time":1584000000000,"state":"active","ping":94},{"user_id":744,"name":"thepopeofshame","steam_id":76561199047823974,"connected_time":3017000000000,"state":"active","ping":44},{"user_id":697,"name":"Marzbee115","steam_id":76561198095821025,"connected_time":6504000000000,"state":"active","ping":54},{"user_id":748,"name":"mae","steam_id":76561198116842967,"connected_time":2642000000000,"state":"active","ping":100},{"user_id":761,"name":"xxxDABGODxxx","steam_id":76561199061979040,"connected_time":1097000000000,"state":"active","ping":88},{"user_id":750,"name":"resh","steam_id":76561198066619792,"connected_time":2498000000000,"state":"active","ping":81},{"user_id":690,"name":"Drive-By-Fish-Guy","steam_id":76561198105513652,"connected_time":7120000000000,"state":"active","ping":67},{"user_id":691,"name":"UneditedAndy","steam_id":76561198982544947,"connected_time":7017000000000,"state":"active","ping":55},{"user_id":739,"name":"Agent Q","steam_id":76561198830829003,"connected_time":3132000000000,"state":"active","ping":67},{"user_id":759,"name":"wubber","steam_id":76561198286627157,"connected_time":1540000000000,"state":"active","ping":46},{"user_id":752,"name":"Buuw","steam_id":76561198085707714,"connected_time":2365000000000,"state":"active","ping":60},{"user_id":722,"name":"Scout Reading a Comic","steam_id":76561199284296037,"connected_time":4763000000000,"state":"active","ping":71},{"user_id":675,"name":"GamerPizza","steam_id":76561198140520550,"connected_time":9057000000000,"state":"active","ping":82},{"user_id":753,"name":"xbox record that","steam_id":76561198150117455,"connected_time":2236000000000,"state":"active","ping":60},{"user_id":754,"name":"b4ttle_axe","steam_id":76561198061691855,"connected_time":2219000000000,"state":"active","ping":52},{"user_id":741,"name":"SneakyRocks","steam_id":76561198201694213,"connected_time":3061000000000,"state":"active","ping":54},{"user_id":755,"name":"MaryJaneee","steam_id":76561198072200952,"connected_time":2110000000000,"state":"active","ping":54},{"user_id":711,"name":"Avem","steam_id":76561198058763710,"connected_time":5088000000000,"state":"active","ping":46},{"user_id":756,"name":"crimson","steam_id":76561198018725934,"connected_time":2078000000000,"state":"active","ping":60}]},{"server_id":324,"name":"Uncletopia | Los Angeles | 3 | All Maps","name_short":"lax-3","host":"lax-1.us.uncletopia.com","port":27035,"enabled":true,"region":"us-west","cc":"us","latitude":33.94279,"longitude":-118.41004,"reserved":0,"last_update":"0001-01-01T00:00:00Z","name_a2s":"Uncletopia | Los Angeles | 3 | All Maps","protocol":17,"map":"koth_viaduct","folder":"tf","game":"Team Fortress","app_id":440,"player_count":0,"max_players":24,"Bots":0,"server_type":"Dedicated","server_os":"Linux","password":true,"vac":true,"version":"7757534","steam_id":85568392924510198,"keywords":["cp","nocrits","nodmgspread","uncletopia"],"game_id":440,"stv_port":27036,"stv_name":"Uncletopia | Los Angeles | 3 | All Maps | STV","players":null},{"server_id":25,"name":"Uncletopia | Los Angeles | 4 | Stopwatch Beta","name_short":"lax-4","host":"lax-1.us.uncletopia.com","port":27045,"enabled":true,"region":"us-west","cc":"us","latitude":33.94279,"longitude":-118.41004,"reserved":0,"last_update":"0001-01-01T00:00:00Z","name_a2s":"Uncletopia | Los Angeles | 4 | Stopwatch Beta","protocol":17,"map":"koth_lakeside_final","folder":"tf","game":"Team Fortress","app_id":440,"player_count":0,"max_players":24,"Bots":0,"server_type":"Dedicated","server_os":"Linux","password":true,"vac":true,"version":"7757534","steam_id":85568392924510199,"keywords":["cp","nocrits","nodmgspread","uncletopia"],"game_id":440,"stv_port":27046,"stv_name":"Uncletopia | Los Angeles | 4 | Stopwatch Beta | STV","players":null},{"server_id":11,"name":"Uncletopia | London | 1 | All Maps","name_short":"lon-1","host":"lon-1.uk.uncletopia.com","port":27015,"enabled":true,"region":"eu","cc":"gb","latitude":51.509865,"longitude":-0.118092,"reserved":0,"last_update":"0001-01-01T00:00:00Z","name_a2s":"Uncletopia | London | 1 | All Maps","protocol":17,"map":"pl_pier","folder":"tf","game":"Team Fortress","app_id":440,"player_count":0,"max_players":24,"Bots":0,"server_type":"Dedicated","server_os":"Linux","password":true,"vac":true,"version":"7757534","steam_id":85568392924367362,"keywords":["nocrits","nodmgspread","payload","uncletopia"],"game_id":440,"stv_port":27016,"stv_name":"Uncletopia | London | 1 | All Maps | STV","players":null},{"server_id":114,"name":"Uncletopia | London | 2 | All Maps","name_short":"lon-2","host":"lon-1.uk.uncletopia.com","port":27025,"enabled":true,"region":"eu","cc":"gb","latitude":51.509865,"longitude":-0.118092,"reserved":0,"last_update":"0001-01-01T00:00:00Z","name_a2s":"Uncletopia | London | 2 | All Maps","protocol":17,"map":"pl_borneo","folder":"tf","game":"Team Fortress","app_id":440,"player_count":24,"max_players":24,"Bots":0,"server_type":"Dedicated","server_os":"Linux","password":true,"vac":true,"version":"7757534","steam_id":85568392924470941,"keywords":["nocrits","nodmgspread","payload","uncletopia"],"game_id":440,"stv_port":27026,"stv_name":"Uncletopia | London | 2 | All Maps | STV","players":[{"user_id":3,"name":"Jiggie","steam_id":76561198018134884,"connected_time":950000000000,"state":"active","ping":70},{"user_id":4,"name":"2011 Seat León","steam_id":76561197994310420,"connected_time":948000000000,"state":"active","ping":90},{"user_id":5,"name":"Augustus","steam_id":76561198086414515,"connected_time":947000000000,"state":"active","ping":53},{"user_id":6,"name":"RIFT","steam_id":76561198991622379,"connected_time":947000000000,"state":"active","ping":39},{"user_id":7,"name":"nirvana","steam_id":76561199149378965,"connected_time":946000000000,"state":"active","ping":75},{"user_id":8,"name":"Doomz","steam_id":76561198029147860,"connected_time":945000000000,"state":"active","ping":136},{"user_id":9,"name":"Uncle Motong","steam_id":76561198029093635,"connected_time":945000000000,"state":"active","ping":60},{"user_id":10,"name":"Zerfesh","steam_id":76561198117534358,"connected_time":936000000000,"state":"active","ping":102},{"user_id":11,"name":"Tynnyri","steam_id":76561198075516541,"connected_time":935000000000,"state":"active","ping":85},{"user_id":12,"name":"SugipuLaur","steam_id":76561199138556623,"connected_time":932000000000,"state":"active","ping":74},{"user_id":13,"name":"ignitor \u003c3","steam_id":76561198218996844,"connected_time":931000000000,"state":"active","ping":61},{"user_id":14,"name":"konchalo","steam_id":76561199294060021,"connected_time":931000000000,"state":"active","ping":91},{"user_id":29,"name":"Haku ( •ᴗ•)","steam_id":76561198013292193,"connected_time":662000000000,"state":"active","ping":87},{"user_id":16,"name":"Гринфилд","steam_id":76561198837979348,"connected_time":915000000000,"state":"active","ping":186},{"user_id":30,"name":"Flal","steam_id":76561198453819816,"connected_time":298000000000,"state":"active","ping":64},{"user_id":18,"name":"Il y a","steam_id":76561198100943482,"connected_time":903000000000,"state":"active","ping":67},{"user_id":19,"name":"i dream of döner","steam_id":76561198061248547,"connected_time":897000000000,"state":"active","ping":56},{"user_id":20,"name":"Mizzow","steam_id":76561198008040797,"connected_time":885000000000,"state":"active","ping":45},{"user_id":31,"name":"Shun Rosen","steam_id":76561198012823909,"connected_time":225000000000,"state":"active","ping":137},{"user_id":22,"name":"olf","steam_id":76561198095487438,"connected_time":864000000000,"state":"active","ping":82},{"user_id":23,"name":"dorak","steam_id":76561198818037965,"connected_time":857000000000,"state":"active","ping":105},{"user_id":27,"name":"Bo","steam_id":76561198023975550,"connected_time":710000000000,"state":"active","ping":71},{"user_id":25,"name":"Demo-Ktosiu","steam_id":76561198890628396,"connected_time":802000000000,"state":"active","ping":89},{"user_id":32,"name":"Dude Time","steam_id":76561198092991160,"connected_time":153000000000,"state":"active","ping":153}]},{"server_id":320,"name":"Uncletopia | London | 3 | All Maps","name_short":"lon-3","host":"lon-1.uk.uncletopia.com","port":27035,"enabled":true,"region":"eu","cc":"gb","latitude":51.509865,"longitude":-0.118092,"reserved":0,"last_update":"0001-01-01T00:00:00Z","name_a2s":"Uncletopia | London | 3 | All Maps","protocol":17,"map":"pl_badwater","folder":"tf","game":"Team Fortress","app_id":440,"player_count":0,"max_players":24,"Bots":0,"server_type":"Dedicated","server_os":"Linux","password":true,"vac":true,"version":"7757534","steam_id":85568392924510192,"keywords":["nocrits","nodmgspread","payload","uncletopia"],"game_id":440,"stv_port":27036,"stv_name":"Uncletopia | London | 3 | All Maps | STV","players":null},{"server_id":321,"name":"Uncletopia | London | 4 | All Maps","name_short":"lon-4","host":"lon-1.uk.uncletopia.com","port":27045,"enabled":true,"region":"eu","cc":"gb","latitude":51.509865,"longitude":-0.118092,"reserved":0,"last_update":"0001-01-01T00:00:00Z","name_a2s":"Uncletopia | London | 4 | All Maps","protocol":17,"map":"cp_snakewater_final1","folder":"tf","game":"Team Fortress","app_id":440,"player_count":0,"max_players":24,"Bots":0,"server_type":"Dedicated","server_os":"Linux","password":true,"vac":true,"version":"7757534","steam_id":85568392924510193,"keywords":["cp","nocrits","nodmgspread","uncletopia"],"game_id":440,"stv_port":27046,"stv_name":"Uncletopia | London | 4 | All Maps | STV","players":null},{"server_id":21,"name":"Uncletopia | London | 5 | All Maps","name_short":"lon-5","host":"lon-1.uk.uncletopia.com","port":27055,"enabled":true,"region":"eu","cc":"gb","latitude":51.509865,"longitude":-0.118092,"reserved":0,"last_update":"0001-01-01T00:00:00Z","name_a2s":"Uncletopia | London | 5 | All Maps","protocol":17,"map":"pl_snowycoast","folder":"tf","game":"Team Fortress","app_id":440,"player_count":0,"max_players":24,"Bots":0,"server_type":"Dedicated","server_os":"Linux","password":true,"vac":true,"version":"7757534","steam_id":85568392924742829,"keywords":["nocrits","nodmgspread","payload","uncletopia"],"game_id":440,"stv_port":27056,"stv_name":"Uncletopia | London | 5 | All Maps | STV","players":null},{"server_id":22,"name":"Uncletopia | London | 6 | All Maps","name_short":"lon-6","host":"lon-1.uk.uncletopia.com","port":27065,"enabled":true,"region":"eu","cc":"gb","latitude":51.509865,"longitude":-0.118092,"reserved":0,"last_update":"0001-01-01T00:00:00Z","name_a2s":"Uncletopia | London | 6 | All Maps","protocol":17,"map":"pl_snowycoast","folder":"tf","game":"Team Fortress","app_id":440,"player_count":0,"max_players":24,"Bots":0,"server_type":"Dedicated","server_os":"Linux","password":true,"vac":true,"version":"7757534","steam_id":85568392924742830,"keywords":["nocrits","nodmgspread","payload","uncletopia"],"game_id":440,"stv_port":27066,"stv_name":"Uncletopia | London | 6 | All Maps | STV","players":null},{"server_id":40,"name":"Uncletopia | London | 7 | No Payload","name_short":"lon-7","host":"lon-1.uk.uncletopia.com","port":27075,"enabled":true,"region":"eu","cc":"gb","latitude":51.509865,"longitude":-0.118092,"reserved":0,"last_update":"0001-01-01T00:00:00Z","name_a2s":"Uncletopia | London | 7 | No Payload","protocol":17,"map":"pl_upward","folder":"tf","game":"Team Fortress","app_id":440,"player_count":0,"max_players":24,"Bots":0,"server_type":"Dedicated","server_os":"Linux","password":true,"vac":true,"version":"7757534","steam_id":85568392924964314,"keywords":["nocrits","nodmgspread","payload","uncletopia"],"game_id":440,"stv_port":27076,"stv_name":"Uncletopia | London | 7 | No Payload | STV","players":null},{"server_id":41,"name":"Uncletopia | London | 8 | Community","name_short":"lon-8","host":"lon-1.uk.uncletopia.com","port":27085,"enabled":true,"region":"eu","cc":"gb","latitude":51.509865,"longitude":-0.118092,"reserved":0,"last_update":"0001-01-01T00:00:00Z","name_a2s":"Uncletopia | London | 8 | Community","protocol":17,"map":"cp_snakewater_final1","folder":"tf","game":"Team Fortress","app_id":440,"player_count":0,"max_players":24,"Bots":0,"server_type":"Dedicated","server_os":"Linux","password":true,"vac":true,"version":"7757534","steam_id":85568392924964315,"keywords":["cp","nocrits","nodmgspread","uncletopia"],"game_id":440,"stv_port":27086,"stv_name":"Uncletopia | London | 8 | Community | STV","players":null},{"server_id":300,"name":"Uncletopia | Montréal | 1 | All Maps","name_short":"mtl-1","host":"mtl-1.ca.uncletopia.com","port":27015,"enabled":true,"region":"us-east","cc":"ca","latitude":45.50889,"longitude":-73.56167,"reserved":0,"last_update":"0001-01-01T00:00:00Z","name_a2s":"Uncletopia | Montréal | 1 | All Maps","protocol":17,"map":"koth_cascade","folder":"tf","game":"Team Fortress","app_id":440,"player_count":1,"max_players":24,"Bots":0,"server_type":"Dedicated","server_os":"Linux","password":true,"vac":true,"version":"7757534","steam_id":85568392924500087,"keywords":["cp","nocrits","nodmgspread","uncletopia"],"game_id":440,"stv_port":27016,"stv_name":"Uncletopia | Montréal | 1 | All Maps | STV","players":[{"user_id":4,"name":"WebChill","steam_id":76561199137238941,"connected_time":22000000000,"state":"spawning","ping":55}]},{"server_id":301,"name":"Uncletopia | Montréal | 2 | All Maps","name_short":"mtl-2","host":"mtl-1.ca.uncletopia.com","port":27025,"enabled":true,"region":"us-east","cc":"ca","latitude":45.50889,"longitude":-73.56167,"reserved":0,"last_update":"0001-01-01T00:00:00Z","name_a2s":"Uncletopia | Montréal | 2 | All Maps","protocol":17,"map":"koth_lakeside_final","folder":"tf","game":"Team Fortress","app_id":440,"player_count":0,"max_players":24,"Bots":0,"server_type":"Dedicated","server_os":"Linux","password":true,"vac":true,"version":"7757534","steam_id":85568392924500088,"keywords":["cp","nocrits","nodmgspread","uncletopia"],"game_id":440,"stv_port":27026,"stv_name":"Uncletopia | Montréal | 2 | All Maps | STV","players":null},{"server_id":302,"name":"Uncletopia | Montréal | 3 | All Maps","name_short":"mtl-3","host":"mtl-1.ca.uncletopia.com","port":27035,"enabled":true,"region":"us-east","cc":"ca","latitude":45.50889,"longitude":-73.56167,"reserved":0,"last_update":"0001-01-01T00:00:00Z","name_a2s":"Uncletopia | Montréal | 3 | All Maps","protocol":17,"map":"koth_cascade","folder":"tf","game":"Team Fortress","app_id":440,"player_count":0,"max_players":24,"Bots":0,"server_type":"Dedicated","server_os":"Linux","password":true,"vac":true,"version":"7757534","steam_id":85568392924500089,"keywords":["cp","nocrits","nodmgspread","uncletopia"],"game_id":440,"stv_port":27036,"stv_name":"Uncletopia | Montréal | 3 | All Maps | STV","players":null},{"server_id":303,"name":"Uncletopia | Montréal | 4 | No Payload","name_short":"mtl-4","host":"mtl-1.ca.uncletopia.com","port":27045,"enabled":true,"region":"us-east","cc":"ca","latitude":45.50889,"longitude":-73.56167,"reserved":0,"last_update":"0001-01-01T00:00:00Z","name_a2s":"Uncletopia | Montréal | 4 | No Payload","protocol":17,"map":"koth_harvest_final","folder":"tf","game":"Team Fortress","app_id":440,"player_count":0,"max_players":24,"Bots":0,"server_type":"Dedicated","server_os":"Linux","password":true,"vac":true,"version":"7757534","steam_id":85568392924500090,"keywords":["cp","nocrits","nodmgspread","uncletopia"],"game_id":440,"stv_port":27046,"stv_name":"Uncletopia | Montréal | 4 | No Payload | STV","players":null},{"server_id":13,"name":"Uncletopia | New York City | 1 | All Maps","name_short":"nyc-1","host":"nyc-1.us.uncletopia.com","port":27015,"enabled":true,"region":"us-east","cc":"us","latitude":40.73061,"longitude":-73.93524,"reserved":0,"last_update":"0001-01-01T00:00:00Z","name_a2s":"Uncletopia | New York City | 1 | All Maps","protocol":17,"map":"pl_borneo","folder":"tf","game":"Team Fortress","app_id":440,"player_count":24,"max_players":24,"Bots":0,"server_type":"Dedicated","server_os":"Linux","password":true,"vac":true,"version":"7757534","steam_id":85568392924469993,"keywords":["nocrits","nodmgspread","payload","uncletopia"],"game_id":440,"stv_port":27016,"stv_name":"Uncletopia | New York City | 1 | All Maps | STV","players":[{"user_id":584,"name":"Cyan","steam_id":76561198090433914,"connected_time":758000000000,"state":"active","ping":87},{"user_id":586,"name":"Ranch Style Beans","steam_id":76561198126791566,"connected_time":226000000000,"state":"active","ping":90},{"user_id":587,"name":"Taburet","steam_id":76561198013035847,"connected_time":206000000000,"state":"active","ping":137},{"user_id":563,"name":"Laelaps","steam_id":76561198100061416,"connected_time":2228000000000,"state":"active","ping":55},{"user_id":578,"name":"Claw","steam_id":76561198309244890,"connected_time":1041000000000,"state":"active","ping":45},{"user_id":527,"name":"BeefClapper420","steam_id":76561198080892634,"connected_time":4446000000000,"state":"active","ping":63},{"user_id":588,"name":"Mr.Dies a lot","steam_id":76561199061602946,"connected_time":170000000000,"state":"active","ping":152},{"user_id":589,"name":"flora","steam_id":76561197994492154,"connected_time":165000000000,"state":"active","ping":143},{"user_id":585,"name":"Saccharine","steam_id":76561198368917518,"connected_time":455000000000,"state":"active","ping":56},{"user_id":590,"name":"Jabagas","steam_id":76561198141559134,"connected_time":158000000000,"state":"active","ping":61},{"user_id":591,"name":"Cap'n Crunch","steam_id":76561199045902619,"connected_time":157000000000,"state":"active","ping":50},{"user_id":592,"name":"BrainFart","steam_id":76561198130827247,"connected_time":140000000000,"state":"active","ping":61},{"user_id":593,"name":"Zacoton","steam_id":76561198923751420,"connected_time":139000000000,"state":"active","ping":112},{"user_id":594,"name":"kimbo_W33B","steam_id":76561199111542067,"connected_time":116000000000,"state":"active","ping":74},{"user_id":484,"name":"Cursed Dog","steam_id":76561198090785078,"connected_time":7461000000000,"state":"active","ping":115},{"user_id":534,"name":"Feel the bern","steam_id":76561198078824519,"connected_time":4288000000000,"state":"active","ping":135},{"user_id":553,"name":"Smooth - Santana ft. Rob Thomas","steam_id":76561198145283389,"connected_time":2936000000000,"state":"active","ping":57},{"user_id":570,"name":"Kolor","steam_id":76561197988411084,"connected_time":1930000000000,"state":"active","ping":76},{"user_id":595,"name":"Terraformer9x","steam_id":76561198018465835,"connected_time":112000000000,"state":"active","ping":53},{"user_id":583,"name":"Gooey Gaped Grannys","steam_id":76561198089731303,"connected_time":866000000000,"state":"active","ping":46},{"user_id":596,"name":"MILF Gaming","steam_id":76561198155378170,"connected_time":96000000000,"state":"active","ping":53},{"user_id":575,"name":"Fatality","steam_id":76561198210908515,"connected_time":1637000000000,"state":"active","ping":83},{"user_id":538,"name":"Krellah","steam_id":76561198287045069,"connected_time":4243000000000,"state":"active","ping":61},{"user_id":576,"name":"jsutin","steam_id":76561198145338259,"connected_time":1626000000000,"state":"active","ping":96}]},{"server_id":14,"name":"Uncletopia | New York City | 2 | All Maps","name_short":"nyc-2","host":"nyc-1.us.uncletopia.com","port":27025,"enabled":true,"region":"us-east","cc":"us","latitude":40.73061,"longitude":-73.93524,"reserved":0,"last_update":"0001-01-01T00:00:00Z","name_a2s":"Uncletopia | New York City | 2 | All Maps","protocol":17,"map":"pl_frontier_final","folder":"tf","game":"Team Fortress","app_id":440,"player_count":24,"max_players":24,"Bots":0,"server_type":"Dedicated","server_os":"Linux","password":true,"vac":true,"version":"7757534","steam_id":85568392924469994,"keywords":["nocrits","nodmgspread","payload","uncletopia"],"game_id":440,"stv_port":27026,"stv_name":"Uncletopia | New York City | 2 | All Maps | STV","players":[{"user_id":425,"name":"totally not a pile of beans","steam_id":76561198119851931,"connected_time":5605000000000,"state":"active","ping":69},{"user_id":443,"name":"boy actress","steam_id":76561198106690989,"connected_time":4030000000000,"state":"active","ping":53},{"user_id":529,"name":"StrangeSaus","steam_id":76561198147790758,"connected_time":791000000000,"state":"active","ping":63},{"user_id":530,"name":"Lord of The Lockerroom","steam_id":76561198025975003,"connected_time":775000000000,"state":"active","ping":81},{"user_id":531,"name":"java","steam_id":76561198030276792,"connected_time":762000000000,"state":"active","ping":60},{"user_id":461,"name":"CapnKris22","steam_id":76561198049010994,"connected_time":3539000000000,"state":"active","ping":70},{"user_id":541,"name":"d!eing pigs Wh3n?","steam_id":76561198963410515,"connected_time":44000000000,"state":"active","ping":61},{"user_id":532,"name":"Milk","steam_id":76561198175903221,"connected_time":712000000000,"state":"active","ping":73},{"user_id":533,"name":"lost in the sauce","steam_id":76561199043827112,"connected_time":672000000000,"state":"active","ping":88},{"user_id":539,"name":"Skeech","steam_id":76561198119215388,"connected_time":236000000000,"state":"active","ping":99},{"user_id":522,"name":"Hopeless Egg","steam_id":76561199022530317,"connected_time":1008000000000,"state":"active","ping":58},{"user_id":534,"name":"A Fruit","steam_id":76561198951830050,"connected_time":651000000000,"state":"active","ping":86},{"user_id":535,"name":"Blank_Sicon","steam_id":76561198887041407,"connected_time":636000000000,"state":"active","ping":187},{"user_id":488,"name":"CulmanO","steam_id":76561198138028204,"connected_time":2641000000000,"state":"active","ping":59},{"user_id":540,"name":"7ate9 | trade.tf","steam_id":76561198077678836,"connected_time":120000000000,"state":"active","ping":90},{"user_id":528,"name":"Nnyllazxz","steam_id":76561198247797436,"connected_time":854000000000,"state":"active","ping":66},{"user_id":536,"name":"Murrdogg","steam_id":76561198210491188,"connected_time":632000000000,"state":"active","ping":79},{"user_id":431,"name":"Joeyisagonnawin","steam_id":76561198095810732,"connected_time":5090000000000,"state":"active","ping":54},{"user_id":452,"name":"Tok Hakaay","steam_id":76561199311828303,"connected_time":3783000000000,"state":"active","ping":81},{"user_id":480,"name":"toastman","steam_id":76561198207073088,"connected_time":2871000000000,"state":"active","ping":69},{"user_id":500,"name":"Banes","steam_id":76561198083485876,"connected_time":2033000000000,"state":"active","ping":70},{"user_id":497,"name":"GreyHounds","steam_id":76561198081984695,"connected_time":2129000000000,"state":"active","ping":56},{"user_id":499,"name":"Kav","steam_id":76561198331562055,"connected_time":2086000000000,"state":"active","ping":66},{"user_id":507,"name":"Tots","steam_id":76561198027485007,"connected_time":1714000000000,"state":"active","ping":53}]},{"server_id":15,"name":"Uncletopia | New York City | 3 | Stopwatch Beta","name_short":"nyc-3","host":"nyc-1.us.uncletopia.com","port":27035,"enabled":true,"region":"us-east","cc":"us","latitude":40.73061,"longitude":-73.93524,"reserved":0,"last_update":"0001-01-01T00:00:00Z","name_a2s":"Uncletopia | New York City | 3 | Stopwatch Beta","protocol":17,"map":"workshop/pl_vigil_rc9.ugc1266210012","folder":"tf","game":"Team Fortress","app_id":440,"player_count":0,"max_players":24,"Bots":0,"server_type":"Dedicated","server_os":"Linux","password":true,"vac":true,"version":"7757534","steam_id":85568392924742820,"keywords":["nocrits","nodmgspread","payload","uncletopia"],"game_id":440,"stv_port":27036,"stv_name":"Uncletopia | New York City | 3 | Stopwatch Beta | STV","players":null},{"server_id":16,"name":"Uncletopia | New York City | 4 | Community","name_short":"nyc-4","host":"nyc-1.us.uncletopia.com","port":27045,"enabled":true,"region":"us-east","cc":"us","latitude":40.73061,"longitude":-73.93524,"reserved":0,"last_update":"0001-01-01T00:00:00Z","name_a2s":"Uncletopia | New York City | 4 | Community","protocol":17,"map":"workshop/koth_product_final.ugc454272353","folder":"tf","game":"Team Fortress","app_id":440,"player_count":0,"max_players":24,"Bots":0,"server_type":"Dedicated","server_os":"Linux","password":true,"vac":true,"version":"7757534","steam_id":85568392924742821,"keywords":["cp","nocrits","nodmgspread","uncletopia"],"game_id":440,"stv_port":27046,"stv_name":"Uncletopia | New York City | 4 | Community | STV","players":null},{"server_id":142,"name":"Uncletopia | São Paulo | 1 | All Maps","name_short":"sao-1","host":"sao-1.br.uncletopia.com","port":27015,"enabled":true,"region":"sa","cc":"br","latitude":-23.533773,"longitude":-46.62529,"reserved":0,"last_update":"0001-01-01T00:00:00Z","name_a2s":"Uncletopia | São Paulo | 1 | All Maps","protocol":17,"map":"koth_cascade","folder":"tf","game":"Team Fortress","app_id":440,"player_count":0,"max_players":24,"Bots":0,"server_type":"Dedicated","server_os":"Linux","password":true,"vac":true,"version":"7757534","steam_id":85568392924469996,"keywords":["cp","nocrits","nodmgspread","uncletopia"],"game_id":440,"stv_port":27016,"stv_name":"Uncletopia | São Paulo | 1 | All Maps | STV","players":null},{"server_id":143,"name":"Uncletopia | São Paulo | 2 | All Maps","name_short":"sao-2","host":"sao-2.br.uncletopia.com","port":27015,"enabled":true,"region":"sa","cc":"br","latitude":-23.533773,"longitude":-46.62529,"reserved":0,"last_update":"0001-01-01T00:00:00Z","name_a2s":"Uncletopia | São Paulo | 2 | All Maps","protocol":17,"map":"koth_viaduct","folder":"tf","game":"Team Fortress","app_id":440,"player_count":0,"max_players":24,"Bots":0,"server_type":"Dedicated","server_os":"Linux","password":true,"vac":true,"version":"7757534","steam_id":85568392924485349,"keywords":["cp","nocrits","nodmgspread","uncletopia"],"game_id":440,"stv_port":27016,"stv_name":"Uncletopia | São Paulo | 2 | All Maps | STV","players":null},{"server_id":7,"name":"Uncletopia | Seattle | 1 | All Maps","name_short":"sea-1","host":"sea-1.us.uncletopia.com","port":27015,"enabled":true,"region":"us-west","cc":"us","latitude":47.608013,"longitude":-122.33517,"reserved":0,"last_update":"0001-01-01T00:00:00Z","name_a2s":"Uncletopia | Seattle | 1 | All Maps","protocol":17,"map":"pl_pier","folder":"tf","game":"Team Fortress","app_id":440,"player_count":24,"max_players":24,"Bots":0,"server_type":"Dedicated","server_os":"Linux","password":true,"vac":true,"version":"7757534","steam_id":85568392924469997,"keywords":["nocrits","nodmgspread","payload","uncletopia"],"game_id":440,"stv_port":27016,"stv_name":"Uncletopia | Seattle | 1 | All Maps | STV","players":[{"user_id":544,"name":"SmallErection","steam_id":76561198071770147,"connected_time":1068000000000,"state":"active","ping":51},{"user_id":538,"name":"Seriously Bruh","steam_id":76561198070408485,"connected_time":1697000000000,"state":"active","ping":47},{"user_id":524,"name":"Crake","steam_id":76561198001959071,"connected_time":2933000000000,"state":"active","ping":57},{"user_id":528,"name":"Daz","steam_id":76561198041431938,"connected_time":2772000000000,"state":"active","ping":123},{"user_id":540,"name":"Klone","steam_id":76561198854485605,"connected_time":1380000000000,"state":"active","ping":76},{"user_id":471,"name":"SvicidalBug","steam_id":76561198221390504,"connected_time":7111000000000,"state":"active","ping":62},{"user_id":533,"name":"MrJokester","steam_id":76561198019101367,"connected_time":2461000000000,"state":"active","ping":59},{"user_id":501,"name":"El Gato Paranoico","steam_id":76561198116567116,"connected_time":4929000000000,"state":"active","ping":119},{"user_id":465,"name":"MCman","steam_id":76561198412110305,"connected_time":7510000000000,"state":"active","ping":81},{"user_id":530,"name":"Ahzain","steam_id":76561198035894333,"connected_time":2754000000000,"state":"active","ping":87},{"user_id":534,"name":"Giantbob","steam_id":76561199043760220,"connected_time":2459000000000,"state":"active","ping":98},{"user_id":536,"name":"PopcornBucketGames","steam_id":76561199089562026,"connected_time":2113000000000,"state":"active","ping":56},{"user_id":512,"name":"Mr.Thirteen","steam_id":76561198047468836,"connected_time":4133000000000,"state":"active","ping":65},{"user_id":525,"name":"Arsonist Goose","steam_id":76561198147441830,"connected_time":2824000000000,"state":"active","ping":75},{"user_id":518,"name":"penguinlord30","steam_id":76561198437116566,"connected_time":3648000000000,"state":"active","ping":63},{"user_id":543,"name":"Dr. Karl, the AUS Science Guy","steam_id":76561198031278747,"connected_time":1085000000000,"state":"active","ping":48},{"user_id":523,"name":"huh","steam_id":76561198272057200,"connected_time":3215000000000,"state":"active","ping":75},{"user_id":531,"name":"MerkyWaters","steam_id":76561197998853063,"connected_time":2739000000000,"state":"active","ping":99},{"user_id":490,"name":"Mike Hawk","steam_id":76561198045053326,"connected_time":5474000000000,"state":"active","ping":49},{"user_id":527,"name":"Saint Pablo","steam_id":76561198083300159,"connected_time":2796000000000,"state":"active","ping":71},{"user_id":475,"name":"My Pet Polar Bear","steam_id":76561198052902058,"connected_time":6631000000000,"state":"active","ping":83},{"user_id":508,"name":"Scrumfel Nutz","steam_id":76561198123286409,"connected_time":4266000000000,"state":"active","ping":58},{"user_id":537,"name":"Julien","steam_id":76561199389584938,"connected_time":2113000000000,"state":"active","ping":47},{"user_id":452,"name":"Yukihana","steam_id":76561198348354629,"connected_time":8674000000000,"state":"active","ping":67}]},{"server_id":119,"name":"Uncletopia | Seattle | 2 | All Maps","name_short":"sea-2","host":"sea-1.us.uncletopia.com","port":27025,"enabled":true,"region":"us-west","cc":"us","latitude":47.608013,"longitude":-122.33517,"reserved":0,"last_update":"0001-01-01T00:00:00Z","name_a2s":"Uncletopia | Seattle | 2 | All Maps","protocol":17,"map":"koth_viaduct","folder":"tf","game":"Team Fortress","app_id":440,"player_count":2,"max_players":24,"Bots":0,"server_type":"Dedicated","server_os":"Linux","password":true,"vac":true,"version":"7757534","steam_id":85568392924469998,"keywords":["cp","nocrits","nodmgspread","uncletopia"],"game_id":440,"stv_port":27026,"stv_name":"Uncletopia | Seattle | 2 | All Maps | STV","players":[{"user_id":45,"name":"TheCowledWiz","steam_id":76561198016735868,"connected_time":1185000000000,"state":"active","ping":41},{"user_id":47,"name":"strong and healthy gamer","steam_id":76561198049489349,"connected_time":214000000000,"state":"active","ping":55}]},{"server_id":406,"name":"Uncletopia | Seattle | 3 | Stopwatch Beta","name_short":"sea-3","host":"sea-1.us.uncletopia.com","port":27035,"enabled":true,"region":"us-west","cc":"us","latitude":47.608013,"longitude":-122.33517,"reserved":0,"last_update":"0001-01-01T00:00:00Z","name_a2s":"Uncletopia | Seattle | 3 | Stopwatch Beta","protocol":17,"map":"workshop/koth_ramjam_rc1.ugc459778887","folder":"tf","game":"Team Fortress","app_id":440,"player_count":0,"max_players":24,"Bots":0,"server_type":"Dedicated","server_os":"Linux","password":true,"vac":true,"version":"7757534","steam_id":85568392924515217,"keywords":["cp","nocrits","nodmgspread","uncletopia"],"game_id":440,"stv_port":27036,"stv_name":"Uncletopia | Seattle | 3 | Stopwatch Beta | STV","players":null},{"server_id":17,"name":"Uncletopia | San Francisco | 1 | All Maps","name_short":"sfo-1","host":"sfo-1.us.uncletopia.com","port":27015,"enabled":true,"region":"us-west","cc":"us","latitude":37.77397,"longitude":-122.4313,"reserved":0,"last_update":"0001-01-01T00:00:00Z","name_a2s":"Uncletopia | San Francisco | 1 | All Maps","protocol":17,"map":"pl_badwater","folder":"tf","game":"Team Fortress","app_id":440,"player_count":24,"max_players":24,"Bots":0,"server_type":"Dedicated","server_os":"Linux","password":true,"vac":true,"version":"7757534","steam_id":85568392924469999,"keywords":["nocrits","nodmgspread","payload","uncletopia"],"game_id":440,"stv_port":27016,"stv_name":"Uncletopia | San Francisco | 1 | All Maps | STV","players":[{"user_id":391,"name":"Stboxnard","steam_id":76561198089888887,"connected_time":436000000000,"state":"active","ping":74},{"user_id":370,"name":"Uncle Warcrimes","steam_id":76561198413013439,"connected_time":2266000000000,"state":"active","ping":67},{"user_id":371,"name":"Saggle","steam_id":76561198056075147,"connected_time":2213000000000,"state":"active","ping":176},{"user_id":365,"name":"Livin' Like Larry","steam_id":76561198313360974,"connected_time":2705000000000,"state":"active","ping":35},{"user_id":372,"name":"John Wick's puppy","steam_id":76561198064662875,"connected_time":2152000000000,"state":"active","ping":47},{"user_id":353,"name":"Oliver Klozoff","steam_id":76561198024788419,"connected_time":3534000000000,"state":"active","ping":114},{"user_id":393,"name":"Guy named man","steam_id":76561199005023878,"connected_time":140000000000,"state":"active","ping":80},{"user_id":366,"name":"ネート","steam_id":76561198212969373,"connected_time":2703000000000,"state":"active","ping":46},{"user_id":367,"name":"York","steam_id":76561198139501696,"connected_time":2677000000000,"state":"active","ping":71},{"user_id":352,"name":"noot noot","steam_id":76561198318446417,"connected_time":3571000000000,"state":"active","ping":126},{"user_id":392,"name":"Kuudere","steam_id":76561198075028016,"connected_time":252000000000,"state":"active","ping":87},{"user_id":390,"name":"BingBingAZ","steam_id":76561198353065343,"connected_time":649000000000,"state":"active","ping":72},{"user_id":333,"name":"FiddyFoMike","steam_id":76561198057072581,"connected_time":4580000000000,"state":"active","ping":45},{"user_id":376,"name":"Gnome Chompski","steam_id":76561198003130703,"connected_time":2044000000000,"state":"active","ping":122},{"user_id":382,"name":"Dino","steam_id":76561198283924923,"connected_time":784000000000,"state":"active","ping":73},{"user_id":354,"name":"Tummy Sunday","steam_id":76561198031336957,"connected_time":3528000000000,"state":"active","ping":97},{"user_id":359,"name":"Captain Buggy","steam_id":76561198024444448,"connected_time":3351000000000,"state":"active","ping":72},{"user_id":379,"name":"stump","steam_id":76561198012653832,"connected_time":1550000000000,"state":"active","ping":111},{"user_id":383,"name":"Jack Hayes","steam_id":76561198105914351,"connected_time":769000000000,"state":"active","ping":63},{"user_id":388,"name":"cory in the house","steam_id":76561198296933059,"connected_time":733000000000,"state":"active","ping":76},{"user_id":373,"name":"Zzyzx","steam_id":76561198143333194,"connected_time":2147000000000,"state":"active","ping":58},{"user_id":374,"name":"bullet man","steam_id":76561198080058079,"connected_time":2144000000000,"state":"active","ping":73},{"user_id":300,"name":"DeckofDragons","steam_id":76561198057398213,"connected_time":6154000000000,"state":"active","ping":85},{"user_id":375,"name":"peepeeroni","steam_id":76561198382877812,"connected_time":2114000000000,"state":"active","ping":77}]},{"server_id":18,"name":"Uncletopia | San Francisco | 2 | All Maps","name_short":"sfo-2","host":"sfo-1.us.uncletopia.com","port":27025,"enabled":true,"region":"us-west","cc":"us","latitude":37.77397,"longitude":-122.4313,"reserved":0,"last_update":"0001-01-01T00:00:00Z","name_a2s":"Uncletopia | San Francisco | 2 | All Maps","protocol":17,"map":"koth_viaduct","folder":"tf","game":"Team Fortress","app_id":440,"player_count":0,"max_players":24,"Bots":0,"server_type":"Dedicated","server_os":"Linux","password":true,"vac":true,"version":"7757534","steam_id":85568392924470000,"keywords":["cp","nocrits","nodmgspread","uncletopia"],"game_id":440,"stv_port":27026,"stv_name":"Uncletopia | San Francisco | 2 | All Maps | STV","players":null},{"server_id":19,"name":"Uncletopia | San Francisco | 3 | Stopwatch Beta","name_short":"sfo-3","host":"sfo-1.us.uncletopia.com","port":27035,"enabled":true,"region":"us-west","cc":"us","latitude":37.77397,"longitude":-122.4313,"reserved":0,"last_update":"0001-01-01T00:00:00Z","name_a2s":"Uncletopia | San Francisco | 3 | Stopwatch Beta","protocol":17,"map":"koth_viaduct","folder":"tf","game":"Team Fortress","app_id":440,"player_count":0,"max_players":24,"Bots":0,"server_type":"Dedicated","server_os":"Linux","password":true,"vac":true,"version":"7757534","steam_id":85568392924742824,"keywords":["cp","nocrits","nodmgspread","uncletopia"],"game_id":440,"stv_port":27036,"stv_name":"Uncletopia | San Francisco | 3 | Stopwatch Beta | STV","players":null},{"server_id":20,"name":"Uncletopia | San Francisco | 4 | Community","name_short":"sfo-4","host":"sfo-1.us.uncletopia.com","port":27045,"enabled":true,"region":"us-west","cc":"us","latitude":37.77397,"longitude":-122.4313,"reserved":0,"last_update":"0001-01-01T00:00:00Z","name_a2s":"Uncletopia | San Francisco | 4 | Community","protocol":17,"map":"workshop/koth_synthetic_rc6a.ugc1549817316","folder":"tf","game":"Team Fortress","app_id":440,"player_count":0,"max_players":24,"Bots":0,"server_type":"Dedicated","server_os":"Linux","password":true,"vac":true,"version":"7757534","steam_id":85568392924742826,"keywords":["cp","nocrits","nodmgspread","uncletopia"],"game_id":440,"stv_port":27046,"stv_name":"Uncletopia | San Francisco | 4 | Community | STV","players":null},{"server_id":141,"name":"Uncletopia | Sydney | 1 | All Maps","name_short":"syd-1","host":"syd-1.au.uncletopia.com","port":27015,"enabled":true,"region":"au","cc":"au","latitude":-33.865143,"longitude":151.2099,"reserved":0,"last_update":"0001-01-01T00:00:00Z","name_a2s":"Uncletopia | Sydney | 1 | All Maps","protocol":17,"map":"cp_dustbowl","folder":"tf","game":"Team Fortress","app_id":440,"player_count":24,"max_players":24,"Bots":0,"server_type":"Dedicated","server_os":"Linux","password":true,"vac":true,"version":"7757534","steam_id":85568392924470001,"keywords":["cp","nocrits","nodmgspread","uncletopia"],"game_id":440,"stv_port":27016,"stv_name":"Uncletopia | Sydney | 1 | All Maps | STV","players":[{"user_id":304,"name":"enoeht","steam_id":76561198054187483,"connected_time":518000000000,"state":"active","ping":65},{"user_id":234,"name":"Dr Rags","steam_id":76561198179481430,"connected_time":5651000000000,"state":"active","ping":90},{"user_id":254,"name":"DKC","steam_id":76561198313578155,"connected_time":4357000000000,"state":"active","ping":45},{"user_id":251,"name":"a fucking human","steam_id":76561199057568663,"connected_time":4714000000000,"state":"active","ping":57},{"user_id":295,"name":"chewy marmot","steam_id":76561198005340350,"connected_time":1071000000000,"state":"active","ping":75},{"user_id":306,"name":"Dr. Hoppity","steam_id":76561197999715646,"connected_time":492000000000,"state":"active","ping":69},{"user_id":296,"name":"᲼᲼᲼᲼᲼᲼","steam_id":76561198157618957,"connected_time":1058000000000,"state":"active","ping":154},{"user_id":309,"name":"Waltuh","steam_id":76561199059450243,"connected_time":51000000000,"state":"active","ping":58},{"user_id":297,"name":"shark lostworld","steam_id":76561198214534771,"connected_time":1034000000000,"state":"active","ping":45},{"user_id":292,"name":"҂Storm","steam_id":76561198073213264,"connected_time":1177000000000,"state":"active","ping":48},{"user_id":300,"name":"Pompadouraus","steam_id":76561198327530525,"connected_time":752000000000,"state":"active","ping":75},{"user_id":307,"name":"FIX","steam_id":76561197995157189,"connected_time":486000000000,"state":"active","ping":53},{"user_id":279,"name":"KillerBlow","steam_id":76561198930232832,"connected_time":2620000000000,"state":"active","ping":75},{"user_id":301,"name":"SkoKiE","steam_id":76561198283542986,"connected_time":745000000000,"state":"active","ping":67},{"user_id":242,"name":"FundaDunda","steam_id":76561198034113856,"connected_time":5053000000000,"state":"active","ping":49},{"user_id":290,"name":"le0","steam_id":76561197965566926,"connected_time":1348000000000,"state":"active","ping":35},{"user_id":262,"name":"Tнûи∂уяѕ∂.","steam_id":76561197992346511,"connected_time":3862000000000,"state":"active","ping":52},{"user_id":291,"name":"jrg","steam_id":76561197997362731,"connected_time":1280000000000,"state":"active","ping":50},{"user_id":270,"name":"ғ𝖔х","steam_id":76561198119447960,"connected_time":3373000000000,"state":"active","ping":89},{"user_id":302,"name":"MrMuffin16","steam_id":76561198257303774,"connected_time":736000000000,"state":"active","ping":61},{"user_id":157,"name":"EpicGuy4227","steam_id":76561198094132328,"connected_time":10543000000000,"state":"active","ping":51},{"user_id":269,"name":"Wake'n'Bake'n'Make'n'Bacon","steam_id":76561198061960926,"connected_time":3531000000000,"state":"active","ping":101},{"user_id":287,"name":"tank","steam_id":76561199047909641,"connected_time":2221000000000,"state":"active","ping":159},{"user_id":285,"name":"crack","steam_id":76561198077370413,"connected_time":2328000000000,"state":"active","ping":64}]},{"server_id":123,"name":"Uncletopia | Sydney | 2 | All Maps","name_short":"syd-2","host":"syd-1.au.uncletopia.com","port":27025,"enabled":true,"region":"au","cc":"au","latitude":-33.865143,"longitude":151.2099,"reserved":0,"last_update":"0001-01-01T00:00:00Z","name_a2s":"Uncletopia | Sydney | 2 | All Maps","protocol":17,"map":"pl_frontier_final","folder":"tf","game":"Team Fortress","app_id":440,"player_count":17,"max_players":24,"Bots":0,"server_type":"Dedicated","server_os":"Linux","password":true,"vac":true,"version":"7757534","steam_id":85568392924470002,"keywords":["nocrits","nodmgspread","payload","uncletopia"],"game_id":440,"stv_port":27026,"stv_name":"Uncletopia | Sydney | 2 | All Maps | STV","players":[{"user_id":215,"name":"Kumbya 3D","steam_id":76561198117979249,"connected_time":98000000000,"state":"active","ping":64},{"user_id":203,"name":"Mission","steam_id":76561199218935728,"connected_time":782000000000,"state":"active","ping":68},{"user_id":204,"name":"huey","steam_id":76561199069777966,"connected_time":572000000000,"state":"active","ping":67},{"user_id":165,"name":"Teenyman5","steam_id":76561198326425017,"connected_time":3718000000000,"state":"active","ping":60},{"user_id":216,"name":"Olivine","steam_id":76561198264087289,"connected_time":54000000000,"state":"spawning","ping":47},{"user_id":209,"name":"Dr Crazii","steam_id":76561198067775226,"connected_time":354000000000,"state":"active","ping":88},{"user_id":212,"name":"Doctor Estonia","steam_id":76561198057365089,"connected_time":226000000000,"state":"active","ping":71},{"user_id":200,"name":"wombraider","steam_id":76561199375834537,"connected_time":1148000000000,"state":"active","ping":127},{"user_id":191,"name":"ten thousand bees","steam_id":76561199099744527,"connected_time":1753000000000,"state":"active","ping":45},{"user_id":171,"name":"Vanessa","steam_id":76561198077728992,"connected_time":3442000000000,"state":"active","ping":66},{"user_id":160,"name":"ADUCK","steam_id":76561198249887912,"connected_time":3939000000000,"state":"active","ping":67},{"user_id":211,"name":"Hertog van Damme","steam_id":76561198152470958,"connected_time":280000000000,"state":"active","ping":56},{"user_id":202,"name":"Roy","steam_id":76561198152210509,"connected_time":1078000000000,"state":"active","ping":41},{"user_id":214,"name":"RocketsPrime","steam_id":76561198134936002,"connected_time":166000000000,"state":"active","ping":49},{"user_id":193,"name":"Zeal","steam_id":76561198060829393,"connected_time":1701000000000,"state":"active","ping":60},{"user_id":196,"name":"Lincoln2603","steam_id":76561198170236666,"connected_time":1574000000000,"state":"active","ping":30},{"user_id":184,"name":"StarFraud96","steam_id":76561198351146153,"connected_time":2221000000000,"state":"active","ping":70}]},{"server_id":395,"name":"Uncletopia | Sydney | 3 | All Maps","name_short":"syd-3","host":"syd-1.au.uncletopia.com","port":27035,"enabled":true,"region":"au","cc":"au","latitude":-33.865143,"longitude":151.2099,"reserved":0,"last_update":"0001-01-01T00:00:00Z","name_a2s":"Uncletopia | Sydney | 3 | All Maps","protocol":17,"map":"koth_highpass","folder":"tf","game":"Team Fortress","app_id":440,"player_count":0,"max_players":24,"Bots":0,"server_type":"Dedicated","server_os":"Linux","password":true,"vac":true,"version":"7757534","steam_id":85568392925194467,"keywords":["cp","nocrits","nodmgspread","uncletopia"],"game_id":440,"stv_port":27036,"stv_name":"Uncletopia | Sydney | 3 | All Maps | STV","players":null},{"server_id":396,"name":"Uncletopia | Sydney | 4 | All Maps","name_short":"syd-4","host":"syd-1.au.uncletopia.com","port":27045,"enabled":true,"region":"au","cc":"au","latitude":-33.865143,"longitude":151.2099,"reserved":0,"last_update":"0001-01-01T00:00:00Z","name_a2s":"Uncletopia | Sydney | 4 | All Maps","protocol":17,"map":"pl_pier","folder":"tf","game":"Team Fortress","app_id":440,"player_count":6,"max_players":24,"Bots":0,"server_type":"Dedicated","server_os":"Linux","password":true,"vac":true,"version":"7757534","steam_id":85568392925397958,"keywords":["nocrits","nodmgspread","payload","uncletopia"],"game_id":440,"stv_port":27046,"stv_name":"Uncletopia | Sydney | 4 | All Maps | STV","players":[{"user_id":7,"name":"Destoroyah","steam_id":76561199221698486,"connected_time":1304000000000,"state":"active","ping":43},{"user_id":8,"name":"Crowbn","steam_id":76561199426733557,"connected_time":1291000000000,"state":"active","ping":118},{"user_id":12,"name":"BLACK PIG","steam_id":76561199342910462,"connected_time":416000000000,"state":"active","ping":367},{"user_id":10,"name":"chimney","steam_id":76561198808724546,"connected_time":1058000000000,"state":"active","ping":62},{"user_id":13,"name":"floop flub","steam_id":76561198418968979,"connected_time":151000000000,"state":"active","ping":105},{"user_id":14,"name":"Bing Soy","steam_id":76561198057093383,"connected_time":39000000000,"state":"spawning","ping":40}]},{"server_id":58,"name":"Uncletopia | Sydney | 5 | Stopwatch Beta","name_short":"syd-5","host":"syd-1.au.uncletopia.com","port":27055,"enabled":true,"region":"au","cc":"au","latitude":-33.865143,"longitude":151.2099,"reserved":0,"last_update":"0001-01-01T00:00:00Z","name_a2s":"Uncletopia | Sydney | 5 | Stopwatch Beta","protocol":17,"map":"pl_barnblitz","folder":"tf","game":"Team Fortress","app_id":440,"player_count":0,"max_players":24,"Bots":0,"server_type":"Dedicated","server_os":"Linux","password":true,"vac":true,"version":"7757534","steam_id":85568392925397959,"keywords":["nocrits","nodmgspread","payload","uncletopia"],"game_id":440,"stv_port":27056,"stv_name":"Uncletopia | Sydney | 5 | Stopwatch Beta | STV","players":null},{"server_id":59,"name":"Uncletopia | Sydney | 6 | Community","name_short":"syd-6","host":"syd-1.au.uncletopia.com","port":27065,"enabled":true,"region":"au","cc":"au","latitude":-33.865143,"longitude":151.2099,"reserved":0,"last_update":"0001-01-01T00:00:00Z","name_a2s":"Uncletopia | Sydney | 6 | Community","protocol":17,"map":"workshop/koth_ashville_final.ugc2130459942","folder":"tf","game":"Team Fortress","app_id":440,"player_count":0,"max_players":24,"Bots":0,"server_type":"Dedicated","server_os":"Linux","password":true,"vac":true,"version":"7757534","steam_id":85568392925397960,"keywords":["cp","nocrits","nodmgspread","uncletopia"],"game_id":440,"stv_port":27066,"stv_name":"Uncletopia | Sydney | 6 | Community | STV","players":null},{"server_id":49,"name":"Uncletopia | Warsaw | 1 | All Maps","name_short":"waw-1","host":"waw-1.pl.uncletopia.com","port":27015,"enabled":true,"region":"eu","cc":"pl","latitude":52.2297,"longitude":21.017532,"reserved":0,"last_update":"0001-01-01T00:00:00Z","name_a2s":"","protocol":0,"map":"","folder":"","game":"","app_id":0,"player_count":0,"max_players":0,"Bots":0,"server_type":"","server_os":"","password":false,"vac":false,"version":"","steam_id":0,"keywords":null,"game_id":0,"stv_port":0,"stv_name":"","players":null},{"server_id":50,"name":"Uncletopia | Warsaw | 2 | All Maps","name_short":"waw-2","host":"waw-1.pl.uncletopia.com","port":27025,"enabled":true,"region":"eu","cc":"pl","latitude":52.2297,"longitude":21.017532,"reserved":0,"last_update":"0001-01-01T00:00:00Z","name_a2s":"Uncletopia | Warsaw | 2 | All Maps","protocol":17,"map":"cp_snakewater_final1","folder":"tf","game":"Team Fortress","app_id":440,"player_count":0,"max_players":24,"Bots":0,"server_type":"Dedicated","server_os":"Linux","password":true,"vac":true,"version":"7757534","steam_id":85568392925397851,"keywords":["cp","nocrits","nodmgspread","uncletopia"],"game_id":440,"stv_port":27026,"stv_name":"Uncletopia | Warsaw | 2 | All Maps | STV","players":null},{"server_id":51,"name":"Uncletopia | Warsaw | 3 | All Maps","name_short":"waw-3","host":"waw-1.pl.uncletopia.com","port":27035,"enabled":true,"region":"eu","cc":"pl","latitude":52.2297,"longitude":21.017532,"reserved":0,"last_update":"0001-01-01T00:00:00Z","name_a2s":"Uncletopia | Warsaw | 3 | All Maps","protocol":17,"map":"cp_sunshine","folder":"tf","game":"Team Fortress","app_id":440,"player_count":0,"max_players":24,"Bots":0,"server_type":"Dedicated","server_os":"Linux","password":true,"vac":true,"version":"7757534","steam_id":85568392925397852,"keywords":["cp","nocrits","nodmgspread","uncletopia"],"game_id":440,"stv_port":27036,"stv_name":"Uncletopia | Warsaw | 3 | All Maps | STV","players":null},{"server_id":52,"name":"Uncletopia | Warsaw | 4 | All Maps","name_short":"waw-4","host":"waw-1.pl.uncletopia.com","port":27045,"enabled":true,"region":"eu","cc":"pl","latitude":52.2297,"longitude":21.017532,"reserved":0,"last_update":"0001-01-01T00:00:00Z","name_a2s":"Uncletopia | Warsaw | 4 | All Maps","protocol":17,"map":"pl_borneo","folder":"tf","game":"Team Fortress","app_id":440,"player_count":0,"max_players":24,"Bots":0,"server_type":"Dedicated","server_os":"Linux","password":true,"vac":true,"version":"7757534","steam_id":85568392925397853,"keywords":["nocrits","nodmgspread","payload","uncletopia"],"game_id":440,"stv_port":27046,"stv_name":"Uncletopia | Warsaw | 4 | All Maps | STV","players":null},{"server_id":53,"name":"Uncletopia | Warsaw | 5 | Stopwatch Beta","name_short":"waw-5","host":"waw-1.pl.uncletopia.com","port":27055,"enabled":true,"region":"eu","cc":"pl","latitude":52.2297,"longitude":21.017532,"reserved":0,"last_update":"0001-01-01T00:00:00Z","name_a2s":"Uncletopia | Warsaw | 5 | Stopwatch Beta","protocol":17,"map":"pl_upward","folder":"tf","game":"Team Fortress","app_id":440,"player_count":0,"max_players":24,"Bots":0,"server_type":"Dedicated","server_os":"Linux","password":true,"vac":true,"version":"7757534","steam_id":85568392925397854,"keywords":["nocrits","nodmgspread","payload","uncletopia"],"game_id":440,"stv_port":27056,"stv_name":"Uncletopia | Warsaw | 5 | Stopwatch Beta | STV","players":null},{"server_id":54,"name":"Uncletopia | Warsaw | 6 | Community","name_short":"waw-6","host":"waw-1.pl.uncletopia.com","port":27065,"enabled":true,"region":"eu","cc":"pl","latitude":52.2297,"longitude":21.017532,"reserved":0,"last_update":"0001-01-01T00:00:00Z","name_a2s":"Uncletopia | Warsaw | 6 | Community","protocol":17,"map":"pl_barnblitz","folder":"tf","game":"Team Fortress","app_id":440,"player_count":0,"max_players":24,"Bots":0,"server_type":"Dedicated","server_os":"Linux","password":true,"vac":true,"version":"7757534","steam_id":85568392925397856,"keywords":["nocrits","nodmgspread","payload","uncletopia"],"game_id":440,"stv_port":27066,"stv_name":"Uncletopia | Warsaw | 6 | Community | STV","players":null}]}