{"status":true,"message":"","result":[{"server_id":9,"name":"Uncletopia | Atlanta | 1 | All Maps","name_short":"atl-1","host":"atl-1.us.uncletopia.com","port":27015,"enabled":true,"region":"us-east","cc":"us","latitude":33.753746,"longitude":-84.38633,"reserved":0,"last_update":"0001-01-01T00:00:00Z","name_a2s":"Uncletopia | Atlanta | 1 | All Maps","protocol":17,"map":"pl_pier","folder":"tf","game":"Team Fortress","app_id":440,"player_count":23,"max_players":24,"Bots":0,"server_type":"Dedicated","server_os":"Linux","password":true,"vac":true,"version":"7882260","steam_id":85568392924469982,"keywords":["nocrits","nodmgspread","payload","uncletopia"],"game_id":440,"stv_port":27016,"stv_name":"Uncletopia | Atlanta | 1 | All Maps | STV","players":[{"user_id":503,"name":"Albino Jellyfish","steam_id":76561198208561097,"connected_time":4747000000000,"state":"active","ping":64},{"user_id":512,"name":"bkiller","steam_id":76561198029265697,"connected_time":2954000000000,"state":"active","ping":61},{"user_id":376,"name":"Intro Bonito","steam_id":76561198119478838,"connected_time":12636000000000,"state":"active","ping":45},{"user_id":529,"name":"Ghetto Smosh Fan","steam_id":76561198097272509,"connected_time":1163000000000,"state":"active","ping":32},{"user_id":523,"name":"BIG HOG","steam_id":76561198079923652,"connected_time":1562000000000,"state":"active","ping":73},{"user_id":499,"name":"Galactamarx","steam_id":76561198028065755,"connected_time":5295000000000,"state":"active","ping":84},{"user_id":525,"name":"Modeus","steam_id":76561199228751836,"connected_time":1554000000000,"state":"active","ping":57},{"user_id":538,"name":"DragonFalcon™","steam_id":76561198044559930,"connected_time":6000000000,"state":"spawning","ping":57},{"user_id":534,"name":"Mr. Dick™","steam_id":76561198047309044,"connected_time":665000000000,"state":"active","ping":42},{"user_id":504,"name":"Winston","steam_id":76561198050204475,"connected_time":4382000000000,"state":"active","ping":49},{"user_id":502,"name":"Pumbloom","steam_id":76561198024481281,"connected_time":5115000000000,"state":"active","ping":45},{"user_id":473,"name":"Save your wifi","steam_id":76561198286147372,"connected_time":6462000000000,"state":"active","ping":61},{"user_id":513,"name":"Wheat Box","steam_id":76561198203443358,"connected_time":2918000000000,"state":"active","ping":81},{"user_id":379,"name":"cola","steam_id":76561198374390458,"connected_time":12620000000000,"state":"active","ping":60},{"user_id":532,"name":"Eddy","steam_id":76561198088889421,"connected_time":729000000000,"state":"active","ping":85},{"user_id":535,"name":"Panckakebro","steam_id":76561198106419992,"connected_time":341000000000,"state":"active","ping":88},{"user_id":494,"name":"lil hog","steam_id":76561199230929836,"connected_time":5970000000000,"state":"active","ping":73},{"user_id":475,"name":"Jabawakai","steam_id":76561198088881254,"connected_time":6401000000000,"state":"active","ping":71},{"user_id":537,"name":"basmati jarate","steam_id":76561198319442494,"connected_time":89000000000,"state":"active","ping":100},{"user_id":536,"name":"adiosToreador","steam_id":76561198297961039,"connected_time":320000000000,"state":"active","ping":98},{"user_id":505,"name":"[Janitor] SuperFlexMan","steam_id":76561198075382445,"connected_time":4281000000000,"state":"active","ping":64},{"user_id":528,"name":"jin","steam_id":76561198119873148,"connected_time":1491000000000,"state":"active","ping":67},{"user_id":522,"name":"totoro","steam_id":76561198210420871,"connected_time":1595000000000,"state":"active","ping":64}]},{"server_id":104,"name":"Uncletopia | Atlanta | 2 | All Maps","name_short":"atl-2","host":"atl-1.us.uncletopia.com","port":27025,"enabled":true,"region":"us-east","cc":"us","latitude":33.753746,"longitude":-84.38633,"reserved":0,"last_update":"0001-01-01T00:00:00Z","name_a2s":"Uncletopia | Atlanta | 2 | All Maps","protocol":17,"map":"pl_upward","folder":"tf","game":"Team Fortress","app_id":440,"player_count":23,"max_players":24,"Bots":0,"server_type":"Dedicated","server_os":"Linux","password":true,"vac":true,"version":"7882260","steam_id":85568392924469983,"keywords":["nocrits","nodmgspread","payload","uncletopia"],"game_id":440,"stv_port":27026,"stv_name":"Uncletopia | Atlanta | 2 | All Maps | STV","players":[{"user_id":511,"name":"boy from the rafters","steam_id":76561198042926224,"connected_time":1723000000000,"state":"active","ping":72},{"user_id":494,"name":"ALB","steam_id":76561198041496496,"connected_time":3142000000000,"state":"active","ping":74},{"user_id":425,"name":"Gamerdude313","steam_id":76561198869211435,"connected_time":8114000000000,"state":"active","ping":70},{"user_id":527,"name":"Azuras","steam_id":76561198156416843,"connected_time":1009000000000,"state":"active","ping":66},{"user_id":533,"name":"ᕕ( ᐛ )ᕗ Wakko","steam_id":76561198049850471,"connected_time":66000000000,"state":"active","ping":64},{"user_id":476,"name":"Literally Printer Jesus","steam_id":76561198093687962,"connected_time":3791000000000,"state":"active","ping":105},{"user_id":526,"name":"lokm","steam_id":76561198030374238,"connected_time":1186000000000,"state":"active","ping":114},{"user_id":534,"name":"Iron Argus","steam_id":76561198181088245,"connected_time":24000000000,"state":"spawning","ping":72},{"user_id":528,"name":"IronGiant","steam_id":76561198062139190,"connected_time":803000000000,"state":"active","ping":95},{"user_id":535,"name":"A Shiny Meat Bicycle","steam_id":76561198358757709,"connected_time":6000000000,"state":"spawning","ping":91},{"user_id":525,"name":"Noctis","steam_id":76561198845208323,"connected_time":1297000000000,"state":"active","ping":72},{"user_id":514,"name":"Wookiee","steam_id":76561198139642742,"connected_time":1657000000000,"state":"active","ping":74},{"user_id":447,"name":"highschool drop-out","steam_id":76561198366299848,"connected_time":5893000000000,"state":"active","ping":45},{"user_id":515,"name":"Mg330","steam_id":76561199438395728,"connected_time":1604000000000,"state":"active","ping":89},{"user_id":532,"name":"lester375jimenez","steam_id":76561199301390498,"connected_time":376000000000,"state":"active","ping":91},{"user_id":508,"name":"orange","steam_id":76561198272694642,"connected_time":2240000000000,"state":"active","ping":59},{"user_id":529,"name":"kris ♥","steam_id":76561198134746536,"connected_time":654000000000,"state":"active","ping":163},{"user_id":486,"name":"gorf?","steam_id":76561198142286417,"connected_time":3370000000000,"state":"active","ping":72},{"user_id":484,"name":"tux","steam_id":76561198167746330,"connected_time":3603000000000,"state":"active","ping":45},{"user_id":524,"name":"crayonnipple","steam_id":76561198070253331,"connected_time":1420000000000,"state":"active","ping":76},{"user_id":521,"name":"kree","steam_id":76561197979960008,"connected_time":1477000000000,"state":"active","ping":74},{"user_id":522,"name":"G_Bob","steam_id":76561198098133233,"connected_time":1467000000000,"state":"active","ping":54},{"user_id":493,"name":"wunkem","steam_id":76561198055948497,"connected_time":3171000000000,"state":"active","ping":77}]},{"server_id":400,"name":"Uncletopia | Atlanta | 3 | Community","name_short":"atl-3","host":"atl-1.us.uncletopia.com","port":27035,"enabled":true,"region":"us-east","cc":"us","latitude":33.753746,"longitude":-84.38633,"reserved":0,"last_update":"0001-01-01T00:00:00Z","name_a2s":"Uncletopia | Atlanta | 3 | Community","protocol":17,"map":"workshop/koth_trenchfoot_b1a.ugc731436616","folder":"tf","game":"Team Fortress","app_id":440,"player_count":0,"max_players":24,"Bots":0,"server_type":"Dedicated","server_os":"Linux","password":true,"vac":true,"version":"7882260","steam_id":85568392924515187,"keywords":["cp","nocrits","nodmgspread","uncletopia"],"game_id":440,"stv_port":27036,"stv_name":"Uncletopia | Atlanta | 3 | Community | STV","players":null},{"server_id":401,"name":"Uncletopia | Atlanta | 4 | No Payload","name_short":"atl-4","host":"atl-1.us.uncletopia.com","port":27045,"enabled":true,"region":"us-east","cc":"us","latitude":33.753746,"longitude":-84.38633,"reserved":0,"last_update":"0001-01-01T00:00:00Z","name_a2s":"","protocol":0,"map":"","folder":"","game":"","app_id":0,"player_count":0,"max_players":0,"Bots":0,"server_type":"","server_os":"","password":false,"vac":false,"version":"","steam_id":0,"keywords":null,"game_id":0,"stv_port":0,"stv_name":"","players":null},{"server_id":2,"name":"Uncletopia | Chicago | 1 | All Maps","name_short":"chi-1","host":"chi-1.us.uncletopia.com","port":27015,"enabled":true,"region":"us-central","cc":"us","latitude":41.881832,"longitude":-87.62318,"reserved":0,"last_update":"0001-01-01T00:00:00Z","name_a2s":"Uncletopia | Chicago | 1 | All Maps","protocol":17,"map":"pl_badwater","folder":"tf","game":"Team Fortress","app_id":440,"player_count":24,"max_players":24,"Bots":0,"server_type":"Dedicated","server_os":"Linux","password":true,"vac":true,"version":"7882260","steam_id":85568392924469984,"keywords":["nocrits","nodmgspread","payload","uncletopia"],"game_id":440,"stv_port":27016,"stv_name":"Uncletopia | Chicago | 1 | All Maps | STV","players":[{"user_id":625,"name":"ROGUE-PLANET","steam_id":76561198116023052,"connected_time":1426000000000,"state":"active","ping":65},{"user_id":629,"name":"Raz","steam_id":76561198002426150,"connected_time":1288000000000,"state":"active","ping":70},{"user_id":639,"name":"Suez","steam_id":76561198034642980,"connected_time":928000000000,"state":"active","ping":77},{"user_id":640,"name":"Blitzy","steam_id":76561198149472890,"connected_time":906000000000,"state":"active","ping":75},{"user_id":568,"name":"tidal47","steam_id":76561198219084819,"connected_time":5275000000000,"state":"active","ping":77},{"user_id":627,"name":"Local","steam_id":76561198069537437,"connected_time":1338000000000,"state":"active","ping":105},{"user_id":512,"name":"Iceman10a","steam_id":76561198171922098,"connected_time":9108000000000,"state":"active","ping":115},{"user_id":628,"name":"Human Person","steam_id":76561198283855440,"connected_time":1320000000000,"state":"active","ping":78},{"user_id":598,"name":"GIGAHAXX","steam_id":76561197993714726,"connected_time":3706000000000,"state":"active","ping":60},{"user_id":605,"name":"Sableye","steam_id":76561198061247147,"connected_time":3128000000000,"state":"active","ping":70},{"user_id":614,"name":"tools","steam_id":76561199010542612,"connected_time":3047000000000,"state":"active","ping":52},{"user_id":631,"name":"c9","steam_id":76561198136642793,"connected_time":1273000000000,"state":"active","ping":71},{"user_id":504,"name":"Takyon","steam_id":76561198172075186,"connected_time":10415000000000,"state":"active","ping":177},{"user_id":612,"name":"pauldog","steam_id":76561198966277057,"connected_time":3069000000000,"state":"active","ping":104},{"user_id":650,"name":"Frontier Psychiatrist","steam_id":76561198038689088,"connected_time":680000000000,"state":"active","ping":88},{"user_id":641,"name":"ryan","steam_id":76561198139411911,"connected_time":901000000000,"state":"active","ping":76},{"user_id":654,"name":"m yfrogs","steam_id":76561198371149432,"connected_time":590000000000,"state":"active","ping":47},{"user_id":642,"name":"Tohubohu","steam_id":76561198077838448,"connected_time":896000000000,"state":"active","ping":115},{"user_id":632,"name":"WHY U RUNNIN PAPI","steam_id":76561198144766439,"connected_time":1263000000000,"state":"active","ping":45},{"user_id":643,"name":"xxa","steam_id":76561197984735021,"connected_time":889000000000,"state":"active","ping":77},{"user_id":657,"name":"Shakey","steam_id":76561198012340821,"connected_time":418000000000,"state":"active","ping":147},{"user_id":652,"name":"Argi","steam_id":76561198061535721,"connected_time":672000000000,"state":"active","ping":74},{"user_id":653,"name":"opengldll","steam_id":76561198444608551,"connected_time":662000000000,"state":"active","ping":192},{"user_id":655,"name":"Stanley Yelnats","steam_id":76561198088571112,"connected_time":531000000000,"state":"active","ping":114}]},{"server_id":106,"name":"Uncletopia | Chicago | 2 | All Maps","name_short":"chi-2","host":"chi-1.us.uncletopia.com","port":27025,"enabled":true,"region":"us-central","cc":"us","latitude":41.881832,"longitude":-87.62318,"reserved":0,"last_update":"0001-01-01T00:00:00Z","name_a2s":"Uncletopia | Chicago | 2 | All Maps","protocol":17,"map":"pl_badwater","folder":"tf","game":"Team Fortress","app_id":440,"player_count":23,"max_players":24,"Bots":0,"server_type":"Dedicated","server_os":"Linux","password":true,"vac":true,"version":"7882260","steam_id":85568392924469985,"keywords":["nocrits","nodmgspread","payload","uncletopia"],"game_id":440,"stv_port":27026,"stv_name":"Uncletopia | Chicago | 2 | All Maps | STV","players":[{"user_id":311,"name":"Bliztank | RGL.gg","steam_id":76561198019252798,"connected_time":6973000000000,"state":"active","ping":56},{"user_id":370,"name":"TheGhostThatWas","steam_id":76561198055836483,"connected_time":2127000000000,"state":"active","ping":60},{"user_id":386,"name":"[SWE]solsson","steam_id":76561198152176457,"connected_time":1387000000000,"state":"active","ping":145},{"user_id":397,"name":"lanoc","steam_id":76561198055415367,"connected_time":754000000000,"state":"active","ping":55},{"user_id":393,"name":"aishteru","steam_id":76561198126358045,"connected_time":1093000000000,"state":"active","ping":88},{"user_id":339,"name":"sithreis","steam_id":76561198000564263,"connected_time":5235000000000,"state":"active","ping":63},{"user_id":400,"name":"Nobody","steam_id":76561198160544586,"connected_time":419000000000,"state":"active","ping":74},{"user_id":377,"name":"skosgo -eg","steam_id":76561197996403345,"connected_time":1699000000000,"state":"active","ping":94},{"user_id":350,"name":"Rose","steam_id":76561198955581861,"connected_time":3921000000000,"state":"active","ping":100},{"user_id":402,"name":"bwuce ree","steam_id":76561198038080028,"connected_time":75000000000,"state":"active","ping":90},{"user_id":389,"name":"Merchant","steam_id":76561198130468663,"connected_time":1339000000000,"state":"active","ping":59},{"user_id":396,"name":"ATL1 | yumyum","steam_id":76561198150567198,"connected_time":800000000000,"state":"active","ping":60},{"user_id":398,"name":"Average Caber Fan","steam_id":76561199451299044,"connected_time":694000000000,"state":"active","ping":84},{"user_id":384,"name":"_","steam_id":76561198191199554,"connected_time":1544000000000,"state":"active","ping":63},{"user_id":363,"name":"Sean Bae","steam_id":76561198036909521,"connected_time":3238000000000,"state":"active","ping":84},{"user_id":399,"name":"vi","steam_id":76561198388123421,"connected_time":419000000000,"state":"active","ping":105},{"user_id":316,"name":"java","steam_id":76561198030276792,"connected_time":6775000000000,"state":"active","ping":60},{"user_id":401,"name":"yomommasabitch","steam_id":76561198323217150,"connected_time":197000000000,"state":"active","ping":72},{"user_id":381,"name":"Jianoc","steam_id":76561198010019214,"connected_time":1660000000000,"state":"active","ping":45},{"user_id":390,"name":"my money washed like george","steam_id":76561198115458307,"connected_time":1334000000000,"state":"active","ping":104},{"user_id":391,"name":"ottoman","steam_id":76561198407056645,"connected_time":1326000000000,"state":"active","ping":71},{"user_id":327,"name":"pretentious_filmmaker","steam_id":76561198042444734,"connected_time":5919000000000,"state":"active","ping":75},{"user_id":395,"name":"HolyHitbox","steam_id":76561198071723763,"connected_time":825000000000,"state":"active","ping":55}]},{"server_id":402,"name":"Uncletopia | Chicago | 3 | All Maps","name_short":"chi-3","host":"chi-1.us.uncletopia.com","port":27035,"enabled":true,"region":"us-central","cc":"us","latitude":41.881832,"longitude":-87.62318,"reserved":0,"last_update":"0001-01-01T00:00:00Z","name_a2s":"Uncletopia | Chicago | 3 | All Maps","protocol":17,"map":"pl_snowycoast","folder":"tf","game":"Team Fortress","app_id":440,"player_count":24,"max_players":24,"Bots":0,"server_type":"Dedicated","server_os":"Linux","password":true,"vac":true,"version":"7882260","steam_id":85568392924515191,"keywords":["nocrits","nodmgspread","payload","uncletopia"],"game_id":440,"stv_port":27036,"stv_name":"Uncletopia | Chicago | 3 | All Maps | STV","players":[{"user_id":388,"name":"Codo Sapien","steam_id":76561198014206810,"connected_time":1530000000000,"state":"active","ping":31},{"user_id":389,"name":"Lore","steam_id":76561198098407538,"connected_time":1517000000000,"state":"active","ping":45},{"user_id":384,"name":"BBOSensei","steam_id":76561198071548190,"connected_time":2861000000000,"state":"active","ping":63},{"user_id":410,"name":"firstlastmcgee","steam_id":76561198170187989,"connected_time":211000000000,"state":"active","ping":62},{"user_id":402,"name":"CookieFox","steam_id":76561198401204010,"connected_time":635000000000,"state":"active","ping":86},{"user_id":411,"name":"objective permanence","steam_id":76561198050393061,"connected_time":204000000000,"state":"active","ping":73},{"user_id":361,"name":"griff928","steam_id":76561198149614679,"connected_time":4825000000000,"state":"active","ping":49},{"user_id":412,"name":"trolling","steam_id":76561199234198045,"connected_time":143000000000,"state":"active","ping":64},{"user_id":399,"name":"Lift_","steam_id":76561198863467430,"connected_time":806000000000,"state":"active","ping":63},{"user_id":385,"name":"totally not a pile of beans","steam_id":76561198119851931,"connected_time":2357000000000,"state":"active","ping":80},{"user_id":381,"name":"Shades McKenzie","steam_id":76561198007051107,"connected_time":3173000000000,"state":"active","ping":59},{"user_id":382,"name":"Technic","steam_id":76561198200302281,"connected_time":2977000000000,"state":"active","ping":74},{"user_id":398,"name":"cataconik","steam_id":76561198145530829,"connected_time":855000000000,"state":"active","ping":80},{"user_id":413,"name":"Elite_Friendly","steam_id":76561198819972127,"connected_time":137000000000,"state":"active","ping":100},{"user_id":392,"name":"DO NOT call me BART SIMPSON!!","steam_id":76561198069113375,"connected_time":1497000000000,"state":"active","ping":69},{"user_id":414,"name":"MEdeev","steam_id":76561198165381710,"connected_time":99000000000,"state":"active","ping":60},{"user_id":323,"name":"Mr. Crispy Lips","steam_id":76561198028157625,"connected_time":7904000000000,"state":"active","ping":88},{"user_id":415,"name":"GuyGoom","steam_id":76561198254522178,"connected_time":94000000000,"state":"active","ping":58},{"user_id":401,"name":"The Assistant Regional Manager","steam_id":76561199221484936,"connected_time":721000000000,"state":"active","ping":113},{"user_id":369,"name":"Blobbyfish","steam_id":76561198822962650,"connected_time":4683000000000,"state":"active","ping":67},{"user_id":416,"name":"Wizard Raccoon","steam_id":76561198072562591,"connected_time":76000000000,"state":"active","ping":81},{"user_id":417,"name":"a hedgehog","steam_id":76561198019010682,"connected_time":23000000000,"state":"active","ping":46},{"user_id":340,"name":"pee pee poo poo","steam_id":76561198930017260,"connected_time":6497000000000,"state":"active","ping":135},{"user_id":407,"name":"ARGON Soulidity","steam_id":76561198429603550,"connected_time":501000000000,"state":"active","ping":85}]},{"server_id":403,"name":"Uncletopia | Chicago | 4 | All Maps","name_short":"chi-4","host":"chi-1.us.uncletopia.com","port":27045,"enabled":true,"region":"us-central","cc":"us","latitude":41.881832,"longitude":-87.62318,"reserved":0,"last_update":"0001-01-01T00:00:00Z","name_a2s":"Uncletopia | Chicago | 4 | All Maps","protocol":17,"map":"pl_frontier_final","folder":"tf","game":"Team Fortress","app_id":440,"player_count":24,"max_players":24,"Bots":0,"server_type":"Dedicated","server_os":"Linux","password":true,"vac":true,"version":"7882260","steam_id":85568392924515193,"keywords":["nocrits","nodmgspread","payload","uncletopia"],"game_id":440,"stv_port":27046,"stv_name":"Uncletopia | Chicago | 4 | All Maps | STV","players":[{"user_id":414,"name":"Six Piece Chicken McNobody","steam_id":76561198129848222,"connected_time":1470000000000,"state":"active","ping":63},{"user_id":418,"name":"gromit","steam_id":76561198037746805,"connected_time":1194000000000,"state":"active","ping":69},{"user_id":371,"name":"JayArr","steam_id":76561198124371253,"connected_time":5091000000000,"state":"active","ping":44},{"user_id":389,"name":"Maxxycat","steam_id":76561198194062681,"connected_time":3563000000000,"state":"active","ping":56},{"user_id":417,"name":"NewerCoke","steam_id":76561198042911847,"connected_time":1254000000000,"state":"active","ping":80},{"user_id":391,"name":"apple pie","steam_id":76561198073215150,"connected_time":3247000000000,"state":"active","ping":61},{"user_id":419,"name":"Ermine","steam_id":76561198072831312,"connected_time":1140000000000,"state":"active","ping":50},{"user_id":412,"name":"greeno","steam_id":76561198109901138,"connected_time":1593000000000,"state":"active","ping":75},{"user_id":376,"name":"bill","steam_id":76561199142779872,"connected_time":4627000000000,"state":"active","ping":68},{"user_id":397,"name":"Horrizan","steam_id":76561197965028480,"connected_time":2789000000000,"state":"active","ping":84},{"user_id":429,"name":"DeanAdamFry","steam_id":76561198054153160,"connected_time":257000000000,"state":"active","ping":140},{"user_id":420,"name":"bong water","steam_id":76561198880398499,"connected_time":1136000000000,"state":"active","ping":59},{"user_id":421,"name":"RagingRoosevelt","steam_id":76561197985483153,"connected_time":1128000000000,"state":"active","ping":105},{"user_id":392,"name":":)","steam_id":76561198093921290,"connected_time":3215000000000,"state":"active","ping":44},{"user_id":364,"name":"Spike","steam_id":76561198141356571,"connected_time":5437000000000,"state":"active","ping":59},{"user_id":422,"name":"noblehallett","steam_id":76561197990994280,"connected_time":1122000000000,"state":"active","ping":112},{"user_id":403,"name":"yurty","steam_id":76561198036307721,"connected_time":2648000000000,"state":"active","ping":61},{"user_id":428,"name":"A Lil Guy","steam_id":76561198135662712,"connected_time":682000000000,"state":"active","ping":96},{"user_id":424,"name":"Jezzus","steam_id":76561199289676387,"connected_time":1054000000000,"state":"active","ping":88},{"user_id":425,"name":"VOICES IN MY HEAD","steam_id":76561198357238486,"connected_time":852000000000,"state":"active","ping":60},{"user_id":409,"name":"porz","steam_id":76561198195711453,"connected_time":2090000000000,"state":"active","ping":59},{"user_id":411,"name":"blossom","steam_id":76561198042735130,"connected_time":1607000000000,"state":"active","ping":112},{"user_id":408,"name":"bron jame","steam_id":76561198202195792,"connected_time":2388000000000,"state":"active","ping":59},{"user_id":413,"name":"im terrified","steam_id":76561198072179483,"connected_time":1588000000000,"state":"active","ping":84}]},{"server_id":36,"name":"Uncletopia | Chicago | 5 | All Maps","name_short":"chi-5","host":"chi-2.us.uncletopia.com","port":27015,"enabled":true,"region":"us-central","cc":"us","latitude":41.881832,"longitude":-87.62318,"reserved":0,"last_update":"0001-01-01T00:00:00Z","name_a2s":"Uncletopia | Chicago | 5 | All Maps","protocol":17,"map":"koth_lakeside_final","folder":"tf","game":"Team Fortress","app_id":440,"player_count":0,"max_players":24,"Bots":0,"server_type":"Dedicated","server_os":"Linux","password":true,"vac":true,"version":"7882260","steam_id":85568392924866362,"keywords":["cp","nocrits","nodmgspread","uncletopia"],"game_id":440,"stv_port":27016,"stv_name":"Uncletopia | Chicago | 5 | All Maps | STV","players":null},{"server_id":37,"name":"Uncletopia | Chicago | 6 | All Maps","name_short":"chi-6","host":"chi-2.us.uncletopia.com","port":27025,"enabled":true,"region":"us-central","cc":"us","latitude":41.881832,"longitude":-87.62318,"reserved":0,"last_update":"0001-01-01T00:00:00Z","name_a2s":"Uncletopia | Chicago | 6 | All Maps","protocol":17,"map":"pl_snowycoast","folder":"tf","game":"Team Fortress","app_id":440,"player_count":16,"max_players":24,"Bots":0,"server_type":"Dedicated","server_os":"Linux","password":true,"vac":true,"version":"7882260","steam_id":85568392924866363,"keywords":["nocrits","nodmgspread","payload","uncletopia"],"game_id":440,"stv_port":27026,"stv_name":"Uncletopia | Chicago | 6 | All Maps | STV","players":[{"user_id":847,"name":"Nova","steam_id":76561198421340963,"connected_time":331000000000,"state":"active","ping":65},{"user_id":805,"name":"mikhail","steam_id":76561198242175530,"connected_time":3814000000000,"state":"active","ping":69},{"user_id":848,"name":"›› 1dayumay","steam_id":76561198218719943,"connected_time":262000000000,"state":"active","ping":90},{"user_id":837,"name":"Spillprnz","steam_id":76561198082337619,"connected_time":726000000000,"state":"active","ping":67},{"user_id":804,"name":"Atlas (Skylar)","steam_id":76561198041531774,"connected_time":3860000000000,"state":"active","ping":54},{"user_id":844,"name":"A Cuddly Bunny","steam_id":76561198062791613,"connected_time":470000000000,"state":"active","ping":86},{"user_id":849,"name":"thatbedrockblock","steam_id":76561199069286524,"connected_time":35000000000,"state":"active","ping":97},{"user_id":850,"name":"Sh3ba Spaniel","steam_id":76561198047412394,"connected_time":32000000000,"state":"active","ping":72},{"user_id":783,"name":"souljaboytellem.com","steam_id":76561198111975583,"connected_time":5608000000000,"state":"active","ping":73},{"user_id":839,"name":"milo","steam_id":76561199061380038,"connected_time":633000000000,"state":"active","ping":60},{"user_id":803,"name":"bojack from the show bojack hor","steam_id":76561198053006712,"connected_time":3967000000000,"state":"active","ping":59},{"user_id":830,"name":"gamer","steam_id":76561199092043420,"connected_time":1299000000000,"state":"active","ping":102},{"user_id":817,"name":"The Announcer's Feet","steam_id":76561199443456893,"connected_time":3480000000000,"state":"active","ping":75},{"user_id":818,"name":"ApertureCity","steam_id":76561198004153607,"connected_time":3404000000000,"state":"active","ping":88},{"user_id":786,"name":"Monster","steam_id":76561198189429665,"connected_time":5590000000000,"state":"active","ping":73},{"user_id":820,"name":"Townze","steam_id":76561198081827165,"connected_time":2748000000000,"state":"active","ping":54}]},{"server_id":38,"name":"Uncletopia | Chicago | 7 | Stopwatch Beta","name_short":"chi-7","host":"chi-2.us.uncletopia.com","port":27035,"enabled":true,"region":"us-central","cc":"us","latitude":41.881832,"longitude":-87.62318,"reserved":0,"last_update":"0001-01-01T00:00:00Z","name_a2s":"Uncletopia | Chicago | 7 | Stopwatch Beta","protocol":17,"map":"cp_granary","folder":"tf","game":"Team Fortress","app_id":440,"player_count":0,"max_players":24,"Bots":0,"server_type":"Dedicated","server_os":"Linux","password":true,"vac":true,"version":"7882260","steam_id":85568392924866364,"keywords":["cp","nocrits","nodmgspread","uncletopia"],"game_id":440,"stv_port":27036,"stv_name":"Uncletopia | Chicago | 7 | Stopwatch Beta | STV","players":null},{"server_id":39,"name":"Uncletopia | Chicago | 8 | Community","name_short":"chi-8","host":"chi-2.us.uncletopia.com","port":27045,"enabled":true,"region":"us-central","cc":"us","latitude":41.881832,"longitude":-87.62318,"reserved":0,"last_update":"0001-01-01T00:00:00Z","name_a2s":"Uncletopia | Chicago | 8 | Community","protocol":17,"map":"workshop/koth_product_final.ugc454272353","folder":"tf","game":"Team Fortress","app_id":440,"player_count":21,"max_players":24,"Bots":0,"server_type":"Dedicated","server_os":"Linux","password":true,"vac":true,"version":"7882260","steam_id":85568392924866365,"keywords":["cp","nocrits","nodmgspread","uncletopia"],"game_id":440,"stv_port":27046,"stv_name":"Uncletopia | Chicago | 8 | Community | STV","players":[{"user_id":284,"name":"toastman","steam_id":76561198207073088,"connected_time":97000000000,"state":"active","ping":62},{"user_id":251,"name":"So Hygienic! Washed gamer","steam_id":76561198321627268,"connected_time":3220000000000,"state":"active","ping":112},{"user_id":257,"name":"Tom Crúaich","steam_id":76561197999439911,"connected_time":3000000000000,"state":"active","ping":70},{"user_id":249,"name":"PinguEnjoyer6","steam_id":76561199186723516,"connected_time":3319000000000,"state":"active","ping":92},{"user_id":242,"name":"mu","steam_id":76561197997530228,"connected_time":4019000000000,"state":"active","ping":106},{"user_id":20,"name":"spreadable arse","steam_id":76561198032259680,"connected_time":14977000000000,"state":"active","ping":70},{"user_id":205,"name":"don't leave her waiting","steam_id":76561198103496593,"connected_time":7269000000000,"state":"active","ping":62},{"user_id":279,"name":"wilmer el versatil","steam_id":76561198155393832,"connected_time":477000000000,"state":"active","ping":142},{"user_id":280,"name":"LumaDooma","steam_id":76561198076875817,"connected_time":467000000000,"state":"active","ping":60},{"user_id":281,"name":"Stoofy","steam_id":76561198280750328,"connected_time":418000000000,"state":"active","ping":90},{"user_id":248,"name":"Reisen Udongein Inaba","steam_id":76561198051082314,"connected_time":3829000000000,"state":"active","ping":105},{"user_id":275,"name":"helikopter","steam_id":76561198881026292,"connected_time":1183000000000,"state":"active","ping":68},{"user_id":285,"name":"map tr_ctap_practice","steam_id":76561198249206656,"connected_time":88000000000,"state":"active","ping":57},{"user_id":228,"name":"Buckshot","steam_id":76561198312838299,"connected_time":5388000000000,"state":"active","ping":77},{"user_id":286,"name":"jump_apex_b1","steam_id":76561198092135570,"connected_time":88000000000,"state":"active","ping":60},{"user_id":283,"name":"b1twoo3","steam_id":76561198159287614,"connected_time":294000000000,"state":"active","ping":108},{"user_id":287,"name":"jump_beef","steam_id":76561198079416036,"connected_time":68000000000,"state":"active","ping":44},{"user_id":288,"name":"jeremiahlah111","steam_id":76561198815937776,"connected_time":18000000000,"state":"active","ping":56},{"user_id":259,"name":"teafital","steam_id":76561198406252824,"connected_time":2932000000000,"state":"active","ping":105},{"user_id":277,"name":"Goofball","steam_id":76561198074189084,"connected_time":1067000000000,"state":"active","ping":59},{"user_id":232,"name":"Mathatguy","steam_id":76561198225432188,"connected_time":5204000000000,"state":"active","ping":95}]},{"server_id":8,"name":"Uncletopia | Dallas | 1 | All Maps","name_short":"dal-1","host":"dal-1.us.uncletopia.com","port":27015,"enabled":true,"region":"us-central","cc":"us","latitude":32.779167,"longitude":-96.80889,"reserved":0,"last_update":"0001-01-01T00:00:00Z","name_a2s":"Uncletopia | Dallas | 1 | All Maps","protocol":17,"map":"pl_barnblitz","folder":"tf","game":"Team Fortress","app_id":440,"player_count":24,"max_players":24,"Bots":0,"server_type":"Dedicated","server_os":"Linux","password":true,"vac":true,"version":"7882260","steam_id":85568392924469986,"keywords":["nocrits","nodmgspread","payload","uncletopia"],"game_id":440,"stv_port":27016,"stv_name":"Uncletopia | Dallas | 1 | All Maps | STV","players":[{"user_id":417,"name":"MeMyBongusAndTheGreatOutdoors","steam_id":76561198097708978,"connected_time":3081000000000,"state":"active","ping":46},{"user_id":451,"name":"Bungus Stormblessed","steam_id":76561198121357619,"connected_time":512000000000,"state":"active","ping":56},{"user_id":458,"name":"MetalTao","steam_id":76561198189408110,"connected_time":251000000000,"state":"active","ping":110},{"user_id":432,"name":"AgenT BendeR RodrigueZ","steam_id":76561197962498428,"connected_time":1889000000000,"state":"active","ping":92},{"user_id":429,"name":"♠Silver♠","steam_id":76561198206109224,"connected_time":2462000000000,"state":"active","ping":183},{"user_id":452,"name":"Emberformula","steam_id":76561198171526119,"connected_time":472000000000,"state":"active","ping":57},{"user_id":445,"name":"InvaderAlex","steam_id":76561198039232451,"connected_time":964000000000,"state":"active","ping":65},{"user_id":404,"name":"Sods","steam_id":76561198010204565,"connected_time":4238000000000,"state":"active","ping":40},{"user_id":428,"name":"NexFrost","steam_id":76561197985774837,"connected_time":2465000000000,"state":"active","ping":43},{"user_id":460,"name":"Jezebel","steam_id":76561198315484462,"connected_time":158000000000,"state":"active","ping":61},{"user_id":389,"name":"hunterzar","steam_id":76561198347666725,"connected_time":5979000000000,"state":"active","ping":85},{"user_id":453,"name":"Sarbanes-Oxley","steam_id":76561197975898479,"connected_time":459000000000,"state":"active","ping":55},{"user_id":457,"name":"I regret nothing","steam_id":76561198399261089,"connected_time":309000000000,"state":"active","ping":77},{"user_id":448,"name":"bunny girl bimbo!","steam_id":76561198122027532,"connected_time":857000000000,"state":"active","ping":82},{"user_id":446,"name":"ThugSlug","steam_id":76561198086098047,"connected_time":908000000000,"state":"active","ping":78},{"user_id":454,"name":"Shamrock Shake Oct.10.2020 @8pm","steam_id":76561198833313201,"connected_time":438000000000,"state":"active","ping":110},{"user_id":449,"name":"dorcelessness","steam_id":76561198097427947,"connected_time":645000000000,"state":"active","ping":125},{"user_id":450,"name":"Antifa Supersoldier","steam_id":76561198141816516,"connected_time":563000000000,"state":"active","ping":46},{"user_id":430,"name":"SPREAD SPRING GROWTH AND WARMTH","steam_id":76561198800386026,"connected_time":2068000000000,"state":"active","ping":97},{"user_id":455,"name":"makeshift_burrito","steam_id":76561198042510825,"connected_time":417000000000,"state":"active","ping":95},{"user_id":421,"name":"Prophet","steam_id":76561198134948582,"connected_time":2978000000000,"state":"active","ping":114},{"user_id":456,"name":"Neophyte","steam_id":76561198027183394,"connected_time":393000000000,"state":"active","ping":89},{"user_id":459,"name":"CheeseLikeSubstance","steam_id":76561197977170646,"connected_time":197000000000,"state":"active","ping":75}]},{"server_id":108,"name":"Uncletopia | Dallas | 2 | All Maps","name_short":"dal-2","host":"dal-1.us.uncletopia.com","port":27025,"enabled":true,"region":"us-central","cc":"us","latitude":32.779167,"longitude":-96.80889,"reserved":0,"last_update":"0001-01-01T00:00:00Z","name_a2s":"Uncletopia | Dallas | 2 | All Maps","protocol":17,"map":"pl_upward","folder":"tf","game":"Team Fortress","app_id":440,"player_count":24,"max_players":24,"Bots":0,"server_type":"Dedicated","server_os":"Linux","password":true,"vac":true,"version":"7882260","steam_id":85568392924469988,"keywords":["nocrits","nodmgspread","payload","uncletopia"],"game_id":440,"stv_port":27026,"stv_name":"Uncletopia | Dallas | 2 | All Maps | STV","players":[{"user_id":486,"name":"Zero","steam_id":76561199383267408,"connected_time":3233000000000,"state":"active","ping":57},{"user_id":403,"name":"CreepyCook","steam_id":76561198242874622,"connected_time":8587000000000,"state":"active","ping":58},{"user_id":510,"name":"gundog","steam_id":76561198063240044,"connected_time":1385000000000,"state":"active","ping":60},{"user_id":511,"name":"Big Dick Swinging","steam_id":76561198053819929,"connected_time":1363000000000,"state":"active","ping":70},{"user_id":445,"name":"SpecialForce19","steam_id":76561198120974644,"connected_time":4836000000000,"state":"active","ping":97},{"user_id":515,"name":"bladee is the 5th beatle","steam_id":76561198984612489,"connected_time":933000000000,"state":"active","ping":79},{"user_id":457,"name":"Rear Admiral Crunch","steam_id":76561198020007558,"connected_time":3719000000000,"state":"active","ping":59},{"user_id":518,"name":"Bikeway Naros","steam_id":76561198086676786,"connected_time":187000000000,"state":"active","ping":79},{"user_id":484,"name":"Glover75","steam_id":76561198045960273,"connected_time":3257000000000,"state":"active","ping":93},{"user_id":513,"name":"Manic","steam_id":76561198128149670,"connected_time":1331000000000,"state":"active","ping":45},{"user_id":501,"name":"Iron","steam_id":76561198247918478,"connected_time":1803000000000,"state":"active","ping":71},{"user_id":496,"name":"aiming with drawing tablet","steam_id":76561198397662124,"connected_time":2188000000000,"state":"active","ping":66},{"user_id":516,"name":"I'm better then u","steam_id":76561198937717599,"connected_time":323000000000,"state":"active","ping":37},{"user_id":522,"name":"090-nsalih","steam_id":76561199467467873,"connected_time":56000000000,"state":"active","ping":211},{"user_id":443,"name":"it's peanut time","steam_id":76561198236028020,"connected_time":5165000000000,"state":"active","ping":101},{"user_id":500,"name":"dicksnip","steam_id":76561198356515396,"connected_time":1821000000000,"state":"active","ping":60},{"user_id":447,"name":"Faraday","steam_id":76561198089928357,"connected_time":4828000000000,"state":"active","ping":53},{"user_id":517,"name":"acceleяator","steam_id":76561198046842513,"connected_time":319000000000,"state":"active","ping":80},{"user_id":466,"name":"Sorrow","steam_id":76561198050225563,"connected_time":3665000000000,"state":"active","ping":70},{"user_id":514,"name":"ChottoAMinute","steam_id":76561198873157775,"connected_time":1290000000000,"state":"active","ping":41},{"user_id":482,"name":"Blake Belladonna","steam_id":76561198010169911,"connected_time":3459000000000,"state":"active","ping":80},{"user_id":495,"name":"cornealvase9152","steam_id":76561198851958868,"connected_time":2318000000000,"state":"active","ping":86},{"user_id":509,"name":"Commissar","steam_id":76561198137223253,"connected_time":1422000000000,"state":"active","ping":55},{"user_id":523,"name":"EleventhGoose","steam_id":76561198912390211,"connected_time":2000000000,"state":"spawning","ping":66}]},{"server_id":5,"name":"Uncletopia | Frankfurt | 1 | All Maps","name_short":"frk-1","host":"frk-1.de.uncletopia.com","port":27015,"enabled":true,"region":"eu","cc":"de","latitude":50.110924,"longitude":8.682127,"reserved":0,"last_update":"0001-01-01T00:00:00Z","name_a2s":"Uncletopia | Frankfurt | 1 | All Maps","protocol":17,"map":"cp_process_final","folder":"tf","game":"Team Fortress","app_id":440,"player_count":0,"max_players":24,"Bots":0,"server_type":"Dedicated","server_os":"Linux","password":true,"vac":true,"version":"7882260","steam_id":85568392924469989,"keywords":["cp","nocrits","nodmgspread","uncletopia"],"game_id":440,"stv_port":27016,"stv_name":"Uncletopia | Frankfurt | 1 | All Maps | STV","players":null},{"server_id":110,"name":"Uncletopia | Frankfurt | 2 | All Maps","name_short":"frk-2","host":"frk-1.de.uncletopia.com","port":27025,"enabled":true,"region":"eu","cc":"de","latitude":50.110924,"longitude":8.682127,"reserved":0,"last_update":"0001-01-01T00:00:00Z","name_a2s":"Uncletopia | Frankfurt | 2 | All Maps","protocol":17,"map":"pl_swiftwater_final1","folder":"tf","game":"Team Fortress","app_id":440,"player_count":0,"max_players":24,"Bots":0,"server_type":"Dedicated","server_os":"Linux","password":true,"vac":true,"version":"7882260","steam_id":85568392924469990,"keywords":["nocrits","nodmgspread","payload","uncletopia"],"game_id":440,"stv_port":27026,"stv_name":"Uncletopia | Frankfurt | 2 | All Maps | STV","players":null},{"server_id":308,"name":"Uncletopia | Frankfurt | 3 | All Maps","name_short":"frk-3","host":"frk-1.de.uncletopia.com","port":27035,"enabled":true,"region":"eu","cc":"de","latitude":50.110924,"longitude":8.682127,"reserved":0,"last_update":"0001-01-01T00:00:00Z","name_a2s":"Uncletopia | Frankfurt | 3 | All Maps","protocol":17,"map":"pl_snowycoast","folder":"tf","game":"Team Fortress","app_id":440,"player_count":0,"max_players":24,"Bots":0,"server_type":"Dedicated","server_os":"Linux","password":true,"vac":true,"version":"7882260","steam_id":85568392924504274,"keywords":["nocrits","nodmgspread","payload","uncletopia"],"game_id":440,"stv_port":27036,"stv_name":"Uncletopia | Frankfurt | 3 | All Maps | STV","players":null},{"server_id":309,"name":"Uncletopia | Frankfurt | 4 | All Maps","name_short":"frk-4","host":"frk-1.de.uncletopia.com","port":27045,"enabled":true,"region":"eu","cc":"de","latitude":50.110924,"longitude":8.682127,"reserved":0,"last_update":"0001-01-01T00:00:00Z","name_a2s":"Uncletopia | Frankfurt | 4 | All Maps","protocol":17,"map":"pl_pier","folder":"tf","game":"Team Fortress","app_id":440,"player_count":6,"max_players":24,"Bots":0,"server_type":"Dedicated","server_os":"Linux","password":true,"vac":true,"version":"7882260","steam_id":85568392924504275,"keywords":["nocrits","nodmgspread","payload","uncletopia"],"game_id":440,"stv_port":27046,"stv_name":"Uncletopia | Frankfurt | 4 | All Maps | STV","players":[{"user_id":13,"name":"john fortress the second","steam_id":76561198110198881,"connected_time":1089000000000,"state":"active","ping":60},{"user_id":19,"name":"chopsticks","steam_id":76561198045899345,"connected_time":119000000000,"state":"active","ping":90},{"user_id":14,"name":"i ate joe borgar","steam_id":76561198377966913,"connected_time":749000000000,"state":"active","ping":95},{"user_id":16,"name":"dorak","steam_id":76561198818037965,"connected_time":539000000000,"state":"active","ping":111},{"user_id":18,"name":"in the balls","steam_id":76561199146501937,"connected_time":361000000000,"state":"active","ping":65},{"user_id":9,"name":"gebycoks","steam_id":76561199259198472,"connected_time":3131000000000,"state":"active","ping":64}]},{"server_id":310,"name":"Uncletopia | Frankfurt | 5 | All Maps","name_short":"frk-5","host":"frk-1.de.uncletopia.com","port":27055,"enabled":true,"region":"eu","cc":"de","latitude":50.110924,"longitude":8.682127,"reserved":0,"last_update":"0001-01-01T00:00:00Z","name_a2s":"Uncletopia | Frankfurt | 5 | All Maps","protocol":17,"map":"cp_mountainlab","folder":"tf","game":"Team Fortress","app_id":440,"player_count":0,"max_players":24,"Bots":0,"server_type":"Dedicated","server_os":"Linux","password":true,"vac":true,"version":"7882260","steam_id":85568392924504277,"keywords":["cp","nocrits","nodmgspread","uncletopia"],"game_id":440,"stv_port":27056,"stv_name":"Uncletopia | Frankfurt | 5 | All Maps | STV","players":null},{"server_id":311,"name":"Uncletopia | Frankfurt | 6 | All Maps","name_short":"frk-6","host":"frk-1.de.uncletopia.com","port":27065,"enabled":true,"region":"eu","cc":"de","latitude":50.110924,"longitude":8.682127,"reserved":0,"last_update":"0001-01-01T00:00:00Z","name_a2s":"Uncletopia | Frankfurt | 6 | All Maps","protocol":17,"map":"pl_badwater","folder":"tf","game":"Team Fortress","app_id":440,"player_count":0,"max_players":24,"Bots":0,"server_type":"Dedicated","server_os":"Linux","password":true,"vac":true,"version":"7882260","steam_id":85568392924504278,"keywords":["nocrits","nodmgspread","payload","uncletopia"],"game_id":440,"stv_port":27066,"stv_name":"Uncletopia | Frankfurt | 6 | All Maps | STV","players":null},{"server_id":23,"name":"Uncletopia | Frankfurt | 7 | Stopwatch Beta","name_short":"frk-7","host":"frk-1.de.uncletopia.com","port":27075,"enabled":true,"region":"eu","cc":"de","latitude":50.110924,"longitude":8.682127,"reserved":0,"last_update":"0001-01-01T00:00:00Z","name_a2s":"Uncletopia | Frankfurt | 7 | Stopwatch Beta","protocol":17,"map":"cp_dustbowl","folder":"tf","game":"Team Fortress","app_id":440,"player_count":0,"max_players":24,"Bots":0,"server_type":"Dedicated","server_os":"Linux","password":true,"vac":true,"version":"7882260","steam_id":85568392924742827,"keywords":["cp","nocrits","nodmgspread","uncletopia"],"game_id":440,"stv_port":27076,"stv_name":"Uncletopia | Frankfurt | 7 | Stopwatch Beta | STV","players":null},{"server_id":24,"name":"Uncletopia | Frankfurt | 8 | Community","name_short":"frk-8","host":"frk-1.de.uncletopia.com","port":27085,"enabled":true,"region":"eu","cc":"de","latitude":50.110924,"longitude":8.682127,"reserved":0,"last_update":"0001-01-01T00:00:00Z","name_a2s":"Uncletopia | Frankfurt | 8 | Community","protocol":17,"map":"koth_cascade","folder":"tf","game":"Team Fortress","app_id":440,"player_count":0,"max_players":24,"Bots":0,"server_type":"Dedicated","server_os":"Linux","password":true,"vac":true,"version":"7882260","steam_id":85568392924742828,"keywords":["cp","nocrits","nodmgspread","uncletopia"],"game_id":440,"stv_port":27086,"stv_name":"Uncletopia | Frankfurt | 8 | Community | STV","players":null},{"server_id":202,"name":"Uncletopia | Hong Kong | 1 | All Maps","name_short":"hgk-1","host":"hgk-1.hk.uncletopia.com","port":27015,"enabled":true,"region":"asia","cc":"hk","latitude":22.302711,"longitude":114.177216,"reserved":0,"last_update":"0001-01-01T00:00:00Z","name_a2s":"Uncletopia | Hong Kong | 1 | All Maps","protocol":17,"map":"pl_pier","folder":"tf","game":"Team Fortress","app_id":440,"player_count":9,"max_players":24,"Bots":0,"server_type":"Dedicated","server_os":"Linux","password":true,"vac":true,"version":"7882260","steam_id":85568392924494504,"keywords":["nocrits","nodmgspread","payload","uncletopia"],"game_id":440,"stv_port":27016,"stv_name":"Uncletopia | Hong Kong | 1 | All Maps | STV","players":[{"user_id":11,"name":"RP birdzz","steam_id":76561198318077734,"connected_time":4362000000000,"state":"active","ping":60},{"user_id":26,"name":"ellz71","steam_id":76561199216074568,"connected_time":606000000000,"state":"active","ping":123},{"user_id":25,"name":"Water Buffalo","steam_id":76561198200672038,"connected_time":665000000000,"state":"active","ping":91},{"user_id":16,"name":"TheChainsaw","steam_id":76561198312001455,"connected_time":3108000000000,"state":"active","ping":106},{"user_id":27,"name":"cstr","steam_id":76561198125946388,"connected_time":519000000000,"state":"active","ping":93},{"user_id":24,"name":"Zach Rabaznaz","steam_id":76561198842547633,"connected_time":1419000000000,"state":"active","ping":115},{"user_id":30,"name":"Bad dental hygiene","steam_id":76561198332177411,"connected_time":234000000000,"state":"active","ping":67},{"user_id":29,"name":"Incompertent mercenaries","steam_id":76561198386626651,"connected_time":272000000000,"state":"active","ping":50}]},{"server_id":1,"name":"Uncletopia | Los Angeles | 1 | All Maps","name_short":"lax-1","host":"lax-1.us.uncletopia.com","port":27015,"enabled":true,"region":"us-west","cc":"us","latitude":33.94279,"longitude":-118.41004,"reserved":0,"last_update":"0001-01-01T00:00:00Z","name_a2s":"Uncletopia | Los Angeles | 1 | All Maps","protocol":17,"map":"cp_dustbowl","folder":"tf","game":"Team Fortress","app_id":440,"player_count":24,"max_players":24,"Bots":0,"server_type":"Dedicated","server_os":"Linux","password":true,"vac":true,"version":"7882260","steam_id":85568392924469991,"keywords":["cp","nocrits","nodmgspread","uncletopia"],"game_id":440,"stv_port":27016,"stv_name":"Uncletopia | Los Angeles | 1 | All Maps | STV","players":[{"user_id":366,"name":"Mateo The Social Engineer","steam_id":76561199199772083,"connected_time":2253000000000,"state":"active","ping":78},{"user_id":289,"name":"cp_dustbowl","steam_id":76561198087574100,"connected_time":7952000000000,"state":"active","ping":52},{"user_id":296,"name":"usedhalfcart","steam_id":76561198072621852,"connected_time":7843000000000,"state":"active","ping":76},{"user_id":363,"name":"Throws Before Bros󠀡","steam_id":76561197992905530,"connected_time":2541000000000,"state":"active","ping":66},{"user_id":317,"name":"Lonlily","steam_id":76561198130418647,"connected_time":6171000000000,"state":"active","ping":62},{"user_id":360,"name":"RagingBagon","steam_id":76561198255453127,"connected_time":2939000000000,"state":"active","ping":42},{"user_id":346,"name":"Waffle_Hunter","steam_id":76561198220675860,"connected_time":3958000000000,"state":"active","ping":71},{"user_id":371,"name":"noellehound","steam_id":76561198108844158,"connected_time":1686000000000,"state":"active","ping":55},{"user_id":361,"name":"June","steam_id":76561198141803658,"connected_time":2578000000000,"state":"active","ping":48},{"user_id":278,"name":"Miro","steam_id":76561198936412406,"connected_time":9199000000000,"state":"active","ping":129},{"user_id":375,"name":"luigiclub","steam_id":76561198180548194,"connected_time":1148000000000,"state":"active","ping":78},{"user_id":353,"name":"I am NOT a Spy","steam_id":76561199153596010,"connected_time":3898000000000,"state":"active","ping":99},{"user_id":356,"name":"2 for $3.50 McChickens","steam_id":76561198089908660,"connected_time":3667000000000,"state":"active","ping":58},{"user_id":372,"name":"charley","steam_id":76561198828238339,"connected_time":1567000000000,"state":"active","ping":72},{"user_id":354,"name":"Balerion the Black Dread","steam_id":76561198003728369,"connected_time":3866000000000,"state":"active","ping":52},{"user_id":270,"name":"fire","steam_id":76561198044354279,"connected_time":9543000000000,"state":"active","ping":45},{"user_id":379,"name":"The Engie Before Christmas","steam_id":76561199049493869,"connected_time":409000000000,"state":"active","ping":66},{"user_id":351,"name":"Rinsworth","steam_id":76561198071110753,"connected_time":3898000000000,"state":"active","ping":53},{"user_id":368,"name":"Archie","steam_id":76561198137112917,"connected_time":2011000000000,"state":"active","ping":59},{"user_id":377,"name":"[S]Mr. X [No Monitor]","steam_id":76561197963746035,"connected_time":670000000000,"state":"active","ping":106},{"user_id":323,"name":"Specter the Unchained","steam_id":76561198348354629,"connected_time":5849000000000,"state":"active","ping":39},{"user_id":293,"name":"Taco+Taco=Burrito","steam_id":76561198063128663,"connected_time":7925000000000,"state":"active","ping":44},{"user_id":374,"name":"Richard_MF_Nixon","steam_id":76561198011398728,"connected_time":1175000000000,"state":"active","ping":87},{"user_id":328,"name":"Mythical Lag","steam_id":76561198347031281,"connected_time":5699000000000,"state":"active","ping":77}]},{"server_id":112,"name":"Uncletopia | Los Angeles | 2 | All Maps","name_short":"lax-2","host":"lax-1.us.uncletopia.com","port":27025,"enabled":true,"region":"us-west","cc":"us","latitude":33.94279,"longitude":-118.41004,"reserved":0,"last_update":"0001-01-01T00:00:00Z","name_a2s":"Uncletopia | Los Angeles | 2 | All Maps","protocol":17,"map":"koth_cascade","folder":"tf","game":"Team Fortress","app_id":440,"player_count":9,"max_players":24,"Bots":0,"server_type":"Dedicated","server_os":"Linux","password":true,"vac":true,"version":"7882260","steam_id":85568392924469992,"keywords":["cp","nocrits","nodmgspread","uncletopia"],"game_id":440,"stv_port":27026,"stv_name":"Uncletopia | Los Angeles | 2 | All Maps | STV","players":[{"user_id":275,"name":"Cypress [ +/- ] ✔","steam_id":76561198067164431,"connected_time":1423000000000,"state":"active","ping":31},{"user_id":290,"name":"moe","steam_id":76561198929586245,"connected_time":368000000000,"state":"active","ping":45},{"user_id":291,"name":"Misty Blu ✿","steam_id":76561198011442255,"connected_time":125000000000,"state":"active","ping":42},{"user_id":292,"name":"HOG RIDER","steam_id":76561198298589502,"connected_time":112000000000,"state":"active","ping":46},{"user_id":251,"name":"jorts","steam_id":76561199041179985,"connected_time":4250000000000,"state":"active","ping":87},{"user_id":281,"name":"Whyamidoingthisaaaa","steam_id":76561199168837342,"connected_time":821000000000,"state":"active","ping":112},{"user_id":229,"name":"smeasly","steam_id":76561198028718812,"connected_time":5576000000000,"state":"active","ping":75},{"user_id":265,"name":"drrockso20[MicS]","steam_id":76561198001003987,"connected_time":2462000000000,"state":"active","ping":50},{"user_id":279,"name":"Manchurian Bandit","steam_id":76561198072410042,"connected_time":1009000000000,"state":"active","ping":54}]},{"server_id":324,"name":"Uncletopia | Los Angeles | 3 | All Maps","name_short":"lax-3","host":"lax-1.us.uncletopia.com","port":27035,"enabled":true,"region":"us-west","cc":"us","latitude":33.94279,"longitude":-118.41004,"reserved":0,"last_update":"0001-01-01T00:00:00Z","name_a2s":"Uncletopia | Los Angeles | 3 | All Maps","protocol":17,"map":"pl_barnblitz","folder":"tf","game":"Team Fortress","app_id":440,"player_count":12,"max_players":24,"Bots":0,"server_type":"Dedicated","server_os":"Linux","password":true,"vac":true,"version":"7882260","steam_id":85568392924510198,"keywords":["nocrits","nodmgspread","payload","uncletopia"],"game_id":440,"stv_port":27036,"stv_name":"Uncletopia | Los Angeles | 3 | All Maps | STV","players":[{"user_id":298,"name":"A UsedNom","steam_id":76561198402832756,"connected_time":5032000000000,"state":"active","ping":42},{"user_id":338,"name":"SQbuilder","steam_id":76561198076473375,"connected_time":1990000000000,"state":"active","ping":39},{"user_id":331,"name":"An00bis","steam_id":76561198044084508,"connected_time":2989000000000,"state":"connecting","ping":197},{"user_id":354,"name":"odran","steam_id":76561199122931272,"connected_time":48000000000,"state":"active","ping":184},{"user_id":347,"name":"Jazpy","steam_id":76561198036872545,"connected_time":599000000000,"state":"active","ping":73},{"user_id":339,"name":"SanitysEdge","steam_id":76561198130732813,"connected_time":1851000000000,"state":"active","ping":42},{"user_id":320,"name":"Racist Pyro","steam_id":76561198016168993,"connected_time":3426000000000,"state":"active","ping":81},{"user_id":329,"name":"SleeplessCollin","steam_id":76561198968140914,"connected_time":3039000000000,"state":"active","ping":52},{"user_id":248,"name":"Diesel","steam_id":76561198448815852,"connected_time":8425000000000,"state":"active","ping":59},{"user_id":324,"name":"Ian","steam_id":76561198159334435,"connected_time":3304000000000,"state":"active","ping":165},{"user_id":322,"name":"MonkeyNobody","steam_id":76561199451266605,"connected_time":3419000000000,"state":"active","ping":54},{"user_id":348,"name":"Walmus","steam_id":76561198111416393,"connected_time":504000000000,"state":"active","ping":55}]},{"server_id":25,"name":"Uncletopia | Los Angeles | 4 | Stopwatch Beta","name_short":"lax-4","host":"lax-1.us.uncletopia.com","port":27045,"enabled":true,"region":"us-west","cc":"us","latitude":33.94279,"longitude":-118.41004,"reserved":0,"last_update":"0001-01-01T00:00:00Z","name_a2s":"Uncletopia | Los Angeles | 4 | Stopwatch Beta","protocol":17,"map":"workshop/koth_bagel_rc6.ugc2514036946","folder":"tf","game":"Team Fortress","app_id":440,"player_count":11,"max_players":24,"Bots":0,"server_type":"Dedicated","server_os":"Linux","password":true,"vac":true,"version":"7882260","steam_id":85568392924510199,"keywords":["cp","nocrits","nodmgspread","uncletopia"],"game_id":440,"stv_port":27046,"stv_name":"Uncletopia | Los Angeles | 4 | Stopwatch Beta | STV","players":[{"user_id":30,"name":"Mori \u003c3","steam_id":76561198418561352,"connected_time":1064000000000,"state":"active","ping":48},{"user_id":31,"name":"J","steam_id":76561198267494572,"connected_time":899000000000,"state":"active","ping":71},{"user_id":32,"name":"DoubleCheck","steam_id":76561198105194407,"connected_time":896000000000,"state":"active","ping":88},{"user_id":21,"name":"THEQUIRKA (ALL CAPS ARC)","steam_id":76561198968058652,"connected_time":1973000000000,"state":"active","ping":76},{"user_id":40,"name":"[TC] Lag","steam_id":76561198983494186,"connected_time":295000000000,"state":"active","ping":106},{"user_id":22,"name":"FrAnK (iDfK ArC)","steam_id":76561198428759980,"connected_time":1956000000000,"state":"active","ping":60},{"user_id":23,"name":"amoeber","steam_id":76561198081564767,"connected_time":1949000000000,"state":"active","ping":76},{"user_id":24,"name":"that guy (lowercase mode)","steam_id":76561198851266251,"connected_time":1946000000000,"state":"active","ping":79},{"user_id":28,"name":"Genō from Fortnite","steam_id":76561199303762112,"connected_time":1175000000000,"state":"active","ping":106},{"user_id":29,"name":"Genesukt64","steam_id":76561199107398982,"connected_time":1146000000000,"state":"active","ping":70},{"user_id":36,"name":"Jovi Boy","steam_id":76561198046605691,"connected_time":579000000000,"state":"active","ping":59}]},{"server_id":11,"name":"Uncletopia | London | 1 | All Maps","name_short":"lon-1","host":"lon-1.uk.uncletopia.com","port":27015,"enabled":true,"region":"eu","cc":"gb","latitude":51.509865,"longitude":-0.118092,"reserved":0,"last_update":"0001-01-01T00:00:00Z","name_a2s":"Uncletopia | London | 1 | All Maps","protocol":17,"map":"pl_snowycoast","folder":"tf","game":"Team Fortress","app_id":440,"player_count":0,"max_players":24,"Bots":0,"server_type":"Dedicated","server_os":"Linux","password":true,"vac":true,"version":"7882260","steam_id":85568392924367362,"keywords":["nocrits","nodmgspread","payload","uncletopia"],"game_id":440,"stv_port":27016,"stv_name":"Uncletopia | London | 1 | All Maps | STV","players":null},{"server_id":114,"name":"Uncletopia | London | 2 | All Maps","name_short":"lon-2","host":"lon-1.uk.uncletopia.com","port":27025,"enabled":true,"region":"eu","cc":"gb","latitude":51.509865,"longitude":-0.118092,"reserved":0,"last_update":"0001-01-01T00:00:00Z","name_a2s":"Uncletopia | London | 2 | All Maps","protocol":17,"map":"koth_viaduct","folder":"tf","game":"Team Fortress","app_id":440,"player_count":0,"max_players":24,"Bots":0,"server_type":"Dedicated","server_os":"Linux","password":true,"vac":true,"version":"7882260","steam_id":85568392924470941,"keywords":["cp","nocrits","nodmgspread","uncletopia"],"game_id":440,"stv_port":27026,"stv_name":"Uncletopia | London | 2 | All Maps | STV","players":null},{"server_id":320,"name":"Uncletopia | London | 3 | All Maps","name_short":"lon-3","host":"lon-1.uk.uncletopia.com","port":27035,"enabled":true,"region":"eu","cc":"gb","latitude":51.509865,"longitude":-0.118092,"reserved":0,"last_update":"0001-01-01T00:00:00Z","name_a2s":"Uncletopia | London | 3 | All Maps","protocol":17,"map":"koth_cascade","folder":"tf","game":"Team Fortress","app_id":440,"player_count":0,"max_players":24,"Bots":0,"server_type":"Dedicated","server_os":"Linux","password":true,"vac":true,"version":"7882260","steam_id":85568392924510192,"keywords":["cp","nocrits","nodmgspread","uncletopia"],"game_id":440,"stv_port":27036,"stv_name":"Uncletopia | London | 3 | All Maps | STV","players":null},{"server_id":321,"name":"Uncletopia | London | 4 | All Maps","name_short":"lon-4","host":"lon-1.uk.uncletopia.com","port":27045,"enabled":true,"region":"eu","cc":"gb","latitude":51.509865,"longitude":-0.118092,"reserved":0,"last_update":"0001-01-01T00:00:00Z","name_a2s":"Uncletopia | London | 4 | All Maps","protocol":17,"map":"cp_mountainlab","folder":"tf","game":"Team Fortress","app_id":440,"player_count":0,"max_players":24,"Bots":0,"server_type":"Dedicated","server_os":"Linux","password":true,"vac":true,"version":"7882260","steam_id":85568392924510193,"keywords":["cp","nocrits","nodmgspread","uncletopia"],"game_id":440,"stv_port":27046,"stv_name":"Uncletopia | London | 4 | All Maps | STV","players":null},{"server_id":21,"name":"Uncletopia | London | 5 | All Maps","name_short":"lon-5","host":"lon-1.uk.uncletopia.com","port":27055,"enabled":true,"region":"eu","cc":"gb","latitude":51.509865,"longitude":-0.118092,"reserved":0,"last_update":"0001-01-01T00:00:00Z","name_a2s":"Uncletopia | London | 5 | All Maps","protocol":17,"map":"koth_lakeside_final","folder":"tf","game":"Team Fortress","app_id":440,"player_count":0,"max_players":24,"Bots":0,"server_type":"Dedicated","server_os":"Linux","password":true,"vac":true,"version":"7882260","steam_id":85568392924742829,"keywords":["cp","nocrits","nodmgspread","uncletopia"],"game_id":440,"stv_port":27056,"stv_name":"Uncletopia | London | 5 | All Maps | STV","players":null},{"server_id":22,"name":"Uncletopia | London | 6 | All Maps","name_short":"lon-6","host":"lon-1.uk.uncletopia.com","port":27065,"enabled":true,"region":"eu","cc":"gb","latitude":51.509865,"longitude":-0.118092,"reserved":0,"last_update":"0001-01-01T00:00:00Z","name_a2s":"Uncletopia | London | 6 | All Maps","protocol":17,"map":"koth_highpass","folder":"tf","game":"Team Fortress","app_id":440,"player_count":0,"max_players":24,"Bots":0,"server_type":"Dedicated","server_os":"Linux","password":true,"vac":true,"version":"7882260","steam_id":85568392924742830,"keywords":["cp","nocrits","nodmgspread","uncletopia"],"game_id":440,"stv_port":27066,"stv_name":"Uncletopia | London | 6 | All Maps | STV","players":null},{"server_id":40,"name":"Uncletopia | London | 7 | No Payload","name_short":"lon-7","host":"lon-1.uk.uncletopia.com","port":27075,"enabled":true,"region":"eu","cc":"gb","latitude":51.509865,"longitude":-0.118092,"reserved":0,"last_update":"0001-01-01T00:00:00Z","name_a2s":"Uncletopia | London | 7 | No Payload","protocol":17,"map":"ctf_doublecross","folder":"tf","game":"Team Fortress","app_id":440,"player_count":0,"max_players":24,"Bots":0,"server_type":"Dedicated","server_os":"Linux","password":true,"vac":true,"version":"7882260","steam_id":85568392924964314,"keywords":["ctf","nocrits","nodmgspread","uncletopia"],"game_id":440,"stv_port":27076,"stv_name":"Uncletopia | London | 7 | No Payload | STV","players":null},{"server_id":41,"name":"Uncletopia | London | 8 | Community","name_short":"lon-8","host":"lon-1.uk.uncletopia.com","port":27085,"enabled":true,"region":"eu","cc":"gb","latitude":51.509865,"longitude":-0.118092,"reserved":0,"last_update":"0001-01-01T00:00:00Z","name_a2s":"Uncletopia | London | 8 | Community","protocol":17,"map":"workshop/koth_ashville_final.ugc2130459942","folder":"tf","game":"Team Fortress","app_id":440,"player_count":0,"max_players":24,"Bots":0,"server_type":"Dedicated","server_os":"Linux","password":true,"vac":true,"version":"7882260","steam_id":85568392924964315,"keywords":["cp","nocrits","nodmgspread","uncletopia"],"game_id":440,"stv_port":27086,"stv_name":"Uncletopia | London | 8 | Community | STV","players":null},{"server_id":300,"name":"Uncletopia | Montréal | 1 | All Maps","name_short":"mtl-1","host":"mtl-1.ca.uncletopia.com","port":27015,"enabled":true,"region":"us-east","cc":"ca","latitude":45.50889,"longitude":-73.56167,"reserved":0,"last_update":"0001-01-01T00:00:00Z","name_a2s":"Uncletopia | Montréal | 1 | All Maps","protocol":17,"map":"cp_snakewater_final1","folder":"tf","game":"Team Fortress","app_id":440,"player_count":0,"max_players":24,"Bots":0,"server_type":"Dedicated","server_os":"Linux","password":true,"vac":true,"version":"7882260","steam_id":85568392924500087,"keywords":["cp","nocrits","nodmgspread","uncletopia"],"game_id":440,"stv_port":27016,"stv_name":"Uncletopia | Montréal | 1 | All Maps | STV","players":null},{"server_id":301,"name":"Uncletopia | Montréal | 2 | All Maps","name_short":"mtl-2","host":"mtl-1.ca.uncletopia.com","port":27025,"enabled":true,"region":"us-east","cc":"ca","latitude":45.50889,"longitude":-73.56167,"reserved":0,"last_update":"0001-01-01T00:00:00Z","name_a2s":"Uncletopia | Montréal | 2 | All Maps","protocol":17,"map":"koth_highpass","folder":"tf","game":"Team Fortress","app_id":440,"player_count":0,"max_players":24,"Bots":0,"server_type":"Dedicated","server_os":"Linux","password":true,"vac":true,"version":"7882260","steam_id":85568392924500088,"keywords":["cp","nocrits","nodmgspread","uncletopia"],"game_id":440,"stv_port":27026,"stv_name":"Uncletopia | Montréal | 2 | All Maps | STV","players":null},{"server_id":302,"name":"Uncletopia | Montréal | 3 | All Maps","name_short":"mtl-3","host":"mtl-1.ca.uncletopia.com","port":27035,"enabled":true,"region":"us-east","cc":"ca","latitude":45.50889,"longitude":-73.56167,"reserved":0,"last_update":"0001-01-01T00:00:00Z","name_a2s":"Uncletopia | Montréal | 3 | All Maps","protocol":17,"map":"cp_snakewater_final1","folder":"tf","game":"Team Fortress","app_id":440,"player_count":0,"max_players":24,"Bots":0,"server_type":"Dedicated","server_os":"Linux","password":true,"vac":true,"version":"7882260","steam_id":85568392924500089,"keywords":["cp","nocrits","nodmgspread","uncletopia"],"game_id":440,"stv_port":27036,"stv_name":"Uncletopia | Montréal | 3 | All Maps | STV","players":null},{"server_id":303,"name":"Uncletopia | Montréal | 4 | No Payload","name_short":"mtl-4","host":"mtl-1.ca.uncletopia.com","port":27045,"enabled":true,"region":"us-east","cc":"ca","latitude":45.50889,"longitude":-73.56167,"reserved":0,"last_update":"0001-01-01T00:00:00Z","name_a2s":"Uncletopia | Montréal | 4 | No Payload","protocol":17,"map":"plr_pipeline","folder":"tf","game":"Team Fortress","app_id":440,"player_count":0,"max_players":24,"Bots":0,"server_type":"Dedicated","server_os":"Linux","password":true,"vac":true,"version":"7882260","steam_id":85568392924500090,"keywords":["nocrits","nodmgspread","payload","uncletopia"],"game_id":440,"stv_port":27046,"stv_name":"Uncletopia | Montréal | 4 | No Payload | STV","players":null},{"server_id":13,"name":"Uncletopia | New York City | 1 | All Maps","name_short":"nyc-1","host":"nyc-1.us.uncletopia.com","port":27015,"enabled":true,"region":"us-east","cc":"us","latitude":40.73061,"longitude":-73.93524,"reserved":0,"last_update":"0001-01-01T00:00:00Z","name_a2s":"Uncletopia | New York City | 1 | All Maps","protocol":17,"map":"pl_swiftwater_final1","folder":"tf","game":"Team Fortress","app_id":440,"player_count":23,"max_players":24,"Bots":0,"server_type":"Dedicated","server_os":"Linux","password":true,"vac":true,"version":"7882260","steam_id":85568392924469993,"keywords":["nocrits","nodmgspread","payload","uncletopia"],"game_id":440,"stv_port":27016,"stv_name":"Uncletopia | New York City | 1 | All Maps | STV","players":[{"user_id":626,"name":"e77","steam_id":76561198069309111,"connected_time":2981000000000,"state":"active","ping":61},{"user_id":652,"name":"kbsfnk","steam_id":76561198036884600,"connected_time":406000000000,"state":"active","ping":46},{"user_id":632,"name":"TJGSASQUATCH","steam_id":76561198077806921,"connected_time":2511000000000,"state":"active","ping":63},{"user_id":655,"name":"Firecrotch Fredo","steam_id":76561198099658220,"connected_time":382000000000,"state":"active","ping":74},{"user_id":656,"name":"Logic is a Good Rapper","steam_id":76561198976821898,"connected_time":373000000000,"state":"active","ping":124},{"user_id":657,"name":"EULA / JoJoJo","steam_id":76561198067153390,"connected_time":360000000000,"state":"active","ping":71},{"user_id":638,"name":"Smooth - Santana ft. Rob Thomas","steam_id":76561198145283389,"connected_time":2046000000000,"state":"active","ping":57},{"user_id":649,"name":"oxbudy","steam_id":76561198022120207,"connected_time":987000000000,"state":"active","ping":76},{"user_id":591,"name":"Amaretto Sour","steam_id":76561198063112844,"connected_time":5029000000000,"state":"active","ping":54},{"user_id":642,"name":"Falk","steam_id":76561198117024236,"connected_time":1677000000000,"state":"active","ping":65},{"user_id":658,"name":"AffinityNode","steam_id":76561198179676246,"connected_time":291000000000,"state":"active","ping":99},{"user_id":610,"name":"Ludcmorais","steam_id":76561198359217809,"connected_time":4130000000000,"state":"active","ping":167},{"user_id":629,"name":"Kerflumple","steam_id":76561198050602757,"connected_time":2917000000000,"state":"active","ping":57},{"user_id":593,"name":"Jesse Bear","steam_id":76561198217075305,"connected_time":4861000000000,"state":"active","ping":64},{"user_id":643,"name":"*","steam_id":76561198173047169,"connected_time":1609000000000,"state":"active","ping":44},{"user_id":570,"name":"JD","steam_id":76561198202669250,"connected_time":7302000000000,"state":"active","ping":70},{"user_id":648,"name":"BannerSiamang15","steam_id":76561198990892565,"connected_time":1074000000000,"state":"active","ping":91},{"user_id":659,"name":"Juno","steam_id":76561198042417277,"connected_time":288000000000,"state":"active","ping":79},{"user_id":650,"name":"goose","steam_id":76561198367551668,"connected_time":951000000000,"state":"active","ping":45},{"user_id":641,"name":"Braamklauw","steam_id":76561198283287697,"connected_time":1945000000000,"state":"active","ping":147},{"user_id":660,"name":"ttv/Everfrost Samoyed","steam_id":76561198072580699,"connected_time":220000000000,"state":"active","ping":59},{"user_id":631,"name":"big kahuna dynamite splash","steam_id":76561198094486651,"connected_time":2588000000000,"state":"active","ping":73},{"user_id":624,"name":"Sir Quacksalot","steam_id":76561198048942777,"connected_time":3074000000000,"state":"active","ping":95}]},{"server_id":14,"name":"Uncletopia | New York City | 2 | All Maps","name_short":"nyc-2","host":"nyc-1.us.uncletopia.com","port":27025,"enabled":true,"region":"us-east","cc":"us","latitude":40.73061,"longitude":-73.93524,"reserved":0,"last_update":"0001-01-01T00:00:00Z","name_a2s":"Uncletopia | New York City | 2 | All Maps","protocol":17,"map":"pl_swiftwater_final1","folder":"tf","game":"Team Fortress","app_id":440,"player_count":0,"max_players":24,"Bots":0,"server_type":"Dedicated","server_os":"Linux","password":true,"vac":true,"version":"7882260","steam_id":85568392924469994,"keywords":["nocrits","nodmgspread","payload","uncletopia"],"game_id":440,"stv_port":27026,"stv_name":"Uncletopia | New York City | 2 | All Maps | STV","players":null},{"server_id":15,"name":"Uncletopia | New York City | 3 | Stopwatch Beta","name_short":"nyc-3","host":"nyc-1.us.uncletopia.com","port":27035,"enabled":true,"region":"us-east","cc":"us","latitude":40.73061,"longitude":-73.93524,"reserved":0,"last_update":"0001-01-01T00:00:00Z","name_a2s":"Uncletopia | New York City | 3 | Stopwatch Beta","protocol":17,"map":"workshop/koth_product_final.ugc454272353","folder":"tf","game":"Team Fortress","app_id":440,"player_count":0,"max_players":24,"Bots":0,"server_type":"Dedicated","server_os":"Linux","password":true,"vac":true,"version":"7882260","steam_id":85568392924742820,"keywords":["cp","nocrits","nodmgspread","uncletopia"],"game_id":440,"stv_port":27036,"stv_name":"Uncletopia | New York City | 3 | Stopwatch Beta | STV","players":null},{"server_id":16,"name":"Uncletopia | New York City | 4 | Community","name_short":"nyc-4","host":"nyc-1.us.uncletopia.com","port":27045,"enabled":true,"region":"us-east","cc":"us","latitude":40.73061,"longitude":-73.93524,"reserved":0,"last_update":"0001-01-01T00:00:00Z","name_a2s":"Uncletopia | New York City | 4 | Community","protocol":17,"map":"workshop/cp_snowbase_b18.ugc2081770490","folder":"tf","game":"Team Fortress","app_id":440,"player_count":0,"max_players":24,"Bots":0,"server_type":"Dedicated","server_os":"Linux","password":true,"vac":true,"version":"7882260","steam_id":85568392924742821,"keywords":["cp","nocrits","nodmgspread","uncletopia"],"game_id":440,"stv_port":27046,"stv_name":"Uncletopia | New York City | 4 | Community | STV","players":null},{"server_id":142,"name":"Uncletopia | São Paulo | 1 | All Maps","name_short":"sao-1","host":"sao-1.br.uncletopia.com","port":27015,"enabled":true,"region":"sa","cc":"br","latitude":-23.533773,"longitude":-46.62529,"reserved":0,"last_update":"0001-01-01T00:00:00Z","name_a2s":"Uncletopia | São Paulo | 1 | All Maps","protocol":17,"map":"koth_highpass","folder":"tf","game":"Team Fortress","app_id":440,"player_count":0,"max_players":24,"Bots":0,"server_type":"Dedicated","server_os":"Linux","password":true,"vac":true,"version":"7882260","steam_id":85568392924469996,"keywords":["cp","nocrits","nodmgspread","uncletopia"],"game_id":440,"stv_port":27016,"stv_name":"Uncletopia | São Paulo | 1 | All Maps | STV","players":null},{"server_id":143,"name":"Uncletopia | São Paulo | 2 | All Maps","name_short":"sao-2","host":"sao-2.br.uncletopia.com","port":27015,"enabled":true,"region":"sa","cc":"br","latitude":-23.533773,"longitude":-46.62529,"reserved":0,"last_update":"0001-01-01T00:00:00Z","name_a2s":"Uncletopia | São Paulo | 2 | All Maps","protocol":17,"map":"koth_cascade","folder":"tf","game":"Team Fortress","app_id":440,"player_count":0,"max_players":24,"Bots":0,"server_type":"Dedicated","server_os":"Linux","password":true,"vac":true,"version":"7882260","steam_id":85568392924485349,"keywords":["cp","nocrits","nodmgspread","uncletopia"],"game_id":440,"stv_port":27016,"stv_name":"Uncletopia | São Paulo | 2 | All Maps | STV","players":null},{"server_id":7,"name":"Uncletopia | Seattle | 1 | All Maps","name_short":"sea-1","host":"sea-1.us.uncletopia.com","port":27015,"enabled":true,"region":"us-west","cc":"us","latitude":47.608013,"longitude":-122.33517,"reserved":0,"last_update":"0001-01-01T00:00:00Z","name_a2s":"Uncletopia | Seattle | 1 | All Maps","protocol":17,"map":"cp_mossrock","folder":"tf","game":"Team Fortress","app_id":440,"player_count":24,"max_players":24,"Bots":0,"server_type":"Dedicated","server_os":"Linux","password":true,"vac":true,"version":"7882260","steam_id":85568392924469997,"keywords":["cp","nocrits","nodmgspread","uncletopia"],"game_id":440,"stv_port":27016,"stv_name":"Uncletopia | Seattle | 1 | All Maps | STV","players":[{"user_id":646,"name":"PachucoWaffle","steam_id":76561198051491032,"connected_time":9222000000000,"state":"active","ping":54},{"user_id":677,"name":"forest (girldick)","steam_id":76561198157960257,"connected_time":6193000000000,"state":"active","ping":43},{"user_id":717,"name":"spenca","steam_id":76561198025371154,"connected_time":1502000000000,"state":"active","ping":73},{"user_id":720,"name":"carpet","steam_id":76561198207881077,"connected_time":1459000000000,"state":"active","ping":96},{"user_id":669,"name":"Pre Pissed Pants","steam_id":76561198042143837,"connected_time":6737000000000,"state":"active","ping":72},{"user_id":692,"name":"evilOlive","steam_id":76561198106222025,"connected_time":4673000000000,"state":"active","ping":82},{"user_id":722,"name":"Mr. Ravioli","steam_id":76561197996625649,"connected_time":1445000000000,"state":"active","ping":63},{"user_id":701,"name":"profile name","steam_id":76561198032625036,"connected_time":3534000000000,"state":"active","ping":59},{"user_id":721,"name":"Dealer","steam_id":76561198801450794,"connected_time":1459000000000,"state":"active","ping":101},{"user_id":711,"name":"wintersEmbrace","steam_id":76561198205428892,"connected_time":2709000000000,"state":"active","ping":63},{"user_id":704,"name":"Ena","steam_id":76561198066986108,"connected_time":3182000000000,"state":"active","ping":66},{"user_id":735,"name":"D34dR4bbit","steam_id":76561198167411455,"connected_time":64000000000,"state":"active","ping":56},{"user_id":718,"name":"Mitch McHoover","steam_id":76561198178827614,"connected_time":1476000000000,"state":"active","ping":57},{"user_id":712,"name":"soup","steam_id":76561198043209046,"connected_time":2648000000000,"state":"active","ping":82},{"user_id":563,"name":"♥haunti","steam_id":76561199235580556,"connected_time":15687000000000,"state":"active","ping":47},{"user_id":716,"name":"BlueDragonOracle","steam_id":76561198124318349,"connected_time":1783000000000,"state":"active","ping":59},{"user_id":729,"name":"rat gets the cheese","steam_id":76561198031234032,"connected_time":679000000000,"state":"active","ping":101},{"user_id":724,"name":"Monsieur Pequeño","steam_id":76561198327271041,"connected_time":1387000000000,"state":"active","ping":50},{"user_id":732,"name":"Quietsharp","steam_id":76561198277968438,"connected_time":541000000000,"state":"active","ping":88},{"user_id":733,"name":"The Super Mario Bros. Movie","steam_id":76561198871692156,"connected_time":454000000000,"state":"active","ping":55},{"user_id":727,"name":"Luca","steam_id":76561198125087140,"connected_time":930000000000,"state":"active","ping":47},{"user_id":731,"name":"Ayayayayayahuasca","steam_id":76561199002906056,"connected_time":610000000000,"state":"active","ping":51},{"user_id":693,"name":"Cream Corn","steam_id":76561198043791586,"connected_time":4673000000000,"state":"active","ping":108},{"user_id":698,"name":"NEBULA","steam_id":76561198086878595,"connected_time":3837000000000,"state":"active","ping":76}]},{"server_id":119,"name":"Uncletopia | Seattle | 2 | All Maps","name_short":"sea-2","host":"sea-1.us.uncletopia.com","port":27025,"enabled":true,"region":"us-west","cc":"us","latitude":47.608013,"longitude":-122.33517,"reserved":0,"last_update":"0001-01-01T00:00:00Z","name_a2s":"Uncletopia | Seattle | 2 | All Maps","protocol":17,"map":"pl_frontier_final","folder":"tf","game":"Team Fortress","app_id":440,"player_count":24,"max_players":24,"Bots":0,"server_type":"Dedicated","server_os":"Linux","password":true,"vac":true,"version":"7882260","steam_id":85568392924469998,"keywords":["nocrits","nodmgspread","payload","uncletopia"],"game_id":440,"stv_port":27026,"stv_name":"Uncletopia | Seattle | 2 | All Maps | STV","players":[{"user_id":652,"name":"SadChicken λ","steam_id":76561198082458968,"connected_time":2441000000000,"state":"active","ping":103},{"user_id":637,"name":"Ping","steam_id":76561198072947773,"connected_time":3175000000000,"state":"active","ping":113},{"user_id":675,"name":"rorywashere /ᐠ - ˕ -マ Ⳋ","steam_id":76561198065825165,"connected_time":17000000000,"state":"active","ping":435},{"user_id":649,"name":"Buncake","steam_id":76561198072541212,"connected_time":2503000000000,"state":"active","ping":95},{"user_id":676,"name":"Chocc","steam_id":76561198068070211,"connected_time":3000000000,"state":"spawning","ping":76},{"user_id":590,"name":"Battery Acid Addict","steam_id":76561198439793697,"connected_time":5482000000000,"state":"active","ping":111},{"user_id":657,"name":"MyMonkeyBaby","steam_id":76561198046896670,"connected_time":2066000000000,"state":"active","ping":63},{"user_id":659,"name":"NickoDeeBz","steam_id":76561198294657867,"connected_time":1611000000000,"state":"active","ping":78},{"user_id":674,"name":"Ducks","steam_id":76561198130038345,"connected_time":64000000000,"state":"active","ping":68},{"user_id":665,"name":"Beautiful bastard","steam_id":76561198858700490,"connected_time":540000000000,"state":"active","ping":102},{"user_id":666,"name":"King PB James","steam_id":76561197988610306,"connected_time":533000000000,"state":"active","ping":37},{"user_id":669,"name":"Jones","steam_id":76561198046037216,"connected_time":379000000000,"state":"active","ping":80},{"user_id":655,"name":"Rusty","steam_id":76561198055585129,"connected_time":2226000000000,"state":"active","ping":46},{"user_id":609,"name":"fucking batman","steam_id":76561198419896433,"connected_time":4117000000000,"state":"active","ping":42},{"user_id":600,"name":"Juevos","steam_id":76561198066142119,"connected_time":5186000000000,"state":"active","ping":85},{"user_id":664,"name":"Number28","steam_id":76561198315018819,"connected_time":579000000000,"state":"active","ping":82},{"user_id":672,"name":"SvicidalBug","steam_id":76561198221390504,"connected_time":279000000000,"state":"active","ping":69},{"user_id":654,"name":"no vc no c","steam_id":76561197989503095,"connected_time":2416000000000,"state":"active","ping":152},{"user_id":658,"name":"General Fisticuffs","steam_id":76561198255721392,"connected_time":1807000000000,"state":"active","ping":116},{"user_id":673,"name":"Thundalife","steam_id":76561198254523198,"connected_time":157000000000,"state":"active","ping":51},{"user_id":639,"name":"DanceBunny","steam_id":76561198243610560,"connected_time":3091000000000,"state":"active","ping":74},{"user_id":662,"name":"jack","steam_id":76561198271822342,"connected_time":615000000000,"state":"active","ping":61},{"user_id":668,"name":"Pocket Medic Girlfriend","steam_id":76561198378587138,"connected_time":490000000000,"state":"active","ping":74},{"user_id":671,"name":"Connick The Hedgehog","steam_id":76561198388471011,"connected_time":368000000000,"state":"active","ping":69}]},{"server_id":406,"name":"Uncletopia | Seattle | 3 | Stopwatch Beta","name_short":"sea-3","host":"sea-1.us.uncletopia.com","port":27035,"enabled":true,"region":"us-west","cc":"us","latitude":47.608013,"longitude":-122.33517,"reserved":0,"last_update":"0001-01-01T00:00:00Z","name_a2s":"Uncletopia | Seattle | 3 | Stopwatch Beta","protocol":17,"map":"cp_metalworks","folder":"tf","game":"Team Fortress","app_id":440,"player_count":23,"max_players":24,"Bots":0,"server_type":"Dedicated","server_os":"Linux","password":true,"vac":true,"version":"7882260","steam_id":85568392924515217,"keywords":["cp","nocrits","nodmgspread","uncletopia"],"game_id":440,"stv_port":27036,"stv_name":"Uncletopia | Seattle | 3 | Stopwatch Beta | STV","players":[{"user_id":116,"name":"mafia is mafia","steam_id":76561198042574722,"connected_time":1455000000000,"state":"active","ping":52},{"user_id":100,"name":"exephur","steam_id":76561198135763234,"connected_time":3296000000000,"state":"active","ping":60},{"user_id":128,"name":"FancyedZebra","steam_id":76561198254517938,"connected_time":391000000000,"state":"active","ping":95},{"user_id":32,"name":"Sleempreem","steam_id":76561198131987251,"connected_time":7600000000000,"state":"active","ping":69},{"user_id":110,"name":"Takyon","steam_id":76561198240014196,"connected_time":1852000000000,"state":"active","ping":70},{"user_id":129,"name":"samantha","steam_id":76561198049258493,"connected_time":354000000000,"state":"active","ping":67},{"user_id":130,"name":"oo","steam_id":76561198119626492,"connected_time":319000000000,"state":"active","ping":91},{"user_id":134,"name":"Dullahan","steam_id":76561198119668908,"connected_time":117000000000,"state":"active","ping":61},{"user_id":109,"name":"NightmareTheCEO","steam_id":76561198349694120,"connected_time":2251000000000,"state":"active","ping":59},{"user_id":131,"name":"Dr. Milker [CASHING OUT BP]","steam_id":76561198068516964,"connected_time":251000000000,"state":"active","ping":57},{"user_id":71,"name":"Grassman (Cc)","steam_id":76561198026488532,"connected_time":4993000000000,"state":"active","ping":62},{"user_id":120,"name":"Duck nut","steam_id":76561198355475831,"connected_time":1291000000000,"state":"active","ping":86},{"user_id":132,"name":"Rock Kickass","steam_id":76561198450510841,"connected_time":179000000000,"state":"active","ping":107},{"user_id":135,"name":"zonemaster95","steam_id":76561198072572032,"connected_time":92000000000,"state":"active","ping":76},{"user_id":108,"name":"Peter, what are you doing?","steam_id":76561198066452726,"connected_time":2452000000000,"state":"active","ping":77},{"user_id":124,"name":"Aguila","steam_id":76561198163322767,"connected_time":791000000000,"state":"active","ping":105},{"user_id":125,"name":"tkeati","steam_id":76561198056356574,"connected_time":724000000000,"state":"active","ping":48},{"user_id":107,"name":"weed","steam_id":76561199128192017,"connected_time":2563000000000,"state":"active","ping":56},{"user_id":56,"name":"Fluffy","steam_id":76561198213561811,"connected_time":5739000000000,"state":"active","ping":66},{"user_id":98,"name":"ShredMaan","steam_id":76561198429982138,"connected_time":3591000000000,"state":"active","ping":87},{"user_id":119,"name":"catgirl giantess in heat","steam_id":76561198439042583,"connected_time":1351000000000,"state":"active","ping":107},{"user_id":127,"name":"TheImmortalPyro","steam_id":76561198360333718,"connected_time":522000000000,"state":"active","ping":62},{"user_id":122,"name":"PainInTheRuss","steam_id":76561197977960543,"connected_time":1246000000000,"state":"active","ping":66}]},{"server_id":17,"name":"Uncletopia | San Francisco | 1 | All Maps","name_short":"sfo-1","host":"sfo-1.us.uncletopia.com","port":27015,"enabled":true,"region":"us-west","cc":"us","latitude":37.77397,"longitude":-122.4313,"reserved":0,"last_update":"0001-01-01T00:00:00Z","name_a2s":"Uncletopia | San Francisco | 1 | All Maps","protocol":17,"map":"cp_process_final","folder":"tf","game":"Team Fortress","app_id":440,"player_count":0,"max_players":24,"Bots":0,"server_type":"Dedicated","server_os":"Linux","password":true,"vac":true,"version":"7757534","steam_id":85568392924469999,"keywords":["cp","nocrits","nodmgspread","uncletopia"],"game_id":440,"stv_port":27016,"stv_name":"Uncletopia | San Francisco | 1 | All Maps | STV","players":null},{"server_id":18,"name":"Uncletopia | San Francisco | 2 | All Maps","name_short":"sfo-2","host":"sfo-1.us.uncletopia.com","port":27025,"enabled":true,"region":"us-west","cc":"us","latitude":37.77397,"longitude":-122.4313,"reserved":0,"last_update":"0001-01-01T00:00:00Z","name_a2s":"Uncletopia | San Francisco | 2 | All Maps","protocol":17,"map":"koth_highpass","folder":"tf","game":"Team Fortress","app_id":440,"player_count":0,"max_players":24,"Bots":0,"server_type":"Dedicated","server_os":"Linux","password":true,"vac":true,"version":"7757534","steam_id":85568392924470000,"keywords":["cp","nocrits","nodmgspread","uncletopia"],"game_id":440,"stv_port":27026,"stv_name":"Uncletopia | San Francisco | 2 | All Maps | STV","players":null},{"server_id":19,"name":"Uncletopia | San Francisco | 3 | Stopwatch Beta","name_short":"sfo-3","host":"sfo-1.us.uncletopia.com","port":27035,"enabled":true,"region":"us-west","cc":"us","latitude":37.77397,"longitude":-122.4313,"reserved":0,"last_update":"0001-01-01T00:00:00Z","name_a2s":"Uncletopia | San Francisco | 3 | Stopwatch Beta","protocol":17,"map":"koth_lakeside_final","folder":"tf","game":"Team Fortress","app_id":440,"player_count":0,"max_players":24,"Bots":0,"server_type":"Dedicated","server_os":"Linux","password":true,"vac":true,"version":"7757534","steam_id":85568392924742824,"keywords":["cp","nocrits","nodmgspread","uncletopia"],"game_id":440,"stv_port":27036,"stv_name":"Uncletopia | San Francisco | 3 | Stopwatch Beta | STV","players":null},{"server_id":20,"name":"Uncletopia | San Francisco | 4 | Community","name_short":"sfo-4","host":"sfo-1.us.uncletopia.com","port":27045,"enabled":true,"region":"us-west","cc":"us","latitude":37.77397,"longitude":-122.4313,"reserved":0,"last_update":"0001-01-01T00:00:00Z","name_a2s":"Uncletopia | San Francisco | 4 | Community","protocol":17,"map":"cp_altitude","folder":"tf","game":"Team Fortress","app_id":440,"player_count":0,"max_players":24,"Bots":0,"server_type":"Dedicated","server_os":"Linux","password":true,"vac":true,"version":"7757534","steam_id":85568392924742826,"keywords":["cp","nocrits","nodmgspread","uncletopia"],"game_id":440,"stv_port":27046,"stv_name":"Uncletopia | San Francisco | 4 | Community | STV","players":null},{"server_id":141,"name":"Uncletopia | Sydney | 1 | All Maps","name_short":"syd-1","host":"syd-1.au.uncletopia.com","port":27015,"enabled":true,"region":"au","cc":"au","latitude":-33.865143,"longitude":151.2099,"reserved":0,"last_update":"0001-01-01T00:00:00Z","name_a2s":"Uncletopia | Sydney | 1 | All Maps","protocol":17,"map":"koth_viaduct","folder":"tf","game":"Team Fortress","app_id":440,"player_count":0,"max_players":24,"Bots":0,"server_type":"Dedicated","server_os":"Linux","password":true,"vac":true,"version":"7882260","steam_id":85568392924470001,"keywords":["cp","nocrits","nodmgspread","uncletopia"],"game_id":440,"stv_port":27016,"stv_name":"Uncletopia | Sydney | 1 | All Maps | STV","players":null},{"server_id":123,"name":"Uncletopia | Sydney | 2 | All Maps","name_short":"syd-2","host":"syd-1.au.uncletopia.com","port":27025,"enabled":true,"region":"au","cc":"au","latitude":-33.865143,"longitude":151.2099,"reserved":0,"last_update":"0001-01-01T00:00:00Z","name_a2s":"Uncletopia | Sydney | 2 | All Maps","protocol":17,"map":"cp_snakewater_final1","folder":"tf","game":"Team Fortress","app_id":440,"player_count":0,"max_players":24,"Bots":0,"server_type":"Dedicated","server_os":"Linux","password":true,"vac":true,"version":"7882260","steam_id":85568392924470002,"keywords":["cp","nocrits","nodmgspread","uncletopia"],"game_id":440,"stv_port":27026,"stv_name":"Uncletopia | Sydney | 2 | All Maps | STV","players":null},{"server_id":395,"name":"Uncletopia | Sydney | 3 | All Maps","name_short":"syd-3","host":"syd-1.au.uncletopia.com","port":27035,"enabled":true,"region":"au","cc":"au","latitude":-33.865143,"longitude":151.2099,"reserved":0,"last_update":"0001-01-01T00:00:00Z","name_a2s":"Uncletopia | Sydney | 3 | All Maps","protocol":17,"map":"koth_cascade","folder":"tf","game":"Team Fortress","app_id":440,"player_count":0,"max_players":24,"Bots":0,"server_type":"Dedicated","server_os":"Linux","password":true,"vac":true,"version":"7882260","steam_id":85568392925194467,"keywords":["cp","nocrits","nodmgspread","uncletopia"],"game_id":440,"stv_port":27036,"stv_name":"Uncletopia | Sydney | 3 | All Maps | STV","players":null},{"server_id":396,"name":"Uncletopia | Sydney | 4 | All Maps","name_short":"syd-4","host":"syd-1.au.uncletopia.com","port":27045,"enabled":true,"region":"au","cc":"au","latitude":-33.865143,"longitude":151.2099,"reserved":0,"last_update":"0001-01-01T00:00:00Z","name_a2s":"Uncletopia | Sydney | 4 | All Maps","protocol":17,"map":"koth_cascade","folder":"tf","game":"Team Fortress","app_id":440,"player_count":0,"max_players":24,"Bots":0,"server_type":"Dedicated","server_os":"Linux","password":true,"vac":true,"version":"7882260","steam_id":85568392925397958,"keywords":["cp","nocrits","nodmgspread","uncletopia"],"game_id":440,"stv_port":27046,"stv_name":"Uncletopia | Sydney | 4 | All Maps | STV","players":null},{"server_id":58,"name":"Uncletopia | Sydney | 5 | Stopwatch Beta","name_short":"syd-5","host":"syd-1.au.uncletopia.com","port":27055,"enabled":true,"region":"au","cc":"au","latitude":-33.865143,"longitude":151.2099,"reserved":0,"last_update":"0001-01-01T00:00:00Z","name_a2s":"Uncletopia | Sydney | 5 | Stopwatch Beta","protocol":17,"map":"pl_swiftwater_final1","folder":"tf","game":"Team Fortress","app_id":440,"player_count":0,"max_players":24,"Bots":0,"server_type":"Dedicated","server_os":"Linux","password":true,"vac":true,"version":"7882260","steam_id":85568392925397959,"keywords":["nocrits","nodmgspread","payload","uncletopia"],"game_id":440,"stv_port":27056,"stv_name":"Uncletopia | Sydney | 5 | Stopwatch Beta | STV","players":null},{"server_id":59,"name":"Uncletopia | Sydney | 6 | Community","name_short":"syd-6","host":"syd-1.au.uncletopia.com","port":27065,"enabled":true,"region":"au","cc":"au","latitude":-33.865143,"longitude":151.2099,"reserved":0,"last_update":"0001-01-01T00:00:00Z","name_a2s":"Uncletopia | Sydney | 6 | Community","protocol":17,"map":"pl_snowycoast","folder":"tf","game":"Team Fortress","app_id":440,"player_count":0,"max_players":24,"Bots":0,"server_type":"Dedicated","server_os":"Linux","password":true,"vac":true,"version":"7882260","steam_id":85568392925397960,"keywords":["nocrits","nodmgspread","payload","uncletopia"],"game_id":440,"stv_port":27066,"stv_name":"Uncletopia | Sydney | 6 | Community | STV","players":null},{"server_id":49,"name":"Uncletopia | Warsaw | 1 | All Maps","name_short":"waw-1","host":"waw-1.pl.uncletopia.com","port":27015,"enabled":true,"region":"eu","cc":"pl","latitude":52.2297,"longitude":21.017532,"reserved":0,"last_update":"0001-01-01T00:00:00Z","name_a2s":"","protocol":0,"map":"","folder":"","game":"","app_id":0,"player_count":0,"max_players":0,"Bots":0,"server_type":"","server_os":"","password":false,"vac":false,"version":"","steam_id":0,"keywords":null,"game_id":0,"stv_port":0,"stv_name":"","players":null},{"server_id":50,"name":"Uncletopia | Warsaw | 2 | All Maps","name_short":"waw-2","host":"waw-1.pl.uncletopia.com","port":27025,"enabled":true,"region":"eu","cc":"pl","latitude":52.2297,"longitude":21.017532,"reserved":0,"last_update":"0001-01-01T00:00:00Z","name_a2s":"Uncletopia | Warsaw | 2 | All Maps","protocol":17,"map":"pl_swiftwater_final1","folder":"tf","game":"Team Fortress","app_id":440,"player_count":0,"max_players":24,"Bots":0,"server_type":"Dedicated","server_os":"Linux","password":true,"vac":true,"version":"7882260","steam_id":85568392925397851,"keywords":["nocrits","nodmgspread","payload","uncletopia"],"game_id":440,"stv_port":27026,"stv_name":"Uncletopia | Warsaw | 2 | All Maps | STV","players":null},{"server_id":51,"name":"Uncletopia | Warsaw | 3 | All Maps","name_short":"waw-3","host":"waw-1.pl.uncletopia.com","port":27035,"enabled":true,"region":"eu","cc":"pl","latitude":52.2297,"longitude":21.017532,"reserved":0,"last_update":"0001-01-01T00:00:00Z","name_a2s":"Uncletopia | Warsaw | 3 | All Maps","protocol":17,"map":"koth_viaduct","folder":"tf","game":"Team Fortress","app_id":440,"player_count":0,"max_players":24,"Bots":0,"server_type":"Dedicated","server_os":"Linux","password":true,"vac":true,"version":"7882260","steam_id":85568392925397852,"keywords":["cp","nocrits","nodmgspread","uncletopia"],"game_id":440,"stv_port":27036,"stv_name":"Uncletopia | Warsaw | 3 | All Maps | STV","players":null},{"server_id":52,"name":"Uncletopia | Warsaw | 4 | All Maps","name_short":"waw-4","host":"waw-1.pl.uncletopia.com","port":27045,"enabled":true,"region":"eu","cc":"pl","latitude":52.2297,"longitude":21.017532,"reserved":0,"last_update":"0001-01-01T00:00:00Z","name_a2s":"Uncletopia | Warsaw | 4 | All Maps","protocol":17,"map":"koth_highpass","folder":"tf","game":"Team Fortress","app_id":440,"player_count":0,"max_players":24,"Bots":0,"server_type":"Dedicated","server_os":"Linux","password":true,"vac":true,"version":"7882260","steam_id":85568392925397853,"keywords":["cp","nocrits","nodmgspread","uncletopia"],"game_id":440,"stv_port":27046,"stv_name":"Uncletopia | Warsaw | 4 | All Maps | STV","players":null},{"server_id":53,"name":"Uncletopia | Warsaw | 5 | Stopwatch Beta","name_short":"waw-5","host":"waw-1.pl.uncletopia.com","port":27055,"enabled":true,"region":"eu","cc":"pl","latitude":52.2297,"longitude":21.017532,"reserved":0,"last_update":"0001-01-01T00:00:00Z","name_a2s":"Uncletopia | Warsaw | 5 | Stopwatch Beta","protocol":17,"map":"cp_mountainlab","folder":"tf","game":"Team Fortress","app_id":440,"player_count":0,"max_players":24,"Bots":0,"server_type":"Dedicated","server_os":"Linux","password":true,"vac":true,"version":"7882260","steam_id":85568392925397854,"keywords":["cp","nocrits","nodmgspread","uncletopia"],"game_id":440,"stv_port":27056,"stv_name":"Uncletopia | Warsaw | 5 | Stopwatch Beta | STV","players":null},{"server_id":54,"name":"Uncletopia | Warsaw | 6 | Community","name_short":"waw-6","host":"waw-1.pl.uncletopia.com","port":27065,"enabled":true,"region":"eu","cc":"pl","latitude":52.2297,"longitude":21.017532,"reserved":0,"last_update":"0001-01-01T00:00:00Z","name_a2s":"Uncletopia | Warsaw | 6 | Community","protocol":17,"map":"koth_viaduct","folder":"tf","game":"Team Fortress","app_id":440,"player_count":0,"max_players":24,"Bots":0,"server_type":"Dedicated","server_os":"Linux","password":true,"vac":true,"version":"7882260","steam_id":85568392925397856,"keywords":["cp","nocrits","nodmgspread","uncletopia"],"game_id":440,"stv_port":27066,"stv_name":"Uncletopia | Warsaw | 6 | Community | STV","players":null}]}