{"status":true,"message":"","result":[{"server_id":9,"name":"Uncletopia | Atlanta | 1 | All Maps","name_short":"atl-1","host":"atl-1.us.uncletopia.com","port":27015,"enabled":true,"region":"us-east","cc":"us","latitude":33.753746,"longitude":-84.38633,"reserved":0,"last_update":"0001-01-01T00:00:00Z","name_a2s":"Uncletopia | Atlanta | 1 | All Maps","protocol":17,"map":"pl_upward","folder":"tf","game":"Team Fortress","app_id":440,"player_count":24,"max_players":24,"Bots":0,"server_type":"Dedicated","server_os":"Linux","password":true,"vac":true,"version":"7757534","steam_id":85568392924469982,"keywords":["nocrits","nodmgspread","payload","uncletopia"],"game_id":440,"stv_port":27016,"stv_name":"Uncletopia | Atlanta | 1 | All Maps | STV","players":[{"user_id":74,"name":"Deranged_Fish","steam_id":76561198104169579,"connected_time":901000000000,"state":"active","ping":80},{"user_id":58,"name":"Revv","steam_id":76561198360485606,"connected_time":2158000000000,"state":"active","ping":76},{"user_id":78,"name":"Mr.Indian Jokar","steam_id":76561198381343086,"connected_time":825000000000,"state":"active","ping":104},{"user_id":85,"name":"Fr–∞nk","steam_id":76561198150754556,"connected_time":275000000000,"state":"active","ping":65},{"user_id":75,"name":"xyt0nix","steam_id":76561199437938235,"connected_time":901000000000,"state":"active","ping":50},{"user_id":73,"name":"quality_ch3ck","steam_id":76561198361132101,"connected_time":1065000000000,"state":"active","ping":81},{"user_id":86,"name":"catboy phroliax","steam_id":76561198207075529,"connected_time":235000000000,"state":"active","ping":89},{"user_id":82,"name":"-Joker-","steam_id":76561198865501612,"connected_time":429000000000,"state":"active","ping":77},{"user_id":49,"name":"WaterWorks","steam_id":76561198801899310,"connected_time":2850000000000,"state":"active","ping":92},{"user_id":80,"name":"Summer","steam_id":76561198121692871,"connected_time":702000000000,"state":"active","ping":71},{"user_id":66,"name":"bass player","steam_id":76561198203357580,"connected_time":1581000000000,"state":"active","ping":70},{"user_id":72,"name":"Doctor Vegeta","steam_id":76561198353898356,"connected_time":1322000000000,"state":"active","ping":72},{"user_id":87,"name":"chaddington bear","steam_id":76561198056776496,"connected_time":214000000000,"state":"active","ping":75},{"user_id":84,"name":"barbara","steam_id":76561198072417792,"connected_time":304000000000,"state":"active","ping":111},{"user_id":88,"name":"264 wheels of cheese","steam_id":76561198413125750,"connected_time":31000000000,"state":"spawning","ping":100},{"user_id":48,"name":"Scalie with Soup","steam_id":76561198126745958,"connected_time":2900000000000,"state":"active","ping":96},{"user_id":68,"name":"Leon","steam_id":76561198148495586,"connected_time":1546000000000,"state":"active","ping":108},{"user_id":69,"name":"ice spice","steam_id":76561198072657891,"connected_time":1538000000000,"state":"active","ping":65},{"user_id":70,"name":"gas station car wash","steam_id":76561198845931713,"connected_time":1505000000000,"state":"active","ping":86},{"user_id":83,"name":"Thotimus Begonimus","steam_id":76561197970275938,"connected_time":336000000000,"state":"active","ping":57},{"user_id":71,"name":"carrion goat she/it","steam_id":76561198262064871,"connected_time":1496000000000,"state":"active","ping":67},{"user_id":57,"name":"pipe","steam_id":76561198115269587,"connected_time":2176000000000,"state":"active","ping":56},{"user_id":76,"name":"roma","steam_id":76561198028811916,"connected_time":890000000000,"state":"active","ping":50},{"user_id":90,"name":"goze","steam_id":76561198967261342,"connected_time":23000000000,"state":"active","ping":97}]},{"server_id":400,"name":"Uncletopia | Atlanta | 3 | Stopwatch Beta","name_short":"atl-3","host":"atl-1.us.uncletopia.com","port":27035,"enabled":true,"region":"us-east","cc":"us","latitude":33.753746,"longitude":-84.38633,"reserved":0,"last_update":"0001-01-01T00:00:00Z","name_a2s":"Uncletopia | Atlanta | 3 | Stopwatch Beta","protocol":17,"map":"pl_upward","folder":"tf","game":"Team Fortress","app_id":440,"player_count":0,"max_players":24,"Bots":0,"server_type":"Dedicated","server_os":"Linux","password":true,"vac":true,"version":"7757534","steam_id":85568392924515187,"keywords":["nocrits","nodmgspread","payload","uncletopia"],"game_id":440,"stv_port":27036,"stv_name":"Uncletopia | Atlanta | 3 | Stopwatch Beta | STV","players":null},{"server_id":401,"name":"Uncletopia | Atlanta | 4 | No Payload","name_short":"atl-4","host":"atl-1.us.uncletopia.com","port":27045,"enabled":true,"region":"us-east","cc":"us","latitude":33.753746,"longitude":-84.38633,"reserved":0,"last_update":"0001-01-01T00:00:00Z","name_a2s":"Uncletopia | Atlanta | 4 | No Payload","protocol":17,"map":"pl_pier","folder":"tf","game":"Team Fortress","app_id":440,"player_count":0,"max_players":24,"Bots":0,"server_type":"Dedicated","server_os":"Linux","password":true,"vac":true,"version":"7723704","steam_id":85568392924515188,"keywords":["nocrits","nodmgspread","payload","uncletopia"],"game_id":440,"stv_port":27046,"stv_name":"Uncletopia | Atlanta | 4 | No Payload | STV","players":null},{"server_id":2,"name":"Uncletopia | Chicago | 1 | All Maps","name_short":"chi-1","host":"chi-1.us.uncletopia.com","port":27015,"enabled":true,"region":"us-central","cc":"us","latitude":41.881832,"longitude":-87.62318,"reserved":0,"last_update":"0001-01-01T00:00:00Z","name_a2s":"Uncletopia | Chicago | 1 | All Maps","protocol":17,"map":"pl_badwater","folder":"tf","game":"Team Fortress","app_id":440,"player_count":24,"max_players":24,"Bots":0,"server_type":"Dedicated","server_os":"Linux","password":true,"vac":true,"version":"7757534","steam_id":85568392924469984,"keywords":["nocrits","nodmgspread","payload","uncletopia"],"game_id":440,"stv_port":27016,"stv_name":"Uncletopia | Chicago | 1 | All Maps | STV","players":[{"user_id":273,"name":"lil bro","steam_id":76561198031675881,"connected_time":4720000000000,"state":"active","ping":65},{"user_id":193,"name":"kibble","steam_id":76561198077083011,"connected_time":12221000000000,"state":"active","ping":83},{"user_id":277,"name":"elyk37","steam_id":76561198124135253,"connected_time":4673000000000,"state":"active","ping":70},{"user_id":191,"name":"177013","steam_id":76561198072303290,"connected_time":12749000000000,"state":"active","ping":61},{"user_id":290,"name":"Choco","steam_id":76561198051146422,"connected_time":2382000000000,"state":"active","ping":75},{"user_id":258,"name":"SCATTER [CTF2 DEV]","steam_id":76561198405168492,"connected_time":6625000000000,"state":"active","ping":76},{"user_id":241,"name":"Bond","steam_id":76561198089262776,"connected_time":8242000000000,"state":"active","ping":81},{"user_id":276,"name":"Magic Jack","steam_id":76561198227459488,"connected_time":4707000000000,"state":"active","ping":61},{"user_id":278,"name":"Johns","steam_id":76561197998760371,"connected_time":4665000000000,"state":"active","ping":56},{"user_id":300,"name":"Poison Ivy","steam_id":76561198072384574,"connected_time":1472000000000,"state":"active","ping":50},{"user_id":267,"name":"capybara","steam_id":76561198798828328,"connected_time":5696000000000,"state":"active","ping":52},{"user_id":302,"name":"Comfy!","steam_id":76561198008818346,"connected_time":1209000000000,"state":"active","ping":76},{"user_id":296,"name":"Username","steam_id":76561198855586261,"connected_time":1696000000000,"state":"active","ping":87},{"user_id":226,"name":"hyuck","steam_id":76561198319990195,"connected_time":10488000000000,"state":"active","ping":83},{"user_id":55,"name":"THE NUT","steam_id":76561198067813626,"connected_time":24571000000000,"state":"active","ping":99},{"user_id":200,"name":"I'm Cloaked","steam_id":76561198039763676,"connected_time":11906000000000,"state":"active","ping":60},{"user_id":174,"name":"[√òWQJ√ò]chubacaalatake","steam_id":76561198136201697,"connected_time":14509000000000,"state":"active","ping":143},{"user_id":245,"name":"AdorableMew","steam_id":76561198186706405,"connected_time":7684000000000,"state":"active","ping":69},{"user_id":285,"name":"JAKandBEL","steam_id":76561198213060931,"connected_time":3183000000000,"state":"active","ping":55},{"user_id":301,"name":"‚ö°Lagiacrus‚ö°","steam_id":76561198189176634,"connected_time":1472000000000,"state":"active","ping":70},{"user_id":306,"name":"Vem","steam_id":76561198117273112,"connected_time":442000000000,"state":"active","ping":69},{"user_id":286,"name":"Aster","steam_id":76561198037920420,"connected_time":3130000000000,"state":"active","ping":105},{"user_id":304,"name":"‚ù§ Brachydios ‚ù§","steam_id":76561198190288063,"connected_time":1207000000000,"state":"active","ping":69},{"user_id":275,"name":"Mug Moment Gaming","steam_id":76561198233098136,"connected_time":4717000000000,"state":"active","ping":72}]},{"server_id":106,"name":"Uncletopia | Chicago | 2 | All Maps","name_short":"chi-2","host":"chi-1.us.uncletopia.com","port":27025,"enabled":true,"region":"us-central","cc":"us","latitude":41.881832,"longitude":-87.62318,"reserved":0,"last_update":"0001-01-01T00:00:00Z","name_a2s":"Uncletopia | Chicago | 2 | All Maps","protocol":17,"map":"koth_lakeside_final","folder":"tf","game":"Team Fortress","app_id":440,"player_count":0,"max_players":24,"Bots":0,"server_type":"Dedicated","server_os":"Linux","password":true,"vac":true,"version":"7757534","steam_id":85568392924469985,"keywords":["cp","nocrits","nodmgspread","uncletopia"],"game_id":440,"stv_port":27026,"stv_name":"Uncletopia | Chicago | 2 | All Maps | STV","players":null},{"server_id":402,"name":"Uncletopia | Chicago | 3 | All Maps","name_short":"chi-3","host":"chi-1.us.uncletopia.com","port":27035,"enabled":true,"region":"us-central","cc":"us","latitude":41.881832,"longitude":-87.62318,"reserved":0,"last_update":"0001-01-01T00:00:00Z","name_a2s":"Uncletopia | Chicago | 3 | All Maps","protocol":17,"map":"koth_cascade","folder":"tf","game":"Team Fortress","app_id":440,"player_count":0,"max_players":24,"Bots":0,"server_type":"Dedicated","server_os":"Linux","password":true,"vac":true,"version":"7757534","steam_id":85568392924515191,"keywords":["cp","nocrits","nodmgspread","uncletopia"],"game_id":440,"stv_port":27036,"stv_name":"Uncletopia | Chicago | 3 | All Maps | STV","players":null},{"server_id":403,"name":"Uncletopia | Chicago | 4 | All Maps","name_short":"chi-4","host":"chi-1.us.uncletopia.com","port":27045,"enabled":true,"region":"us-central","cc":"us","latitude":41.881832,"longitude":-87.62318,"reserved":0,"last_update":"0001-01-01T00:00:00Z","name_a2s":"Uncletopia | Chicago | 4 | All Maps","protocol":17,"map":"pl_borneo","folder":"tf","game":"Team Fortress","app_id":440,"player_count":24,"max_players":24,"Bots":0,"server_type":"Dedicated","server_os":"Linux","password":true,"vac":true,"version":"7757534","steam_id":85568392924515193,"keywords":["nocrits","nodmgspread","payload","uncletopia"],"game_id":440,"stv_port":27046,"stv_name":"Uncletopia | Chicago | 4 | All Maps | STV","players":[{"user_id":264,"name":"Passes the Bungus","steam_id":76561198040647717,"connected_time":3745000000000,"state":"active","ping":83},{"user_id":296,"name":"username","steam_id":76561198130826890,"connected_time":445000000000,"state":"active","ping":76},{"user_id":301,"name":"Seer","steam_id":76561198013492052,"connected_time":223000000000,"state":"active","ping":45},{"user_id":287,"name":"gnomasaur","steam_id":76561197987322699,"connected_time":1151000000000,"state":"active","ping":114},{"user_id":269,"name":"volta","steam_id":76561199214283884,"connected_time":3165000000000,"state":"active","ping":100},{"user_id":289,"name":"keffers","steam_id":76561198202338796,"connected_time":1139000000000,"state":"active","ping":66},{"user_id":294,"name":"JustCoffee","steam_id":76561199389473180,"connected_time":779000000000,"state":"active","ping":67},{"user_id":297,"name":"silly guy","steam_id":76561198159339442,"connected_time":415000000000,"state":"active","ping":64},{"user_id":302,"name":"Sapochadcanga","steam_id":76561198366429878,"connected_time":135000000000,"state":"active","ping":205},{"user_id":288,"name":"Fablor","steam_id":76561198175644926,"connected_time":1147000000000,"state":"active","ping":99},{"user_id":273,"name":"chanoc","steam_id":76561198026734746,"connected_time":2724000000000,"state":"active","ping":95},{"user_id":303,"name":"CatPunch","steam_id":76561198086025071,"connected_time":43000000000,"state":"active","ping":121},{"user_id":283,"name":"Kzjytsugn","steam_id":76561198130241974,"connected_time":1301000000000,"state":"active","ping":85},{"user_id":291,"name":"Don't Fuckle with Shuckle","steam_id":76561199020102367,"connected_time":1021000000000,"state":"active","ping":77},{"user_id":282,"name":"squid game","steam_id":76561199248960166,"connected_time":1880000000000,"state":"active","ping":90},{"user_id":221,"name":"Pennis the Menace","steam_id":76561198254878037,"connected_time":7194000000000,"state":"active","ping":82},{"user_id":298,"name":"„Ä£dust„Ä£ -she/her-","steam_id":76561198045218909,"connected_time":394000000000,"state":"active","ping":87},{"user_id":293,"name":"Lackie Lun","steam_id":76561198219035947,"connected_time":982000000000,"state":"active","ping":53},{"user_id":268,"name":"gyroFSnoob","steam_id":76561198158404683,"connected_time":3359000000000,"state":"active","ping":70},{"user_id":259,"name":"Lightatex","steam_id":76561199068097196,"connected_time":4296000000000,"state":"active","ping":58},{"user_id":285,"name":"demomanfan2008","steam_id":76561198077030486,"connected_time":1256000000000,"state":"active","ping":108},{"user_id":280,"name":"gamer girl looking for a bf","steam_id":76561198279901162,"connected_time":2202000000000,"state":"active","ping":70},{"user_id":299,"name":"Viket \u0026 Yuumi","steam_id":76561198358201430,"connected_time":373000000000,"state":"active","ping":147},{"user_id":246,"name":"Nnyllazxz","steam_id":76561198247797436,"connected_time":4873000000000,"state":"active","ping":84}]},{"server_id":36,"name":"Uncletopia | Chicago | 5 | All Maps","name_short":"chi-5","host":"chi-2.us.uncletopia.com","port":27015,"enabled":true,"region":"us-central","cc":"us","latitude":41.881832,"longitude":-87.62318,"reserved":0,"last_update":"0001-01-01T00:00:00Z","name_a2s":"Uncletopia | Chicago | 5 | All Maps","protocol":17,"map":"koth_cascade","folder":"tf","game":"Team Fortress","app_id":440,"player_count":0,"max_players":24,"Bots":0,"server_type":"Dedicated","server_os":"Linux","password":true,"vac":true,"version":"7757534","steam_id":85568392924866362,"keywords":["cp","nocrits","nodmgspread","uncletopia"],"game_id":440,"stv_port":27016,"stv_name":"Uncletopia | Chicago | 5 | All Maps | STV","players":null},{"server_id":37,"name":"Uncletopia | Chicago | 6 | All Maps","name_short":"chi-6","host":"chi-2.us.uncletopia.com","port":27025,"enabled":true,"region":"us-central","cc":"us","latitude":41.881832,"longitude":-87.62318,"reserved":0,"last_update":"0001-01-01T00:00:00Z","name_a2s":"Uncletopia | Chicago | 6 | All Maps","protocol":17,"map":"cp_mountainlab","folder":"tf","game":"Team Fortress","app_id":440,"player_count":0,"max_players":24,"Bots":0,"server_type":"Dedicated","server_os":"Linux","password":true,"vac":true,"version":"7757534","steam_id":85568392924866363,"keywords":["cp","nocrits","nodmgspread","uncletopia"],"game_id":440,"stv_port":27026,"stv_name":"Uncletopia | Chicago | 6 | All Maps | STV","players":null},{"server_id":38,"name":"Uncletopia | Chicago | 7 | Stopwatch Beta","name_short":"chi-7","host":"chi-2.us.uncletopia.com","port":27035,"enabled":true,"region":"us-central","cc":"us","latitude":41.881832,"longitude":-87.62318,"reserved":0,"last_update":"0001-01-01T00:00:00Z","name_a2s":"Uncletopia | Chicago | 7 | Stopwatch Beta","protocol":17,"map":"cp_granary","folder":"tf","game":"Team Fortress","app_id":440,"player_count":0,"max_players":24,"Bots":0,"server_type":"Dedicated","server_os":"Linux","password":true,"vac":true,"version":"7757534","steam_id":85568392924866364,"keywords":["cp","nocrits","nodmgspread","uncletopia"],"game_id":440,"stv_port":27036,"stv_name":"Uncletopia | Chicago | 7 | Stopwatch Beta | STV","players":null},{"server_id":39,"name":"Uncletopia | Chicago | 8 | Community","name_short":"chi-8","host":"chi-2.us.uncletopia.com","port":27045,"enabled":true,"region":"us-central","cc":"us","latitude":41.881832,"longitude":-87.62318,"reserved":0,"last_update":"0001-01-01T00:00:00Z","name_a2s":"Uncletopia | Chicago | 8 | Community","protocol":17,"map":"pl_pier","folder":"tf","game":"Team Fortress","app_id":440,"player_count":0,"max_players":24,"Bots":0,"server_type":"Dedicated","server_os":"Linux","password":true,"vac":true,"version":"7757534","steam_id":85568392924866365,"keywords":["nocrits","nodmgspread","payload","uncletopia"],"game_id":440,"stv_port":27046,"stv_name":"Uncletopia | Chicago | 8 | Community | STV","players":null},{"server_id":8,"name":"Uncletopia | Dallas | 1 | All Maps","name_short":"dal-1","host":"dal-1.us.uncletopia.com","port":27015,"enabled":true,"region":"us-central","cc":"us","latitude":32.779167,"longitude":-96.80889,"reserved":0,"last_update":"0001-01-01T00:00:00Z","name_a2s":"Uncletopia | Dallas | 1 | All Maps","protocol":17,"map":"pl_barnblitz","folder":"tf","game":"Team Fortress","app_id":440,"player_count":23,"max_players":24,"Bots":0,"server_type":"Dedicated","server_os":"Linux","password":true,"vac":true,"version":"7757534","steam_id":85568392924469986,"keywords":["nocrits","nodmgspread","payload","uncletopia"],"game_id":440,"stv_port":27016,"stv_name":"Uncletopia | Dallas | 1 | All Maps | STV","players":[{"user_id":157,"name":"Plo","steam_id":76561198080689959,"connected_time":2439000000000,"state":"active","ping":67},{"user_id":209,"name":"Grandma Tarkin","steam_id":76561198001756613,"connected_time":225000000000,"state":"active","ping":67},{"user_id":188,"name":"double tap 2.0","steam_id":76561198062146253,"connected_time":1264000000000,"state":"active","ping":95},{"user_id":210,"name":"SirPenguinII","steam_id":76561198402195371,"connected_time":223000000000,"state":"active","ping":93},{"user_id":198,"name":"Jodie_Miller","steam_id":76561198037865904,"connected_time":1022000000000,"state":"active","ping":95},{"user_id":196,"name":"Agent Bowtie","steam_id":76561198175839279,"connected_time":1114000000000,"state":"active","ping":56},{"user_id":203,"name":"Burning Monk","steam_id":76561198040700875,"connected_time":746000000000,"state":"active","ping":46},{"user_id":205,"name":"ink biscuit","steam_id":76561198927983566,"connected_time":610000000000,"state":"active","ping":169},{"user_id":204,"name":"‚ò†Do You Believe in Hawaii‚ò†","steam_id":76561198292001769,"connected_time":746000000000,"state":"active","ping":105},{"user_id":57,"name":"minimalpair","steam_id":76561198071788709,"connected_time":9572000000000,"state":"active","ping":82},{"user_id":191,"name":"Samurai Sam","steam_id":76561198274223636,"connected_time":1237000000000,"state":"active","ping":82},{"user_id":207,"name":"yeyoi","steam_id":76561198069821885,"connected_time":441000000000,"state":"active","ping":33},{"user_id":187,"name":"Batso","steam_id":76561198106589452,"connected_time":1327000000000,"state":"active","ping":76},{"user_id":193,"name":"Greckard","steam_id":76561198251525888,"connected_time":1233000000000,"state":"active","ping":104},{"user_id":208,"name":"BOR XOR","steam_id":76561198063294776,"connected_time":286000000000,"state":"active","ping":74},{"user_id":159,"name":"Tyler\u0026Fingers","steam_id":76561198085154485,"connected_time":2395000000000,"state":"active","ping":91},{"user_id":211,"name":"SonnyMarsh","steam_id":76561198188103746,"connected_time":162000000000,"state":"active","ping":99},{"user_id":168,"name":"5yt","steam_id":76561198041643833,"connected_time":1924000000000,"state":"active","ping":60},{"user_id":161,"name":"sentry turret","steam_id":76561198327057433,"connected_time":2334000000000,"state":"active","ping":95},{"user_id":212,"name":"josh","steam_id":76561198111565081,"connected_time":157000000000,"state":"active","ping":88},{"user_id":194,"name":"M@verick","steam_id":76561198006363519,"connected_time":1227000000000,"state":"active","ping":94},{"user_id":195,"name":"Dazed","steam_id":76561198167096734,"connected_time":1225000000000,"state":"active","ping":69},{"user_id":178,"name":"StarManMatt","steam_id":76561198125513574,"connected_time":1670000000000,"state":"active","ping":99}]},{"server_id":108,"name":"Uncletopia | Dallas | 2 | All Maps","name_short":"dal-2","host":"dal-1.us.uncletopia.com","port":27025,"enabled":true,"region":"us-central","cc":"us","latitude":32.779167,"longitude":-96.80889,"reserved":0,"last_update":"0001-01-01T00:00:00Z","name_a2s":"Uncletopia | Dallas | 2 | All Maps","protocol":17,"map":"koth_highpass","folder":"tf","game":"Team Fortress","app_id":440,"player_count":3,"max_players":24,"Bots":0,"server_type":"Dedicated","server_os":"Linux","password":true,"vac":true,"version":"7757534","steam_id":85568392924469988,"keywords":["cp","nocrits","nodmgspread","uncletopia"],"game_id":440,"stv_port":27026,"stv_name":"Uncletopia | Dallas | 2 | All Maps | STV","players":[{"user_id":12,"name":"NatePlayz97","steam_id":76561198184494979,"connected_time":801000000000,"state":"active","ping":86},{"user_id":13,"name":"Woogie Woogy Boogie","steam_id":76561198269471732,"connected_time":599000000000,"state":"active","ping":46},{"user_id":14,"name":"the smiling zombie","steam_id":76561199246231090,"connected_time":348000000000,"state":"active","ping":70}]},{"server_id":5,"name":"Uncletopia | Frankfurt | 1 | All Maps","name_short":"frk-1","host":"frk-1.de.uncletopia.com","port":27015,"enabled":true,"region":"eu","cc":"de","latitude":50.110924,"longitude":8.682127,"reserved":0,"last_update":"0001-01-01T00:00:00Z","name_a2s":"Uncletopia | Frankfurt | 1 | All Maps","protocol":17,"map":"cp_altitude","folder":"tf","game":"Team Fortress","app_id":440,"player_count":24,"max_players":24,"Bots":0,"server_type":"Dedicated","server_os":"Linux","password":true,"vac":true,"version":"7757534","steam_id":85568392924469989,"keywords":["cp","nocrits","nodmgspread","uncletopia"],"game_id":440,"stv_port":27016,"stv_name":"Uncletopia | Frankfurt | 1 | All Maps | STV","players":[{"user_id":434,"name":"SyborgCat","steam_id":76561198286846816,"connected_time":1720000000000,"state":"active","ping":72},{"user_id":400,"name":"Fuf!k ·É¶","steam_id":76561198082899416,"connected_time":3738000000000,"state":"active","ping":69},{"user_id":446,"name":"Ellele","steam_id":76561199008196067,"connected_time":814000000000,"state":"active","ping":89},{"user_id":415,"name":"Fran","steam_id":76561199070516960,"connected_time":2446000000000,"state":"active","ping":59},{"user_id":452,"name":"Cheshireycat","steam_id":76561198067204908,"connected_time":647000000000,"state":"active","ping":61},{"user_id":447,"name":"twitch.tv/biofun_","steam_id":76561198170609049,"connected_time":772000000000,"state":"active","ping":66},{"user_id":429,"name":"MatesThePlayer","steam_id":76561198066156449,"connected_time":2070000000000,"state":"active","ping":56},{"user_id":448,"name":"Rops","steam_id":76561198031608011,"connected_time":766000000000,"state":"active","ping":75},{"user_id":422,"name":"Old Beavis","steam_id":76561198065951617,"connected_time":2287000000000,"state":"active","ping":66},{"user_id":454,"name":"KajaStorm","steam_id":76561199215842872,"connected_time":473000000000,"state":"active","ping":178},{"user_id":431,"name":"Syll","steam_id":76561198040736202,"connected_time":1994000000000,"state":"active","ping":90},{"user_id":439,"name":"Kevin","steam_id":76561198035625423,"connected_time":1590000000000,"state":"active","ping":90},{"user_id":393,"name":"Raph","steam_id":76561198154800858,"connected_time":4132000000000,"state":"active","ping":78},{"user_id":455,"name":"lyudmilakh","steam_id":76561198362779878,"connected_time":133000000000,"state":"active","ping":85},{"user_id":432,"name":"Pls.do.it!","steam_id":76561198211638119,"connected_time":1978000000000,"state":"active","ping":58},{"user_id":387,"name":"PLUTO","steam_id":76561198312436128,"connected_time":4313000000000,"state":"active","ping":128},{"user_id":438,"name":"Saint Laurent","steam_id":76561198798657045,"connected_time":1602000000000,"state":"active","ping":67},{"user_id":425,"name":"Videogamer","steam_id":76561198106012909,"connected_time":2240000000000,"state":"active","ping":65},{"user_id":373,"name":"Vitamin Weee","steam_id":76561199183937747,"connected_time":5135000000000,"state":"active","ping":89},{"user_id":450,"name":"pizzaboob","steam_id":76561198097507847,"connected_time":760000000000,"state":"active","ping":76},{"user_id":437,"name":"Mayor Wank from Wanker Town","steam_id":76561197998253588,"connected_time":1678000000000,"state":"active","ping":46},{"user_id":451,"name":"Lognes","steam_id":76561198076569769,"connected_time":753000000000,"state":"active","ping":72},{"user_id":458,"name":"LarsInABox","steam_id":76561198028329262,"connected_time":31000000000,"state":"active","ping":71},{"user_id":444,"name":"unkle","steam_id":76561198093794423,"connected_time":1148000000000,"state":"active","ping":90}]},{"server_id":110,"name":"Uncletopia | Frankfurt | 2 | All Maps","name_short":"frk-2","host":"frk-1.de.uncletopia.com","port":27025,"enabled":true,"region":"eu","cc":"de","latitude":50.110924,"longitude":8.682127,"reserved":0,"last_update":"0001-01-01T00:00:00Z","name_a2s":"Uncletopia | Frankfurt | 2 | All Maps","protocol":17,"map":"koth_king","folder":"tf","game":"Team Fortress","app_id":440,"player_count":24,"max_players":24,"Bots":0,"server_type":"Dedicated","server_os":"Linux","password":true,"vac":true,"version":"7757534","steam_id":85568392924469990,"keywords":["cp","nocrits","nodmgspread","uncletopia"],"game_id":440,"stv_port":27026,"stv_name":"Uncletopia | Frankfurt | 2 | All Maps | STV","players":[{"user_id":424,"name":"Mr. Mundy","steam_id":76561198132008918,"connected_time":3426000000000,"state":"active","ping":76},{"user_id":455,"name":"Sputnik1","steam_id":76561199059003709,"connected_time":2262000000000,"state":"active","ping":135},{"user_id":421,"name":"emko√ß","steam_id":76561198846782346,"connected_time":3472000000000,"state":"active","ping":115},{"user_id":479,"name":"K. Hepburn","steam_id":76561198075129837,"connected_time":405000000000,"state":"active","ping":68},{"user_id":451,"name":"The Wheel (Live on KEXP)","steam_id":76561199064350902,"connected_time":2415000000000,"state":"active","ping":96},{"user_id":457,"name":"Fizzy","steam_id":76561198929807785,"connected_time":2082000000000,"state":"active","ping":51},{"user_id":394,"name":"G/3","steam_id":76561198234844188,"connected_time":4528000000000,"state":"active","ping":60},{"user_id":428,"name":"cute girl (not true)","steam_id":76561198140754824,"connected_time":3236000000000,"state":"active","ping":60},{"user_id":456,"name":"Valoxi","steam_id":76561197995042938,"connected_time":2194000000000,"state":"active","ping":68},{"user_id":474,"name":"Grolemaster","steam_id":76561199226454635,"connected_time":1153000000000,"state":"active","ping":67},{"user_id":470,"name":"Lessoz","steam_id":76561199211572036,"connected_time":1636000000000,"state":"active","ping":93},{"user_id":482,"name":"Nick","steam_id":76561198036109469,"connected_time":88000000000,"state":"active","ping":97},{"user_id":471,"name":"Hexagon","steam_id":76561198151205758,"connected_time":1339000000000,"state":"active","ping":52},{"user_id":472,"name":"Despair","steam_id":76561198259487481,"connected_time":1221000000000,"state":"active","ping":77},{"user_id":430,"name":"PH4NTOMtry","steam_id":76561198979390263,"connected_time":3151000000000,"state":"active","ping":83},{"user_id":473,"name":"Pootis Spencer","steam_id":76561198098267117,"connected_time":1219000000000,"state":"active","ping":76},{"user_id":480,"name":"angel","steam_id":76561198121408313,"connected_time":282000000000,"state":"active","ping":77},{"user_id":438,"name":"üúè Drepp","steam_id":76561197998867164,"connected_time":2947000000000,"state":"active","ping":54},{"user_id":467,"name":"G.L.O.R.I.","steam_id":76561198134414380,"connected_time":1772000000000,"state":"active","ping":61},{"user_id":469,"name":"Œ≤o·µëiŒ¨’áŒ∂","steam_id":76561198232414008,"connected_time":1666000000000,"state":"active","ping":82},{"user_id":481,"name":"…ò∆ö…í‚ÖÉ…ò∆ö…í‚ÖÉ /./ =)(= \\.\\","steam_id":76561198053339372,"connected_time":280000000000,"state":"active","ping":61},{"user_id":462,"name":"Craig","steam_id":76561198059158095,"connected_time":1961000000000,"state":"active","ping":87},{"user_id":447,"name":"ArikMor","steam_id":76561199124472513,"connected_time":2625000000000,"state":"active","ping":142},{"user_id":463,"name":"d00bie","steam_id":76561198025295218,"connected_time":1944000000000,"state":"active","ping":59}]},{"server_id":308,"name":"Uncletopia | Frankfurt | 3 | All Maps","name_short":"frk-3","host":"frk-1.de.uncletopia.com","port":27035,"enabled":true,"region":"eu","cc":"de","latitude":50.110924,"longitude":8.682127,"reserved":0,"last_update":"0001-01-01T00:00:00Z","name_a2s":"Uncletopia | Frankfurt | 3 | All Maps","protocol":17,"map":"koth_cascade","folder":"tf","game":"Team Fortress","app_id":440,"player_count":24,"max_players":24,"Bots":0,"server_type":"Dedicated","server_os":"Linux","password":true,"vac":true,"version":"7757534","steam_id":85568392924504274,"keywords":["cp","nocrits","nodmgspread","uncletopia"],"game_id":440,"stv_port":27036,"stv_name":"Uncletopia | Frankfurt | 3 | All Maps | STV","players":[{"user_id":317,"name":"KoraSona","steam_id":76561199000322836,"connected_time":415000000000,"state":"active","ping":100},{"user_id":327,"name":"Intheweb33","steam_id":76561198082873786,"connected_time":117000000000,"state":"active","ping":88},{"user_id":318,"name":"theres coke in my nose","steam_id":76561198840722991,"connected_time":404000000000,"state":"active","ping":66},{"user_id":281,"name":"Dont like the color black","steam_id":76561198418538887,"connected_time":2825000000000,"state":"active","ping":93},{"user_id":308,"name":"giclure :;","steam_id":76561197986362828,"connected_time":1341000000000,"state":"active","ping":60},{"user_id":291,"name":"Old man Fridge","steam_id":76561198326277470,"connected_time":2186000000000,"state":"active","ping":70},{"user_id":245,"name":"whosjoe","steam_id":76561199005683734,"connected_time":3661000000000,"state":"active","ping":88},{"user_id":319,"name":"Sperma985","steam_id":76561198808819694,"connected_time":391000000000,"state":"active","ping":48},{"user_id":283,"name":"Mr.Man","steam_id":76561199175688390,"connected_time":2752000000000,"state":"active","ping":78},{"user_id":247,"name":"DyingMeme","steam_id":76561198118510685,"connected_time":3644000000000,"state":"active","ping":61},{"user_id":303,"name":"Derp","steam_id":76561198197901062,"connected_time":1402000000000,"state":"active","ping":52},{"user_id":293,"name":"TheOneAndOnlyDinkleberg","steam_id":76561198144862452,"connected_time":2177000000000,"state":"active","ping":69},{"user_id":323,"name":"wouris","steam_id":76561198876188003,"connected_time":374000000000,"state":"active","ping":56},{"user_id":304,"name":"OTP DynamoDM","steam_id":76561198150755391,"connected_time":1392000000000,"state":"active","ping":52},{"user_id":309,"name":"Izzie","steam_id":76561198090287325,"connected_time":1239000000000,"state":"active","ping":84},{"user_id":280,"name":"Octoblue64","steam_id":76561198388997283,"connected_time":2874000000000,"state":"active","ping":66},{"user_id":326,"name":"„ÉÑ‚Åß‚ÅßAstora","steam_id":76561198081839576,"connected_time":145000000000,"state":"active","ping":70},{"user_id":321,"name":"dinger","steam_id":76561198038748489,"connected_time":379000000000,"state":"active","ping":60},{"user_id":328,"name":"lv.1 crook","steam_id":76561198195857751,"connected_time":103000000000,"state":"active","ping":66},{"user_id":294,"name":"TJ1212","steam_id":76561199013575313,"connected_time":2168000000000,"state":"active","ping":76},{"user_id":322,"name":"Jeff","steam_id":76561198426044127,"connected_time":374000000000,"state":"active","ping":46},{"user_id":324,"name":"Mr.Schnittlauch","steam_id":76561198295868113,"connected_time":371000000000,"state":"active","ping":69},{"user_id":298,"name":"No, Why?","steam_id":76561198888755969,"connected_time":1862000000000,"state":"active","ping":87},{"user_id":255,"name":"vroom doom","steam_id":76561198192671475,"connected_time":3473000000000,"state":"active","ping":59}]},{"server_id":309,"name":"Uncletopia | Frankfurt | 4 | All Maps","name_short":"frk-4","host":"frk-1.de.uncletopia.com","port":27045,"enabled":true,"region":"eu","cc":"de","latitude":50.110924,"longitude":8.682127,"reserved":0,"last_update":"0001-01-01T00:00:00Z","name_a2s":"Uncletopia | Frankfurt | 4 | All Maps","protocol":17,"map":"pl_upward","folder":"tf","game":"Team Fortress","app_id":440,"player_count":24,"max_players":24,"Bots":0,"server_type":"Dedicated","server_os":"Linux","password":true,"vac":true,"version":"7757534","steam_id":85568392924504275,"keywords":["nocrits","nodmgspread","payload","uncletopia"],"game_id":440,"stv_port":27046,"stv_name":"Uncletopia | Frankfurt | 4 | All Maps | STV","players":[{"user_id":542,"name":"AYE","steam_id":76561198181368101,"connected_time":4050000000000,"state":"active","ping":51},{"user_id":627,"name":"dunduu","steam_id":76561198875240717,"connected_time":403000000000,"state":"active","ping":68},{"user_id":633,"name":"Tywhip","steam_id":76561199207545191,"connected_time":35000000000,"state":"active","ping":64},{"user_id":624,"name":"ghenios","steam_id":76561198030011207,"connected_time":582000000000,"state":"active","ping":95},{"user_id":621,"name":"Acanda","steam_id":76561198123246537,"connected_time":656000000000,"state":"active","ping":53},{"user_id":607,"name":"kilikia","steam_id":76561198350261670,"connected_time":1308000000000,"state":"active","ping":89},{"user_id":585,"name":"where is my egg?","steam_id":76561198172542535,"connected_time":2371000000000,"state":"active","ping":68},{"user_id":626,"name":"kpn","steam_id":76561198063512694,"connected_time":547000000000,"state":"active","ping":54},{"user_id":570,"name":"Almond devourer","steam_id":76561198194866089,"connected_time":2598000000000,"state":"active","ping":74},{"user_id":590,"name":"yuh","steam_id":76561199005555839,"connected_time":2225000000000,"state":"active","ping":78},{"user_id":628,"name":"Windows Vista Cruiser","steam_id":76561198064102233,"connected_time":365000000000,"state":"active","ping":71},{"user_id":604,"name":"McGov","steam_id":76561198211361463,"connected_time":1331000000000,"state":"active","ping":78},{"user_id":609,"name":"Alfred2.2","steam_id":76561198339314744,"connected_time":1259000000000,"state":"active","ping":69},{"user_id":629,"name":"big boi","steam_id":76561198033467299,"connected_time":337000000000,"state":"active","ping":130},{"user_id":594,"name":"Flint","steam_id":76561198046885838,"connected_time":2031000000000,"state":"active","ping":86},{"user_id":565,"name":"Tre3","steam_id":76561198054795379,"connected_time":2719000000000,"state":"active","ping":59},{"user_id":578,"name":"Acxsa","steam_id":76561198098979449,"connected_time":2464000000000,"state":"active","ping":86},{"user_id":617,"name":"Lord of the Lockerroom","steam_id":76561198080619697,"connected_time":820000000000,"state":"active","ping":88},{"user_id":589,"name":"Welder","steam_id":76561198355300561,"connected_time":2269000000000,"state":"active","ping":71},{"user_id":580,"name":"VanillaWoof","steam_id":76561198158343951,"connected_time":2454000000000,"state":"active","ping":51},{"user_id":634,"name":"Subnautica07","steam_id":76561198858400776,"connected_time":26000000000,"state":"spawning","ping":164},{"user_id":591,"name":"jaroslav.kotoun","steam_id":76561198966830242,"connected_time":2222000000000,"state":"active","ping":73},{"user_id":625,"name":"Acidpets","steam_id":76561198875421227,"connected_time":573000000000,"state":"active","ping":60},{"user_id":600,"name":"JoueurFran√ßais","steam_id":76561198108081068,"connected_time":1467000000000,"state":"active","ping":71}]},{"server_id":310,"name":"Uncletopia | Frankfurt | 5 | All Maps","name_short":"frk-5","host":"frk-1.de.uncletopia.com","port":27055,"enabled":true,"region":"eu","cc":"de","latitude":50.110924,"longitude":8.682127,"reserved":0,"last_update":"0001-01-01T00:00:00Z","name_a2s":"Uncletopia | Frankfurt | 5 | All Maps","protocol":17,"map":"cp_sunshine","folder":"tf","game":"Team Fortress","app_id":440,"player_count":24,"max_players":24,"Bots":0,"server_type":"Dedicated","server_os":"Linux","password":true,"vac":true,"version":"7757534","steam_id":85568392924504277,"keywords":["cp","nocrits","nodmgspread","uncletopia"],"game_id":440,"stv_port":27056,"stv_name":"Uncletopia | Frankfurt | 5 | All Maps | STV","players":[{"user_id":132,"name":"Dom.","steam_id":76561199065917088,"connected_time":2429000000000,"state":"active","ping":101},{"user_id":133,"name":"Node #H0-L1C","steam_id":76561199468764173,"connected_time":2405000000000,"state":"active","ping":63},{"user_id":122,"name":"Durham.","steam_id":76561199013125141,"connected_time":3691000000000,"state":"active","ping":75},{"user_id":146,"name":"akakez","steam_id":76561198095432821,"connected_time":990000000000,"state":"active","ping":120},{"user_id":134,"name":"xenia","steam_id":76561198062107879,"connected_time":2173000000000,"state":"active","ping":76},{"user_id":126,"name":"mohemmedmokhter2005","steam_id":76561199197650506,"connected_time":3144000000000,"state":"active","ping":107},{"user_id":145,"name":"Quartzy","steam_id":76561198313301520,"connected_time":993000000000,"state":"active","ping":45},{"user_id":141,"name":"X-tis","steam_id":76561198043837480,"connected_time":1315000000000,"state":"active","ping":69},{"user_id":135,"name":"man juice","steam_id":76561198126524735,"connected_time":2163000000000,"state":"active","ping":74},{"user_id":154,"name":"remove poland","steam_id":76561199433578516,"connected_time":333000000000,"state":"active","ping":89},{"user_id":144,"name":"etc","steam_id":76561197998394797,"connected_time":1013000000000,"state":"active","ping":55},{"user_id":155,"name":"Shawty","steam_id":76561198256704286,"connected_time":90000000000,"state":"active","ping":58},{"user_id":148,"name":"barosans FR","steam_id":76561198038109099,"connected_time":966000000000,"state":"active","ping":51},{"user_id":115,"name":"Director","steam_id":76561198343273231,"connected_time":3743000000000,"state":"active","ping":71},{"user_id":150,"name":"typicalcrimson","steam_id":76561198295439747,"connected_time":938000000000,"state":"active","ping":77},{"user_id":127,"name":"Theo","steam_id":76561198144205951,"connected_time":3129000000000,"state":"active","ping":111},{"user_id":117,"name":"FoOzTV","steam_id":76561197998636728,"connected_time":3734000000000,"state":"active","ping":73},{"user_id":128,"name":"DaVitsChi","steam_id":76561199035895096,"connected_time":3028000000000,"state":"active","ping":77},{"user_id":138,"name":"Fat Pigeon","steam_id":76561198817940142,"connected_time":1556000000000,"state":"active","ping":52},{"user_id":153,"name":"VolcanicArts","steam_id":76561198063453246,"connected_time":857000000000,"state":"active","ping":69},{"user_id":136,"name":"Fit Crow mark","steam_id":76561198309246388,"connected_time":2156000000000,"state":"active","ping":44},{"user_id":152,"name":"LasagnaLarry22","steam_id":76561198089478290,"connected_time":921000000000,"state":"active","ping":66},{"user_id":156,"name":"AleXandriX","steam_id":76561198035203950,"connected_time":87000000000,"state":"active","ping":57},{"user_id":131,"name":"‡πñ€£€úSir Robbiewolf","steam_id":76561198001357988,"connected_time":2491000000000,"state":"active","ping":72}]},{"server_id":311,"name":"Uncletopia | Frankfurt | 6 | All Maps","name_short":"frk-6","host":"frk-1.de.uncletopia.com","port":27065,"enabled":true,"region":"eu","cc":"de","latitude":50.110924,"longitude":8.682127,"reserved":0,"last_update":"0001-01-01T00:00:00Z","name_a2s":"Uncletopia | Frankfurt | 6 | All Maps","protocol":17,"map":"pl_barnblitz","folder":"tf","game":"Team Fortress","app_id":440,"player_count":24,"max_players":24,"Bots":0,"server_type":"Dedicated","server_os":"Linux","password":true,"vac":true,"version":"7757534","steam_id":85568392924504278,"keywords":["nocrits","nodmgspread","payload","uncletopia"],"game_id":440,"stv_port":27066,"stv_name":"Uncletopia | Frankfurt | 6 | All Maps | STV","players":[{"user_id":303,"name":"why rum gone","steam_id":76561198158484784,"connected_time":1157000000000,"state":"active","ping":59},{"user_id":307,"name":"yosif9993","steam_id":76561199294138972,"connected_time":381000000000,"state":"active","ping":105},{"user_id":295,"name":"Perfectly Splendid","steam_id":76561198278348694,"connected_time":1528000000000,"state":"active","ping":121},{"user_id":318,"name":"VIN WEASEL","steam_id":76561198014387066,"connected_time":27000000000,"state":"active","ping":45},{"user_id":309,"name":"w4gthp0h","steam_id":76561198133193445,"connected_time":357000000000,"state":"active","ping":78},{"user_id":271,"name":"pyomac [no sound]","steam_id":76561198046808907,"connected_time":3233000000000,"state":"active","ping":76},{"user_id":285,"name":"ambatukam","steam_id":76561198175433731,"connected_time":2509000000000,"state":"active","ping":74},{"user_id":312,"name":"Hooggers","steam_id":76561198120447741,"connected_time":302000000000,"state":"active","ping":78},{"user_id":304,"name":"killer of noob!! Winner of game","steam_id":76561198190583242,"connected_time":1031000000000,"state":"active","ping":69},{"user_id":291,"name":"Walsingham","steam_id":76561198022244457,"connected_time":1915000000000,"state":"active","ping":73},{"user_id":296,"name":"Ged","steam_id":76561198079288943,"connected_time":1527000000000,"state":"active","ping":169},{"user_id":299,"name":"Muffin","steam_id":76561198134575280,"connected_time":1501000000000,"state":"active","ping":58},{"user_id":298,"name":"sharkmax12312","steam_id":76561198996008569,"connected_time":1511000000000,"state":"active","ping":80},{"user_id":293,"name":"Gr√∏nkj√¶r","steam_id":76561198041075280,"connected_time":1560000000000,"state":"active","ping":76},{"user_id":310,"name":"docta febby","steam_id":76561198133532980,"connected_time":349000000000,"state":"active","ping":60},{"user_id":313,"name":"kryhu","steam_id":76561198293327713,"connected_time":294000000000,"state":"active","ping":75},{"user_id":301,"name":"ofhsd;ui","steam_id":76561198043601838,"connected_time":1492000000000,"state":"active","ping":62},{"user_id":305,"name":"—Ç—É–∫–∫—É –∏—Ä–º–∞","steam_id":76561197998715016,"connected_time":450000000000,"state":"active","ping":61},{"user_id":314,"name":"Egap","steam_id":76561199070653454,"connected_time":278000000000,"state":"active","ping":88},{"user_id":264,"name":"Pabs :D","steam_id":76561198000016962,"connected_time":4149000000000,"state":"active","ping":61},{"user_id":282,"name":"Bia≈Çy","steam_id":76561197996016988,"connected_time":2802000000000,"state":"active","ping":74},{"user_id":319,"name":"Marie","steam_id":76561198056104899,"connected_time":24000000000,"state":"active","ping":179},{"user_id":289,"name":"kreeekz","steam_id":76561198014431602,"connected_time":2298000000000,"state":"active","ping":77},{"user_id":292,"name":"Gabys","steam_id":76561198282892553,"connected_time":1889000000000,"state":"active","ping":75}]},{"server_id":23,"name":"Uncletopia | Frankfurt | 7 | Stopwatch Beta","name_short":"frk-7","host":"frk-1.de.uncletopia.com","port":27075,"enabled":true,"region":"eu","cc":"de","latitude":50.110924,"longitude":8.682127,"reserved":0,"last_update":"0001-01-01T00:00:00Z","name_a2s":"Uncletopia | Frankfurt | 7 | Stopwatch Beta","protocol":17,"map":"workshop/koth_bagel_rc5.ugc2514036946","folder":"tf","game":"Team Fortress","app_id":440,"player_count":0,"max_players":24,"Bots":0,"server_type":"Dedicated","server_os":"Linux","password":true,"vac":true,"version":"7757534","steam_id":85568392924742827,"keywords":["cp","nocrits","nodmgspread","uncletopia"],"game_id":440,"stv_port":27076,"stv_name":"Uncletopia | Frankfurt | 7 | Stopwatch Beta | STV","players":null},{"server_id":24,"name":"Uncletopia | Frankfurt | 8 | Community","name_short":"frk-8","host":"frk-1.de.uncletopia.com","port":27085,"enabled":true,"region":"eu","cc":"de","latitude":50.110924,"longitude":8.682127,"reserved":0,"last_update":"0001-01-01T00:00:00Z","name_a2s":"Uncletopia | Frankfurt | 8 | Community","protocol":17,"map":"koth_cascade","folder":"tf","game":"Team Fortress","app_id":440,"player_count":3,"max_players":24,"Bots":0,"server_type":"Dedicated","server_os":"Linux","password":true,"vac":true,"version":"7757534","steam_id":85568392924742828,"keywords":["cp","nocrits","nodmgspread","uncletopia"],"game_id":440,"stv_port":27086,"stv_name":"Uncletopia | Frankfurt | 8 | Community | STV","players":[{"user_id":33,"name":"Wilgotny Jerry69","steam_id":76561199006385915,"connected_time":1251000000000,"state":"active","ping":91},{"user_id":34,"name":"Kamieniarz Dok","steam_id":76561198939430913,"connected_time":1230000000000,"state":"active","ping":83},{"user_id":36,"name":"YourDoom","steam_id":76561198080790857,"connected_time":15000000000,"state":"spawning","ping":45}]},{"server_id":202,"name":"Uncletopia | Hong Kong | 1 | All Maps","name_short":"hgk-1","host":"hgk-1.hk.uncletopia.com","port":27015,"enabled":true,"region":"asia","cc":"hk","latitude":22.302711,"longitude":114.177216,"reserved":0,"last_update":"0001-01-01T00:00:00Z","name_a2s":"Uncletopia | Hong Kong | 1 | All Maps","protocol":17,"map":"koth_viaduct","folder":"tf","game":"Team Fortress","app_id":440,"player_count":0,"max_players":24,"Bots":0,"server_type":"Dedicated","server_os":"Linux","password":true,"vac":true,"version":"7757534","steam_id":85568392924494504,"keywords":["cp","nocrits","nodmgspread","uncletopia"],"game_id":440,"stv_port":27016,"stv_name":"Uncletopia | Hong Kong | 1 | All Maps | STV","players":null},{"server_id":1,"name":"Uncletopia | Los Angeles | 1 | All Maps","name_short":"lax-1","host":"lax-1.us.uncletopia.com","port":27015,"enabled":true,"region":"us-west","cc":"us","latitude":33.94279,"longitude":-118.41004,"reserved":0,"last_update":"0001-01-01T00:00:00Z","name_a2s":"Uncletopia | Los Angeles | 1 | All Maps","protocol":17,"map":"cp_mountainlab","folder":"tf","game":"Team Fortress","app_id":440,"player_count":0,"max_players":24,"Bots":0,"server_type":"Dedicated","server_os":"Linux","password":true,"vac":true,"version":"7757534","steam_id":85568392924469991,"keywords":["cp","nocrits","nodmgspread","uncletopia"],"game_id":440,"stv_port":27016,"stv_name":"Uncletopia | Los Angeles | 1 | All Maps | STV","players":null},{"server_id":112,"name":"Uncletopia | Los Angeles | 2 | All Maps","name_short":"lax-2","host":"lax-1.us.uncletopia.com","port":27025,"enabled":true,"region":"us-west","cc":"us","latitude":33.94279,"longitude":-118.41004,"reserved":0,"last_update":"0001-01-01T00:00:00Z","name_a2s":"Uncletopia | Los Angeles | 2 | All Maps","protocol":17,"map":"cp_mountainlab","folder":"tf","game":"Team Fortress","app_id":440,"player_count":0,"max_players":24,"Bots":0,"server_type":"Dedicated","server_os":"Linux","password":true,"vac":true,"version":"7757534","steam_id":85568392924469992,"keywords":["cp","nocrits","nodmgspread","uncletopia"],"game_id":440,"stv_port":27026,"stv_name":"Uncletopia | Los Angeles | 2 | All Maps | STV","players":null},{"server_id":324,"name":"Uncletopia | Los Angeles | 3 | All Maps","name_short":"lax-3","host":"lax-1.us.uncletopia.com","port":27035,"enabled":true,"region":"us-west","cc":"us","latitude":33.94279,"longitude":-118.41004,"reserved":0,"last_update":"0001-01-01T00:00:00Z","name_a2s":"Uncletopia | Los Angeles | 3 | All Maps","protocol":17,"map":"cp_mossrock","folder":"tf","game":"Team Fortress","app_id":440,"player_count":14,"max_players":24,"Bots":0,"server_type":"Dedicated","server_os":"Linux","password":true,"vac":true,"version":"7757534","steam_id":85568392924510198,"keywords":["cp","nocrits","nodmgspread","uncletopia"],"game_id":440,"stv_port":27036,"stv_name":"Uncletopia | Los Angeles | 3 | All Maps | STV","players":[{"user_id":25,"name":"bodie._.","steam_id":76561198079474904,"connected_time":204000000000,"state":"active","ping":88},{"user_id":26,"name":"Tuxedo Terrorist","steam_id":76561199093106628,"connected_time":182000000000,"state":"active","ping":43},{"user_id":29,"name":"MLG BOOTMAN","steam_id":76561198234179320,"connected_time":11000000000,"state":"active","ping":136},{"user_id":18,"name":"gordonpootman297","steam_id":76561199075532033,"connected_time":402000000000,"state":"active","ping":203},{"user_id":13,"name":"Altruisticailuridae","steam_id":76561198335295596,"connected_time":610000000000,"state":"active","ping":54},{"user_id":27,"name":"chimpbrain1269","steam_id":76561199455515783,"connected_time":142000000000,"state":"active","ping":101},{"user_id":15,"name":"xXshrek_jrXx","steam_id":76561199241882759,"connected_time":588000000000,"state":"active","ping":45},{"user_id":16,"name":"catgirl giantess in heat","steam_id":76561198439042583,"connected_time":501000000000,"state":"active","ping":84},{"user_id":17,"name":"Flare Dance","steam_id":76561198260443137,"connected_time":500000000000,"state":"active","ping":55},{"user_id":19,"name":"abolish the federal reserve","steam_id":76561198047796437,"connected_time":364000000000,"state":"active","ping":61},{"user_id":20,"name":"„Éç„Éº„Éà","steam_id":76561198212969373,"connected_time":328000000000,"state":"active","ping":75},{"user_id":28,"name":"The flamengo boy","steam_id":76561199018137623,"connected_time":132000000000,"state":"active","ping":249},{"user_id":24,"name":"dndplayer2000","steam_id":76561199187895660,"connected_time":286000000000,"state":"active","ping":59},{"user_id":30,"name":"Mith the Crow","steam_id":76561198085979460,"connected_time":8000000000,"state":"spawning","ping":55}]},{"server_id":25,"name":"Uncletopia | Los Angeles | 4 | Stopwatch Beta","name_short":"lax-4","host":"lax-1.us.uncletopia.com","port":27045,"enabled":true,"region":"us-west","cc":"us","latitude":33.94279,"longitude":-118.41004,"reserved":0,"last_update":"0001-01-01T00:00:00Z","name_a2s":"Uncletopia | Los Angeles | 4 | Stopwatch Beta","protocol":17,"map":"koth_viaduct","folder":"tf","game":"Team Fortress","app_id":440,"player_count":0,"max_players":24,"Bots":0,"server_type":"Dedicated","server_os":"Linux","password":true,"vac":true,"version":"7757534","steam_id":85568392924510199,"keywords":["cp","nocrits","nodmgspread","uncletopia"],"game_id":440,"stv_port":27046,"stv_name":"Uncletopia | Los Angeles | 4 | Stopwatch Beta | STV","players":null},{"server_id":11,"name":"Uncletopia | London | 1 | All Maps","name_short":"lon-1","host":"lon-1.uk.uncletopia.com","port":27015,"enabled":true,"region":"eu","cc":"gb","latitude":51.509865,"longitude":-0.118092,"reserved":0,"last_update":"0001-01-01T00:00:00Z","name_a2s":"Uncletopia | London | 1 | All Maps","protocol":17,"map":"koth_viaduct","folder":"tf","game":"Team Fortress","app_id":440,"player_count":24,"max_players":24,"Bots":0,"server_type":"Dedicated","server_os":"Linux","password":true,"vac":true,"version":"7757534","steam_id":85568392924367362,"keywords":["cp","nocrits","nodmgspread","uncletopia"],"game_id":440,"stv_port":27016,"stv_name":"Uncletopia | London | 1 | All Maps | STV","players":[{"user_id":653,"name":"MoistMomMauler","steam_id":76561198069359049,"connected_time":388000000000,"state":"active","ping":65},{"user_id":650,"name":"Kahvi","steam_id":76561198723244199,"connected_time":430000000000,"state":"active","ping":74},{"user_id":623,"name":"gremlin GOD","steam_id":76561198169972571,"connected_time":2085000000000,"state":"active","ping":53},{"user_id":642,"name":"Holt66","steam_id":76561198046634640,"connected_time":919000000000,"state":"active","ping":64},{"user_id":654,"name":"BING CHILLING","steam_id":76561198065438030,"connected_time":375000000000,"state":"active","ping":119},{"user_id":648,"name":"Alegz","steam_id":76561198287810139,"connected_time":538000000000,"state":"active","ping":85},{"user_id":563,"name":"Sandshee","steam_id":76561198088574666,"connected_time":6335000000000,"state":"active","ping":31},{"user_id":634,"name":"I like apple","steam_id":76561198108115790,"connected_time":1260000000000,"state":"active","ping":46},{"user_id":582,"name":"Nostradamus","steam_id":76561198349792686,"connected_time":5415000000000,"state":"active","ping":70},{"user_id":660,"name":"ghost","steam_id":76561198189940229,"connected_time":117000000000,"state":"active","ping":61},{"user_id":613,"name":"pol is egg","steam_id":76561198171749265,"connected_time":3172000000000,"state":"active","ping":71},{"user_id":638,"name":"i deep fried my penis","steam_id":76561198034507015,"connected_time":993000000000,"state":"active","ping":69},{"user_id":639,"name":"Bamboleo","steam_id":76561198079029995,"connected_time":970000000000,"state":"active","ping":91},{"user_id":661,"name":"Katie","steam_id":76561198056193753,"connected_time":98000000000,"state":"active","ping":49},{"user_id":663,"name":"Castellan","steam_id":76561197994861142,"connected_time":69000000000,"state":"active","ping":68},{"user_id":641,"name":"Rain","steam_id":76561198186993269,"connected_time":956000000000,"state":"active","ping":69},{"user_id":600,"name":"The Masterplan","steam_id":76561198158631465,"connected_time":3930000000000,"state":"active","ping":70},{"user_id":664,"name":"YEEET","steam_id":76561198914938199,"connected_time":48000000000,"state":"active","ping":104},{"user_id":604,"name":"Kris","steam_id":76561198240638652,"connected_time":3437000000000,"state":"active","ping":45},{"user_id":606,"name":"avon.wav","steam_id":76561198063093802,"connected_time":3275000000000,"state":"active","ping":50},{"user_id":665,"name":"Michael","steam_id":76561198003146906,"connected_time":47000000000,"state":"active","ping":45},{"user_id":633,"name":"john fortress 2","steam_id":76561198202668788,"connected_time":1363000000000,"state":"active","ping":70},{"user_id":656,"name":"jerf","steam_id":76561199213901239,"connected_time":312000000000,"state":"active","ping":45},{"user_id":667,"name":"TK","steam_id":76561199384193338,"connected_time":25000000000,"state":"active","ping":74}]},{"server_id":114,"name":"Uncletopia | London | 2 | All Maps","name_short":"lon-2","host":"lon-1.uk.uncletopia.com","port":27025,"enabled":true,"region":"eu","cc":"gb","latitude":51.509865,"longitude":-0.118092,"reserved":0,"last_update":"0001-01-01T00:00:00Z","name_a2s":"Uncletopia | London | 2 | All Maps","protocol":17,"map":"pl_frontier_final","folder":"tf","game":"Team Fortress","app_id":440,"player_count":22,"max_players":24,"Bots":0,"server_type":"Dedicated","server_os":"Linux","password":true,"vac":true,"version":"7757534","steam_id":85568392924470941,"keywords":["nocrits","nodmgspread","payload","uncletopia"],"game_id":440,"stv_port":27026,"stv_name":"Uncletopia | London | 2 | All Maps | STV","players":[{"user_id":154,"name":"Thesis","steam_id":76561199308784371,"connected_time":5677000000000,"state":"active","ping":54},{"user_id":226,"name":"Dark ^^","steam_id":76561198036241064,"connected_time":21000000000,"state":"spawning","ping":61},{"user_id":202,"name":"Pintarolas","steam_id":76561198124839451,"connected_time":1510000000000,"state":"active","ping":101},{"user_id":187,"name":"AwterSix","steam_id":76561198042561678,"connected_time":2934000000000,"state":"active","ping":64},{"user_id":204,"name":"manglering for cows","steam_id":76561198800573494,"connected_time":1497000000000,"state":"active","ping":101},{"user_id":223,"name":"mikA_molchA‚ô•","steam_id":76561198134497032,"connected_time":164000000000,"state":"active","ping":77},{"user_id":217,"name":"RFireRed","steam_id":76561198982078622,"connected_time":273000000000,"state":"active","ping":59},{"user_id":216,"name":"filetype","steam_id":76561198884659731,"connected_time":348000000000,"state":"active","ping":115},{"user_id":117,"name":"- 84n4n3n8r07 -","steam_id":76561198047887705,"connected_time":7640000000000,"state":"active","ping":62},{"user_id":218,"name":"Toofy","steam_id":76561197989727907,"connected_time":266000000000,"state":"active","ping":42},{"user_id":221,"name":"Caliban","steam_id":76561197999696839,"connected_time":240000000000,"state":"active","ping":104},{"user_id":213,"name":"101 000 tuns of democracy","steam_id":76561198218257120,"connected_time":893000000000,"state":"active","ping":78},{"user_id":207,"name":"maunet732","steam_id":76561198032423958,"connected_time":1472000000000,"state":"active","ping":71},{"user_id":225,"name":"Cabbe","steam_id":76561198019915094,"connected_time":46000000000,"state":"active","ping":79},{"user_id":224,"name":"Cavalier","steam_id":76561198077283980,"connected_time":153000000000,"state":"active","ping":59},{"user_id":215,"name":"moser23","steam_id":76561197960543171,"connected_time":369000000000,"state":"active","ping":65},{"user_id":206,"name":"jaMie","steam_id":76561198170148783,"connected_time":1477000000000,"state":"active","ping":43},{"user_id":228,"name":"Een schaap zonder slaap","steam_id":76561198084808410,"connected_time":13000000000,"state":"spawning","ping":44},{"user_id":212,"name":"Mr Prince","steam_id":76561199006591691,"connected_time":1099000000000,"state":"active","ping":56},{"user_id":158,"name":"_zipfile","steam_id":76561198066133808,"connected_time":5310000000000,"state":"active","ping":69},{"user_id":220,"name":"Le Bon Toutou","steam_id":76561198300902712,"connected_time":257000000000,"state":"active","ping":74},{"user_id":209,"name":"Vezage","steam_id":76561198064916164,"connected_time":1313000000000,"state":"active","ping":72}]},{"server_id":320,"name":"Uncletopia | London | 3 | All Maps","name_short":"lon-3","host":"lon-1.uk.uncletopia.com","port":27035,"enabled":true,"region":"eu","cc":"gb","latitude":51.509865,"longitude":-0.118092,"reserved":0,"last_update":"0001-01-01T00:00:00Z","name_a2s":"Uncletopia | London | 3 | All Maps","protocol":17,"map":"cp_steel","folder":"tf","game":"Team Fortress","app_id":440,"player_count":24,"max_players":24,"Bots":0,"server_type":"Dedicated","server_os":"Linux","password":true,"vac":true,"version":"7757534","steam_id":85568392924510192,"keywords":["cp","nocrits","nodmgspread","uncletopia"],"game_id":440,"stv_port":27036,"stv_name":"Uncletopia | London | 3 | All Maps | STV","players":[{"user_id":75,"name":"Fujiye","steam_id":76561198097713633,"connected_time":499000000000,"state":"active","ping":74},{"user_id":65,"name":"JohkupohkuXD","steam_id":76561198391108762,"connected_time":1913000000000,"state":"active","ping":93},{"user_id":76,"name":"harrison","steam_id":76561198990132243,"connected_time":495000000000,"state":"active","ping":65},{"user_id":80,"name":"SlavaZhokhov","steam_id":76561198024112267,"connected_time":362000000000,"state":"active","ping":100},{"user_id":37,"name":"Kotlet schabowy","steam_id":76561198048983509,"connected_time":2951000000000,"state":"active","ping":83},{"user_id":50,"name":"tactical783","steam_id":76561199051688560,"connected_time":2640000000000,"state":"active","ping":69},{"user_id":78,"name":"Hnreeee","steam_id":76561198332936466,"connected_time":408000000000,"state":"active","ping":31},{"user_id":68,"name":"ran is running","steam_id":76561199443185667,"connected_time":1428000000000,"state":"active","ping":145},{"user_id":89,"name":"Mao Zedong","steam_id":76561198347020945,"connected_time":48000000000,"state":"spawning","ping":100},{"user_id":81,"name":"P√òST","steam_id":76561198056657316,"connected_time":275000000000,"state":"active","ping":57},{"user_id":82,"name":"Loberless","steam_id":76561198277844777,"connected_time":269000000000,"state":"active","ping":40},{"user_id":23,"name":"Blade the vampire (bisexual)","steam_id":76561198074097655,"connected_time":3619000000000,"state":"active","ping":32},{"user_id":87,"name":"Pain in a Box","steam_id":76561197990777173,"connected_time":101000000000,"state":"active","ping":75},{"user_id":44,"name":"justin_ (f2p and real)","steam_id":76561198839843428,"connected_time":2795000000000,"state":"active","ping":122},{"user_id":83,"name":"Little Skull Kid","steam_id":76561198040818333,"connected_time":262000000000,"state":"active","ping":83},{"user_id":33,"name":"Flint","steam_id":76561197995920776,"connected_time":3176000000000,"state":"active","ping":46},{"user_id":88,"name":"le huegloto de poeboto","steam_id":76561198865957930,"connected_time":69000000000,"state":"active","ping":108},{"user_id":84,"name":"c a t  /·ê†.Íûà.·êü\\","steam_id":76561199208236999,"connected_time":239000000000,"state":"active","ping":59},{"user_id":49,"name":"saiboT","steam_id":76561198300404049,"connected_time":2666000000000,"state":"active","ping":57},{"user_id":85,"name":"OutOfDucks","steam_id":76561198166376227,"connected_time":200000000000,"state":"active","ping":54},{"user_id":86,"name":"Haggabah,WhoPliesTheUmbralPath","steam_id":76561198846984399,"connected_time":137000000000,"state":"active","ping":90},{"user_id":54,"name":"Athomix","steam_id":76561198170108402,"connected_time":2553000000000,"state":"active","ping":46},{"user_id":55,"name":"The Command Prompt","steam_id":76561198154677956,"connected_time":2530000000000,"state":"active","ping":83},{"user_id":57,"name":"mordecai.nmc","steam_id":76561197997223851,"connected_time":2517000000000,"state":"active","ping":57}]},{"server_id":321,"name":"Uncletopia | London | 4 | All Maps","name_short":"lon-4","host":"lon-1.uk.uncletopia.com","port":27045,"enabled":true,"region":"eu","cc":"gb","latitude":51.509865,"longitude":-0.118092,"reserved":0,"last_update":"0001-01-01T00:00:00Z","name_a2s":"Uncletopia | London | 4 | All Maps","protocol":17,"map":"pl_badwater","folder":"tf","game":"Team Fortress","app_id":440,"player_count":24,"max_players":24,"Bots":0,"server_type":"Dedicated","server_os":"Linux","password":true,"vac":true,"version":"7757534","steam_id":85568392924510193,"keywords":["nocrits","nodmgspread","payload","uncletopia"],"game_id":440,"stv_port":27046,"stv_name":"Uncletopia | London | 4 | All Maps | STV","players":[{"user_id":368,"name":"Hilldog","steam_id":76561198082209322,"connected_time":550000000000,"state":"active","ping":80},{"user_id":316,"name":"WMW","steam_id":76561198837706438,"connected_time":3796000000000,"state":"active","ping":60},{"user_id":377,"name":"lofimonkeyjazz","steam_id":76561198117059662,"connected_time":50000000000,"state":"active","ping":75},{"user_id":357,"name":"Caerot","steam_id":76561198839000676,"connected_time":1705000000000,"state":"active","ping":74},{"user_id":326,"name":"r0la","steam_id":76561198128315340,"connected_time":3416000000000,"state":"active","ping":77},{"user_id":370,"name":"Pingutaro","steam_id":76561198112803718,"connected_time":458000000000,"state":"active","ping":60},{"user_id":371,"name":"Axter","steam_id":76561198118747192,"connected_time":434000000000,"state":"active","ping":86},{"user_id":372,"name":"Kvicha Kvaratskhelia","steam_id":76561198179339326,"connected_time":425000000000,"state":"active","ping":75},{"user_id":373,"name":"drew","steam_id":76561198012304706,"connected_time":420000000000,"state":"active","ping":101},{"user_id":348,"name":"ZaiKowy","steam_id":76561198837246687,"connected_time":2039000000000,"state":"active","ping":99},{"user_id":367,"name":"ERRORNAME","steam_id":76561198218639551,"connected_time":603000000000,"state":"active","ping":102},{"user_id":376,"name":"bigfutacock56","steam_id":76561198835619904,"connected_time":287000000000,"state":"active","ping":117},{"user_id":374,"name":"bkashooter","steam_id":76561198116877713,"connected_time":413000000000,"state":"active","ping":35},{"user_id":365,"name":"degu","steam_id":76561198180823942,"connected_time":982000000000,"state":"active","ping":85},{"user_id":356,"name":"Qosmo","steam_id":76561197980806182,"connected_time":1860000000000,"state":"active","ping":68},{"user_id":350,"name":"PjoterTF2 #SaveTF2 (ILOVEtf2)","steam_id":76561199079174002,"connected_time":2032000000000,"state":"active","ping":110},{"user_id":378,"name":"Klonky","steam_id":76561199068329886,"connected_time":47000000000,"state":"active","ping":84},{"user_id":361,"name":"randompixel","steam_id":76561198003941207,"connected_time":1103000000000,"state":"active","ping":59},{"user_id":355,"name":"mishka.*","steam_id":76561198040003628,"connected_time":1901000000000,"state":"active","ping":84},{"user_id":375,"name":"The Fellow Feller","steam_id":76561198188864306,"connected_time":396000000000,"state":"active","ping":85},{"user_id":364,"name":"murf","steam_id":76561199184831395,"connected_time":1048000000000,"state":"active","ping":34},{"user_id":353,"name":"Arky ü¶ë","steam_id":76561198027448234,"connected_time":1949000000000,"state":"active","ping":70},{"user_id":302,"name":"Cossack","steam_id":76561198076661772,"connected_time":5501000000000,"state":"active","ping":89},{"user_id":297,"name":"My balls itch","steam_id":76561199121794613,"connected_time":5912000000000,"state":"active","ping":87}]},{"server_id":21,"name":"Uncletopia | London | 5 | All Maps","name_short":"lon-5","host":"lon-1.uk.uncletopia.com","port":27055,"enabled":true,"region":"eu","cc":"gb","latitude":51.509865,"longitude":-0.118092,"reserved":0,"last_update":"0001-01-01T00:00:00Z","name_a2s":"Uncletopia | London | 5 | All Maps","protocol":17,"map":"pl_upward","folder":"tf","game":"Team Fortress","app_id":440,"player_count":24,"max_players":24,"Bots":0,"server_type":"Dedicated","server_os":"Linux","password":true,"vac":true,"version":"7757534","steam_id":85568392924742829,"keywords":["nocrits","nodmgspread","payload","uncletopia"],"game_id":440,"stv_port":27056,"stv_name":"Uncletopia | London | 5 | All Maps | STV","players":[{"user_id":352,"name":"Oskuri","steam_id":76561198155956047,"connected_time":1043000000000,"state":"active","ping":85},{"user_id":315,"name":"sugar.muffin22","steam_id":76561198147277460,"connected_time":2663000000000,"state":"active","ping":66},{"user_id":155,"name":"Zerfesh","steam_id":76561198117534358,"connected_time":14456000000000,"state":"active","ping":97},{"user_id":258,"name":"·óúÀ∞·óú","steam_id":76561198148074472,"connected_time":7199000000000,"state":"active","ping":45},{"user_id":353,"name":"Dr. Funkenstein","steam_id":76561197977816210,"connected_time":864000000000,"state":"active","ping":63},{"user_id":292,"name":"Yassine","steam_id":76561198140565712,"connected_time":4473000000000,"state":"active","ping":52},{"user_id":342,"name":"smooth","steam_id":76561198213336441,"connected_time":1654000000000,"state":"active","ping":87},{"user_id":359,"name":"lord-carlos","steam_id":76561198025150761,"connected_time":569000000000,"state":"active","ping":60},{"user_id":310,"name":"Owlet","steam_id":76561198065613974,"connected_time":3098000000000,"state":"active","ping":66},{"user_id":340,"name":"Na'vi Misato (by popular demand","steam_id":76561198130860698,"connected_time":1706000000000,"state":"active","ping":57},{"user_id":350,"name":"Sonder","steam_id":76561198115893794,"connected_time":1311000000000,"state":"active","ping":87},{"user_id":271,"name":"C√©l√©rio","steam_id":76561198088253576,"connected_time":6285000000000,"state":"active","ping":45},{"user_id":356,"name":"Grigori Rasputin","steam_id":76561198070810812,"connected_time":830000000000,"state":"active","ping":116},{"user_id":294,"name":"‚ô† Kschnell ‚ô†","steam_id":76561198125567320,"connected_time":4080000000000,"state":"active","ping":85},{"user_id":318,"name":"Bostrash641","steam_id":76561199447225685,"connected_time":2562000000000,"state":"active","ping":71},{"user_id":358,"name":"blue","steam_id":76561198216200092,"connected_time":731000000000,"state":"active","ping":45},{"user_id":361,"name":"Jahusi!*","steam_id":76561197992445165,"connected_time":219000000000,"state":"active","ping":65},{"user_id":338,"name":"cactusninja(AproveArenaGamemode","steam_id":76561198956710084,"connected_time":1757000000000,"state":"active","ping":52},{"user_id":332,"name":"Sipsu","steam_id":76561198059424107,"connected_time":2024000000000,"state":"active","ping":81},{"user_id":341,"name":"Raivop","steam_id":76561197980854307,"connected_time":1699000000000,"state":"active","ping":81},{"user_id":348,"name":"K√§pt'n","steam_id":76561198082347638,"connected_time":1415000000000,"state":"active","ping":78},{"user_id":362,"name":"Nightshade","steam_id":76561199075397133,"connected_time":130000000000,"state":"active","ping":74},{"user_id":349,"name":"majora's boostio","steam_id":76561198392628642,"connected_time":1379000000000,"state":"active","ping":40},{"user_id":351,"name":"dddd","steam_id":76561198120894372,"connected_time":1300000000000,"state":"active","ping":120}]},{"server_id":22,"name":"Uncletopia | London | 6 | All Maps","name_short":"lon-6","host":"lon-1.uk.uncletopia.com","port":27065,"enabled":true,"region":"eu","cc":"gb","latitude":51.509865,"longitude":-0.118092,"reserved":0,"last_update":"0001-01-01T00:00:00Z","name_a2s":"Uncletopia | London | 6 | All Maps","protocol":17,"map":"pl_frontier_final","folder":"tf","game":"Team Fortress","app_id":440,"player_count":0,"max_players":24,"Bots":0,"server_type":"Dedicated","server_os":"Linux","password":true,"vac":true,"version":"7757534","steam_id":85568392924742830,"keywords":["nocrits","nodmgspread","payload","uncletopia"],"game_id":440,"stv_port":27066,"stv_name":"Uncletopia | London | 6 | All Maps | STV","players":null},{"server_id":40,"name":"Uncletopia | London | 7 | No Payload","name_short":"lon-7","host":"lon-1.uk.uncletopia.com","port":27075,"enabled":true,"region":"eu","cc":"gb","latitude":51.509865,"longitude":-0.118092,"reserved":0,"last_update":"0001-01-01T00:00:00Z","name_a2s":"Uncletopia | London | 7 | No Payload","protocol":17,"map":"koth_sawmill","folder":"tf","game":"Team Fortress","app_id":440,"player_count":22,"max_players":24,"Bots":0,"server_type":"Dedicated","server_os":"Linux","password":true,"vac":true,"version":"7757534","steam_id":85568392924964314,"keywords":["cp","nocrits","nodmgspread","uncletopia"],"game_id":440,"stv_port":27076,"stv_name":"Uncletopia | London | 7 | No Payload | STV","players":[{"user_id":117,"name":"sacha","steam_id":76561198098065932,"connected_time":615000000000,"state":"active","ping":46},{"user_id":73,"name":"Blackout195","steam_id":76561198069410775,"connected_time":2416000000000,"state":"active","ping":45},{"user_id":109,"name":"Shindo","steam_id":76561198061678468,"connected_time":988000000000,"state":"active","ping":45},{"user_id":111,"name":"nugget the hoovy","steam_id":76561199293101434,"connected_time":807000000000,"state":"active","ping":152},{"user_id":74,"name":"Azi ‚ò¢","steam_id":76561198124563460,"connected_time":2322000000000,"state":"active","ping":59},{"user_id":90,"name":"„Äå‚óÜRaku‚Ä¢ „Äç","steam_id":76561198059283183,"connected_time":1408000000000,"state":"active","ping":82},{"user_id":121,"name":"Somberyu","steam_id":76561198041630656,"connected_time":395000000000,"state":"active","ping":64},{"user_id":91,"name":"AC3NATOR","steam_id":76561198145415811,"connected_time":1408000000000,"state":"active","ping":87},{"user_id":118,"name":"GRcrafter","steam_id":76561198372186715,"connected_time":600000000000,"state":"active","ping":97},{"user_id":78,"name":"Lady Havoc","steam_id":76561198403933649,"connected_time":1800000000000,"state":"active","ping":74},{"user_id":108,"name":"ryan (gosling)","steam_id":76561198064140229,"connected_time":1072000000000,"state":"active","ping":54},{"user_id":122,"name":"FoguDashy","steam_id":76561199155682408,"connected_time":249000000000,"state":"active","ping":76},{"user_id":114,"name":"Le Chevalier Pingouin","steam_id":76561198221355000,"connected_time":732000000000,"state":"active","ping":38},{"user_id":83,"name":"Koko","steam_id":76561198160358848,"connected_time":1615000000000,"state":"active","ping":67},{"user_id":31,"name":"4's up Rigby","steam_id":76561199122067976,"connected_time":5028000000000,"state":"active","ping":55},{"user_id":88,"name":"Average Omori Enjoyer","steam_id":76561199163263543,"connected_time":1501000000000,"state":"active","ping":141},{"user_id":119,"name":"joecalmatt","steam_id":76561198172552015,"connected_time":589000000000,"state":"active","ping":45},{"user_id":94,"name":"Veubot","steam_id":76561199403755522,"connected_time":1347000000000,"state":"active","ping":107},{"user_id":104,"name":"Smaidermens","steam_id":76561198085273967,"connected_time":1138000000000,"state":"active","ping":95},{"user_id":115,"name":"Shlongulator","steam_id":76561198149779201,"connected_time":728000000000,"state":"active","ping":58},{"user_id":101,"name":"nexu","steam_id":76561198112127305,"connected_time":1224000000000,"state":"active","ping":88},{"user_id":116,"name":"Goodmouth","steam_id":76561198097645042,"connected_time":724000000000,"state":"active","ping":85}]},{"server_id":41,"name":"Uncletopia | London | 8 | Community","name_short":"lon-8","host":"lon-1.uk.uncletopia.com","port":27085,"enabled":true,"region":"eu","cc":"gb","latitude":51.509865,"longitude":-0.118092,"reserved":0,"last_update":"0001-01-01T00:00:00Z","name_a2s":"Uncletopia | London | 8 | Community","protocol":17,"map":"workshop/koth_product_final.ugc454272353","folder":"tf","game":"Team Fortress","app_id":440,"player_count":0,"max_players":24,"Bots":0,"server_type":"Dedicated","server_os":"Linux","password":true,"vac":true,"version":"7757534","steam_id":85568392924964315,"keywords":["cp","nocrits","nodmgspread","uncletopia"],"game_id":440,"stv_port":27086,"stv_name":"Uncletopia | London | 8 | Community | STV","players":null},{"server_id":300,"name":"Uncletopia | Montr√©al | 1 | All Maps","name_short":"mtl-1","host":"mtl-1.ca.uncletopia.com","port":27015,"enabled":true,"region":"us-east","cc":"ca","latitude":45.50889,"longitude":-73.56167,"reserved":0,"last_update":"0001-01-01T00:00:00Z","name_a2s":"Uncletopia | Montr√©al | 1 | All Maps","protocol":17,"map":"koth_cascade","folder":"tf","game":"Team Fortress","app_id":440,"player_count":0,"max_players":24,"Bots":0,"server_type":"Dedicated","server_os":"Linux","password":true,"vac":true,"version":"7757534","steam_id":85568392924500087,"keywords":["cp","nocrits","nodmgspread","uncletopia"],"game_id":440,"stv_port":27016,"stv_name":"Uncletopia | Montr√©al | 1 | All Maps | STV","players":null},{"server_id":301,"name":"Uncletopia | Montr√©al | 2 | All Maps","name_short":"mtl-2","host":"mtl-1.ca.uncletopia.com","port":27025,"enabled":true,"region":"us-east","cc":"ca","latitude":45.50889,"longitude":-73.56167,"reserved":0,"last_update":"0001-01-01T00:00:00Z","name_a2s":"Uncletopia | Montr√©al | 2 | All Maps","protocol":17,"map":"pl_borneo","folder":"tf","game":"Team Fortress","app_id":440,"player_count":0,"max_players":24,"Bots":0,"server_type":"Dedicated","server_os":"Linux","password":true,"vac":true,"version":"7757534","steam_id":85568392924500088,"keywords":["nocrits","nodmgspread","payload","uncletopia"],"game_id":440,"stv_port":27026,"stv_name":"Uncletopia | Montr√©al | 2 | All Maps | STV","players":null},{"server_id":302,"name":"Uncletopia | Montr√©al | 3 | All Maps","name_short":"mtl-3","host":"mtl-1.ca.uncletopia.com","port":27035,"enabled":true,"region":"us-east","cc":"ca","latitude":45.50889,"longitude":-73.56167,"reserved":0,"last_update":"0001-01-01T00:00:00Z","name_a2s":"Uncletopia | Montr√©al | 3 | All Maps","protocol":17,"map":"cp_sunshine","folder":"tf","game":"Team Fortress","app_id":440,"player_count":0,"max_players":24,"Bots":0,"server_type":"Dedicated","server_os":"Linux","password":true,"vac":true,"version":"7757534","steam_id":85568392924500089,"keywords":["cp","nocrits","nodmgspread","uncletopia"],"game_id":440,"stv_port":27036,"stv_name":"Uncletopia | Montr√©al | 3 | All Maps | STV","players":null},{"server_id":303,"name":"Uncletopia | Montr√©al | 4 | No Payload","name_short":"mtl-4","host":"mtl-1.ca.uncletopia.com","port":27045,"enabled":true,"region":"us-east","cc":"ca","latitude":45.50889,"longitude":-73.56167,"reserved":0,"last_update":"0001-01-01T00:00:00Z","name_a2s":"Uncletopia | Montr√©al | 4 | No Payload","protocol":17,"map":"koth_lakeside_final","folder":"tf","game":"Team Fortress","app_id":440,"player_count":0,"max_players":24,"Bots":0,"server_type":"Dedicated","server_os":"Linux","password":true,"vac":true,"version":"7757534","steam_id":85568392924500090,"keywords":["cp","nocrits","nodmgspread","uncletopia"],"game_id":440,"stv_port":27046,"stv_name":"Uncletopia | Montr√©al | 4 | No Payload | STV","players":null},{"server_id":13,"name":"Uncletopia | New York City | 1 | All Maps","name_short":"nyc-1","host":"nyc-1.us.uncletopia.com","port":27015,"enabled":true,"region":"us-east","cc":"us","latitude":40.73061,"longitude":-73.93524,"reserved":0,"last_update":"0001-01-01T00:00:00Z","name_a2s":"Uncletopia | New York City | 1 | All Maps","protocol":17,"map":"pl_badwater","folder":"tf","game":"Team Fortress","app_id":440,"player_count":24,"max_players":24,"Bots":0,"server_type":"Dedicated","server_os":"Linux","password":true,"vac":true,"version":"7757534","steam_id":85568392924469993,"keywords":["nocrits","nodmgspread","payload","uncletopia"],"game_id":440,"stv_port":27016,"stv_name":"Uncletopia | New York City | 1 | All Maps | STV","players":[{"user_id":253,"name":"p00l","steam_id":76561198060142652,"connected_time":333000000000,"state":"active","ping":45},{"user_id":265,"name":"SalamenceFury","steam_id":76561198054585848,"connected_time":65000000000,"state":"active","ping":146},{"user_id":243,"name":"abed","steam_id":76561198072856511,"connected_time":1174000000000,"state":"active","ping":78},{"user_id":182,"name":"SuperFresh","steam_id":76561198200723198,"connected_time":4930000000000,"state":"active","ping":56},{"user_id":256,"name":"unc out here trippin","steam_id":76561198055557988,"connected_time":267000000000,"state":"active","ping":80},{"user_id":264,"name":"Dr. Piss","steam_id":76561199170203468,"connected_time":73000000000,"state":"active","ping":86},{"user_id":257,"name":"Bother","steam_id":76561198336750909,"connected_time":241000000000,"state":"active","ping":38},{"user_id":214,"name":"Errrmmett","steam_id":76561198041314051,"connected_time":2863000000000,"state":"active","ping":60},{"user_id":258,"name":"[„èà] Bumpercars","steam_id":76561198061591743,"connected_time":239000000000,"state":"active","ping":91},{"user_id":224,"name":"wack","steam_id":76561198095697330,"connected_time":1986000000000,"state":"active","ping":81},{"user_id":259,"name":"clusj","steam_id":76561198150459792,"connected_time":219000000000,"state":"active","ping":158},{"user_id":240,"name":"trobin120","steam_id":76561199122420273,"connected_time":1323000000000,"state":"active","ping":57},{"user_id":227,"name":"i still like villa","steam_id":76561198413930183,"connected_time":1952000000000,"state":"active","ping":44},{"user_id":239,"name":"A Trigger Happy Chipmunk","steam_id":76561198013608736,"connected_time":1330000000000,"state":"active","ping":64},{"user_id":260,"name":"Scrumlet","steam_id":76561198339806643,"connected_time":218000000000,"state":"active","ping":89},{"user_id":266,"name":"parm spagert with bassil","steam_id":76561198047476380,"connected_time":8000000000,"state":"spawning","ping":73},{"user_id":250,"name":"Jw. www.vaticancatholic.com","steam_id":76561198190170075,"connected_time":695000000000,"state":"active","ping":51},{"user_id":232,"name":"Guy Incognito","steam_id":76561198016095410,"connected_time":1866000000000,"state":"active","ping":44},{"user_id":262,"name":"King of the birds","steam_id":76561198891152046,"connected_time":205000000000,"state":"active","ping":99},{"user_id":251,"name":"raisedbybirds","steam_id":76561198131531646,"connected_time":693000000000,"state":"active","ping":60},{"user_id":235,"name":"RoseRadical","steam_id":76561197999984320,"connected_time":1814000000000,"state":"active","ping":68},{"user_id":163,"name":"Metna ‚òÅ","steam_id":76561198092381079,"connected_time":6041000000000,"state":"active","ping":66},{"user_id":263,"name":"FellowGamer","steam_id":76561198089600392,"connected_time":196000000000,"state":"active","ping":65},{"user_id":220,"name":"Baron von Whoopsie","steam_id":76561197996691013,"connected_time":2280000000000,"state":"active","ping":58}]},{"server_id":14,"name":"Uncletopia | New York City | 2 | All Maps","name_short":"nyc-2","host":"nyc-1.us.uncletopia.com","port":27025,"enabled":true,"region":"us-east","cc":"us","latitude":40.73061,"longitude":-73.93524,"reserved":0,"last_update":"0001-01-01T00:00:00Z","name_a2s":"Uncletopia | New York City | 2 | All Maps","protocol":17,"map":"koth_viaduct","folder":"tf","game":"Team Fortress","app_id":440,"player_count":0,"max_players":24,"Bots":0,"server_type":"Dedicated","server_os":"Linux","password":true,"vac":true,"version":"7757534","steam_id":85568392924469994,"keywords":["cp","nocrits","nodmgspread","uncletopia"],"game_id":440,"stv_port":27026,"stv_name":"Uncletopia | New York City | 2 | All Maps | STV","players":null},{"server_id":15,"name":"Uncletopia | New York City | 3 | Stopwatch Beta","name_short":"nyc-3","host":"nyc-1.us.uncletopia.com","port":27035,"enabled":true,"region":"us-east","cc":"us","latitude":40.73061,"longitude":-73.93524,"reserved":0,"last_update":"0001-01-01T00:00:00Z","name_a2s":"Uncletopia | New York City | 3 | Stopwatch Beta","protocol":17,"map":"workshop/koth_clearcut_b15.ugc2107050255","folder":"tf","game":"Team Fortress","app_id":440,"player_count":0,"max_players":24,"Bots":0,"server_type":"Dedicated","server_os":"Linux","password":true,"vac":true,"version":"7757534","steam_id":85568392924742820,"keywords":["cp","nocrits","nodmgspread","uncletopia"],"game_id":440,"stv_port":27036,"stv_name":"Uncletopia | New York City | 3 | Stopwatch Beta | STV","players":null},{"server_id":16,"name":"Uncletopia | New York City | 4 | Community","name_short":"nyc-4","host":"nyc-1.us.uncletopia.com","port":27045,"enabled":true,"region":"us-east","cc":"us","latitude":40.73061,"longitude":-73.93524,"reserved":0,"last_update":"0001-01-01T00:00:00Z","name_a2s":"Uncletopia | New York City | 4 | Community","protocol":17,"map":"pl_borneo","folder":"tf","game":"Team Fortress","app_id":440,"player_count":0,"max_players":24,"Bots":0,"server_type":"Dedicated","server_os":"Linux","password":true,"vac":true,"version":"7757534","steam_id":85568392924742821,"keywords":["nocrits","nodmgspread","payload","uncletopia"],"game_id":440,"stv_port":27046,"stv_name":"Uncletopia | New York City | 4 | Community | STV","players":null},{"server_id":142,"name":"Uncletopia | S√£o Paulo | 1 | All Maps","name_short":"sao-1","host":"sao-1.br.uncletopia.com","port":27015,"enabled":true,"region":"sa","cc":"br","latitude":-23.533773,"longitude":-46.62529,"reserved":0,"last_update":"0001-01-01T00:00:00Z","name_a2s":"Uncletopia | S√£o Paulo | 1 | All Maps","protocol":17,"map":"koth_lakeside_final","folder":"tf","game":"Team Fortress","app_id":440,"player_count":1,"max_players":24,"Bots":0,"server_type":"Dedicated","server_os":"Linux","password":true,"vac":true,"version":"7757534","steam_id":85568392924469996,"keywords":["cp","nocrits","nodmgspread","uncletopia"],"game_id":440,"stv_port":27016,"stv_name":"Uncletopia | S√£o Paulo | 1 | All Maps | STV","players":[{"user_id":13,"name":"Emposive","steam_id":76561198363249325,"connected_time":102000000000,"state":"active","ping":43}]},{"server_id":143,"name":"Uncletopia | S√£o Paulo | 2 | All Maps","name_short":"sao-2","host":"sao-2.br.uncletopia.com","port":27015,"enabled":true,"region":"sa","cc":"br","latitude":-23.533773,"longitude":-46.62529,"reserved":0,"last_update":"0001-01-01T00:00:00Z","name_a2s":"Uncletopia | S√£o Paulo | 2 | All Maps","protocol":17,"map":"pl_upward","folder":"tf","game":"Team Fortress","app_id":440,"player_count":0,"max_players":24,"Bots":0,"server_type":"Dedicated","server_os":"Linux","password":true,"vac":true,"version":"7757534","steam_id":85568392924485349,"keywords":["nocrits","nodmgspread","payload","uncletopia"],"game_id":440,"stv_port":27016,"stv_name":"Uncletopia | S√£o Paulo | 2 | All Maps | STV","players":null},{"server_id":7,"name":"Uncletopia | Seattle | 1 | All Maps","name_short":"sea-1","host":"sea-1.us.uncletopia.com","port":27015,"enabled":true,"region":"us-west","cc":"us","latitude":47.608013,"longitude":-122.33517,"reserved":0,"last_update":"0001-01-01T00:00:00Z","name_a2s":"Uncletopia | Seattle | 1 | All Maps","protocol":17,"map":"koth_lakeside_final","folder":"tf","game":"Team Fortress","app_id":440,"player_count":0,"max_players":24,"Bots":0,"server_type":"Dedicated","server_os":"Linux","password":true,"vac":true,"version":"7757534","steam_id":85568392924469997,"keywords":["cp","nocrits","nodmgspread","uncletopia"],"game_id":440,"stv_port":27016,"stv_name":"Uncletopia | Seattle | 1 | All Maps | STV","players":null},{"server_id":119,"name":"Uncletopia | Seattle | 2 | All Maps","name_short":"sea-2","host":"sea-1.us.uncletopia.com","port":27025,"enabled":true,"region":"us-west","cc":"us","latitude":47.608013,"longitude":-122.33517,"reserved":0,"last_update":"0001-01-01T00:00:00Z","name_a2s":"Uncletopia | Seattle | 2 | All Maps","protocol":17,"map":"koth_viaduct","folder":"tf","game":"Team Fortress","app_id":440,"player_count":0,"max_players":24,"Bots":0,"server_type":"Dedicated","server_os":"Linux","password":true,"vac":true,"version":"7757534","steam_id":85568392924469998,"keywords":["cp","nocrits","nodmgspread","uncletopia"],"game_id":440,"stv_port":27026,"stv_name":"Uncletopia | Seattle | 2 | All Maps | STV","players":null},{"server_id":406,"name":"Uncletopia | Seattle | 3 | Stopwatch Beta","name_short":"sea-3","host":"sea-1.us.uncletopia.com","port":27035,"enabled":true,"region":"us-west","cc":"us","latitude":47.608013,"longitude":-122.33517,"reserved":0,"last_update":"0001-01-01T00:00:00Z","name_a2s":"Uncletopia | Seattle | 3 | Stopwatch Beta","protocol":17,"map":"cp_sunshine","folder":"tf","game":"Team Fortress","app_id":440,"player_count":0,"max_players":24,"Bots":0,"server_type":"Dedicated","server_os":"Linux","password":true,"vac":true,"version":"7757534","steam_id":85568392924515217,"keywords":["cp","nocrits","nodmgspread","uncletopia"],"game_id":440,"stv_port":27036,"stv_name":"Uncletopia | Seattle | 3 | Stopwatch Beta | STV","players":null},{"server_id":17,"name":"Uncletopia | San Francisco | 1 | All Maps","name_short":"sfo-1","host":"sfo-1.us.uncletopia.com","port":27015,"enabled":true,"region":"us-west","cc":"us","latitude":37.77397,"longitude":-122.4313,"reserved":0,"last_update":"0001-01-01T00:00:00Z","name_a2s":"Uncletopia | San Francisco | 1 | All Maps","protocol":17,"map":"cp_dustbowl","folder":"tf","game":"Team Fortress","app_id":440,"player_count":0,"max_players":24,"Bots":0,"server_type":"Dedicated","server_os":"Linux","password":true,"vac":true,"version":"7757534","steam_id":85568392924469999,"keywords":["cp","nocrits","nodmgspread","uncletopia"],"game_id":440,"stv_port":27016,"stv_name":"Uncletopia | San Francisco | 1 | All Maps | STV","players":null},{"server_id":18,"name":"Uncletopia | San Francisco | 2 | All Maps","name_short":"sfo-2","host":"sfo-1.us.uncletopia.com","port":27025,"enabled":true,"region":"us-west","cc":"us","latitude":37.77397,"longitude":-122.4313,"reserved":0,"last_update":"0001-01-01T00:00:00Z","name_a2s":"Uncletopia | San Francisco | 2 | All Maps","protocol":17,"map":"cp_mountainlab","folder":"tf","game":"Team Fortress","app_id":440,"player_count":0,"max_players":24,"Bots":0,"server_type":"Dedicated","server_os":"Linux","password":true,"vac":true,"version":"7757534","steam_id":85568392924470000,"keywords":["cp","nocrits","nodmgspread","uncletopia"],"game_id":440,"stv_port":27026,"stv_name":"Uncletopia | San Francisco | 2 | All Maps | STV","players":null},{"server_id":19,"name":"Uncletopia | San Francisco | 3 | Stopwatch Beta","name_short":"sfo-3","host":"sfo-1.us.uncletopia.com","port":27035,"enabled":true,"region":"us-west","cc":"us","latitude":37.77397,"longitude":-122.4313,"reserved":0,"last_update":"0001-01-01T00:00:00Z","name_a2s":"Uncletopia | San Francisco | 3 | Stopwatch Beta","protocol":17,"map":"koth_viaduct","folder":"tf","game":"Team Fortress","app_id":440,"player_count":0,"max_players":24,"Bots":0,"server_type":"Dedicated","server_os":"Linux","password":true,"vac":true,"version":"7757534","steam_id":85568392924742824,"keywords":["cp","nocrits","nodmgspread","uncletopia"],"game_id":440,"stv_port":27036,"stv_name":"Uncletopia | San Francisco | 3 | Stopwatch Beta | STV","players":null},{"server_id":20,"name":"Uncletopia | San Francisco | 4 | Community","name_short":"sfo-4","host":"sfo-1.us.uncletopia.com","port":27045,"enabled":true,"region":"us-west","cc":"us","latitude":37.77397,"longitude":-122.4313,"reserved":0,"last_update":"0001-01-01T00:00:00Z","name_a2s":"Uncletopia | San Francisco | 4 | Community","protocol":17,"map":"pl_borneo","folder":"tf","game":"Team Fortress","app_id":440,"player_count":0,"max_players":24,"Bots":0,"server_type":"Dedicated","server_os":"Linux","password":true,"vac":true,"version":"7757534","steam_id":85568392924742826,"keywords":["nocrits","nodmgspread","payload","uncletopia"],"game_id":440,"stv_port":27046,"stv_name":"Uncletopia | San Francisco | 4 | Community | STV","players":null},{"server_id":141,"name":"Uncletopia | Sydney | 1 | All Maps","name_short":"syd-1","host":"syd-1.au.uncletopia.com","port":27015,"enabled":true,"region":"au","cc":"au","latitude":-33.865143,"longitude":151.2099,"reserved":0,"last_update":"0001-01-01T00:00:00Z","name_a2s":"Uncletopia | Sydney | 1 | All Maps","protocol":17,"map":"koth_lakeside_final","folder":"tf","game":"Team Fortress","app_id":440,"player_count":0,"max_players":24,"Bots":0,"server_type":"Dedicated","server_os":"Linux","password":true,"vac":true,"version":"7757534","steam_id":85568392924470001,"keywords":["cp","nocrits","nodmgspread","uncletopia"],"game_id":440,"stv_port":27016,"stv_name":"Uncletopia | Sydney | 1 | All Maps | STV","players":null},{"server_id":123,"name":"Uncletopia | Sydney | 2 | All Maps","name_short":"syd-2","host":"syd-1.au.uncletopia.com","port":27025,"enabled":true,"region":"au","cc":"au","latitude":-33.865143,"longitude":151.2099,"reserved":0,"last_update":"0001-01-01T00:00:00Z","name_a2s":"Uncletopia | Sydney | 2 | All Maps","protocol":17,"map":"koth_viaduct","folder":"tf","game":"Team Fortress","app_id":440,"player_count":0,"max_players":24,"Bots":0,"server_type":"Dedicated","server_os":"Linux","password":true,"vac":true,"version":"7757534","steam_id":85568392924470002,"keywords":["cp","nocrits","nodmgspread","uncletopia"],"game_id":440,"stv_port":27026,"stv_name":"Uncletopia | Sydney | 2 | All Maps | STV","players":null},{"server_id":395,"name":"Uncletopia | Sydney | 3 | All Maps","name_short":"syd-3","host":"syd-1.au.uncletopia.com","port":27035,"enabled":true,"region":"au","cc":"au","latitude":-33.865143,"longitude":151.2099,"reserved":0,"last_update":"0001-01-01T00:00:00Z","name_a2s":"Uncletopia | Sydney | 3 | All Maps","protocol":17,"map":"koth_viaduct","folder":"tf","game":"Team Fortress","app_id":440,"player_count":0,"max_players":24,"Bots":0,"server_type":"Dedicated","server_os":"Linux","password":true,"vac":true,"version":"7757534","steam_id":85568392925194467,"keywords":["cp","nocrits","nodmgspread","uncletopia"],"game_id":440,"stv_port":27036,"stv_name":"Uncletopia | Sydney | 3 | All Maps | STV","players":null},{"server_id":396,"name":"Uncletopia | Sydney | 4 | All Maps","name_short":"syd-4","host":"syd-1.au.uncletopia.com","port":27045,"enabled":true,"region":"au","cc":"au","latitude":-33.865143,"longitude":151.2099,"reserved":0,"last_update":"0001-01-01T00:00:00Z","name_a2s":"Uncletopia | Sydney | 4 | All Maps","protocol":17,"map":"cp_snakewater_final1","folder":"tf","game":"Team Fortress","app_id":440,"player_count":0,"max_players":24,"Bots":0,"server_type":"Dedicated","server_os":"Linux","password":true,"vac":true,"version":"7757534","steam_id":85568392925397958,"keywords":["cp","nocrits","nodmgspread","uncletopia"],"game_id":440,"stv_port":27046,"stv_name":"Uncletopia | Sydney | 4 | All Maps | STV","players":null},{"server_id":58,"name":"Uncletopia | Sydney | 5 | Stopwatch Beta","name_short":"syd-5","host":"syd-1.au.uncletopia.com","port":27055,"enabled":true,"region":"au","cc":"au","latitude":-33.865143,"longitude":151.2099,"reserved":0,"last_update":"0001-01-01T00:00:00Z","name_a2s":"Uncletopia | Sydney | 5 | Stopwatch Beta","protocol":17,"map":"pl_barnblitz","folder":"tf","game":"Team Fortress","app_id":440,"player_count":0,"max_players":24,"Bots":0,"server_type":"Dedicated","server_os":"Linux","password":true,"vac":true,"version":"7757534","steam_id":85568392925397959,"keywords":["nocrits","nodmgspread","payload","uncletopia"],"game_id":440,"stv_port":27056,"stv_name":"Uncletopia | Sydney | 5 | Stopwatch Beta | STV","players":null},{"server_id":59,"name":"Uncletopia | Sydney | 6 | Community","name_short":"syd-6","host":"syd-1.au.uncletopia.com","port":27065,"enabled":true,"region":"au","cc":"au","latitude":-33.865143,"longitude":151.2099,"reserved":0,"last_update":"0001-01-01T00:00:00Z","name_a2s":"Uncletopia | Sydney | 6 | Community","protocol":17,"map":"cp_mountainlab","folder":"tf","game":"Team Fortress","app_id":440,"player_count":0,"max_players":24,"Bots":0,"server_type":"Dedicated","server_os":"Linux","password":true,"vac":true,"version":"7757534","steam_id":85568392925397960,"keywords":["cp","nocrits","nodmgspread","uncletopia"],"game_id":440,"stv_port":27066,"stv_name":"Uncletopia | Sydney | 6 | Community | STV","players":null},{"server_id":49,"name":"Uncletopia | Warsaw | 1 | All Maps","name_short":"waw-1","host":"waw-1.pl.uncletopia.com","port":27015,"enabled":true,"region":"eu","cc":"pl","latitude":52.2297,"longitude":21.017532,"reserved":0,"last_update":"0001-01-01T00:00:00Z","name_a2s":"","protocol":0,"map":"","folder":"","game":"","app_id":0,"player_count":0,"max_players":0,"Bots":0,"server_type":"","server_os":"","password":false,"vac":false,"version":"","steam_id":0,"keywords":null,"game_id":0,"stv_port":0,"stv_name":"","players":null},{"server_id":50,"name":"Uncletopia | Warsaw | 2 | All Maps","name_short":"waw-2","host":"waw-1.pl.uncletopia.com","port":27025,"enabled":true,"region":"eu","cc":"pl","latitude":52.2297,"longitude":21.017532,"reserved":0,"last_update":"0001-01-01T00:00:00Z","name_a2s":"Uncletopia | Warsaw | 2 | All Maps","protocol":17,"map":"cp_sunshine","folder":"tf","game":"Team Fortress","app_id":440,"player_count":22,"max_players":24,"Bots":0,"server_type":"Dedicated","server_os":"Linux","password":true,"vac":true,"version":"7757534","steam_id":85568392925397851,"keywords":["cp","nocrits","nodmgspread","uncletopia"],"game_id":440,"stv_port":27026,"stv_name":"Uncletopia | Warsaw | 2 | All Maps | STV","players":[{"user_id":9,"name":"GezmeRR TF2","steam_id":76561198043814532,"connected_time":1641000000000,"state":"active","ping":70},{"user_id":10,"name":"Emo E-boy Twink","steam_id":76561198044624039,"connected_time":1629000000000,"state":"active","ping":79},{"user_id":11,"name":"Lord","steam_id":76561198065021271,"connected_time":1563000000000,"state":"active","ping":85},{"user_id":23,"name":"Kagrid","steam_id":76561198417431519,"connected_time":647000000000,"state":"active","ping":50},{"user_id":13,"name":"Danse","steam_id":76561198065545203,"connected_time":1313000000000,"state":"active","ping":96},{"user_id":14,"name":"Biscuit","steam_id":76561198219019759,"connected_time":1294000000000,"state":"active","ping":34},{"user_id":15,"name":"IceOfSpades","steam_id":76561198170348142,"connected_time":1285000000000,"state":"active","ping":60},{"user_id":16,"name":"Lord Commissar Drac","steam_id":76561198030371218,"connected_time":1072000000000,"state":"active","ping":85},{"user_id":18,"name":"Boyarishnik","steam_id":76561198986324207,"connected_time":1026000000000,"state":"active","ping":66},{"user_id":22,"name":"Fuck My Life","steam_id":76561199136898924,"connected_time":667000000000,"state":"active","ping":45},{"user_id":21,"name":"‡πñVicious.","steam_id":76561198037227678,"connected_time":695000000000,"state":"active","ping":44},{"user_id":25,"name":"mt","steam_id":76561197961319303,"connected_time":606000000000,"state":"active","ping":74},{"user_id":43,"name":"wanderkell","steam_id":76561199096235218,"connected_time":56000000000,"state":"active","ping":99},{"user_id":37,"name":"SlickNickArts","steam_id":76561198398082830,"connected_time":276000000000,"state":"active","ping":48},{"user_id":28,"name":"DERBAS","steam_id":76561198217834727,"connected_time":598000000000,"state":"active","ping":149},{"user_id":38,"name":"Duke Fishlord","steam_id":76561198079928327,"connected_time":228000000000,"state":"active","ping":69},{"user_id":31,"name":"The End","steam_id":76561199042470246,"connected_time":536000000000,"state":"active","ping":74},{"user_id":32,"name":"crunchy fingernails","steam_id":76561198308072998,"connected_time":519000000000,"state":"active","ping":57},{"user_id":41,"name":"W*","steam_id":76561197972244657,"connected_time":116000000000,"state":"active","ping":68},{"user_id":36,"name":"bubcio","steam_id":76561199013416177,"connected_time":371000000000,"state":"active","ping":79},{"user_id":35,"name":"Shady_shade","steam_id":76561198952888562,"connected_time":448000000000,"state":"active","ping":65},{"user_id":40,"name":"Wilson The Cat","steam_id":76561198833839102,"connected_time":131000000000,"state":"active","ping":149}]},{"server_id":51,"name":"Uncletopia | Warsaw | 3 | All Maps","name_short":"waw-3","host":"waw-1.pl.uncletopia.com","port":27035,"enabled":true,"region":"eu","cc":"pl","latitude":52.2297,"longitude":21.017532,"reserved":0,"last_update":"0001-01-01T00:00:00Z","name_a2s":"Uncletopia | Warsaw | 3 | All Maps","protocol":17,"map":"koth_viaduct","folder":"tf","game":"Team Fortress","app_id":440,"player_count":0,"max_players":24,"Bots":0,"server_type":"Dedicated","server_os":"Linux","password":true,"vac":true,"version":"7757534","steam_id":85568392925397852,"keywords":["cp","nocrits","nodmgspread","uncletopia"],"game_id":440,"stv_port":27036,"stv_name":"Uncletopia | Warsaw | 3 | All Maps | STV","players":null},{"server_id":52,"name":"Uncletopia | Warsaw | 4 | All Maps","name_short":"waw-4","host":"waw-1.pl.uncletopia.com","port":27045,"enabled":true,"region":"eu","cc":"pl","latitude":52.2297,"longitude":21.017532,"reserved":0,"last_update":"0001-01-01T00:00:00Z","name_a2s":"Uncletopia | Warsaw | 4 | All Maps","protocol":17,"map":"koth_highpass","folder":"tf","game":"Team Fortress","app_id":440,"player_count":0,"max_players":24,"Bots":0,"server_type":"Dedicated","server_os":"Linux","password":true,"vac":true,"version":"7757534","steam_id":85568392925397853,"keywords":["cp","nocrits","nodmgspread","uncletopia"],"game_id":440,"stv_port":27046,"stv_name":"Uncletopia | Warsaw | 4 | All Maps | STV","players":null},{"server_id":53,"name":"Uncletopia | Warsaw | 5 | Stopwatch Beta","name_short":"waw-5","host":"waw-1.pl.uncletopia.com","port":27055,"enabled":true,"region":"eu","cc":"pl","latitude":52.2297,"longitude":21.017532,"reserved":0,"last_update":"0001-01-01T00:00:00Z","name_a2s":"Uncletopia | Warsaw | 5 | Stopwatch Beta","protocol":17,"map":"pl_upward","folder":"tf","game":"Team Fortress","app_id":440,"player_count":0,"max_players":24,"Bots":0,"server_type":"Dedicated","server_os":"Linux","password":true,"vac":true,"version":"7757534","steam_id":85568392925397854,"keywords":["nocrits","nodmgspread","payload","uncletopia"],"game_id":440,"stv_port":27056,"stv_name":"Uncletopia | Warsaw | 5 | Stopwatch Beta | STV","players":null},{"server_id":54,"name":"Uncletopia | Warsaw | 6 | Community","name_short":"waw-6","host":"waw-1.pl.uncletopia.com","port":27065,"enabled":true,"region":"eu","cc":"pl","latitude":52.2297,"longitude":21.017532,"reserved":0,"last_update":"0001-01-01T00:00:00Z","name_a2s":"Uncletopia | Warsaw | 6 | Community","protocol":17,"map":"workshop/cp_reckoner_rc6.ugc674719999","folder":"tf","game":"Team Fortress","app_id":440,"player_count":0,"max_players":24,"Bots":0,"server_type":"Dedicated","server_os":"Linux","password":true,"vac":true,"version":"7757534","steam_id":85568392925397856,"keywords":["cp","nocrits","nodmgspread","uncletopia"],"game_id":440,"stv_port":27066,"stv_name":"Uncletopia | Warsaw | 6 | Community | STV","players":null}]}