{"status":true,"message":"","result":[{"server_id":9,"name":"Uncletopia | Atlanta | 1 | All Maps","name_short":"atl-1","host":"atl-1.us.uncletopia.com","port":27015,"enabled":true,"region":"us-east","cc":"us","latitude":33.753746,"longitude":-84.38633,"reserved":0,"last_update":"0001-01-01T00:00:00Z","name_a2s":"Uncletopia | Atlanta | 1 | All Maps","protocol":17,"map":"koth_viaduct","folder":"tf","game":"Team Fortress","app_id":440,"player_count":0,"max_players":24,"Bots":0,"server_type":"Dedicated","server_os":"Linux","password":true,"vac":true,"version":"7882260","steam_id":85568392924469982,"keywords":["cp","nocrits","nodmgspread","uncletopia"],"game_id":440,"stv_port":27016,"stv_name":"Uncletopia | Atlanta | 1 | All Maps | STV","players":null},{"server_id":104,"name":"Uncletopia | Atlanta | 2 | All Maps","name_short":"atl-2","host":"atl-1.us.uncletopia.com","port":27025,"enabled":true,"region":"us-east","cc":"us","latitude":33.753746,"longitude":-84.38633,"reserved":0,"last_update":"0001-01-01T00:00:00Z","name_a2s":"Uncletopia | Atlanta | 2 | All Maps","protocol":17,"map":"cp_process_final","folder":"tf","game":"Team Fortress","app_id":440,"player_count":0,"max_players":24,"Bots":0,"server_type":"Dedicated","server_os":"Linux","password":true,"vac":true,"version":"7882260","steam_id":85568392924469983,"keywords":["cp","nocrits","nodmgspread","uncletopia"],"game_id":440,"stv_port":27026,"stv_name":"Uncletopia | Atlanta | 2 | All Maps | STV","players":null},{"server_id":400,"name":"Uncletopia | Atlanta | 3 | Community","name_short":"atl-3","host":"atl-1.us.uncletopia.com","port":27035,"enabled":true,"region":"us-east","cc":"us","latitude":33.753746,"longitude":-84.38633,"reserved":0,"last_update":"0001-01-01T00:00:00Z","name_a2s":"Uncletopia | Atlanta | 3 | Community","protocol":17,"map":"cp_sunshine","folder":"tf","game":"Team Fortress","app_id":440,"player_count":0,"max_players":24,"Bots":0,"server_type":"Dedicated","server_os":"Linux","password":true,"vac":true,"version":"7882260","steam_id":85568392924515187,"keywords":["cp","nocrits","nodmgspread","uncletopia"],"game_id":440,"stv_port":27036,"stv_name":"Uncletopia | Atlanta | 3 | Community | STV","players":null},{"server_id":401,"name":"Uncletopia | Atlanta | 4 | No Payload","name_short":"atl-4","host":"atl-1.us.uncletopia.com","port":27045,"enabled":true,"region":"us-east","cc":"us","latitude":33.753746,"longitude":-84.38633,"reserved":0,"last_update":"0001-01-01T00:00:00Z","name_a2s":"","protocol":0,"map":"","folder":"","game":"","app_id":0,"player_count":0,"max_players":0,"Bots":0,"server_type":"","server_os":"","password":false,"vac":false,"version":"","steam_id":0,"keywords":null,"game_id":0,"stv_port":0,"stv_name":"","players":null},{"server_id":2,"name":"Uncletopia | Chicago | 1 | All Maps","name_short":"chi-1","host":"chi-1.us.uncletopia.com","port":27015,"enabled":true,"region":"us-central","cc":"us","latitude":41.881832,"longitude":-87.62318,"reserved":0,"last_update":"0001-01-01T00:00:00Z","name_a2s":"Uncletopia | Chicago | 1 | All Maps","protocol":17,"map":"cp_5gorge","folder":"tf","game":"Team Fortress","app_id":440,"player_count":3,"max_players":24,"Bots":0,"server_type":"Dedicated","server_os":"Linux","password":true,"vac":true,"version":"7882260","steam_id":85568392924469984,"keywords":["cp","nocrits","nodmgspread","uncletopia"],"game_id":440,"stv_port":27016,"stv_name":"Uncletopia | Chicago | 1 | All Maps | STV","players":[{"user_id":719,"name":"elyktsorb","steam_id":76561198158964488,"connected_time":1763000000000,"state":"active","ping":46},{"user_id":721,"name":"twin","steam_id":76561198055626638,"connected_time":223000000000,"state":"active","ping":78},{"user_id":722,"name":"hatsune miku♡","steam_id":76561199445009981,"connected_time":210000000000,"state":"active","ping":97}]},{"server_id":106,"name":"Uncletopia | Chicago | 2 | All Maps","name_short":"chi-2","host":"chi-1.us.uncletopia.com","port":27025,"enabled":true,"region":"us-central","cc":"us","latitude":41.881832,"longitude":-87.62318,"reserved":0,"last_update":"0001-01-01T00:00:00Z","name_a2s":"Uncletopia | Chicago | 2 | All Maps","protocol":17,"map":"koth_nucleus","folder":"tf","game":"Team Fortress","app_id":440,"player_count":0,"max_players":24,"Bots":0,"server_type":"Dedicated","server_os":"Linux","password":true,"vac":true,"version":"7882260","steam_id":85568392924469985,"keywords":["cp","nocrits","nodmgspread","uncletopia"],"game_id":440,"stv_port":27026,"stv_name":"Uncletopia | Chicago | 2 | All Maps | STV","players":null},{"server_id":402,"name":"Uncletopia | Chicago | 3 | All Maps","name_short":"chi-3","host":"chi-1.us.uncletopia.com","port":27035,"enabled":true,"region":"us-central","cc":"us","latitude":41.881832,"longitude":-87.62318,"reserved":0,"last_update":"0001-01-01T00:00:00Z","name_a2s":"Uncletopia | Chicago | 3 | All Maps","protocol":17,"map":"pl_frontier_final","folder":"tf","game":"Team Fortress","app_id":440,"player_count":5,"max_players":24,"Bots":0,"server_type":"Dedicated","server_os":"Linux","password":true,"vac":true,"version":"7882260","steam_id":85568392924515191,"keywords":["nocrits","nodmgspread","payload","uncletopia"],"game_id":440,"stv_port":27036,"stv_name":"Uncletopia | Chicago | 3 | All Maps | STV","players":[{"user_id":608,"name":"the rat","steam_id":76561198442468979,"connected_time":1823000000000,"state":"active","ping":91},{"user_id":609,"name":"Dude guy","steam_id":76561199422959034,"connected_time":1279000000000,"state":"active","ping":175},{"user_id":611,"name":"Ghost","steam_id":76561198426370628,"connected_time":359000000000,"state":"active","ping":61},{"user_id":612,"name":"I'll save you a pint","steam_id":76561198968657265,"connected_time":343000000000,"state":"active","ping":84},{"user_id":578,"name":"heavy main (real)","steam_id":76561199275142109,"connected_time":5882000000000,"state":"active","ping":179}]},{"server_id":403,"name":"Uncletopia | Chicago | 4 | All Maps","name_short":"chi-4","host":"chi-1.us.uncletopia.com","port":27045,"enabled":true,"region":"us-central","cc":"us","latitude":41.881832,"longitude":-87.62318,"reserved":0,"last_update":"0001-01-01T00:00:00Z","name_a2s":"Uncletopia | Chicago | 4 | All Maps","protocol":17,"map":"cp_dustbowl","folder":"tf","game":"Team Fortress","app_id":440,"player_count":24,"max_players":24,"Bots":0,"server_type":"Dedicated","server_os":"Linux","password":true,"vac":true,"version":"7882260","steam_id":85568392924515193,"keywords":["cp","nocrits","nodmgspread","uncletopia"],"game_id":440,"stv_port":27046,"stv_name":"Uncletopia | Chicago | 4 | All Maps | STV","players":[{"user_id":577,"name":"Allegro","steam_id":76561198084599587,"connected_time":7353000000000,"state":"active","ping":74},{"user_id":659,"name":"mothra","steam_id":76561198028444359,"connected_time":184000000000,"state":"active","ping":137},{"user_id":643,"name":"jin","steam_id":76561198119873148,"connected_time":1307000000000,"state":"active","ping":57},{"user_id":591,"name":"brain_damage","steam_id":76561199381954163,"connected_time":6008000000000,"state":"active","ping":92},{"user_id":651,"name":"Weaponised Autism (With Rizz)","steam_id":76561198276385778,"connected_time":1050000000000,"state":"active","ping":92},{"user_id":655,"name":"Memelin","steam_id":76561198054883531,"connected_time":726000000000,"state":"active","ping":94},{"user_id":642,"name":"Cy4nideCutie","steam_id":76561198126686695,"connected_time":1759000000000,"state":"active","ping":67},{"user_id":654,"name":"YoursTruly","steam_id":76561199102839784,"connected_time":765000000000,"state":"active","ping":102},{"user_id":644,"name":"TheRedBaron","steam_id":76561198032114629,"connected_time":1276000000000,"state":"active","ping":154},{"user_id":660,"name":"highernotes","steam_id":76561199112655950,"connected_time":166000000000,"state":"active","ping":106},{"user_id":645,"name":"Gogo","steam_id":76561198172430633,"connected_time":1253000000000,"state":"active","ping":83},{"user_id":646,"name":"hipster_doofus","steam_id":76561197970902697,"connected_time":1232000000000,"state":"active","ping":151},{"user_id":657,"name":"Spork","steam_id":76561198337714584,"connected_time":657000000000,"state":"active","ping":102},{"user_id":638,"name":"definitely a scout","steam_id":76561198264728955,"connected_time":2387000000000,"state":"active","ping":49},{"user_id":661,"name":"twitch/auratf2","steam_id":76561197988085026,"connected_time":121000000000,"state":"active","ping":162},{"user_id":649,"name":"Sariff","steam_id":76561198136446352,"connected_time":1111000000000,"state":"active","ping":48},{"user_id":633,"name":"Pongallow","steam_id":76561198146876078,"connected_time":2655000000000,"state":"active","ping":44},{"user_id":662,"name":"Trepan Stan","steam_id":76561198103243847,"connected_time":103000000000,"state":"active","ping":85},{"user_id":663,"name":"Cargoshorts Johnny","steam_id":76561198281732417,"connected_time":64000000000,"state":"active","ping":75},{"user_id":658,"name":"Genesis","steam_id":76561198019496869,"connected_time":614000000000,"state":"active","ping":89},{"user_id":652,"name":"They/Thembo","steam_id":76561198096221632,"connected_time":1038000000000,"state":"active","ping":60},{"user_id":656,"name":"Monty","steam_id":76561197993567253,"connected_time":703000000000,"state":"active","ping":102},{"user_id":620,"name":"Lost","steam_id":76561198093713427,"connected_time":3807000000000,"state":"active","ping":60},{"user_id":641,"name":"Horseless Headless Scotsman","steam_id":76561198128494897,"connected_time":2111000000000,"state":"active","ping":82}]},{"server_id":36,"name":"Uncletopia | Chicago | 5 | All Maps","name_short":"chi-5","host":"chi-2.us.uncletopia.com","port":27015,"enabled":true,"region":"us-central","cc":"us","latitude":41.881832,"longitude":-87.62318,"reserved":0,"last_update":"0001-01-01T00:00:00Z","name_a2s":"Uncletopia | Chicago | 5 | All Maps","protocol":17,"map":"koth_lakeside_final","folder":"tf","game":"Team Fortress","app_id":440,"player_count":0,"max_players":24,"Bots":0,"server_type":"Dedicated","server_os":"Linux","password":true,"vac":true,"version":"7882260","steam_id":85568392924866362,"keywords":["cp","nocrits","nodmgspread","uncletopia"],"game_id":440,"stv_port":27016,"stv_name":"Uncletopia | Chicago | 5 | All Maps | STV","players":null},{"server_id":37,"name":"Uncletopia | Chicago | 6 | All Maps","name_short":"chi-6","host":"chi-2.us.uncletopia.com","port":27025,"enabled":true,"region":"us-central","cc":"us","latitude":41.881832,"longitude":-87.62318,"reserved":0,"last_update":"0001-01-01T00:00:00Z","name_a2s":"Uncletopia | Chicago | 6 | All Maps","protocol":17,"map":"cp_mountainlab","folder":"tf","game":"Team Fortress","app_id":440,"player_count":0,"max_players":24,"Bots":0,"server_type":"Dedicated","server_os":"Linux","password":true,"vac":true,"version":"7882260","steam_id":85568392924866363,"keywords":["cp","nocrits","nodmgspread","uncletopia"],"game_id":440,"stv_port":27026,"stv_name":"Uncletopia | Chicago | 6 | All Maps | STV","players":null},{"server_id":38,"name":"Uncletopia | Chicago | 7 | Stopwatch Beta","name_short":"chi-7","host":"chi-2.us.uncletopia.com","port":27035,"enabled":true,"region":"us-central","cc":"us","latitude":41.881832,"longitude":-87.62318,"reserved":0,"last_update":"0001-01-01T00:00:00Z","name_a2s":"Uncletopia | Chicago | 7 | Stopwatch Beta","protocol":17,"map":"cp_granary","folder":"tf","game":"Team Fortress","app_id":440,"player_count":0,"max_players":24,"Bots":0,"server_type":"Dedicated","server_os":"Linux","password":true,"vac":true,"version":"7882260","steam_id":85568392924866364,"keywords":["cp","nocrits","nodmgspread","uncletopia"],"game_id":440,"stv_port":27036,"stv_name":"Uncletopia | Chicago | 7 | Stopwatch Beta | STV","players":null},{"server_id":39,"name":"Uncletopia | Chicago | 8 | Community","name_short":"chi-8","host":"chi-2.us.uncletopia.com","port":27045,"enabled":true,"region":"us-central","cc":"us","latitude":41.881832,"longitude":-87.62318,"reserved":0,"last_update":"0001-01-01T00:00:00Z","name_a2s":"Uncletopia | Chicago | 8 | Community","protocol":17,"map":"workshop/koth_trenchfoot_b1a.ugc731436616","folder":"tf","game":"Team Fortress","app_id":440,"player_count":0,"max_players":24,"Bots":0,"server_type":"Dedicated","server_os":"Linux","password":true,"vac":true,"version":"7882260","steam_id":85568392924866365,"keywords":["cp","nocrits","nodmgspread","uncletopia"],"game_id":440,"stv_port":27046,"stv_name":"Uncletopia | Chicago | 8 | Community | STV","players":null},{"server_id":8,"name":"Uncletopia | Dallas | 1 | All Maps","name_short":"dal-1","host":"dal-1.us.uncletopia.com","port":27015,"enabled":true,"region":"us-central","cc":"us","latitude":32.779167,"longitude":-96.80889,"reserved":0,"last_update":"0001-01-01T00:00:00Z","name_a2s":"Uncletopia | Dallas | 1 | All Maps","protocol":17,"map":"koth_highpass","folder":"tf","game":"Team Fortress","app_id":440,"player_count":0,"max_players":24,"Bots":0,"server_type":"Dedicated","server_os":"Linux","password":true,"vac":true,"version":"7882260","steam_id":85568392924469986,"keywords":["cp","nocrits","nodmgspread","uncletopia"],"game_id":440,"stv_port":27016,"stv_name":"Uncletopia | Dallas | 1 | All Maps | STV","players":null},{"server_id":108,"name":"Uncletopia | Dallas | 2 | All Maps","name_short":"dal-2","host":"dal-1.us.uncletopia.com","port":27025,"enabled":true,"region":"us-central","cc":"us","latitude":32.779167,"longitude":-96.80889,"reserved":0,"last_update":"0001-01-01T00:00:00Z","name_a2s":"Uncletopia | Dallas | 2 | All Maps","protocol":17,"map":"pl_frontier_final","folder":"tf","game":"Team Fortress","app_id":440,"player_count":24,"max_players":24,"Bots":0,"server_type":"Dedicated","server_os":"Linux","password":true,"vac":true,"version":"7882260","steam_id":85568392924469988,"keywords":["nocrits","nodmgspread","payload","uncletopia"],"game_id":440,"stv_port":27026,"stv_name":"Uncletopia | Dallas | 2 | All Maps | STV","players":[{"user_id":774,"name":"The Foolish Samurai","steam_id":76561198094494945,"connected_time":2452000000000,"state":"active","ping":89},{"user_id":749,"name":"Rumi_killer","steam_id":76561198077439866,"connected_time":6069000000000,"state":"active","ping":96},{"user_id":781,"name":"Missirai","steam_id":76561198040725450,"connected_time":1050000000000,"state":"active","ping":84},{"user_id":763,"name":"chamber","steam_id":76561198165283913,"connected_time":3769000000000,"state":"active","ping":61},{"user_id":759,"name":"MG.Z-Blitz","steam_id":76561198028577473,"connected_time":4667000000000,"state":"active","ping":72},{"user_id":769,"name":"A Minority","steam_id":76561198056583581,"connected_time":2960000000000,"state":"active","ping":99},{"user_id":721,"name":"Pyro is a girl with large balls","steam_id":76561198975667801,"connected_time":7585000000000,"state":"active","ping":150},{"user_id":782,"name":"cesartele3000","steam_id":76561198142149479,"connected_time":250000000000,"state":"active","ping":96},{"user_id":722,"name":"dinky little beanie baby","steam_id":76561197999318398,"connected_time":7576000000000,"state":"active","ping":107},{"user_id":685,"name":"Gelliterate","steam_id":76561198107233070,"connected_time":10738000000000,"state":"active","ping":55},{"user_id":765,"name":"CheeseCake488","steam_id":76561199407617942,"connected_time":3562000000000,"state":"active","ping":109},{"user_id":711,"name":"OrangeGlazer","steam_id":76561198127358240,"connected_time":8261000000000,"state":"active","ping":75},{"user_id":771,"name":"Rerr","steam_id":76561198311725459,"connected_time":2501000000000,"state":"active","ping":92},{"user_id":777,"name":"sweaterfan","steam_id":76561199389567214,"connected_time":2078000000000,"state":"active","ping":64},{"user_id":776,"name":"SpecialForce19","steam_id":76561198120974644,"connected_time":2188000000000,"state":"active","ping":89},{"user_id":762,"name":"luma","steam_id":76561198076875817,"connected_time":4014000000000,"state":"active","ping":48},{"user_id":767,"name":"Ginger_Buzz","steam_id":76561198863401434,"connected_time":3331000000000,"state":"active","ping":89},{"user_id":770,"name":"Flaurosa | twitch.tv","steam_id":76561198193606823,"connected_time":2523000000000,"state":"active","ping":68},{"user_id":784,"name":"Duckles","steam_id":76561198049203455,"connected_time":17000000000,"state":"spawning","ping":62},{"user_id":725,"name":"Where The F**K I Am?","steam_id":76561197986530028,"connected_time":7481000000000,"state":"active","ping":94},{"user_id":778,"name":"cherry.blossom","steam_id":76561198014557455,"connected_time":1989000000000,"state":"active","ping":87},{"user_id":754,"name":"Kazmirl | Youtuber","steam_id":76561198116008410,"connected_time":5900000000000,"state":"active","ping":107},{"user_id":766,"name":"highschool drop-out","steam_id":76561198366299848,"connected_time":3389000000000,"state":"active","ping":68},{"user_id":780,"name":"Eins","steam_id":76561199030343810,"connected_time":1070000000000,"state":"active","ping":59}]},{"server_id":5,"name":"Uncletopia | Frankfurt | 1 | All Maps","name_short":"frk-1","host":"frk-1.de.uncletopia.com","port":27015,"enabled":true,"region":"eu","cc":"de","latitude":50.110924,"longitude":8.682127,"reserved":0,"last_update":"0001-01-01T00:00:00Z","name_a2s":"Uncletopia | Frankfurt | 1 | All Maps","protocol":17,"map":"pl_badwater","folder":"tf","game":"Team Fortress","app_id":440,"player_count":24,"max_players":24,"Bots":0,"server_type":"Dedicated","server_os":"Linux","password":true,"vac":true,"version":"7882260","steam_id":85568392924469989,"keywords":["nocrits","nodmgspread","payload","uncletopia"],"game_id":440,"stv_port":27016,"stv_name":"Uncletopia | Frankfurt | 1 | All Maps | STV","players":[{"user_id":109,"name":"Uncle Ryo","steam_id":76561198008733234,"connected_time":569000000000,"state":"active","ping":60},{"user_id":101,"name":"ムGeRmAn |×UA×ム","steam_id":76561199044754898,"connected_time":796000000000,"state":"active","ping":70},{"user_id":95,"name":"Real photograph of me","steam_id":76561198236015392,"connected_time":1387000000000,"state":"active","ping":124},{"user_id":110,"name":"Pico","steam_id":76561198063552545,"connected_time":455000000000,"state":"active","ping":98},{"user_id":53,"name":"doopsuiker","steam_id":76561198025916703,"connected_time":3383000000000,"state":"active","ping":88},{"user_id":74,"name":"heavy like a brinks truck","steam_id":76561198257158275,"connected_time":2601000000000,"state":"active","ping":139},{"user_id":105,"name":"eva.","steam_id":76561198054474684,"connected_time":772000000000,"state":"active","ping":74},{"user_id":98,"name":"congo","steam_id":76561198236836866,"connected_time":1348000000000,"state":"active","ping":75},{"user_id":112,"name":"Sapounopios Pakistanwn","steam_id":76561198308671861,"connected_time":113000000000,"state":"active","ping":99},{"user_id":106,"name":"Art","steam_id":76561198823514629,"connected_time":767000000000,"state":"active","ping":114},{"user_id":86,"name":"saul goodmen","steam_id":76561199395002401,"connected_time":2024000000000,"state":"active","ping":173},{"user_id":85,"name":"froglids","steam_id":76561198045466919,"connected_time":2145000000000,"state":"active","ping":60},{"user_id":93,"name":"A Shiftry From Pokemon","steam_id":76561199033763380,"connected_time":1535000000000,"state":"active","ping":111},{"user_id":103,"name":"BoraY","steam_id":76561198443464667,"connected_time":792000000000,"state":"active","ping":101},{"user_id":108,"name":"XPullaHiiri","steam_id":76561198031652375,"connected_time":757000000000,"state":"active","ping":80},{"user_id":107,"name":"АР","steam_id":76561199237811128,"connected_time":765000000000,"state":"active","ping":159},{"user_id":99,"name":"Cornelius Shacklebart","steam_id":76561198000735878,"connected_time":1344000000000,"state":"active","ping":60},{"user_id":76,"name":"UnknownHero","steam_id":76561198864766392,"connected_time":2572000000000,"state":"active","ping":76},{"user_id":104,"name":"vadr","steam_id":76561198334528186,"connected_time":785000000000,"state":"active","ping":59},{"user_id":102,"name":"Kumquat","steam_id":76561198200490386,"connected_time":796000000000,"state":"active","ping":76},{"user_id":92,"name":"Shadow Jesus","steam_id":76561198272980963,"connected_time":1552000000000,"state":"active","ping":51},{"user_id":64,"name":"Holy f stewie, I am shitting.","steam_id":76561198147173457,"connected_time":2963000000000,"state":"active","ping":69},{"user_id":73,"name":"no1","steam_id":76561198067524060,"connected_time":2660000000000,"state":"active","ping":90},{"user_id":89,"name":"DucK™","steam_id":76561198017506990,"connected_time":2011000000000,"state":"active","ping":57}]},{"server_id":110,"name":"Uncletopia | Frankfurt | 2 | All Maps","name_short":"frk-2","host":"frk-1.de.uncletopia.com","port":27025,"enabled":true,"region":"eu","cc":"de","latitude":50.110924,"longitude":8.682127,"reserved":0,"last_update":"0001-01-01T00:00:00Z","name_a2s":"Uncletopia | Frankfurt | 2 | All Maps","protocol":17,"map":"koth_highpass","folder":"tf","game":"Team Fortress","app_id":440,"player_count":0,"max_players":24,"Bots":0,"server_type":"Dedicated","server_os":"Linux","password":true,"vac":true,"version":"7882260","steam_id":85568392924469990,"keywords":["cp","nocrits","nodmgspread","uncletopia"],"game_id":440,"stv_port":27026,"stv_name":"Uncletopia | Frankfurt | 2 | All Maps | STV","players":null},{"server_id":308,"name":"Uncletopia | Frankfurt | 3 | All Maps","name_short":"frk-3","host":"frk-1.de.uncletopia.com","port":27035,"enabled":true,"region":"eu","cc":"de","latitude":50.110924,"longitude":8.682127,"reserved":0,"last_update":"0001-01-01T00:00:00Z","name_a2s":"Uncletopia | Frankfurt | 3 | All Maps","protocol":17,"map":"pl_snowycoast","folder":"tf","game":"Team Fortress","app_id":440,"player_count":0,"max_players":24,"Bots":0,"server_type":"Dedicated","server_os":"Linux","password":true,"vac":true,"version":"7882260","steam_id":85568392924504274,"keywords":["nocrits","nodmgspread","payload","uncletopia"],"game_id":440,"stv_port":27036,"stv_name":"Uncletopia | Frankfurt | 3 | All Maps | STV","players":null},{"server_id":309,"name":"Uncletopia | Frankfurt | 4 | All Maps","name_short":"frk-4","host":"frk-1.de.uncletopia.com","port":27045,"enabled":true,"region":"eu","cc":"de","latitude":50.110924,"longitude":8.682127,"reserved":0,"last_update":"0001-01-01T00:00:00Z","name_a2s":"Uncletopia | Frankfurt | 4 | All Maps","protocol":17,"map":"koth_viaduct","folder":"tf","game":"Team Fortress","app_id":440,"player_count":0,"max_players":24,"Bots":0,"server_type":"Dedicated","server_os":"Linux","password":true,"vac":true,"version":"7882260","steam_id":85568392924504275,"keywords":["cp","nocrits","nodmgspread","uncletopia"],"game_id":440,"stv_port":27046,"stv_name":"Uncletopia | Frankfurt | 4 | All Maps | STV","players":null},{"server_id":310,"name":"Uncletopia | Frankfurt | 5 | All Maps","name_short":"frk-5","host":"frk-1.de.uncletopia.com","port":27055,"enabled":true,"region":"eu","cc":"de","latitude":50.110924,"longitude":8.682127,"reserved":0,"last_update":"0001-01-01T00:00:00Z","name_a2s":"Uncletopia | Frankfurt | 5 | All Maps","protocol":17,"map":"pl_snowycoast","folder":"tf","game":"Team Fortress","app_id":440,"player_count":24,"max_players":24,"Bots":0,"server_type":"Dedicated","server_os":"Linux","password":true,"vac":true,"version":"7882260","steam_id":85568392924504277,"keywords":["nocrits","nodmgspread","payload","uncletopia"],"game_id":440,"stv_port":27056,"stv_name":"Uncletopia | Frankfurt | 5 | All Maps | STV","players":[{"user_id":132,"name":"Perci","steam_id":76561198097789669,"connected_time":1920000000000,"state":"active","ping":61},{"user_id":130,"name":"Jan.","steam_id":76561197974066329,"connected_time":1983000000000,"state":"active","ping":70},{"user_id":139,"name":"iokoieon","steam_id":76561198065009070,"connected_time":1732000000000,"state":"active","ping":82},{"user_id":39,"name":"Kahvi","steam_id":76561198723244199,"connected_time":9328000000000,"state":"active","ping":85},{"user_id":151,"name":"atomic press","steam_id":76561198120668070,"connected_time":614000000000,"state":"active","ping":60},{"user_id":140,"name":"The Forgotten one","steam_id":76561198091553935,"connected_time":1722000000000,"state":"active","ping":111},{"user_id":134,"name":"Lady Havoc","steam_id":76561198403933649,"connected_time":1897000000000,"state":"active","ping":74},{"user_id":127,"name":"cult","steam_id":76561198188647690,"connected_time":2922000000000,"state":"active","ping":72},{"user_id":17,"name":"Ran33","steam_id":76561197991474499,"connected_time":10466000000000,"state":"active","ping":91},{"user_id":154,"name":"Dio","steam_id":76561198117685434,"connected_time":449000000000,"state":"active","ping":83},{"user_id":129,"name":"no","steam_id":76561199232582956,"connected_time":2822000000000,"state":"active","ping":113},{"user_id":104,"name":"sokige","steam_id":76561198167112371,"connected_time":4743000000000,"state":"active","ping":90},{"user_id":124,"name":"BlueBlueFox","steam_id":76561198053817230,"connected_time":3235000000000,"state":"active","ping":67},{"user_id":138,"name":"Fat Pigeon","steam_id":76561198817940142,"connected_time":1822000000000,"state":"active","ping":55},{"user_id":145,"name":"Neimon","steam_id":76561198343485710,"connected_time":1353000000000,"state":"active","ping":120},{"user_id":152,"name":"suspicious.","steam_id":76561198438599852,"connected_time":575000000000,"state":"active","ping":83},{"user_id":135,"name":"Mag","steam_id":76561199016365093,"connected_time":1872000000000,"state":"active","ping":62},{"user_id":126,"name":"weedminion","steam_id":76561198061248329,"connected_time":3104000000000,"state":"active","ping":61},{"user_id":144,"name":"anti vaxxer","steam_id":76561198129806658,"connected_time":1441000000000,"state":"active","ping":50},{"user_id":155,"name":".::[SerafeTTiN]::.","steam_id":76561198009471724,"connected_time":131000000000,"state":"active","ping":90},{"user_id":111,"name":"Goga11","steam_id":76561198451145010,"connected_time":4148000000000,"state":"active","ping":125},{"user_id":153,"name":"Urfangonultasadana","steam_id":76561199389286151,"connected_time":530000000000,"state":"active","ping":87},{"user_id":142,"name":"Sensei","steam_id":76561198383582429,"connected_time":1637000000000,"state":"active","ping":85},{"user_id":146,"name":"Tekky","steam_id":76561197990987315,"connected_time":1294000000000,"state":"active","ping":52}]},{"server_id":311,"name":"Uncletopia | Frankfurt | 6 | All Maps","name_short":"frk-6","host":"frk-1.de.uncletopia.com","port":27065,"enabled":true,"region":"eu","cc":"de","latitude":50.110924,"longitude":8.682127,"reserved":0,"last_update":"0001-01-01T00:00:00Z","name_a2s":"Uncletopia | Frankfurt | 6 | All Maps","protocol":17,"map":"pl_badwater","folder":"tf","game":"Team Fortress","app_id":440,"player_count":0,"max_players":24,"Bots":0,"server_type":"Dedicated","server_os":"Linux","password":true,"vac":true,"version":"7882260","steam_id":85568392924504278,"keywords":["nocrits","nodmgspread","payload","uncletopia"],"game_id":440,"stv_port":27066,"stv_name":"Uncletopia | Frankfurt | 6 | All Maps | STV","players":null},{"server_id":23,"name":"Uncletopia | Frankfurt | 7 | Stopwatch Beta","name_short":"frk-7","host":"frk-1.de.uncletopia.com","port":27075,"enabled":true,"region":"eu","cc":"de","latitude":50.110924,"longitude":8.682127,"reserved":0,"last_update":"0001-01-01T00:00:00Z","name_a2s":"Uncletopia | Frankfurt | 7 | Stopwatch Beta","protocol":17,"map":"cp_dustbowl","folder":"tf","game":"Team Fortress","app_id":440,"player_count":0,"max_players":24,"Bots":0,"server_type":"Dedicated","server_os":"Linux","password":true,"vac":true,"version":"7882260","steam_id":85568392924742827,"keywords":["cp","nocrits","nodmgspread","uncletopia"],"game_id":440,"stv_port":27076,"stv_name":"Uncletopia | Frankfurt | 7 | Stopwatch Beta | STV","players":null},{"server_id":24,"name":"Uncletopia | Frankfurt | 8 | Community","name_short":"frk-8","host":"frk-1.de.uncletopia.com","port":27085,"enabled":true,"region":"eu","cc":"de","latitude":50.110924,"longitude":8.682127,"reserved":0,"last_update":"0001-01-01T00:00:00Z","name_a2s":"Uncletopia | Frankfurt | 8 | Community","protocol":17,"map":"koth_cascade","folder":"tf","game":"Team Fortress","app_id":440,"player_count":0,"max_players":24,"Bots":0,"server_type":"Dedicated","server_os":"Linux","password":true,"vac":true,"version":"7882260","steam_id":85568392924742828,"keywords":["cp","nocrits","nodmgspread","uncletopia"],"game_id":440,"stv_port":27086,"stv_name":"Uncletopia | Frankfurt | 8 | Community | STV","players":null},{"server_id":202,"name":"Uncletopia | Hong Kong | 1 | All Maps","name_short":"hgk-1","host":"hgk-1.hk.uncletopia.com","port":27015,"enabled":true,"region":"asia","cc":"hk","latitude":22.302711,"longitude":114.177216,"reserved":0,"last_update":"0001-01-01T00:00:00Z","name_a2s":"Uncletopia | Hong Kong | 1 | All Maps","protocol":17,"map":"pl_upward","folder":"tf","game":"Team Fortress","app_id":440,"player_count":24,"max_players":24,"Bots":0,"server_type":"Dedicated","server_os":"Linux","password":true,"vac":true,"version":"7882260","steam_id":85568392924494504,"keywords":["nocrits","nodmgspread","payload","uncletopia"],"game_id":440,"stv_port":27016,"stv_name":"Uncletopia | Hong Kong | 1 | All Maps | STV","players":[{"user_id":233,"name":"Gogh","steam_id":76561198318126190,"connected_time":2058000000000,"state":"active","ping":96},{"user_id":250,"name":"[ RJN ] MeeLee","steam_id":76561199227871384,"connected_time":875000000000,"state":"active","ping":58},{"user_id":232,"name":"ObscuroLucem","steam_id":76561198875037943,"connected_time":2082000000000,"state":"active","ping":81},{"user_id":196,"name":"Drutzhfer","steam_id":76561198299948446,"connected_time":5493000000000,"state":"active","ping":101},{"user_id":244,"name":"E","steam_id":76561199173781370,"connected_time":1171000000000,"state":"active","ping":135},{"user_id":210,"name":"JDSFE","steam_id":76561198975490851,"connected_time":4036000000000,"state":"active","ping":111},{"user_id":251,"name":"corpse_cadaver","steam_id":76561199225360457,"connected_time":862000000000,"state":"active","ping":73},{"user_id":249,"name":"bodacious bogey","steam_id":76561198055553140,"connected_time":900000000000,"state":"active","ping":76},{"user_id":242,"name":"PotTimesTwo","steam_id":76561199405461327,"connected_time":1328000000000,"state":"active","ping":82},{"user_id":225,"name":"Dirt","steam_id":76561199445694770,"connected_time":2956000000000,"state":"active","ping":186},{"user_id":240,"name":"ZhongXina™","steam_id":76561198112117502,"connected_time":1604000000000,"state":"active","ping":51},{"user_id":252,"name":"tiden2000","steam_id":76561198092969425,"connected_time":842000000000,"state":"active","ping":104},{"user_id":235,"name":"Attack Mode","steam_id":76561198966418452,"connected_time":2013000000000,"state":"active","ping":98},{"user_id":59,"name":"TheChainsaw","steam_id":76561198312001455,"connected_time":17382000000000,"state":"active","ping":115},{"user_id":237,"name":"Crazywayne","steam_id":76561198056504010,"connected_time":1791000000000,"state":"active","ping":75},{"user_id":219,"name":"Spark037","steam_id":76561198804499872,"connected_time":3559000000000,"state":"active","ping":44},{"user_id":238,"name":"Andrew Tate","steam_id":76561199198221353,"connected_time":1709000000000,"state":"active","ping":61},{"user_id":243,"name":"wombraidre","steam_id":76561199375834537,"connected_time":1258000000000,"state":"active","ping":98},{"user_id":241,"name":"Telekhine","steam_id":76561198387120618,"connected_time":1601000000000,"state":"active","ping":59},{"user_id":223,"name":"Do you know you have rights?","steam_id":76561198796036009,"connected_time":3148000000000,"state":"active","ping":103},{"user_id":253,"name":"全自动阿拉撕家","steam_id":76561198178553535,"connected_time":691000000000,"state":"active","ping":129},{"user_id":245,"name":"Билл Косби Гейми\ufffd","steam_id":76561198997678151,"connected_time":1102000000000,"state":"active","ping":109},{"user_id":254,"name":"Momoxhien","steam_id":76561198414997429,"connected_time":658000000000,"state":"active","ping":67},{"user_id":141,"name":"3wfFbdrjEze5d2G","steam_id":76561198435900451,"connected_time":10371000000000,"state":"active","ping":100}]},{"server_id":1,"name":"Uncletopia | Los Angeles | 1 | All Maps","name_short":"lax-1","host":"lax-1.us.uncletopia.com","port":27015,"enabled":true,"region":"us-west","cc":"us","latitude":33.94279,"longitude":-118.41004,"reserved":0,"last_update":"0001-01-01T00:00:00Z","name_a2s":"Uncletopia | Los Angeles | 1 | All Maps","protocol":17,"map":"cp_mountainlab","folder":"tf","game":"Team Fortress","app_id":440,"player_count":14,"max_players":24,"Bots":0,"server_type":"Dedicated","server_os":"Linux","password":true,"vac":true,"version":"7882260","steam_id":85568392924469991,"keywords":["cp","nocrits","nodmgspread","uncletopia"],"game_id":440,"stv_port":27016,"stv_name":"Uncletopia | Los Angeles | 1 | All Maps | STV","players":[{"user_id":516,"name":"Moomin","steam_id":76561198072726213,"connected_time":4954000000000,"state":"active","ping":43},{"user_id":518,"name":"FI LO","steam_id":76561198976530881,"connected_time":4948000000000,"state":"active","ping":30},{"user_id":570,"name":"i am lactating","steam_id":76561198110843978,"connected_time":2000000000,"state":"spawning","ping":61},{"user_id":553,"name":"Zizen","steam_id":76561199011832069,"connected_time":2039000000000,"state":"active","ping":47},{"user_id":523,"name":"Lancerland","steam_id":76561198130497320,"connected_time":4159000000000,"state":"active","ping":54},{"user_id":535,"name":"BurningKev","steam_id":76561198057688837,"connected_time":3270000000000,"state":"active","ping":74},{"user_id":545,"name":"Grassman (Cc)","steam_id":76561198026488532,"connected_time":2776000000000,"state":"active","ping":48},{"user_id":567,"name":"Toxic lime","steam_id":76561198065018874,"connected_time":440000000000,"state":"active","ping":91},{"user_id":559,"name":"The Headhunter","steam_id":76561198389722871,"connected_time":1895000000000,"state":"active","ping":49},{"user_id":539,"name":"young rich","steam_id":76561198858076215,"connected_time":3056000000000,"state":"active","ping":62},{"user_id":561,"name":"Doctor Bad Dragon","steam_id":76561198058773212,"connected_time":1589000000000,"state":"active","ping":72},{"user_id":540,"name":"Guy","steam_id":76561198145451856,"connected_time":3050000000000,"state":"active","ping":57},{"user_id":565,"name":"..flop","steam_id":76561197989058876,"connected_time":1124000000000,"state":"active","ping":63},{"user_id":541,"name":"Saucy Boy","steam_id":76561198178332031,"connected_time":2965000000000,"state":"active","ping":111}]},{"server_id":112,"name":"Uncletopia | Los Angeles | 2 | All Maps","name_short":"lax-2","host":"lax-1.us.uncletopia.com","port":27025,"enabled":true,"region":"us-west","cc":"us","latitude":33.94279,"longitude":-118.41004,"reserved":0,"last_update":"0001-01-01T00:00:00Z","name_a2s":"Uncletopia | Los Angeles | 2 | All Maps","protocol":17,"map":"cp_sunshine","folder":"tf","game":"Team Fortress","app_id":440,"player_count":0,"max_players":24,"Bots":0,"server_type":"Dedicated","server_os":"Linux","password":true,"vac":true,"version":"7882260","steam_id":85568392924469992,"keywords":["cp","nocrits","nodmgspread","uncletopia"],"game_id":440,"stv_port":27026,"stv_name":"Uncletopia | Los Angeles | 2 | All Maps | STV","players":null},{"server_id":324,"name":"Uncletopia | Los Angeles | 3 | All Maps","name_short":"lax-3","host":"lax-1.us.uncletopia.com","port":27035,"enabled":true,"region":"us-west","cc":"us","latitude":33.94279,"longitude":-118.41004,"reserved":0,"last_update":"0001-01-01T00:00:00Z","name_a2s":"Uncletopia | Los Angeles | 3 | All Maps","protocol":17,"map":"koth_highpass","folder":"tf","game":"Team Fortress","app_id":440,"player_count":0,"max_players":24,"Bots":0,"server_type":"Dedicated","server_os":"Linux","password":true,"vac":true,"version":"7882260","steam_id":85568392924510198,"keywords":["cp","nocrits","nodmgspread","uncletopia"],"game_id":440,"stv_port":27036,"stv_name":"Uncletopia | Los Angeles | 3 | All Maps | STV","players":null},{"server_id":25,"name":"Uncletopia | Los Angeles | 4 | Stopwatch Beta","name_short":"lax-4","host":"lax-1.us.uncletopia.com","port":27045,"enabled":true,"region":"us-west","cc":"us","latitude":33.94279,"longitude":-118.41004,"reserved":0,"last_update":"0001-01-01T00:00:00Z","name_a2s":"Uncletopia | Los Angeles | 4 | Stopwatch Beta","protocol":17,"map":"workshop/koth_ramjam_rc1.ugc459778887","folder":"tf","game":"Team Fortress","app_id":440,"player_count":0,"max_players":24,"Bots":0,"server_type":"Dedicated","server_os":"Linux","password":true,"vac":true,"version":"7882260","steam_id":85568392924510199,"keywords":["cp","nocrits","nodmgspread","uncletopia"],"game_id":440,"stv_port":27046,"stv_name":"Uncletopia | Los Angeles | 4 | Stopwatch Beta | STV","players":null},{"server_id":11,"name":"Uncletopia | London | 1 | All Maps","name_short":"lon-1","host":"lon-1.uk.uncletopia.com","port":27015,"enabled":true,"region":"eu","cc":"gb","latitude":51.509865,"longitude":-0.118092,"reserved":0,"last_update":"0001-01-01T00:00:00Z","name_a2s":"Uncletopia | London | 1 | All Maps","protocol":17,"map":"cp_altitude","folder":"tf","game":"Team Fortress","app_id":440,"player_count":0,"max_players":24,"Bots":0,"server_type":"Dedicated","server_os":"Linux","password":true,"vac":true,"version":"7882260","steam_id":85568392924367362,"keywords":["cp","nocrits","nodmgspread","uncletopia"],"game_id":440,"stv_port":27016,"stv_name":"Uncletopia | London | 1 | All Maps | STV","players":null},{"server_id":114,"name":"Uncletopia | London | 2 | All Maps","name_short":"lon-2","host":"lon-1.uk.uncletopia.com","port":27025,"enabled":true,"region":"eu","cc":"gb","latitude":51.509865,"longitude":-0.118092,"reserved":0,"last_update":"0001-01-01T00:00:00Z","name_a2s":"Uncletopia | London | 2 | All Maps","protocol":17,"map":"pl_swiftwater_final1","folder":"tf","game":"Team Fortress","app_id":440,"player_count":0,"max_players":24,"Bots":0,"server_type":"Dedicated","server_os":"Linux","password":true,"vac":true,"version":"7882260","steam_id":85568392924470941,"keywords":["nocrits","nodmgspread","payload","uncletopia"],"game_id":440,"stv_port":27026,"stv_name":"Uncletopia | London | 2 | All Maps | STV","players":null},{"server_id":320,"name":"Uncletopia | London | 3 | All Maps","name_short":"lon-3","host":"lon-1.uk.uncletopia.com","port":27035,"enabled":true,"region":"eu","cc":"gb","latitude":51.509865,"longitude":-0.118092,"reserved":0,"last_update":"0001-01-01T00:00:00Z","name_a2s":"Uncletopia | London | 3 | All Maps","protocol":17,"map":"koth_highpass","folder":"tf","game":"Team Fortress","app_id":440,"player_count":0,"max_players":24,"Bots":0,"server_type":"Dedicated","server_os":"Linux","password":true,"vac":true,"version":"7882260","steam_id":85568392924510192,"keywords":["cp","nocrits","nodmgspread","uncletopia"],"game_id":440,"stv_port":27036,"stv_name":"Uncletopia | London | 3 | All Maps | STV","players":null},{"server_id":321,"name":"Uncletopia | London | 4 | All Maps","name_short":"lon-4","host":"lon-1.uk.uncletopia.com","port":27045,"enabled":true,"region":"eu","cc":"gb","latitude":51.509865,"longitude":-0.118092,"reserved":0,"last_update":"0001-01-01T00:00:00Z","name_a2s":"Uncletopia | London | 4 | All Maps","protocol":17,"map":"cp_sunshine","folder":"tf","game":"Team Fortress","app_id":440,"player_count":0,"max_players":24,"Bots":0,"server_type":"Dedicated","server_os":"Linux","password":true,"vac":true,"version":"7882260","steam_id":85568392924510193,"keywords":["cp","nocrits","nodmgspread","uncletopia"],"game_id":440,"stv_port":27046,"stv_name":"Uncletopia | London | 4 | All Maps | STV","players":null},{"server_id":21,"name":"Uncletopia | London | 5 | All Maps","name_short":"lon-5","host":"lon-1.uk.uncletopia.com","port":27055,"enabled":true,"region":"eu","cc":"gb","latitude":51.509865,"longitude":-0.118092,"reserved":0,"last_update":"0001-01-01T00:00:00Z","name_a2s":"Uncletopia | London | 5 | All Maps","protocol":17,"map":"pl_frontier_final","folder":"tf","game":"Team Fortress","app_id":440,"player_count":0,"max_players":24,"Bots":0,"server_type":"Dedicated","server_os":"Linux","password":true,"vac":true,"version":"7882260","steam_id":85568392924742829,"keywords":["nocrits","nodmgspread","payload","uncletopia"],"game_id":440,"stv_port":27056,"stv_name":"Uncletopia | London | 5 | All Maps | STV","players":null},{"server_id":22,"name":"Uncletopia | London | 6 | All Maps","name_short":"lon-6","host":"lon-1.uk.uncletopia.com","port":27065,"enabled":true,"region":"eu","cc":"gb","latitude":51.509865,"longitude":-0.118092,"reserved":0,"last_update":"0001-01-01T00:00:00Z","name_a2s":"Uncletopia | London | 6 | All Maps","protocol":17,"map":"cp_altitude","folder":"tf","game":"Team Fortress","app_id":440,"player_count":0,"max_players":24,"Bots":0,"server_type":"Dedicated","server_os":"Linux","password":true,"vac":true,"version":"7882260","steam_id":85568392924742830,"keywords":["cp","nocrits","nodmgspread","uncletopia"],"game_id":440,"stv_port":27066,"stv_name":"Uncletopia | London | 6 | All Maps | STV","players":null},{"server_id":40,"name":"Uncletopia | London | 7 | No Payload","name_short":"lon-7","host":"lon-1.uk.uncletopia.com","port":27075,"enabled":true,"region":"eu","cc":"gb","latitude":51.509865,"longitude":-0.118092,"reserved":0,"last_update":"0001-01-01T00:00:00Z","name_a2s":"Uncletopia | London | 7 | No Payload","protocol":17,"map":"ctf_2fort","folder":"tf","game":"Team Fortress","app_id":440,"player_count":0,"max_players":24,"Bots":0,"server_type":"Dedicated","server_os":"Linux","password":true,"vac":true,"version":"7882260","steam_id":85568392924964314,"keywords":["ctf","nocrits","nodmgspread","uncletopia"],"game_id":440,"stv_port":27076,"stv_name":"Uncletopia | London | 7 | No Payload | STV","players":null},{"server_id":41,"name":"Uncletopia | London | 8 | Community","name_short":"lon-8","host":"lon-1.uk.uncletopia.com","port":27085,"enabled":true,"region":"eu","cc":"gb","latitude":51.509865,"longitude":-0.118092,"reserved":0,"last_update":"0001-01-01T00:00:00Z","name_a2s":"Uncletopia | London | 8 | Community","protocol":17,"map":"pl_swiftwater_final1","folder":"tf","game":"Team Fortress","app_id":440,"player_count":0,"max_players":24,"Bots":0,"server_type":"Dedicated","server_os":"Linux","password":true,"vac":true,"version":"7882260","steam_id":85568392924964315,"keywords":["nocrits","nodmgspread","payload","uncletopia"],"game_id":440,"stv_port":27086,"stv_name":"Uncletopia | London | 8 | Community | STV","players":null},{"server_id":300,"name":"Uncletopia | Montréal | 1 | All Maps","name_short":"mtl-1","host":"mtl-1.ca.uncletopia.com","port":27015,"enabled":true,"region":"us-east","cc":"ca","latitude":45.50889,"longitude":-73.56167,"reserved":0,"last_update":"0001-01-01T00:00:00Z","name_a2s":"Uncletopia | Montréal | 1 | All Maps","protocol":17,"map":"pl_snowycoast","folder":"tf","game":"Team Fortress","app_id":440,"player_count":0,"max_players":24,"Bots":0,"server_type":"Dedicated","server_os":"Linux","password":true,"vac":true,"version":"7882260","steam_id":85568392924500087,"keywords":["nocrits","nodmgspread","payload","uncletopia"],"game_id":440,"stv_port":27016,"stv_name":"Uncletopia | Montréal | 1 | All Maps | STV","players":null},{"server_id":301,"name":"Uncletopia | Montréal | 2 | All Maps","name_short":"mtl-2","host":"mtl-1.ca.uncletopia.com","port":27025,"enabled":true,"region":"us-east","cc":"ca","latitude":45.50889,"longitude":-73.56167,"reserved":0,"last_update":"0001-01-01T00:00:00Z","name_a2s":"Uncletopia | Montréal | 2 | All Maps","protocol":17,"map":"cp_sunshine","folder":"tf","game":"Team Fortress","app_id":440,"player_count":0,"max_players":24,"Bots":0,"server_type":"Dedicated","server_os":"Linux","password":true,"vac":true,"version":"7882260","steam_id":85568392924500088,"keywords":["cp","nocrits","nodmgspread","uncletopia"],"game_id":440,"stv_port":27026,"stv_name":"Uncletopia | Montréal | 2 | All Maps | STV","players":null},{"server_id":302,"name":"Uncletopia | Montréal | 3 | All Maps","name_short":"mtl-3","host":"mtl-1.ca.uncletopia.com","port":27035,"enabled":true,"region":"us-east","cc":"ca","latitude":45.50889,"longitude":-73.56167,"reserved":0,"last_update":"0001-01-01T00:00:00Z","name_a2s":"Uncletopia | Montréal | 3 | All Maps","protocol":17,"map":"pl_borneo","folder":"tf","game":"Team Fortress","app_id":440,"player_count":0,"max_players":24,"Bots":0,"server_type":"Dedicated","server_os":"Linux","password":true,"vac":true,"version":"7882260","steam_id":85568392924500089,"keywords":["nocrits","nodmgspread","payload","uncletopia"],"game_id":440,"stv_port":27036,"stv_name":"Uncletopia | Montréal | 3 | All Maps | STV","players":null},{"server_id":303,"name":"Uncletopia | Montréal | 4 | No Payload","name_short":"mtl-4","host":"mtl-1.ca.uncletopia.com","port":27045,"enabled":true,"region":"us-east","cc":"ca","latitude":45.50889,"longitude":-73.56167,"reserved":0,"last_update":"0001-01-01T00:00:00Z","name_a2s":"Uncletopia | Montréal | 4 | No Payload","protocol":17,"map":"cp_altitude","folder":"tf","game":"Team Fortress","app_id":440,"player_count":0,"max_players":24,"Bots":0,"server_type":"Dedicated","server_os":"Linux","password":true,"vac":true,"version":"7882260","steam_id":85568392924500090,"keywords":["cp","nocrits","nodmgspread","uncletopia"],"game_id":440,"stv_port":27046,"stv_name":"Uncletopia | Montréal | 4 | No Payload | STV","players":null},{"server_id":13,"name":"Uncletopia | New York City | 1 | All Maps","name_short":"nyc-1","host":"nyc-1.us.uncletopia.com","port":27015,"enabled":true,"region":"us-east","cc":"us","latitude":40.73061,"longitude":-73.93524,"reserved":0,"last_update":"0001-01-01T00:00:00Z","name_a2s":"Uncletopia | New York City | 1 | All Maps","protocol":17,"map":"pl_borneo","folder":"tf","game":"Team Fortress","app_id":440,"player_count":0,"max_players":24,"Bots":0,"server_type":"Dedicated","server_os":"Linux","password":true,"vac":true,"version":"7882260","steam_id":85568392924469993,"keywords":["nocrits","nodmgspread","payload","uncletopia"],"game_id":440,"stv_port":27016,"stv_name":"Uncletopia | New York City | 1 | All Maps | STV","players":null},{"server_id":14,"name":"Uncletopia | New York City | 2 | All Maps","name_short":"nyc-2","host":"nyc-1.us.uncletopia.com","port":27025,"enabled":true,"region":"us-east","cc":"us","latitude":40.73061,"longitude":-73.93524,"reserved":0,"last_update":"0001-01-01T00:00:00Z","name_a2s":"Uncletopia | New York City | 2 | All Maps","protocol":17,"map":"pl_upward","folder":"tf","game":"Team Fortress","app_id":440,"player_count":0,"max_players":24,"Bots":0,"server_type":"Dedicated","server_os":"Linux","password":true,"vac":true,"version":"7882260","steam_id":85568392924469994,"keywords":["nocrits","nodmgspread","payload","uncletopia"],"game_id":440,"stv_port":27026,"stv_name":"Uncletopia | New York City | 2 | All Maps | STV","players":null},{"server_id":15,"name":"Uncletopia | New York City | 3 | Stopwatch Beta","name_short":"nyc-3","host":"nyc-1.us.uncletopia.com","port":27035,"enabled":true,"region":"us-east","cc":"us","latitude":40.73061,"longitude":-73.93524,"reserved":0,"last_update":"0001-01-01T00:00:00Z","name_a2s":"Uncletopia | New York City | 3 | Stopwatch Beta","protocol":17,"map":"koth_lakeside_final","folder":"tf","game":"Team Fortress","app_id":440,"player_count":0,"max_players":24,"Bots":0,"server_type":"Dedicated","server_os":"Linux","password":true,"vac":true,"version":"7882260","steam_id":85568392924742820,"keywords":["cp","nocrits","nodmgspread","uncletopia"],"game_id":440,"stv_port":27036,"stv_name":"Uncletopia | New York City | 3 | Stopwatch Beta | STV","players":null},{"server_id":16,"name":"Uncletopia | New York City | 4 | Community","name_short":"nyc-4","host":"nyc-1.us.uncletopia.com","port":27045,"enabled":true,"region":"us-east","cc":"us","latitude":40.73061,"longitude":-73.93524,"reserved":0,"last_update":"0001-01-01T00:00:00Z","name_a2s":"Uncletopia | New York City | 4 | Community","protocol":17,"map":"pl_badwater","folder":"tf","game":"Team Fortress","app_id":440,"player_count":0,"max_players":24,"Bots":0,"server_type":"Dedicated","server_os":"Linux","password":true,"vac":true,"version":"7882260","steam_id":85568392924742821,"keywords":["nocrits","nodmgspread","payload","uncletopia"],"game_id":440,"stv_port":27046,"stv_name":"Uncletopia | New York City | 4 | Community | STV","players":null},{"server_id":142,"name":"Uncletopia | São Paulo | 1 | All Maps","name_short":"sao-1","host":"sao-1.br.uncletopia.com","port":27015,"enabled":true,"region":"sa","cc":"br","latitude":-23.533773,"longitude":-46.62529,"reserved":0,"last_update":"0001-01-01T00:00:00Z","name_a2s":"Uncletopia | São Paulo | 1 | All Maps","protocol":17,"map":"cp_process_final","folder":"tf","game":"Team Fortress","app_id":440,"player_count":0,"max_players":24,"Bots":0,"server_type":"Dedicated","server_os":"Linux","password":true,"vac":true,"version":"7882260","steam_id":85568392924469996,"keywords":["cp","nocrits","nodmgspread","uncletopia"],"game_id":440,"stv_port":27016,"stv_name":"Uncletopia | São Paulo | 1 | All Maps | STV","players":null},{"server_id":143,"name":"Uncletopia | São Paulo | 2 | All Maps","name_short":"sao-2","host":"sao-2.br.uncletopia.com","port":27015,"enabled":true,"region":"sa","cc":"br","latitude":-23.533773,"longitude":-46.62529,"reserved":0,"last_update":"0001-01-01T00:00:00Z","name_a2s":"Uncletopia | São Paulo | 2 | All Maps","protocol":17,"map":"pl_pier","folder":"tf","game":"Team Fortress","app_id":440,"player_count":0,"max_players":24,"Bots":0,"server_type":"Dedicated","server_os":"Linux","password":true,"vac":true,"version":"7882260","steam_id":85568392924485349,"keywords":["nocrits","nodmgspread","payload","uncletopia"],"game_id":440,"stv_port":27016,"stv_name":"Uncletopia | São Paulo | 2 | All Maps | STV","players":null},{"server_id":7,"name":"Uncletopia | Seattle | 1 | All Maps","name_short":"sea-1","host":"sea-1.us.uncletopia.com","port":27015,"enabled":true,"region":"us-west","cc":"us","latitude":47.608013,"longitude":-122.33517,"reserved":0,"last_update":"0001-01-01T00:00:00Z","name_a2s":"Uncletopia | Seattle | 1 | All Maps","protocol":17,"map":"koth_suijin","folder":"tf","game":"Team Fortress","app_id":440,"player_count":24,"max_players":24,"Bots":0,"server_type":"Dedicated","server_os":"Linux","password":true,"vac":true,"version":"7882260","steam_id":85568392924469997,"keywords":["cp","nocrits","nodmgspread","uncletopia"],"game_id":440,"stv_port":27016,"stv_name":"Uncletopia | Seattle | 1 | All Maps | STV","players":[{"user_id":940,"name":"shitass (Shrimp Arc)","steam_id":76561198210572481,"connected_time":4421000000000,"state":"active","ping":74},{"user_id":972,"name":"roo the observer","steam_id":76561198120684348,"connected_time":2481000000000,"state":"active","ping":107},{"user_id":980,"name":"Detrim","steam_id":76561198116068785,"connected_time":1319000000000,"state":"active","ping":85},{"user_id":981,"name":"IMM0RTAL","steam_id":76561198013747901,"connected_time":1271000000000,"state":"active","ping":126},{"user_id":952,"name":"mann","steam_id":76561199406261605,"connected_time":3237000000000,"state":"active","ping":101},{"user_id":982,"name":"Ġ1 ♦ Synth","steam_id":76561198058660228,"connected_time":1229000000000,"state":"active","ping":111},{"user_id":983,"name":"FD0XY","steam_id":76561198862653083,"connected_time":1158000000000,"state":"active","ping":45},{"user_id":984,"name":"lpdinobd","steam_id":76561198926251812,"connected_time":1054000000000,"state":"active","ping":112},{"user_id":1000,"name":"Disc0","steam_id":76561198067337267,"connected_time":169000000000,"state":"active","ping":46},{"user_id":993,"name":"SoiSoy","steam_id":76561199442642296,"connected_time":562000000000,"state":"active","ping":116},{"user_id":1001,"name":"that would be your mother","steam_id":76561199251582775,"connected_time":124000000000,"state":"active","ping":194},{"user_id":987,"name":"Stale Bread","steam_id":76561198085618127,"connected_time":789000000000,"state":"active","ping":70},{"user_id":988,"name":"bbbbbb","steam_id":76561198114339959,"connected_time":782000000000,"state":"active","ping":104},{"user_id":977,"name":"Rad","steam_id":76561198413125750,"connected_time":2387000000000,"state":"active","ping":118},{"user_id":976,"name":"Kujo","steam_id":76561198342579745,"connected_time":2396000000000,"state":"active","ping":78},{"user_id":990,"name":"ghosttᗝ","steam_id":76561199214430703,"connected_time":670000000000,"state":"active","ping":105},{"user_id":1003,"name":"Alaska","steam_id":76561198062026641,"connected_time":14000000000,"state":"active","ping":99},{"user_id":998,"name":"meteoraa","steam_id":76561198142669130,"connected_time":313000000000,"state":"active","ping":87},{"user_id":968,"name":"Azby_","steam_id":76561198230307016,"connected_time":2580000000000,"state":"active","ping":63},{"user_id":1002,"name":"yahweh","steam_id":76561198347225801,"connected_time":58000000000,"state":"active","ping":48},{"user_id":997,"name":"Cdesmondd","steam_id":76561198072774462,"connected_time":346000000000,"state":"active","ping":104},{"user_id":927,"name":"1986","steam_id":76561198203330566,"connected_time":5088000000000,"state":"active","ping":56},{"user_id":971,"name":"Isaacord","steam_id":76561198070259559,"connected_time":2529000000000,"state":"active","ping":86},{"user_id":1004,"name":"Missical","steam_id":76561198261007627,"connected_time":13000000000,"state":"spawning","ping":110}]},{"server_id":119,"name":"Uncletopia | Seattle | 2 | All Maps","name_short":"sea-2","host":"sea-1.us.uncletopia.com","port":27025,"enabled":true,"region":"us-west","cc":"us","latitude":47.608013,"longitude":-122.33517,"reserved":0,"last_update":"0001-01-01T00:00:00Z","name_a2s":"Uncletopia | Seattle | 2 | All Maps","protocol":17,"map":"cp_sunshine","folder":"tf","game":"Team Fortress","app_id":440,"player_count":10,"max_players":24,"Bots":0,"server_type":"Dedicated","server_os":"Linux","password":true,"vac":true,"version":"7882260","steam_id":85568392924469998,"keywords":["cp","nocrits","nodmgspread","uncletopia"],"game_id":440,"stv_port":27026,"stv_name":"Uncletopia | Seattle | 2 | All Maps | STV","players":[{"user_id":1088,"name":"rat gets the cheese","steam_id":76561198031234032,"connected_time":7005000000000,"state":"active","ping":98},{"user_id":1155,"name":"Sophie","steam_id":76561198141454551,"connected_time":1056000000000,"state":"active","ping":105},{"user_id":1160,"name":"Schalk","steam_id":76561197983259252,"connected_time":540000000000,"state":"active","ping":188},{"user_id":1122,"name":"RURU","steam_id":76561198039758987,"connected_time":4614000000000,"state":"active","ping":55},{"user_id":1157,"name":"Penis Scout","steam_id":76561198218558897,"connected_time":985000000000,"state":"active","ping":65},{"user_id":1164,"name":"Defeat","steam_id":76561198065203818,"connected_time":190000000000,"state":"active","ping":47},{"user_id":1165,"name":"-MiggyLeBro-","steam_id":76561198973141437,"connected_time":92000000000,"state":"active","ping":116},{"user_id":1166,"name":"DioButGamer","steam_id":76561199095281800,"connected_time":59000000000,"state":"active","ping":303},{"user_id":1109,"name":"cheeto dorito","steam_id":76561198107941274,"connected_time":5466000000000,"state":"active","ping":80},{"user_id":1167,"name":"[BOZO] nen","steam_id":76561199229377291,"connected_time":57000000000,"state":"active","ping":182}]},{"server_id":406,"name":"Uncletopia | Seattle | 3 | Stopwatch Beta","name_short":"sea-3","host":"sea-1.us.uncletopia.com","port":27035,"enabled":true,"region":"us-west","cc":"us","latitude":47.608013,"longitude":-122.33517,"reserved":0,"last_update":"0001-01-01T00:00:00Z","name_a2s":"Uncletopia | Seattle | 3 | Stopwatch Beta","protocol":17,"map":"pl_upward","folder":"tf","game":"Team Fortress","app_id":440,"player_count":0,"max_players":24,"Bots":0,"server_type":"Dedicated","server_os":"Linux","password":true,"vac":true,"version":"7882260","steam_id":85568392924515217,"keywords":["nocrits","nodmgspread","payload","uncletopia"],"game_id":440,"stv_port":27036,"stv_name":"Uncletopia | Seattle | 3 | Stopwatch Beta | STV","players":null},{"server_id":17,"name":"Uncletopia | San Francisco | 1 | All Maps","name_short":"sfo-1","host":"sfo-1.us.uncletopia.com","port":27015,"enabled":true,"region":"us-west","cc":"us","latitude":37.77397,"longitude":-122.4313,"reserved":0,"last_update":"0001-01-01T00:00:00Z","name_a2s":"Uncletopia | San Francisco | 1 | All Maps","protocol":17,"map":"cp_process_final","folder":"tf","game":"Team Fortress","app_id":440,"player_count":0,"max_players":24,"Bots":0,"server_type":"Dedicated","server_os":"Linux","password":true,"vac":true,"version":"7757534","steam_id":85568392924469999,"keywords":["cp","nocrits","nodmgspread","uncletopia"],"game_id":440,"stv_port":27016,"stv_name":"Uncletopia | San Francisco | 1 | All Maps | STV","players":null},{"server_id":18,"name":"Uncletopia | San Francisco | 2 | All Maps","name_short":"sfo-2","host":"sfo-1.us.uncletopia.com","port":27025,"enabled":true,"region":"us-west","cc":"us","latitude":37.77397,"longitude":-122.4313,"reserved":0,"last_update":"0001-01-01T00:00:00Z","name_a2s":"Uncletopia | San Francisco | 2 | All Maps","protocol":17,"map":"koth_highpass","folder":"tf","game":"Team Fortress","app_id":440,"player_count":0,"max_players":24,"Bots":0,"server_type":"Dedicated","server_os":"Linux","password":true,"vac":true,"version":"7757534","steam_id":85568392924470000,"keywords":["cp","nocrits","nodmgspread","uncletopia"],"game_id":440,"stv_port":27026,"stv_name":"Uncletopia | San Francisco | 2 | All Maps | STV","players":null},{"server_id":19,"name":"Uncletopia | San Francisco | 3 | Stopwatch Beta","name_short":"sfo-3","host":"sfo-1.us.uncletopia.com","port":27035,"enabled":true,"region":"us-west","cc":"us","latitude":37.77397,"longitude":-122.4313,"reserved":0,"last_update":"0001-01-01T00:00:00Z","name_a2s":"Uncletopia | San Francisco | 3 | Stopwatch Beta","protocol":17,"map":"koth_lakeside_final","folder":"tf","game":"Team Fortress","app_id":440,"player_count":0,"max_players":24,"Bots":0,"server_type":"Dedicated","server_os":"Linux","password":true,"vac":true,"version":"7757534","steam_id":85568392924742824,"keywords":["cp","nocrits","nodmgspread","uncletopia"],"game_id":440,"stv_port":27036,"stv_name":"Uncletopia | San Francisco | 3 | Stopwatch Beta | STV","players":null},{"server_id":20,"name":"Uncletopia | San Francisco | 4 | Community","name_short":"sfo-4","host":"sfo-1.us.uncletopia.com","port":27045,"enabled":true,"region":"us-west","cc":"us","latitude":37.77397,"longitude":-122.4313,"reserved":0,"last_update":"0001-01-01T00:00:00Z","name_a2s":"Uncletopia | San Francisco | 4 | Community","protocol":17,"map":"cp_altitude","folder":"tf","game":"Team Fortress","app_id":440,"player_count":0,"max_players":24,"Bots":0,"server_type":"Dedicated","server_os":"Linux","password":true,"vac":true,"version":"7757534","steam_id":85568392924742826,"keywords":["cp","nocrits","nodmgspread","uncletopia"],"game_id":440,"stv_port":27046,"stv_name":"Uncletopia | San Francisco | 4 | Community | STV","players":null},{"server_id":141,"name":"Uncletopia | Sydney | 1 | All Maps","name_short":"syd-1","host":"syd-1.au.uncletopia.com","port":27015,"enabled":true,"region":"au","cc":"au","latitude":-33.865143,"longitude":151.2099,"reserved":0,"last_update":"0001-01-01T00:00:00Z","name_a2s":"Uncletopia | Sydney | 1 | All Maps","protocol":17,"map":"pl_thundermountain","folder":"tf","game":"Team Fortress","app_id":440,"player_count":24,"max_players":24,"Bots":0,"server_type":"Dedicated","server_os":"Linux","password":true,"vac":true,"version":"7882260","steam_id":85568392924470001,"keywords":["nocrits","nodmgspread","payload","uncletopia"],"game_id":440,"stv_port":27016,"stv_name":"Uncletopia | Sydney | 1 | All Maps | STV","players":[{"user_id":309,"name":"Comedy Mode","steam_id":76561198293250088,"connected_time":52000000000,"state":"active","ping":134},{"user_id":282,"name":"Zort","steam_id":76561198056414289,"connected_time":2336000000000,"state":"active","ping":64},{"user_id":279,"name":"whiteshaq","steam_id":76561198131988811,"connected_time":2526000000000,"state":"active","ping":46},{"user_id":275,"name":"Frog Friend","steam_id":76561198054505772,"connected_time":2578000000000,"state":"active","ping":50},{"user_id":295,"name":"Kremmen","steam_id":76561198051368641,"connected_time":782000000000,"state":"active","ping":65},{"user_id":255,"name":"Hungry for thumbtacks","steam_id":76561198059129270,"connected_time":4277000000000,"state":"active","ping":67},{"user_id":303,"name":"Maquire's Constipation","steam_id":76561198096130103,"connected_time":554000000000,"state":"active","ping":53},{"user_id":292,"name":"The Dude","steam_id":76561198174858021,"connected_time":1523000000000,"state":"active","ping":45},{"user_id":265,"name":"vent","steam_id":76561197984081096,"connected_time":3440000000000,"state":"active","ping":64},{"user_id":271,"name":"Jodelkönig Franzl Lang","steam_id":76561198007667830,"connected_time":2590000000000,"state":"active","ping":47},{"user_id":263,"name":"Tentacle","steam_id":76561197994320010,"connected_time":3794000000000,"state":"active","ping":51},{"user_id":246,"name":"stroob","steam_id":76561198045320644,"connected_time":5033000000000,"state":"active","ping":53},{"user_id":181,"name":"Yeat","steam_id":76561198202555552,"connected_time":10066000000000,"state":"active","ping":46},{"user_id":272,"name":"Snowy","steam_id":76561198255720598,"connected_time":2588000000000,"state":"active","ping":45},{"user_id":308,"name":"Tiger_Tan","steam_id":76561198221733844,"connected_time":67000000000,"state":"active","ping":68},{"user_id":288,"name":"Pug","steam_id":76561198136794372,"connected_time":1739000000000,"state":"active","ping":57},{"user_id":307,"name":"Killing","steam_id":76561198107392931,"connected_time":171000000000,"state":"active","ping":64},{"user_id":281,"name":"Vanessa","steam_id":76561198077728992,"connected_time":2486000000000,"state":"active","ping":64},{"user_id":284,"name":"Alphandiscobean","steam_id":76561198025845937,"connected_time":2294000000000,"state":"active","ping":57},{"user_id":297,"name":"DoctorMario","steam_id":76561198045824179,"connected_time":589000000000,"state":"active","ping":42},{"user_id":286,"name":"1bean234","steam_id":76561198054698346,"connected_time":2187000000000,"state":"active","ping":60},{"user_id":296,"name":"Zoey","steam_id":76561198126153554,"connected_time":672000000000,"state":"active","ping":78},{"user_id":291,"name":"water vapor","steam_id":76561198133490050,"connected_time":1564000000000,"state":"active","ping":96},{"user_id":302,"name":"A threat unbeknownst","steam_id":76561198293776102,"connected_time":565000000000,"state":"active","ping":49}]},{"server_id":123,"name":"Uncletopia | Sydney | 2 | All Maps","name_short":"syd-2","host":"syd-1.au.uncletopia.com","port":27025,"enabled":true,"region":"au","cc":"au","latitude":-33.865143,"longitude":151.2099,"reserved":0,"last_update":"0001-01-01T00:00:00Z","name_a2s":"Uncletopia | Sydney | 2 | All Maps","protocol":17,"map":"ctf_2fort","folder":"tf","game":"Team Fortress","app_id":440,"player_count":8,"max_players":24,"Bots":0,"server_type":"Dedicated","server_os":"Linux","password":true,"vac":true,"version":"7882260","steam_id":85568392924470002,"keywords":["ctf","nocrits","nodmgspread","uncletopia"],"game_id":440,"stv_port":27026,"stv_name":"Uncletopia | Sydney | 2 | All Maps | STV","players":[{"user_id":176,"name":"SoundlessPlum","steam_id":76561198077872547,"connected_time":554000000000,"state":"active","ping":50},{"user_id":175,"name":"asian.forty.seven","steam_id":76561199164513885,"connected_time":665000000000,"state":"active","ping":71},{"user_id":174,"name":"tim88435","steam_id":76561198089653987,"connected_time":739000000000,"state":"active","ping":51},{"user_id":178,"name":"RustyMeat","steam_id":76561198119162442,"connected_time":267000000000,"state":"active","ping":60},{"user_id":179,"name":"SIRROM12 (SIRR)","steam_id":76561198116738329,"connected_time":225000000000,"state":"active","ping":68},{"user_id":180,"name":"TimTam","steam_id":76561198158862578,"connected_time":207000000000,"state":"active","ping":70},{"user_id":181,"name":"Zieria","steam_id":76561199261811388,"connected_time":41000000000,"state":"active","ping":39},{"user_id":182,"name":"Donovan","steam_id":76561199052329168,"connected_time":6000000000,"state":"spawning","ping":57}]},{"server_id":395,"name":"Uncletopia | Sydney | 3 | All Maps","name_short":"syd-3","host":"syd-1.au.uncletopia.com","port":27035,"enabled":true,"region":"au","cc":"au","latitude":-33.865143,"longitude":151.2099,"reserved":0,"last_update":"0001-01-01T00:00:00Z","name_a2s":"Uncletopia | Sydney | 3 | All Maps","protocol":17,"map":"koth_cascade","folder":"tf","game":"Team Fortress","app_id":440,"player_count":0,"max_players":24,"Bots":0,"server_type":"Dedicated","server_os":"Linux","password":true,"vac":true,"version":"7882260","steam_id":85568392925194467,"keywords":["cp","nocrits","nodmgspread","uncletopia"],"game_id":440,"stv_port":27036,"stv_name":"Uncletopia | Sydney | 3 | All Maps | STV","players":null},{"server_id":396,"name":"Uncletopia | Sydney | 4 | All Maps","name_short":"syd-4","host":"syd-1.au.uncletopia.com","port":27045,"enabled":true,"region":"au","cc":"au","latitude":-33.865143,"longitude":151.2099,"reserved":0,"last_update":"0001-01-01T00:00:00Z","name_a2s":"Uncletopia | Sydney | 4 | All Maps","protocol":17,"map":"koth_cascade","folder":"tf","game":"Team Fortress","app_id":440,"player_count":0,"max_players":24,"Bots":0,"server_type":"Dedicated","server_os":"Linux","password":true,"vac":true,"version":"7882260","steam_id":85568392925397958,"keywords":["cp","nocrits","nodmgspread","uncletopia"],"game_id":440,"stv_port":27046,"stv_name":"Uncletopia | Sydney | 4 | All Maps | STV","players":null},{"server_id":58,"name":"Uncletopia | Sydney | 5 | Stopwatch Beta","name_short":"syd-5","host":"syd-1.au.uncletopia.com","port":27055,"enabled":true,"region":"au","cc":"au","latitude":-33.865143,"longitude":151.2099,"reserved":0,"last_update":"0001-01-01T00:00:00Z","name_a2s":"Uncletopia | Sydney | 5 | Stopwatch Beta","protocol":17,"map":"pl_swiftwater_final1","folder":"tf","game":"Team Fortress","app_id":440,"player_count":0,"max_players":24,"Bots":0,"server_type":"Dedicated","server_os":"Linux","password":true,"vac":true,"version":"7882260","steam_id":85568392925397959,"keywords":["nocrits","nodmgspread","payload","uncletopia"],"game_id":440,"stv_port":27056,"stv_name":"Uncletopia | Sydney | 5 | Stopwatch Beta | STV","players":null},{"server_id":59,"name":"Uncletopia | Sydney | 6 | Community","name_short":"syd-6","host":"syd-1.au.uncletopia.com","port":27065,"enabled":true,"region":"au","cc":"au","latitude":-33.865143,"longitude":151.2099,"reserved":0,"last_update":"0001-01-01T00:00:00Z","name_a2s":"Uncletopia | Sydney | 6 | Community","protocol":17,"map":"pl_snowycoast","folder":"tf","game":"Team Fortress","app_id":440,"player_count":0,"max_players":24,"Bots":0,"server_type":"Dedicated","server_os":"Linux","password":true,"vac":true,"version":"7882260","steam_id":85568392925397960,"keywords":["nocrits","nodmgspread","payload","uncletopia"],"game_id":440,"stv_port":27066,"stv_name":"Uncletopia | Sydney | 6 | Community | STV","players":null},{"server_id":49,"name":"Uncletopia | Warsaw | 1 | All Maps","name_short":"waw-1","host":"waw-1.pl.uncletopia.com","port":27015,"enabled":true,"region":"eu","cc":"pl","latitude":52.2297,"longitude":21.017532,"reserved":0,"last_update":"0001-01-01T00:00:00Z","name_a2s":"","protocol":0,"map":"","folder":"","game":"","app_id":0,"player_count":0,"max_players":0,"Bots":0,"server_type":"","server_os":"","password":false,"vac":false,"version":"","steam_id":0,"keywords":null,"game_id":0,"stv_port":0,"stv_name":"","players":null},{"server_id":50,"name":"Uncletopia | Warsaw | 2 | All Maps","name_short":"waw-2","host":"waw-1.pl.uncletopia.com","port":27025,"enabled":true,"region":"eu","cc":"pl","latitude":52.2297,"longitude":21.017532,"reserved":0,"last_update":"0001-01-01T00:00:00Z","name_a2s":"Uncletopia | Warsaw | 2 | All Maps","protocol":17,"map":"pl_swiftwater_final1","folder":"tf","game":"Team Fortress","app_id":440,"player_count":0,"max_players":24,"Bots":0,"server_type":"Dedicated","server_os":"Linux","password":true,"vac":true,"version":"7882260","steam_id":85568392925397851,"keywords":["nocrits","nodmgspread","payload","uncletopia"],"game_id":440,"stv_port":27026,"stv_name":"Uncletopia | Warsaw | 2 | All Maps | STV","players":null},{"server_id":51,"name":"Uncletopia | Warsaw | 3 | All Maps","name_short":"waw-3","host":"waw-1.pl.uncletopia.com","port":27035,"enabled":true,"region":"eu","cc":"pl","latitude":52.2297,"longitude":21.017532,"reserved":0,"last_update":"0001-01-01T00:00:00Z","name_a2s":"Uncletopia | Warsaw | 3 | All Maps","protocol":17,"map":"koth_viaduct","folder":"tf","game":"Team Fortress","app_id":440,"player_count":0,"max_players":24,"Bots":0,"server_type":"Dedicated","server_os":"Linux","password":true,"vac":true,"version":"7882260","steam_id":85568392925397852,"keywords":["cp","nocrits","nodmgspread","uncletopia"],"game_id":440,"stv_port":27036,"stv_name":"Uncletopia | Warsaw | 3 | All Maps | STV","players":null},{"server_id":52,"name":"Uncletopia | Warsaw | 4 | All Maps","name_short":"waw-4","host":"waw-1.pl.uncletopia.com","port":27045,"enabled":true,"region":"eu","cc":"pl","latitude":52.2297,"longitude":21.017532,"reserved":0,"last_update":"0001-01-01T00:00:00Z","name_a2s":"Uncletopia | Warsaw | 4 | All Maps","protocol":17,"map":"koth_highpass","folder":"tf","game":"Team Fortress","app_id":440,"player_count":0,"max_players":24,"Bots":0,"server_type":"Dedicated","server_os":"Linux","password":true,"vac":true,"version":"7882260","steam_id":85568392925397853,"keywords":["cp","nocrits","nodmgspread","uncletopia"],"game_id":440,"stv_port":27046,"stv_name":"Uncletopia | Warsaw | 4 | All Maps | STV","players":null},{"server_id":53,"name":"Uncletopia | Warsaw | 5 | Stopwatch Beta","name_short":"waw-5","host":"waw-1.pl.uncletopia.com","port":27055,"enabled":true,"region":"eu","cc":"pl","latitude":52.2297,"longitude":21.017532,"reserved":0,"last_update":"0001-01-01T00:00:00Z","name_a2s":"Uncletopia | Warsaw | 5 | Stopwatch Beta","protocol":17,"map":"cp_mountainlab","folder":"tf","game":"Team Fortress","app_id":440,"player_count":0,"max_players":24,"Bots":0,"server_type":"Dedicated","server_os":"Linux","password":true,"vac":true,"version":"7882260","steam_id":85568392925397854,"keywords":["cp","nocrits","nodmgspread","uncletopia"],"game_id":440,"stv_port":27056,"stv_name":"Uncletopia | Warsaw | 5 | Stopwatch Beta | STV","players":null},{"server_id":54,"name":"Uncletopia | Warsaw | 6 | Community","name_short":"waw-6","host":"waw-1.pl.uncletopia.com","port":27065,"enabled":true,"region":"eu","cc":"pl","latitude":52.2297,"longitude":21.017532,"reserved":0,"last_update":"0001-01-01T00:00:00Z","name_a2s":"Uncletopia | Warsaw | 6 | Community","protocol":17,"map":"koth_viaduct","folder":"tf","game":"Team Fortress","app_id":440,"player_count":0,"max_players":24,"Bots":0,"server_type":"Dedicated","server_os":"Linux","password":true,"vac":true,"version":"7882260","steam_id":85568392925397856,"keywords":["cp","nocrits","nodmgspread","uncletopia"],"game_id":440,"stv_port":27066,"stv_name":"Uncletopia | Warsaw | 6 | Community | STV","players":null}]}