{"status":true,"message":"","result":[{"server_id":9,"name":"Uncletopia | Atlanta | 1 | All Maps","name_short":"atl-1","host":"atl-1.us.uncletopia.com","port":27015,"enabled":true,"region":"us-east","cc":"us","latitude":33.753746,"longitude":-84.38633,"reserved":0,"last_update":"0001-01-01T00:00:00Z","name_a2s":"Uncletopia | Atlanta | 1 | All Maps","protocol":17,"map":"cp_sunshine","folder":"tf","game":"Team Fortress","app_id":440,"player_count":24,"max_players":24,"Bots":0,"server_type":"Dedicated","server_os":"Linux","password":true,"vac":true,"version":"7708610","steam_id":85568392924469982,"keywords":["cp","nocrits","nodmgspread","uncletopia"],"game_id":440,"stv_port":27016,"stv_name":"Uncletopia | Atlanta | 1 | All Maps | STV","players":[{"user_id":370,"name":"Inevitable","steam_id":76561198210050169,"connected_time":1380000000000,"state":"active","ping":72},{"user_id":362,"name":"mommy grinch","steam_id":76561199230929836,"connected_time":1622000000000,"state":"active","ping":92},{"user_id":332,"name":"AALINI","steam_id":76561199135108952,"connected_time":4213000000000,"state":"active","ping":118},{"user_id":372,"name":"MOTORTREND TRUCK OF THE YEAR","steam_id":76561198077654131,"connected_time":1020000000000,"state":"active","ping":76},{"user_id":331,"name":"ATL1 | Lancer Fan Club","steam_id":76561198355495948,"connected_time":4230000000000,"state":"active","ping":82},{"user_id":379,"name":"ATL1 | Psionic Present","steam_id":76561198151019322,"connected_time":137000000000,"state":"active","ping":75},{"user_id":385,"name":"creepycrawler","steam_id":76561198352016831,"connected_time":1000000000,"state":"spawning","ping":47},{"user_id":288,"name":"Wiggee","steam_id":76561197972792989,"connected_time":7302000000000,"state":"active","ping":62},{"user_id":350,"name":"Goob","steam_id":76561198326469586,"connected_time":2075000000000,"state":"active","ping":78},{"user_id":328,"name":"-Enter Name Here-","steam_id":76561198040358938,"connected_time":4445000000000,"state":"active","ping":65},{"user_id":351,"name":"i have a gun","steam_id":76561198016121536,"connected_time":2067000000000,"state":"active","ping":92},{"user_id":380,"name":"Sim","steam_id":76561198119227922,"connected_time":126000000000,"state":"active","ping":76},{"user_id":382,"name":"Aniz","steam_id":76561199226665024,"connected_time":36000000000,"state":"spawning","ping":182},{"user_id":364,"name":"Round King","steam_id":76561198273185290,"connected_time":1583000000000,"state":"active","ping":96},{"user_id":371,"name":"ford truck","steam_id":76561198051823844,"connected_time":1042000000000,"state":"active","ping":57},{"user_id":230,"name":"cola","steam_id":76561198374390458,"connected_time":12861000000000,"state":"active","ping":58},{"user_id":373,"name":"Mercy from the Porn","steam_id":76561198048019460,"connected_time":726000000000,"state":"active","ping":85},{"user_id":381,"name":"sansa musa","steam_id":76561198163723555,"connected_time":86000000000,"state":"active","ping":76},{"user_id":356,"name":"I-die-often","steam_id":76561197996780327,"connected_time":1977000000000,"state":"active","ping":70},{"user_id":365,"name":"Cardjitsu Blackbelt","steam_id":76561199099203623,"connected_time":1567000000000,"state":"active","ping":103},{"user_id":383,"name":"ATL1 | on my hunting trip","steam_id":76561198315341646,"connected_time":33000000000,"state":"active","ping":67},{"user_id":315,"name":"Cobrayen","steam_id":76561198066505280,"connected_time":5668000000000,"state":"active","ping":73},{"user_id":375,"name":"Hawkborne","steam_id":76561198107249245,"connected_time":388000000000,"state":"active","ping":69},{"user_id":374,"name":"ATL1 | Phestive Phango","steam_id":76561198069811545,"connected_time":686000000000,"state":"active","ping":50}]},{"server_id":400,"name":"Uncletopia | Atlanta | 3 | All Maps","name_short":"atl-3","host":"atl-1.us.uncletopia.com","port":27035,"enabled":true,"region":"us-east","cc":"us","latitude":33.753746,"longitude":-84.38633,"reserved":0,"last_update":"0001-01-01T00:00:00Z","name_a2s":"Uncletopia | Atlanta | 3 | All Maps","protocol":17,"map":"pl_borneo","folder":"tf","game":"Team Fortress","app_id":440,"player_count":24,"max_players":24,"Bots":0,"server_type":"Dedicated","server_os":"Linux","password":true,"vac":true,"version":"7708610","steam_id":85568392924515187,"keywords":["nocrits","nodmgspread","payload","uncletopia"],"game_id":440,"stv_port":27036,"stv_name":"Uncletopia | Atlanta | 3 | All Maps | STV","players":[{"user_id":418,"name":"toq","steam_id":76561198400316620,"connected_time":313000000000,"state":"active","ping":59},{"user_id":307,"name":"Bucket of Spaghetti","steam_id":76561198126680822,"connected_time":7495000000000,"state":"active","ping":64},{"user_id":389,"name":"RoGi","steam_id":76561198361544115,"connected_time":2498000000000,"state":"active","ping":49},{"user_id":412,"name":"freddo.","steam_id":76561198203171349,"connected_time":855000000000,"state":"active","ping":50},{"user_id":390,"name":"anabolic steroids","steam_id":76561199097771720,"connected_time":2491000000000,"state":"active","ping":75},{"user_id":417,"name":"Sex Midfielder","steam_id":76561198048918192,"connected_time":384000000000,"state":"active","ping":60},{"user_id":401,"name":"four","steam_id":76561198374227766,"connected_time":1917000000000,"state":"active","ping":65},{"user_id":405,"name":"what","steam_id":76561198082336619,"connected_time":1028000000000,"state":"active","ping":74},{"user_id":391,"name":"Kiwiboy31","steam_id":76561198302758473,"connected_time":2459000000000,"state":"active","ping":48},{"user_id":371,"name":"BongWater","steam_id":76561198082351263,"connected_time":3516000000000,"state":"active","ping":72},{"user_id":395,"name":"sora","steam_id":76561198094256973,"connected_time":2421000000000,"state":"active","ping":105},{"user_id":284,"name":"Aerguera","steam_id":76561198117613222,"connected_time":8793000000000,"state":"active","ping":78},{"user_id":409,"name":"Luucyf3r","steam_id":76561198141820085,"connected_time":872000000000,"state":"active","ping":64},{"user_id":378,"name":"kingofnotes","steam_id":76561199122142890,"connected_time":3161000000000,"state":"active","ping":58},{"user_id":387,"name":"MitcheyHD","steam_id":76561198066489645,"connected_time":2516000000000,"state":"active","ping":96},{"user_id":413,"name":"iHateDying","steam_id":76561198321790697,"connected_time":791000000000,"state":"active","ping":69},{"user_id":414,"name":"Fight Milk","steam_id":76561198046189668,"connected_time":599000000000,"state":"active","ping":69},{"user_id":320,"name":"Speeder Mingus","steam_id":76561198106841910,"connected_time":7136000000000,"state":"active","ping":98},{"user_id":410,"name":"Mr__Pickle","steam_id":76561198071869052,"connected_time":870000000000,"state":"active","ping":80},{"user_id":356,"name":"ClericsRose","steam_id":76561198011013806,"connected_time":4460000000000,"state":"active","ping":84},{"user_id":416,"name":"upside down cat","steam_id":76561198028288349,"connected_time":471000000000,"state":"active","ping":95},{"user_id":396,"name":"teamspeakisbeter","steam_id":76561198994349483,"connected_time":2421000000000,"state":"active","ping":102},{"user_id":397,"name":"Baby Boiler Supreme","steam_id":76561198223354576,"connected_time":2412000000000,"state":"active","ping":80},{"user_id":411,"name":"Silly Scientist","steam_id":76561199199886079,"connected_time":870000000000,"state":"active","ping":72}]},{"server_id":401,"name":"Uncletopia | Atlanta | 4 | No Payload","name_short":"atl-4","host":"atl-1.us.uncletopia.com","port":27045,"enabled":true,"region":"us-east","cc":"us","latitude":33.753746,"longitude":-84.38633,"reserved":0,"last_update":"0001-01-01T00:00:00Z","name_a2s":"Uncletopia | Atlanta | 4 | No Payload","protocol":17,"map":"koth_nucleus","folder":"tf","game":"Team Fortress","app_id":440,"player_count":0,"max_players":24,"Bots":0,"server_type":"Dedicated","server_os":"Linux","password":true,"vac":true,"version":"7708610","steam_id":85568392924515188,"keywords":["cp","nocrits","nodmgspread","uncletopia"],"game_id":440,"stv_port":27046,"stv_name":"Uncletopia | Atlanta | 4 | No Payload | STV","players":null},{"server_id":2,"name":"Uncletopia | Chicago | 1 | All Maps","name_short":"chi-1","host":"chi-1.us.uncletopia.com","port":27015,"enabled":true,"region":"us-central","cc":"us","latitude":41.881832,"longitude":-87.62318,"reserved":0,"last_update":"0001-01-01T00:00:00Z","name_a2s":"Uncletopia | Chicago | 1 | All Maps","protocol":17,"map":"pl_wutville_event","folder":"tf","game":"Team Fortress","app_id":440,"player_count":24,"max_players":24,"Bots":0,"server_type":"Dedicated","server_os":"Linux","password":true,"vac":true,"version":"7708610","steam_id":85568392924469984,"keywords":["alltalk","nocrits","nodmgspread","payload","uncletopia"],"game_id":440,"stv_port":27016,"stv_name":"Uncletopia | Chicago | 1 | All Maps | STV","players":[{"user_id":542,"name":"TallBit","steam_id":76561199059748976,"connected_time":6475000000000,"state":"active","ping":50},{"user_id":598,"name":"Underwear Monster","steam_id":76561198175742775,"connected_time":691000000000,"state":"active","ping":89},{"user_id":582,"name":"strawberry","steam_id":76561198101926397,"connected_time":1958000000000,"state":"active","ping":44},{"user_id":589,"name":"BaconBlitz","steam_id":76561198079461770,"connected_time":1217000000000,"state":"active","ping":73},{"user_id":595,"name":"Mei","steam_id":76561198971753591,"connected_time":919000000000,"state":"active","ping":70},{"user_id":564,"name":"Rendoas","steam_id":76561198002105259,"connected_time":3239000000000,"state":"active","ping":75},{"user_id":601,"name":"WikiThis","steam_id":76561198103209713,"connected_time":201000000000,"state":"active","ping":64},{"user_id":590,"name":"ZarK eh¿","steam_id":76561197968049546,"connected_time":1205000000000,"state":"active","ping":256},{"user_id":540,"name":"Ras","steam_id":76561198123546775,"connected_time":6567000000000,"state":"active","ping":62},{"user_id":409,"name":"{[F.H]} Hydroida","steam_id":76561197999797274,"connected_time":18216000000000,"state":"active","ping":68},{"user_id":593,"name":"Hol Horse","steam_id":76561198078207743,"connected_time":1187000000000,"state":"active","ping":63},{"user_id":566,"name":"ṽ⧉  hank","steam_id":76561197977182378,"connected_time":3131000000000,"state":"active","ping":48},{"user_id":600,"name":"Sous-Chef","steam_id":76561198075705827,"connected_time":541000000000,"state":"active","ping":99},{"user_id":237,"name":"Potato-Protein-Pancake","steam_id":76561198027198306,"connected_time":31295000000000,"state":"active","ping":54},{"user_id":567,"name":"Kleine","steam_id":76561198042556857,"connected_time":3080000000000,"state":"active","ping":43},{"user_id":581,"name":"CoconutRice","steam_id":76561198114909164,"connected_time":2121000000000,"state":"active","ping":50},{"user_id":560,"name":"jingle.JIFF","steam_id":76561198045181760,"connected_time":3627000000000,"state":"active","ping":59},{"user_id":591,"name":"MarioManz","steam_id":76561198123454475,"connected_time":1204000000000,"state":"active","ping":73},{"user_id":555,"name":"Thatoneguybunchanumbers","steam_id":76561198028039160,"connected_time":4693000000000,"state":"active","ping":72},{"user_id":536,"name":"CAdaverOusPRophet","steam_id":76561198045304110,"connected_time":6813000000000,"state":"active","ping":41},{"user_id":576,"name":"Chris","steam_id":76561197970315094,"connected_time":2683000000000,"state":"active","ping":59},{"user_id":565,"name":"Koishi Komeiji","steam_id":76561198063315650,"connected_time":3228000000000,"state":"active","ping":81},{"user_id":587,"name":"Dealyo","steam_id":76561198282395338,"connected_time":1682000000000,"state":"active","ping":85},{"user_id":602,"name":"Lia_Rein(deer)","steam_id":76561198151569597,"connected_time":153000000000,"state":"active","ping":146}]},{"server_id":106,"name":"Uncletopia | Chicago | 2 | All Maps","name_short":"chi-2","host":"chi-1.us.uncletopia.com","port":27025,"enabled":true,"region":"us-central","cc":"us","latitude":41.881832,"longitude":-87.62318,"reserved":0,"last_update":"0001-01-01T00:00:00Z","name_a2s":"Uncletopia | Chicago | 2 | All Maps","protocol":17,"map":"pl_badwater","folder":"tf","game":"Team Fortress","app_id":440,"player_count":24,"max_players":24,"Bots":0,"server_type":"Dedicated","server_os":"Linux","password":true,"vac":true,"version":"7708610","steam_id":85568392924469985,"keywords":["alltalk","nocrits","nodmgspread","payload","uncletopia"],"game_id":440,"stv_port":27026,"stv_name":"Uncletopia | Chicago | 2 | All Maps | STV","players":[{"user_id":488,"name":"Killerkarate","steam_id":76561198067533929,"connected_time":1589000000000,"state":"active","ping":48},{"user_id":505,"name":"John Waffles Brown","steam_id":76561197989105786,"connected_time":576000000000,"state":"active","ping":76},{"user_id":504,"name":"blammo","steam_id":76561198131814023,"connected_time":593000000000,"state":"active","ping":69},{"user_id":485,"name":"2cats_2curious","steam_id":76561198027143149,"connected_time":1935000000000,"state":"active","ping":39},{"user_id":506,"name":"Yukon Cornelius","steam_id":76561198261512781,"connected_time":327000000000,"state":"active","ping":60},{"user_id":479,"name":"Mystical Forrest Nymph","steam_id":76561198799966102,"connected_time":2374000000000,"state":"active","ping":61},{"user_id":510,"name":"wesker can hit it tbh","steam_id":76561197968351430,"connected_time":117000000000,"state":"active","ping":102},{"user_id":476,"name":"Ice","steam_id":76561199024880478,"connected_time":2845000000000,"state":"active","ping":46},{"user_id":494,"name":"Merchants of Misery","steam_id":76561199188142396,"connected_time":1186000000000,"state":"active","ping":100},{"user_id":385,"name":"spaaaaace","steam_id":76561199085974120,"connected_time":10114000000000,"state":"active","ping":66},{"user_id":444,"name":"󠀡󠀡","steam_id":76561198027546178,"connected_time":4874000000000,"state":"active","ping":100},{"user_id":492,"name":"GRONT","steam_id":76561198040464533,"connected_time":1330000000000,"state":"active","ping":60},{"user_id":459,"name":"pseudonymous","steam_id":76561198045958849,"connected_time":3854000000000,"state":"active","ping":84},{"user_id":513,"name":"snideink287","steam_id":76561198166055131,"connected_time":62000000000,"state":"active","ping":75},{"user_id":496,"name":"Miramar","steam_id":76561198022057653,"connected_time":697000000000,"state":"active","ping":66},{"user_id":464,"name":"Grundle Thunder","steam_id":76561197960790338,"connected_time":3440000000000,"state":"active","ping":77},{"user_id":491,"name":"☼ champloo","steam_id":76561198074180953,"connected_time":1427000000000,"state":"active","ping":81},{"user_id":500,"name":"ChingaTuMadre.com","steam_id":76561199003163608,"connected_time":627000000000,"state":"active","ping":136},{"user_id":501,"name":"Question Mark","steam_id":76561199433313023,"connected_time":621000000000,"state":"active","ping":149},{"user_id":502,"name":"vqmp hater32000","steam_id":76561199030726701,"connected_time":618000000000,"state":"active","ping":107},{"user_id":511,"name":"dohnuts","steam_id":76561198025965230,"connected_time":113000000000,"state":"active","ping":66},{"user_id":512,"name":"dave strider","steam_id":76561198065112186,"connected_time":91000000000,"state":"active","ping":68},{"user_id":487,"name":"Mavrick","steam_id":76561198039678150,"connected_time":1619000000000,"state":"active","ping":58},{"user_id":475,"name":"BOY♂NEXT♂DOOR","steam_id":76561198008124026,"connected_time":3046000000000,"state":"active","ping":91}]},{"server_id":402,"name":"Uncletopia | Chicago | 3 | All Maps","name_short":"chi-3","host":"chi-1.us.uncletopia.com","port":27035,"enabled":true,"region":"us-central","cc":"us","latitude":41.881832,"longitude":-87.62318,"reserved":0,"last_update":"0001-01-01T00:00:00Z","name_a2s":"Uncletopia | Chicago | 3 | All Maps","protocol":17,"map":"cp_sunshine","folder":"tf","game":"Team Fortress","app_id":440,"player_count":24,"max_players":24,"Bots":0,"server_type":"Dedicated","server_os":"Linux","password":true,"vac":true,"version":"7708610","steam_id":85568392924515191,"keywords":["cp","nocrits","nodmgspread","uncletopia"],"game_id":440,"stv_port":27036,"stv_name":"Uncletopia | Chicago | 3 | All Maps | STV","players":[{"user_id":292,"name":"treeCheezquest","steam_id":76561199066499328,"connected_time":1014000000000,"state":"active","ping":68},{"user_id":228,"name":"Hamz","steam_id":76561198107342893,"connected_time":6200000000000,"state":"active","ping":149},{"user_id":307,"name":"Ignalis","steam_id":76561198025662927,"connected_time":232000000000,"state":"active","ping":64},{"user_id":278,"name":"japanese cowboy","steam_id":76561198072105269,"connected_time":2446000000000,"state":"active","ping":60},{"user_id":299,"name":"footoftheday","steam_id":76561198052712449,"connected_time":592000000000,"state":"active","ping":75},{"user_id":304,"name":"Halcyon","steam_id":76561197999409268,"connected_time":464000000000,"state":"active","ping":75},{"user_id":289,"name":"The unsung hero","steam_id":76561199198863237,"connected_time":1854000000000,"state":"active","ping":71},{"user_id":300,"name":"Memo_Supremo","steam_id":76561198918803446,"connected_time":588000000000,"state":"active","ping":139},{"user_id":216,"name":"Judge Dad","steam_id":76561198071473697,"connected_time":6381000000000,"state":"active","ping":58},{"user_id":269,"name":"Mixolydia","steam_id":76561198058998371,"connected_time":3337000000000,"state":"active","ping":61},{"user_id":294,"name":"[S]Mr. X [No Monitor]","steam_id":76561197963746035,"connected_time":904000000000,"state":"active","ping":104},{"user_id":308,"name":"quackz","steam_id":76561199256981432,"connected_time":215000000000,"state":"active","ping":50},{"user_id":310,"name":"jackskywalker10","steam_id":76561198176851907,"connected_time":110000000000,"state":"active","ping":64},{"user_id":297,"name":"Arnude","steam_id":76561198128553858,"connected_time":626000000000,"state":"active","ping":66},{"user_id":282,"name":"HyperOrange|#SaveTF2","steam_id":76561198068071327,"connected_time":2374000000000,"state":"active","ping":65},{"user_id":273,"name":"SliFox115","steam_id":76561198006657143,"connected_time":3113000000000,"state":"active","ping":74},{"user_id":251,"name":"Thilo","steam_id":76561197987278784,"connected_time":4405000000000,"state":"active","ping":76},{"user_id":295,"name":"SlimGrady","steam_id":76561198451231329,"connected_time":884000000000,"state":"active","ping":65},{"user_id":290,"name":"Cyclops_672","steam_id":76561198080169497,"connected_time":1830000000000,"state":"active","ping":52},{"user_id":291,"name":"JUST PUNCHED 4kTV off bestbuy","steam_id":76561198068190834,"connected_time":1336000000000,"state":"active","ping":93},{"user_id":302,"name":"KOOSTIFF","steam_id":76561198053727976,"connected_time":574000000000,"state":"active","ping":65},{"user_id":276,"name":"Dittery","steam_id":76561198114899953,"connected_time":2800000000000,"state":"active","ping":40},{"user_id":311,"name":"OlympicChamp_12 | Trade.tf","steam_id":76561198830574526,"connected_time":49000000000,"state":"spawning","ping":85},{"user_id":235,"name":"The_Quiet_One","steam_id":76561198132476501,"connected_time":5127000000000,"state":"active","ping":54}]},{"server_id":403,"name":"Uncletopia | Chicago | 4 | All Maps","name_short":"chi-4","host":"chi-1.us.uncletopia.com","port":27045,"enabled":true,"region":"us-central","cc":"us","latitude":41.881832,"longitude":-87.62318,"reserved":0,"last_update":"0001-01-01T00:00:00Z","name_a2s":"Uncletopia | Chicago | 4 | All Maps","protocol":17,"map":"pl_frontier_final","folder":"tf","game":"Team Fortress","app_id":440,"player_count":24,"max_players":24,"Bots":0,"server_type":"Dedicated","server_os":"Linux","password":true,"vac":true,"version":"7708610","steam_id":85568392924515193,"keywords":["nocrits","nodmgspread","payload","uncletopia"],"game_id":440,"stv_port":27046,"stv_name":"Uncletopia | Chicago | 4 | All Maps | STV","players":[{"user_id":450,"name":"Admiral Shackleford","steam_id":76561198051952755,"connected_time":2703000000000,"state":"active","ping":71},{"user_id":493,"name":"PrinceGrotle","steam_id":76561198206131603,"connected_time":550000000000,"state":"active","ping":72},{"user_id":469,"name":"trackball gaming","steam_id":76561198057371485,"connected_time":1247000000000,"state":"active","ping":106},{"user_id":489,"name":"dominix","steam_id":76561199045061504,"connected_time":683000000000,"state":"active","ping":77},{"user_id":482,"name":"Ama","steam_id":76561198077883218,"connected_time":837000000000,"state":"active","ping":41},{"user_id":444,"name":"Pancreas Enjoyer","steam_id":76561199438598904,"connected_time":3500000000000,"state":"active","ping":83},{"user_id":496,"name":"Mortimer Khan","steam_id":76561197968829990,"connected_time":222000000000,"state":"active","ping":74},{"user_id":446,"name":"Phroliax","steam_id":76561198207075529,"connected_time":3027000000000,"state":"active","ping":98},{"user_id":484,"name":"Chezs","steam_id":76561198149731345,"connected_time":820000000000,"state":"active","ping":68},{"user_id":485,"name":"Seico Bass","steam_id":76561198123498500,"connected_time":817000000000,"state":"active","ping":81},{"user_id":466,"name":"bobby peanstalk","steam_id":76561198040495463,"connected_time":1690000000000,"state":"active","ping":72},{"user_id":492,"name":"Burf","steam_id":76561198019341161,"connected_time":574000000000,"state":"active","ping":62},{"user_id":495,"name":"pinglefingle","steam_id":76561198216580197,"connected_time":533000000000,"state":"active","ping":76},{"user_id":448,"name":"gnome \"kooky ass mf\" fan","steam_id":76561198148199120,"connected_time":2933000000000,"state":"active","ping":86},{"user_id":486,"name":"Logan The Lemon","steam_id":76561198816048002,"connected_time":794000000000,"state":"active","ping":65},{"user_id":476,"name":"valtiel","steam_id":76561198165212575,"connected_time":1165000000000,"state":"active","ping":61},{"user_id":460,"name":"Just Another Stoned Eevee","steam_id":76561198262852705,"connected_time":2101000000000,"state":"active","ping":86},{"user_id":487,"name":"Rojopro7","steam_id":76561198858914445,"connected_time":775000000000,"state":"active","ping":149},{"user_id":477,"name":"Carbon8ed","steam_id":76561198188488341,"connected_time":1139000000000,"state":"active","ping":60},{"user_id":461,"name":"kvn","steam_id":76561198012796388,"connected_time":2101000000000,"state":"active","ping":55},{"user_id":478,"name":"tofu yum yum","steam_id":76561198026589960,"connected_time":1078000000000,"state":"active","ping":59},{"user_id":488,"name":"joethefool","steam_id":76561199015436319,"connected_time":752000000000,"state":"active","ping":65},{"user_id":467,"name":"beats","steam_id":76561199245717718,"connected_time":1425000000000,"state":"active","ping":57},{"user_id":464,"name":"CHODIE LAND","steam_id":76561198057116531,"connected_time":1956000000000,"state":"active","ping":60}]},{"server_id":36,"name":"Uncletopia | Chicago | 5 | All Maps","name_short":"chi-5","host":"chi-2.us.uncletopia.com","port":27015,"enabled":true,"region":"us-central","cc":"us","latitude":41.881832,"longitude":-87.62318,"reserved":0,"last_update":"0001-01-01T00:00:00Z","name_a2s":"Uncletopia | Chicago | 5 | All Maps","protocol":17,"map":"koth_lakeside_final","folder":"tf","game":"Team Fortress","app_id":440,"player_count":0,"max_players":24,"Bots":0,"server_type":"Dedicated","server_os":"Linux","password":true,"vac":true,"version":"7708610","steam_id":85568392924866362,"keywords":["cp","nocrits","nodmgspread","uncletopia"],"game_id":440,"stv_port":27016,"stv_name":"Uncletopia | Chicago | 5 | All Maps | STV","players":null},{"server_id":37,"name":"Uncletopia | Chicago | 6 | All Maps","name_short":"chi-6","host":"chi-2.us.uncletopia.com","port":27025,"enabled":true,"region":"us-central","cc":"us","latitude":41.881832,"longitude":-87.62318,"reserved":0,"last_update":"0001-01-01T00:00:00Z","name_a2s":"Uncletopia | Chicago | 6 | All Maps","protocol":17,"map":"koth_highpass","folder":"tf","game":"Team Fortress","app_id":440,"player_count":8,"max_players":24,"Bots":0,"server_type":"Dedicated","server_os":"Linux","password":true,"vac":true,"version":"7708610","steam_id":85568392924866363,"keywords":["cp","nocrits","nodmgspread","uncletopia"],"game_id":440,"stv_port":27026,"stv_name":"Uncletopia | Chicago | 6 | All Maps | STV","players":[{"user_id":17,"name":"SlippyPunk","steam_id":76561198048551455,"connected_time":428000000000,"state":"active","ping":62},{"user_id":18,"name":"the wutville cryptid","steam_id":76561198257531708,"connected_time":310000000000,"state":"active","ping":59},{"user_id":16,"name":"The Absolute P.O.B.E.","steam_id":76561198061130998,"connected_time":1146000000000,"state":"active","ping":136},{"user_id":19,"name":"wutville convicted slapper","steam_id":76561198255308126,"connected_time":290000000000,"state":"active","ping":81},{"user_id":21,"name":"One Thing And I Dont Know Why","steam_id":76561198430721311,"connected_time":130000000000,"state":"active","ping":74},{"user_id":22,"name":"Dert","steam_id":76561198883014990,"connected_time":59000000000,"state":"active","ping":53},{"user_id":23,"name":"gonk","steam_id":76561198061206732,"connected_time":18000000000,"state":"active","ping":83},{"user_id":24,"name":"THE NUT","steam_id":76561198067813626,"connected_time":13000000000,"state":"spawning","ping":107}]},{"server_id":38,"name":"Uncletopia | Chicago | 7 | No Payload","name_short":"chi-7","host":"chi-2.us.uncletopia.com","port":27035,"enabled":true,"region":"us-central","cc":"us","latitude":41.881832,"longitude":-87.62318,"reserved":0,"last_update":"0001-01-01T00:00:00Z","name_a2s":"Uncletopia | Chicago | 7 | No Payload","protocol":17,"map":"ctf_2fort","folder":"tf","game":"Team Fortress","app_id":440,"player_count":22,"max_players":24,"Bots":0,"server_type":"Dedicated","server_os":"Linux","password":true,"vac":true,"version":"7708610","steam_id":85568392924866364,"keywords":["ctf","nocrits","nodmgspread","uncletopia"],"game_id":440,"stv_port":27036,"stv_name":"Uncletopia | Chicago | 7 | No Payload | STV","players":[{"user_id":80,"name":"Sleepy Brady","steam_id":76561198867378129,"connected_time":2277000000000,"state":"active","ping":66},{"user_id":115,"name":"Yukari Floof","steam_id":76561198851725294,"connected_time":623000000000,"state":"active","ping":91},{"user_id":81,"name":"moe5x","steam_id":76561198316877833,"connected_time":2226000000000,"state":"active","ping":84},{"user_id":28,"name":"chesman9001","steam_id":76561198824050317,"connected_time":6495000000000,"state":"active","ping":60},{"user_id":99,"name":"Mahogany Shrimptastic Beuford I","steam_id":76561198163525071,"connected_time":1493000000000,"state":"active","ping":75},{"user_id":121,"name":"nalezinik","steam_id":76561198030026119,"connected_time":300000000000,"state":"active","ping":79},{"user_id":123,"name":"Somebody","steam_id":76561198146535845,"connected_time":233000000000,"state":"active","ping":133},{"user_id":107,"name":"Casluksopson","steam_id":76561198799615204,"connected_time":1036000000000,"state":"active","ping":85},{"user_id":74,"name":"Adalwolfa","steam_id":76561198194671218,"connected_time":2764000000000,"state":"active","ping":52},{"user_id":108,"name":"elyk37","steam_id":76561198124135253,"connected_time":1009000000000,"state":"active","ping":79},{"user_id":116,"name":"NerdCuddles","steam_id":76561198078915242,"connected_time":550000000000,"state":"active","ping":52},{"user_id":101,"name":"Continue?]","steam_id":76561199174579733,"connected_time":1474000000000,"state":"active","ping":78},{"user_id":58,"name":"IncogNeeto","steam_id":76561199091278006,"connected_time":3078000000000,"state":"active","ping":104},{"user_id":124,"name":"Funee","steam_id":76561198041048289,"connected_time":217000000000,"state":"active","ping":59},{"user_id":102,"name":"BIGGEST MAC","steam_id":76561198847517098,"connected_time":1471000000000,"state":"active","ping":83},{"user_id":111,"name":"Caoticaos","steam_id":76561198114800227,"connected_time":842000000000,"state":"active","ping":134},{"user_id":117,"name":"KAMaximilianK","steam_id":76561197992986141,"connected_time":549000000000,"state":"active","ping":77},{"user_id":64,"name":"A-Train","steam_id":76561199031775779,"connected_time":2918000000000,"state":"active","ping":80},{"user_id":73,"name":"Johnnyrola","steam_id":76561198106316179,"connected_time":2805000000000,"state":"active","ping":67},{"user_id":125,"name":"Just one more thing","steam_id":76561198268225109,"connected_time":184000000000,"state":"active","ping":64},{"user_id":126,"name":"craf","steam_id":76561198163535075,"connected_time":76000000000,"state":"active","ping":80},{"user_id":106,"name":"KingTinkerer","steam_id":76561198226856548,"connected_time":1090000000000,"state":"active","ping":75}]},{"server_id":39,"name":"Uncletopia | Chicago | 8 | Community","name_short":"chi-8","host":"chi-2.us.uncletopia.com","port":27045,"enabled":true,"region":"us-central","cc":"us","latitude":41.881832,"longitude":-87.62318,"reserved":0,"last_update":"0001-01-01T00:00:00Z","name_a2s":"Uncletopia | Chicago | 8 | Community","protocol":17,"map":"workshop/cp_villa_b19.ugc2113052569","folder":"tf","game":"Team Fortress","app_id":440,"player_count":0,"max_players":24,"Bots":0,"server_type":"Dedicated","server_os":"Linux","password":true,"vac":true,"version":"7708610","steam_id":85568392924866365,"keywords":["cp","nocrits","nodmgspread","uncletopia"],"game_id":440,"stv_port":27046,"stv_name":"Uncletopia | Chicago | 8 | Community | STV","players":null},{"server_id":8,"name":"Uncletopia | Dallas | 1 | All Maps","name_short":"dal-1","host":"dal-1.us.uncletopia.com","port":27015,"enabled":true,"region":"us-central","cc":"us","latitude":32.779167,"longitude":-96.80889,"reserved":0,"last_update":"0001-01-01T00:00:00Z","name_a2s":"Uncletopia | Dallas | 1 | All Maps","protocol":17,"map":"koth_harvest_final","folder":"tf","game":"Team Fortress","app_id":440,"player_count":24,"max_players":24,"Bots":0,"server_type":"Dedicated","server_os":"Linux","password":true,"vac":true,"version":"7708610","steam_id":85568392924469986,"keywords":["cp","nocrits","nodmgspread","uncletopia"],"game_id":440,"stv_port":27016,"stv_name":"Uncletopia | Dallas | 1 | All Maps | STV","players":[{"user_id":243,"name":"Medic","steam_id":76561198067869016,"connected_time":2840000000000,"state":"active","ping":100},{"user_id":250,"name":"Tyr","steam_id":76561198336698636,"connected_time":2355000000000,"state":"active","ping":76},{"user_id":268,"name":"PootisPowHAHA","steam_id":76561199023536209,"connected_time":1622000000000,"state":"active","ping":88},{"user_id":276,"name":"Helen Keller","steam_id":76561198947654861,"connected_time":565000000000,"state":"active","ping":52},{"user_id":285,"name":"Xyvern","steam_id":76561198229576844,"connected_time":411000000000,"state":"active","ping":82},{"user_id":163,"name":"tim E","steam_id":76561198401800919,"connected_time":7866000000000,"state":"active","ping":122},{"user_id":270,"name":"tomster","steam_id":76561198220120368,"connected_time":1291000000000,"state":"active","ping":38},{"user_id":277,"name":"inzang","steam_id":76561198088318074,"connected_time":562000000000,"state":"active","ping":52},{"user_id":255,"name":"Sabag3D","steam_id":76561198094402240,"connected_time":2293000000000,"state":"active","ping":75},{"user_id":249,"name":"y4rl","steam_id":76561198305034617,"connected_time":2737000000000,"state":"active","ping":66},{"user_id":282,"name":"SLaPPy- oNaSiS","steam_id":76561198009286862,"connected_time":512000000000,"state":"active","ping":90},{"user_id":279,"name":"thelazydog","steam_id":76561198947215423,"connected_time":549000000000,"state":"active","ping":53},{"user_id":280,"name":"♥ Dolphiniz ♥","steam_id":76561199093367765,"connected_time":548000000000,"state":"active","ping":87},{"user_id":266,"name":"sketchesgallore","steam_id":76561198331254794,"connected_time":1762000000000,"state":"active","ping":83},{"user_id":247,"name":"B.Luga™","steam_id":76561198046473460,"connected_time":2792000000000,"state":"active","ping":66},{"user_id":232,"name":"Wengatang","steam_id":76561198021747059,"connected_time":3774000000000,"state":"active","ping":69},{"user_id":264,"name":"hippo mode","steam_id":76561198073455521,"connected_time":1923000000000,"state":"active","ping":72},{"user_id":283,"name":"KaiaDoggy","steam_id":76561197997096301,"connected_time":495000000000,"state":"active","ping":55},{"user_id":286,"name":"BLOOD !","steam_id":76561198004400850,"connected_time":391000000000,"state":"active","ping":63},{"user_id":260,"name":"BrightOrangeMango","steam_id":76561198023144607,"connected_time":2156000000000,"state":"active","ping":78},{"user_id":272,"name":"Cilantro","steam_id":76561198056432216,"connected_time":968000000000,"state":"active","ping":73},{"user_id":284,"name":"PzVIIIMaus","steam_id":76561198346559365,"connected_time":476000000000,"state":"active","ping":65},{"user_id":288,"name":"otter","steam_id":76561198217769961,"connected_time":154000000000,"state":"active","ping":71}]},{"server_id":108,"name":"Uncletopia | Dallas | 2 | All Maps","name_short":"dal-2","host":"dal-1.us.uncletopia.com","port":27025,"enabled":true,"region":"us-central","cc":"us","latitude":32.779167,"longitude":-96.80889,"reserved":0,"last_update":"0001-01-01T00:00:00Z","name_a2s":"Uncletopia | Dallas | 2 | All Maps","protocol":17,"map":"cp_process_final","folder":"tf","game":"Team Fortress","app_id":440,"player_count":22,"max_players":24,"Bots":0,"server_type":"Dedicated","server_os":"Linux","password":true,"vac":true,"version":"7708610","steam_id":85568392924469988,"keywords":["cp","nocrits","nodmgspread","uncletopia"],"game_id":440,"stv_port":27026,"stv_name":"Uncletopia | Dallas | 2 | All Maps | STV","players":[{"user_id":198,"name":"jeremyelbertson2012","steam_id":76561198153178081,"connected_time":1380000000000,"state":"active","ping":60},{"user_id":219,"name":"lukamine","steam_id":76561198166827208,"connected_time":284000000000,"state":"active","ping":93},{"user_id":222,"name":"HanakoToast","steam_id":76561198045233131,"connected_time":17000000000,"state":"active","ping":101},{"user_id":171,"name":"rot haus","steam_id":76561198106690989,"connected_time":3498000000000,"state":"active","ping":90},{"user_id":187,"name":"P. Sebs","steam_id":76561198112354627,"connected_time":1864000000000,"state":"active","ping":52},{"user_id":220,"name":"TheRealFryingDutchMan!","steam_id":76561199193784099,"connected_time":215000000000,"state":"active","ping":69},{"user_id":199,"name":"leopardo123atl","steam_id":76561198872648238,"connected_time":1166000000000,"state":"active","ping":75},{"user_id":136,"name":"King","steam_id":76561198010019214,"connected_time":5263000000000,"state":"active","ping":63},{"user_id":175,"name":"java","steam_id":76561198030276792,"connected_time":3432000000000,"state":"active","ping":59},{"user_id":211,"name":"flatts","steam_id":76561198094127177,"connected_time":398000000000,"state":"active","ping":62},{"user_id":192,"name":"Fortis","steam_id":76561197963561925,"connected_time":1728000000000,"state":"active","ping":50},{"user_id":174,"name":"J The Jounin","steam_id":76561198034583622,"connected_time":3442000000000,"state":"active","ping":61},{"user_id":178,"name":"CandyMan","steam_id":76561198075668940,"connected_time":3347000000000,"state":"active","ping":80},{"user_id":207,"name":"wassa","steam_id":76561198040493947,"connected_time":481000000000,"state":"active","ping":105},{"user_id":204,"name":"AlecTheNefarious","steam_id":76561198035291230,"connected_time":552000000000,"state":"active","ping":47},{"user_id":216,"name":"Asolator0","steam_id":76561198095809798,"connected_time":347000000000,"state":"active","ping":66},{"user_id":181,"name":"derdds","steam_id":76561198034339940,"connected_time":3302000000000,"state":"active","ping":74},{"user_id":182,"name":"Moonflower ✦","steam_id":76561198191782483,"connected_time":3299000000000,"state":"active","ping":60},{"user_id":213,"name":"Powerup_L","steam_id":76561199276774191,"connected_time":382000000000,"state":"active","ping":65},{"user_id":221,"name":"¿skitt1eS?","steam_id":76561198330093211,"connected_time":65000000000,"state":"active","ping":65},{"user_id":218,"name":"neonblack","steam_id":76561198060316801,"connected_time":332000000000,"state":"active","ping":61},{"user_id":132,"name":"peter slideinher","steam_id":76561198000564263,"connected_time":5676000000000,"state":"active","ping":71}]},{"server_id":5,"name":"Uncletopia | Frankfurt | 1 | All Maps","name_short":"frk-1","host":"frk-1.de.uncletopia.com","port":27015,"enabled":true,"region":"eu","cc":"de","latitude":50.110924,"longitude":8.682127,"reserved":0,"last_update":"0001-01-01T00:00:00Z","name_a2s":"Uncletopia | Frankfurt | 1 | All Maps","protocol":17,"map":"cp_snakewater_final1","folder":"tf","game":"Team Fortress","app_id":440,"player_count":0,"max_players":24,"Bots":0,"server_type":"Dedicated","server_os":"Linux","password":true,"vac":true,"version":"7708610","steam_id":85568392924469989,"keywords":["cp","nocrits","nodmgspread","uncletopia"],"game_id":440,"stv_port":27016,"stv_name":"Uncletopia | Frankfurt | 1 | All Maps | STV","players":null},{"server_id":110,"name":"Uncletopia | Frankfurt | 2 | All Maps","name_short":"frk-2","host":"frk-1.de.uncletopia.com","port":27025,"enabled":true,"region":"eu","cc":"de","latitude":50.110924,"longitude":8.682127,"reserved":0,"last_update":"0001-01-01T00:00:00Z","name_a2s":"Uncletopia | Frankfurt | 2 | All Maps","protocol":17,"map":"cp_sunshine","folder":"tf","game":"Team Fortress","app_id":440,"player_count":0,"max_players":24,"Bots":0,"server_type":"Dedicated","server_os":"Linux","password":true,"vac":true,"version":"7708610","steam_id":85568392924469990,"keywords":["cp","nocrits","nodmgspread","uncletopia"],"game_id":440,"stv_port":27026,"stv_name":"Uncletopia | Frankfurt | 2 | All Maps | STV","players":null},{"server_id":308,"name":"Uncletopia | Frankfurt | 3 | All Maps","name_short":"frk-3","host":"frk-1.de.uncletopia.com","port":27035,"enabled":true,"region":"eu","cc":"de","latitude":50.110924,"longitude":8.682127,"reserved":0,"last_update":"0001-01-01T00:00:00Z","name_a2s":"Uncletopia | Frankfurt | 3 | All Maps","protocol":17,"map":"cp_snakewater_final1","folder":"tf","game":"Team Fortress","app_id":440,"player_count":0,"max_players":24,"Bots":0,"server_type":"Dedicated","server_os":"Linux","password":true,"vac":true,"version":"7708610","steam_id":85568392924504274,"keywords":["cp","nocrits","nodmgspread","uncletopia"],"game_id":440,"stv_port":27036,"stv_name":"Uncletopia | Frankfurt | 3 | All Maps | STV","players":null},{"server_id":309,"name":"Uncletopia | Frankfurt | 4 | All Maps","name_short":"frk-4","host":"frk-1.de.uncletopia.com","port":27045,"enabled":true,"region":"eu","cc":"de","latitude":50.110924,"longitude":8.682127,"reserved":0,"last_update":"0001-01-01T00:00:00Z","name_a2s":"Uncletopia | Frankfurt | 4 | All Maps","protocol":17,"map":"pl_snowycoast","folder":"tf","game":"Team Fortress","app_id":440,"player_count":0,"max_players":24,"Bots":0,"server_type":"Dedicated","server_os":"Linux","password":true,"vac":true,"version":"7708610","steam_id":85568392924504275,"keywords":["nocrits","nodmgspread","payload","uncletopia"],"game_id":440,"stv_port":27046,"stv_name":"Uncletopia | Frankfurt | 4 | All Maps | STV","players":null},{"server_id":310,"name":"Uncletopia | Frankfurt | 5 | All Maps","name_short":"frk-5","host":"frk-1.de.uncletopia.com","port":27055,"enabled":true,"region":"eu","cc":"de","latitude":50.110924,"longitude":8.682127,"reserved":0,"last_update":"0001-01-01T00:00:00Z","name_a2s":"Uncletopia | Frankfurt | 5 | All Maps","protocol":17,"map":"koth_cascade","folder":"tf","game":"Team Fortress","app_id":440,"player_count":0,"max_players":24,"Bots":0,"server_type":"Dedicated","server_os":"Linux","password":true,"vac":true,"version":"7708610","steam_id":85568392924504277,"keywords":["cp","nocrits","nodmgspread","uncletopia"],"game_id":440,"stv_port":27056,"stv_name":"Uncletopia | Frankfurt | 5 | All Maps | STV","players":null},{"server_id":311,"name":"Uncletopia | Frankfurt | 6 | All Maps","name_short":"frk-6","host":"frk-1.de.uncletopia.com","port":27065,"enabled":true,"region":"eu","cc":"de","latitude":50.110924,"longitude":8.682127,"reserved":0,"last_update":"0001-01-01T00:00:00Z","name_a2s":"Uncletopia | Frankfurt | 6 | All Maps","protocol":17,"map":"cp_sunshine","folder":"tf","game":"Team Fortress","app_id":440,"player_count":0,"max_players":24,"Bots":0,"server_type":"Dedicated","server_os":"Linux","password":true,"vac":true,"version":"7708610","steam_id":85568392924504278,"keywords":["cp","nocrits","nodmgspread","uncletopia"],"game_id":440,"stv_port":27066,"stv_name":"Uncletopia | Frankfurt | 6 | All Maps | STV","players":null},{"server_id":23,"name":"Uncletopia | Frankfurt | 7 | No Payload","name_short":"frk-7","host":"frk-1.de.uncletopia.com","port":27075,"enabled":true,"region":"eu","cc":"de","latitude":50.110924,"longitude":8.682127,"reserved":0,"last_update":"0001-01-01T00:00:00Z","name_a2s":"Uncletopia | Frankfurt | 7 | No Payload","protocol":17,"map":"plr_hightower","folder":"tf","game":"Team Fortress","app_id":440,"player_count":0,"max_players":24,"Bots":0,"server_type":"Dedicated","server_os":"Linux","password":true,"vac":true,"version":"7708610","steam_id":85568392924742827,"keywords":["nocrits","nodmgspread","payload","uncletopia"],"game_id":440,"stv_port":27076,"stv_name":"Uncletopia | Frankfurt | 7 | No Payload | STV","players":null},{"server_id":24,"name":"Uncletopia | Frankfurt | 8 | Community","name_short":"frk-8","host":"frk-1.de.uncletopia.com","port":27085,"enabled":true,"region":"eu","cc":"de","latitude":50.110924,"longitude":8.682127,"reserved":0,"last_update":"0001-01-01T00:00:00Z","name_a2s":"Uncletopia | Frankfurt | 8 | Community","protocol":17,"map":"workshop/koth_slaughter_rc1.ugc1712845210","folder":"tf","game":"Team Fortress","app_id":440,"player_count":0,"max_players":24,"Bots":0,"server_type":"Dedicated","server_os":"Linux","password":true,"vac":true,"version":"7708610","steam_id":85568392924742828,"keywords":["cp","nocrits","nodmgspread","uncletopia"],"game_id":440,"stv_port":27086,"stv_name":"Uncletopia | Frankfurt | 8 | Community | STV","players":null},{"server_id":202,"name":"Uncletopia | Hong Kong | 1 | All Maps","name_short":"hgk-1","host":"hgk-1.hk.uncletopia.com","port":27015,"enabled":true,"region":"asia","cc":"hk","latitude":22.302711,"longitude":114.177216,"reserved":0,"last_update":"0001-01-01T00:00:00Z","name_a2s":"Uncletopia | Hong Kong | 1 | All Maps","protocol":17,"map":"koth_highpass","folder":"tf","game":"Team Fortress","app_id":440,"player_count":0,"max_players":24,"Bots":0,"server_type":"Dedicated","server_os":"Linux","password":true,"vac":true,"version":"7708610","steam_id":85568392924494504,"keywords":["cp","nocrits","nodmgspread","uncletopia"],"game_id":440,"stv_port":27016,"stv_name":"Uncletopia | Hong Kong | 1 | All Maps | STV","players":null},{"server_id":1,"name":"Uncletopia | Los Angeles | 1 | All Maps","name_short":"lax-1","host":"lax-1.us.uncletopia.com","port":27015,"enabled":true,"region":"us-west","cc":"us","latitude":33.94279,"longitude":-118.41004,"reserved":0,"last_update":"0001-01-01T00:00:00Z","name_a2s":"Uncletopia | Los Angeles | 1 | All Maps","protocol":17,"map":"pl_borneo","folder":"tf","game":"Team Fortress","app_id":440,"player_count":0,"max_players":24,"Bots":0,"server_type":"Dedicated","server_os":"Linux","password":true,"vac":true,"version":"7708610","steam_id":85568392924469991,"keywords":["nocrits","nodmgspread","payload","uncletopia"],"game_id":440,"stv_port":27016,"stv_name":"Uncletopia | Los Angeles | 1 | All Maps | STV","players":null},{"server_id":112,"name":"Uncletopia | Los Angeles | 2 | All Maps","name_short":"lax-2","host":"lax-1.us.uncletopia.com","port":27025,"enabled":true,"region":"us-west","cc":"us","latitude":33.94279,"longitude":-118.41004,"reserved":0,"last_update":"0001-01-01T00:00:00Z","name_a2s":"Uncletopia | Los Angeles | 2 | All Maps","protocol":17,"map":"pl_thundermountain","folder":"tf","game":"Team Fortress","app_id":440,"player_count":23,"max_players":24,"Bots":0,"server_type":"Dedicated","server_os":"Linux","password":true,"vac":true,"version":"7708610","steam_id":85568392924469992,"keywords":["nocrits","nodmgspread","payload","uncletopia"],"game_id":440,"stv_port":27026,"stv_name":"Uncletopia | Los Angeles | 2 | All Maps | STV","players":[{"user_id":252,"name":"Kyurem133","steam_id":76561198145647699,"connected_time":83000000000,"state":"active","ping":60},{"user_id":211,"name":"Thog","steam_id":76561198093699060,"connected_time":3716000000000,"state":"active","ping":102},{"user_id":223,"name":"ena - d","steam_id":76561198072329335,"connected_time":3165000000000,"state":"active","ping":93},{"user_id":249,"name":"JDizzle","steam_id":76561199122696841,"connected_time":515000000000,"state":"active","ping":57},{"user_id":247,"name":"Drive-By-Fish-Guy","steam_id":76561198105513652,"connected_time":918000000000,"state":"active","ping":58},{"user_id":235,"name":"Altruisticailuridae","steam_id":76561198335295596,"connected_time":1969000000000,"state":"active","ping":113},{"user_id":245,"name":"Stargazer Ashley","steam_id":76561198035479925,"connected_time":1185000000000,"state":"active","ping":36},{"user_id":253,"name":"Goretron","steam_id":76561198001320198,"connected_time":55000000000,"state":"active","ping":101},{"user_id":166,"name":"Nyges","steam_id":76561198139236154,"connected_time":5594000000000,"state":"active","ping":46},{"user_id":236,"name":"fortzei","steam_id":76561198210920541,"connected_time":1966000000000,"state":"active","ping":52},{"user_id":230,"name":"walrooos ✿","steam_id":76561198024521839,"connected_time":2523000000000,"state":"active","ping":47},{"user_id":212,"name":"Zell Da Sheepy","steam_id":76561198978753666,"connected_time":3686000000000,"state":"active","ping":63},{"user_id":182,"name":"dj_Beanland","steam_id":76561198047500009,"connected_time":5035000000000,"state":"active","ping":48},{"user_id":248,"name":"TinyGayGuitar","steam_id":76561198130737316,"connected_time":705000000000,"state":"active","ping":78},{"user_id":233,"name":"Nugakku","steam_id":76561198082346219,"connected_time":2161000000000,"state":"active","ping":59},{"user_id":246,"name":"lag","steam_id":76561197963872739,"connected_time":925000000000,"state":"active","ping":73},{"user_id":250,"name":"410,757,864,530 missed crits","steam_id":76561198035619419,"connected_time":507000000000,"state":"active","ping":117},{"user_id":241,"name":"Noire","steam_id":76561198077601563,"connected_time":1584000000000,"state":"active","ping":77},{"user_id":167,"name":"Super Mighty G","steam_id":76561198020932806,"connected_time":5593000000000,"state":"active","ping":51},{"user_id":242,"name":"flabber","steam_id":76561199247494538,"connected_time":1491000000000,"state":"active","ping":51},{"user_id":237,"name":"BigGoose","steam_id":76561198833281392,"connected_time":1964000000000,"state":"active","ping":77},{"user_id":147,"name":"S p a f f y","steam_id":76561198047892151,"connected_time":6841000000000,"state":"active","ping":49},{"user_id":244,"name":"LtAlexandro","steam_id":76561198997494266,"connected_time":1356000000000,"state":"active","ping":44}]},{"server_id":324,"name":"Uncletopia | Los Angeles | 3 | All Maps","name_short":"lax-3","host":"lax-1.us.uncletopia.com","port":27035,"enabled":true,"region":"us-west","cc":"us","latitude":33.94279,"longitude":-118.41004,"reserved":0,"last_update":"0001-01-01T00:00:00Z","name_a2s":"Uncletopia | Los Angeles | 3 | All Maps","protocol":17,"map":"koth_viaduct","folder":"tf","game":"Team Fortress","app_id":440,"player_count":0,"max_players":24,"Bots":0,"server_type":"Dedicated","server_os":"Linux","password":true,"vac":true,"version":"7708610","steam_id":85568392924510198,"keywords":["cp","nocrits","nodmgspread","uncletopia"],"game_id":440,"stv_port":27036,"stv_name":"Uncletopia | Los Angeles | 3 | All Maps | STV","players":null},{"server_id":25,"name":"Uncletopia | Los Angeles | 4 | No Payload","name_short":"lax-4","host":"lax-1.us.uncletopia.com","port":27045,"enabled":true,"region":"us-west","cc":"us","latitude":33.94279,"longitude":-118.41004,"reserved":0,"last_update":"0001-01-01T00:00:00Z","name_a2s":"Uncletopia | Los Angeles | 4 | No Payload","protocol":17,"map":"cp_snakewater_final1","folder":"tf","game":"Team Fortress","app_id":440,"player_count":0,"max_players":24,"Bots":0,"server_type":"Dedicated","server_os":"Linux","password":true,"vac":true,"version":"7708610","steam_id":85568392924510199,"keywords":["cp","nocrits","nodmgspread","uncletopia"],"game_id":440,"stv_port":27046,"stv_name":"Uncletopia | Los Angeles | 4 | No Payload | STV","players":null},{"server_id":11,"name":"Uncletopia | London | 1 | All Maps","name_short":"lon-1","host":"lon-1.uk.uncletopia.com","port":27015,"enabled":true,"region":"eu","cc":"gb","latitude":51.509865,"longitude":-0.118092,"reserved":0,"last_update":"0001-01-01T00:00:00Z","name_a2s":"Uncletopia | London | 1 | All Maps","protocol":17,"map":"cp_altitude","folder":"tf","game":"Team Fortress","app_id":440,"player_count":0,"max_players":24,"Bots":0,"server_type":"Dedicated","server_os":"Linux","password":true,"vac":true,"version":"7708610","steam_id":85568392924367362,"keywords":["cp","nocrits","nodmgspread","uncletopia"],"game_id":440,"stv_port":27016,"stv_name":"Uncletopia | London | 1 | All Maps | STV","players":null},{"server_id":114,"name":"Uncletopia | London | 2 | All Maps","name_short":"lon-2","host":"lon-1.uk.uncletopia.com","port":27025,"enabled":true,"region":"eu","cc":"gb","latitude":51.509865,"longitude":-0.118092,"reserved":0,"last_update":"0001-01-01T00:00:00Z","name_a2s":"Uncletopia | London | 2 | All Maps","protocol":17,"map":"cp_dustbowl","folder":"tf","game":"Team Fortress","app_id":440,"player_count":0,"max_players":24,"Bots":0,"server_type":"Dedicated","server_os":"Linux","password":true,"vac":true,"version":"7708610","steam_id":85568392924470941,"keywords":["cp","nocrits","nodmgspread","uncletopia"],"game_id":440,"stv_port":27026,"stv_name":"Uncletopia | London | 2 | All Maps | STV","players":null},{"server_id":320,"name":"Uncletopia | London | 3 | All Maps","name_short":"lon-3","host":"lon-1.uk.uncletopia.com","port":27035,"enabled":true,"region":"eu","cc":"gb","latitude":51.509865,"longitude":-0.118092,"reserved":0,"last_update":"0001-01-01T00:00:00Z","name_a2s":"Uncletopia | London | 3 | All Maps","protocol":17,"map":"cp_snakewater_final1","folder":"tf","game":"Team Fortress","app_id":440,"player_count":24,"max_players":24,"Bots":0,"server_type":"Dedicated","server_os":"Linux","password":true,"vac":true,"version":"7708610","steam_id":85568392924510192,"keywords":["cp","nocrits","nodmgspread","uncletopia"],"game_id":440,"stv_port":27036,"stv_name":"Uncletopia | London | 3 | All Maps | STV","players":[{"user_id":542,"name":"ACG_Dubsy","steam_id":76561198797308565,"connected_time":4188000000000,"state":"active","ping":37},{"user_id":552,"name":"Backup","steam_id":76561197999557567,"connected_time":2637000000000,"state":"active","ping":60},{"user_id":568,"name":"scout TF2","steam_id":76561198072037878,"connected_time":1462000000000,"state":"active","ping":46},{"user_id":467,"name":"Graham Crackers","steam_id":76561198089314125,"connected_time":11189000000000,"state":"active","ping":135},{"user_id":557,"name":"etc","steam_id":76561197998394797,"connected_time":2060000000000,"state":"active","ping":55},{"user_id":574,"name":"row lft","steam_id":76561198053400769,"connected_time":952000000000,"state":"active","ping":57},{"user_id":577,"name":"one blue album please!","steam_id":76561198116981188,"connected_time":291000000000,"state":"active","ping":84},{"user_id":516,"name":"Mafour","steam_id":76561197994581337,"connected_time":7891000000000,"state":"active","ping":101},{"user_id":578,"name":"Roboolet","steam_id":76561198107353953,"connected_time":34000000000,"state":"spawning","ping":54},{"user_id":547,"name":"Risinger","steam_id":76561198079789688,"connected_time":3151000000000,"state":"active","ping":60},{"user_id":575,"name":"IRON MAN SEX (OFFICIAL)","steam_id":76561198025389851,"connected_time":557000000000,"state":"active","ping":128},{"user_id":504,"name":"Ask Nicely For Heals","steam_id":76561198138478907,"connected_time":8580000000000,"state":"active","ping":150},{"user_id":427,"name":"Gaius","steam_id":76561198188174963,"connected_time":13549000000000,"state":"active","ping":38},{"user_id":548,"name":"crhistopher nolan set off a nuk","steam_id":76561198846784757,"connected_time":3144000000000,"state":"active","ping":53},{"user_id":576,"name":"Mr. Huntsman","steam_id":76561197981910397,"connected_time":331000000000,"state":"active","ping":60},{"user_id":558,"name":"Absence blood","steam_id":76561198343654266,"connected_time":1601000000000,"state":"active","ping":127},{"user_id":571,"name":"Lupine Primogen","steam_id":76561198028921204,"connected_time":1442000000000,"state":"active","ping":84},{"user_id":569,"name":"frosty","steam_id":76561198094560834,"connected_time":1450000000000,"state":"active","ping":47},{"user_id":573,"name":"Zerfesh","steam_id":76561198117534358,"connected_time":1216000000000,"state":"active","ping":88},{"user_id":550,"name":"Yrjö Koskinen Yrjö-Koskinen","steam_id":76561198368181145,"connected_time":2887000000000,"state":"active","ping":89},{"user_id":561,"name":"wickEd_","steam_id":76561198048068999,"connected_time":1532000000000,"state":"active","ping":139},{"user_id":515,"name":"Tsuruko","steam_id":76561198063618114,"connected_time":8091000000000,"state":"active","ping":66},{"user_id":567,"name":"ME + MY BEAR","steam_id":76561197977122134,"connected_time":1466000000000,"state":"active","ping":61},{"user_id":565,"name":"Bajas","steam_id":76561198179339326,"connected_time":1476000000000,"state":"active","ping":89}]},{"server_id":321,"name":"Uncletopia | London | 4 | All Maps","name_short":"lon-4","host":"lon-1.uk.uncletopia.com","port":27045,"enabled":true,"region":"eu","cc":"gb","latitude":51.509865,"longitude":-0.118092,"reserved":0,"last_update":"0001-01-01T00:00:00Z","name_a2s":"Uncletopia | London | 4 | All Maps","protocol":17,"map":"koth_harvest_final","folder":"tf","game":"Team Fortress","app_id":440,"player_count":0,"max_players":24,"Bots":0,"server_type":"Dedicated","server_os":"Linux","password":true,"vac":true,"version":"7708610","steam_id":85568392924510193,"keywords":["cp","nocrits","nodmgspread","uncletopia"],"game_id":440,"stv_port":27046,"stv_name":"Uncletopia | London | 4 | All Maps | STV","players":null},{"server_id":21,"name":"Uncletopia | London | 5 | All Maps","name_short":"lon-5","host":"lon-1.uk.uncletopia.com","port":27055,"enabled":true,"region":"eu","cc":"gb","latitude":51.509865,"longitude":-0.118092,"reserved":0,"last_update":"0001-01-01T00:00:00Z","name_a2s":"Uncletopia | London | 5 | All Maps","protocol":17,"map":"koth_lakeside_final","folder":"tf","game":"Team Fortress","app_id":440,"player_count":0,"max_players":24,"Bots":0,"server_type":"Dedicated","server_os":"Linux","password":true,"vac":true,"version":"7708610","steam_id":85568392924742829,"keywords":["cp","nocrits","nodmgspread","uncletopia"],"game_id":440,"stv_port":27056,"stv_name":"Uncletopia | London | 5 | All Maps | STV","players":null},{"server_id":22,"name":"Uncletopia | London | 6 | All Maps","name_short":"lon-6","host":"lon-1.uk.uncletopia.com","port":27065,"enabled":true,"region":"eu","cc":"gb","latitude":51.509865,"longitude":-0.118092,"reserved":0,"last_update":"0001-01-01T00:00:00Z","name_a2s":"Uncletopia | London | 6 | All Maps","protocol":17,"map":"koth_highpass","folder":"tf","game":"Team Fortress","app_id":440,"player_count":0,"max_players":24,"Bots":0,"server_type":"Dedicated","server_os":"Linux","password":true,"vac":true,"version":"7708610","steam_id":85568392924742830,"keywords":["cp","nocrits","nodmgspread","uncletopia"],"game_id":440,"stv_port":27066,"stv_name":"Uncletopia | London | 6 | All Maps | STV","players":null},{"server_id":40,"name":"Uncletopia | London | 7 | No Payload","name_short":"lon-7","host":"lon-1.uk.uncletopia.com","port":27075,"enabled":true,"region":"eu","cc":"gb","latitude":51.509865,"longitude":-0.118092,"reserved":0,"last_update":"0001-01-01T00:00:00Z","name_a2s":"Uncletopia | London | 7 | No Payload","protocol":17,"map":"koth_highpass","folder":"tf","game":"Team Fortress","app_id":440,"player_count":0,"max_players":24,"Bots":0,"server_type":"Dedicated","server_os":"Linux","password":true,"vac":true,"version":"7708610","steam_id":85568392924964314,"keywords":["cp","nocrits","nodmgspread","uncletopia"],"game_id":440,"stv_port":27076,"stv_name":"Uncletopia | London | 7 | No Payload | STV","players":null},{"server_id":41,"name":"Uncletopia | London | 8 | Community","name_short":"lon-8","host":"lon-1.uk.uncletopia.com","port":27085,"enabled":true,"region":"eu","cc":"gb","latitude":51.509865,"longitude":-0.118092,"reserved":0,"last_update":"0001-01-01T00:00:00Z","name_a2s":"Uncletopia | London | 8 | Community","protocol":17,"map":"workshop/koth_synthetic_rc6a.ugc1549817316","folder":"tf","game":"Team Fortress","app_id":440,"player_count":0,"max_players":24,"Bots":0,"server_type":"Dedicated","server_os":"Linux","password":true,"vac":true,"version":"7708610","steam_id":85568392924964315,"keywords":["cp","nocrits","nodmgspread","uncletopia"],"game_id":440,"stv_port":27086,"stv_name":"Uncletopia | London | 8 | Community | STV","players":null},{"server_id":300,"name":"Uncletopia | Montréal | 1 | All Maps","name_short":"mtl-1","host":"mtl-1.ca.uncletopia.com","port":27015,"enabled":true,"region":"us-east","cc":"ca","latitude":45.50889,"longitude":-73.56167,"reserved":0,"last_update":"0001-01-01T00:00:00Z","name_a2s":"Uncletopia | Montréal | 1 | All Maps","protocol":17,"map":"pl_frontier_final","folder":"tf","game":"Team Fortress","app_id":440,"player_count":0,"max_players":24,"Bots":0,"server_type":"Dedicated","server_os":"Linux","password":true,"vac":true,"version":"7708610","steam_id":85568392924500087,"keywords":["nocrits","nodmgspread","payload","uncletopia"],"game_id":440,"stv_port":27016,"stv_name":"Uncletopia | Montréal | 1 | All Maps | STV","players":null},{"server_id":301,"name":"Uncletopia | Montréal | 2 | All Maps","name_short":"mtl-2","host":"mtl-1.ca.uncletopia.com","port":27025,"enabled":true,"region":"us-east","cc":"ca","latitude":45.50889,"longitude":-73.56167,"reserved":0,"last_update":"0001-01-01T00:00:00Z","name_a2s":"Uncletopia | Montréal | 2 | All Maps","protocol":17,"map":"pl_swiftwater_final1","folder":"tf","game":"Team Fortress","app_id":440,"player_count":0,"max_players":24,"Bots":0,"server_type":"Dedicated","server_os":"Linux","password":true,"vac":true,"version":"7708610","steam_id":85568392924500088,"keywords":["nocrits","nodmgspread","payload","uncletopia"],"game_id":440,"stv_port":27026,"stv_name":"Uncletopia | Montréal | 2 | All Maps | STV","players":null},{"server_id":302,"name":"Uncletopia | Montréal | 3 | All Maps","name_short":"mtl-3","host":"mtl-1.ca.uncletopia.com","port":27035,"enabled":true,"region":"us-east","cc":"ca","latitude":45.50889,"longitude":-73.56167,"reserved":0,"last_update":"0001-01-01T00:00:00Z","name_a2s":"Uncletopia | Montréal | 3 | All Maps","protocol":17,"map":"cp_mountainlab","folder":"tf","game":"Team Fortress","app_id":440,"player_count":0,"max_players":24,"Bots":0,"server_type":"Dedicated","server_os":"Linux","password":true,"vac":true,"version":"7708610","steam_id":85568392924500089,"keywords":["cp","nocrits","nodmgspread","uncletopia"],"game_id":440,"stv_port":27036,"stv_name":"Uncletopia | Montréal | 3 | All Maps | STV","players":null},{"server_id":303,"name":"Uncletopia | Montréal | 4 | No Payload","name_short":"mtl-4","host":"mtl-1.ca.uncletopia.com","port":27045,"enabled":true,"region":"us-east","cc":"ca","latitude":45.50889,"longitude":-73.56167,"reserved":0,"last_update":"0001-01-01T00:00:00Z","name_a2s":"Uncletopia | Montréal | 4 | No Payload","protocol":17,"map":"koth_cascade","folder":"tf","game":"Team Fortress","app_id":440,"player_count":0,"max_players":24,"Bots":0,"server_type":"Dedicated","server_os":"Linux","password":true,"vac":true,"version":"7708610","steam_id":85568392924500090,"keywords":["cp","nocrits","nodmgspread","uncletopia"],"game_id":440,"stv_port":27046,"stv_name":"Uncletopia | Montréal | 4 | No Payload | STV","players":null},{"server_id":13,"name":"Uncletopia | New York City | 1 | All Maps","name_short":"nyc-1","host":"nyc-1.us.uncletopia.com","port":27015,"enabled":true,"region":"us-east","cc":"us","latitude":40.73061,"longitude":-73.93524,"reserved":0,"last_update":"0001-01-01T00:00:00Z","name_a2s":"Uncletopia | New York City | 1 | All Maps","protocol":17,"map":"koth_lakeside_final","folder":"tf","game":"Team Fortress","app_id":440,"player_count":0,"max_players":24,"Bots":0,"server_type":"Dedicated","server_os":"Linux","password":true,"vac":true,"version":"7708610","steam_id":85568392924469993,"keywords":["cp","nocrits","nodmgspread","uncletopia"],"game_id":440,"stv_port":27016,"stv_name":"Uncletopia | New York City | 1 | All Maps | STV","players":null},{"server_id":14,"name":"Uncletopia | New York City | 2 | All Maps","name_short":"nyc-2","host":"nyc-1.us.uncletopia.com","port":27025,"enabled":true,"region":"us-east","cc":"us","latitude":40.73061,"longitude":-73.93524,"reserved":0,"last_update":"0001-01-01T00:00:00Z","name_a2s":"Uncletopia | New York City | 2 | All Maps","protocol":17,"map":"koth_highpass","folder":"tf","game":"Team Fortress","app_id":440,"player_count":24,"max_players":24,"Bots":0,"server_type":"Dedicated","server_os":"Linux","password":true,"vac":true,"version":"7708610","steam_id":85568392924469994,"keywords":["cp","nocrits","nodmgspread","uncletopia"],"game_id":440,"stv_port":27026,"stv_name":"Uncletopia | New York City | 2 | All Maps | STV","players":[{"user_id":282,"name":"the real babytron","steam_id":76561197989627918,"connected_time":2256000000000,"state":"active","ping":77},{"user_id":283,"name":"BERBBLES","steam_id":76561198815107994,"connected_time":2242000000000,"state":"active","ping":52},{"user_id":192,"name":"A Puppy","steam_id":76561198828184456,"connected_time":9028000000000,"state":"active","ping":50},{"user_id":312,"name":"Funky","steam_id":76561198012626442,"connected_time":261000000000,"state":"active","ping":64},{"user_id":302,"name":"BD[PL]","steam_id":76561198115995871,"connected_time":1306000000000,"state":"active","ping":153},{"user_id":298,"name":"Firefantom","steam_id":76561198968703260,"connected_time":1333000000000,"state":"active","ping":50},{"user_id":303,"name":"toastman","steam_id":76561198207073088,"connected_time":1302000000000,"state":"active","ping":79},{"user_id":296,"name":"citrus","steam_id":76561198294606679,"connected_time":1340000000000,"state":"active","ping":59},{"user_id":311,"name":"crupe","steam_id":76561198032582983,"connected_time":331000000000,"state":"active","ping":56},{"user_id":308,"name":"ndvr","steam_id":76561199379200102,"connected_time":926000000000,"state":"active","ping":49},{"user_id":292,"name":"eli","steam_id":76561198253198869,"connected_time":2032000000000,"state":"active","ping":60},{"user_id":257,"name":"Slondermin","steam_id":76561198320301349,"connected_time":4686000000000,"state":"active","ping":65},{"user_id":305,"name":"ZekeThePlumber","steam_id":76561197995016724,"connected_time":1188000000000,"state":"active","ping":57},{"user_id":267,"name":"TaiDni","steam_id":76561198087750392,"connected_time":3672000000000,"state":"active","ping":123},{"user_id":270,"name":"Zorku","steam_id":76561198060860286,"connected_time":3614000000000,"state":"active","ping":55},{"user_id":251,"name":"bryan","steam_id":76561197995189979,"connected_time":5359000000000,"state":"active","ping":74},{"user_id":306,"name":"rainwarden","steam_id":76561198085183458,"connected_time":1005000000000,"state":"active","ping":53},{"user_id":287,"name":"Winter the Witchie","steam_id":76561198151971178,"connected_time":2180000000000,"state":"active","ping":74},{"user_id":288,"name":"Captain Cosmic","steam_id":76561199025356432,"connected_time":2159000000000,"state":"active","ping":56},{"user_id":310,"name":"haha yeah \u003c/3","steam_id":76561198986281248,"connected_time":481000000000,"state":"active","ping":60},{"user_id":295,"name":"Atdum1","steam_id":76561198245424984,"connected_time":1634000000000,"state":"active","ping":55},{"user_id":309,"name":"tminator64","steam_id":76561197997576273,"connected_time":810000000000,"state":"active","ping":59},{"user_id":304,"name":"Monkey","steam_id":76561198031015186,"connected_time":1301000000000,"state":"active","ping":57},{"user_id":293,"name":"fhqwhgads","steam_id":76561198056426995,"connected_time":2028000000000,"state":"active","ping":79}]},{"server_id":15,"name":"Uncletopia | New York City | 3 | All Maps","name_short":"nyc-3","host":"nyc-1.us.uncletopia.com","port":27035,"enabled":true,"region":"us-east","cc":"us","latitude":40.73061,"longitude":-73.93524,"reserved":0,"last_update":"0001-01-01T00:00:00Z","name_a2s":"Uncletopia | New York City | 3 | All Maps","protocol":17,"map":"cp_dustbowl","folder":"tf","game":"Team Fortress","app_id":440,"player_count":16,"max_players":24,"Bots":0,"server_type":"Dedicated","server_os":"Linux","password":true,"vac":true,"version":"7708610","steam_id":85568392924742820,"keywords":["cp","nocrits","nodmgspread","uncletopia"],"game_id":440,"stv_port":27036,"stv_name":"Uncletopia | New York City | 3 | All Maps | STV","players":[{"user_id":363,"name":"crabbykiwi","steam_id":76561199066448466,"connected_time":400000000000,"state":"active","ping":46},{"user_id":370,"name":"bitmappu","steam_id":76561199000786530,"connected_time":34000000000,"state":"connecting","ping":112},{"user_id":369,"name":"sasharudzik","steam_id":76561199126617781,"connected_time":45000000000,"state":"active","ping":66},{"user_id":354,"name":"Fishman_200","steam_id":76561198152455167,"connected_time":1020000000000,"state":"active","ping":59},{"user_id":353,"name":"Draconic Ballad","steam_id":76561198027191515,"connected_time":1256000000000,"state":"active","ping":60},{"user_id":356,"name":"Pan","steam_id":76561199122755987,"connected_time":951000000000,"state":"active","ping":108},{"user_id":357,"name":"Herr Doctor","steam_id":76561198146286073,"connected_time":950000000000,"state":"connecting","ping":153},{"user_id":359,"name":"CrunchCisco","steam_id":76561199162724832,"connected_time":902000000000,"state":"active","ping":74},{"user_id":352,"name":"Big bathroom","steam_id":76561198034771900,"connected_time":1330000000000,"state":"active","ping":61},{"user_id":297,"name":"Heropon","steam_id":76561198105224481,"connected_time":6504000000000,"state":"active","ping":58},{"user_id":368,"name":"Ceiling Man","steam_id":76561198003959902,"connected_time":69000000000,"state":"active","ping":39},{"user_id":349,"name":"jordanddean2016","steam_id":76561198323772677,"connected_time":1766000000000,"state":"active","ping":137},{"user_id":366,"name":"Cthuwu","steam_id":76561198272014414,"connected_time":367000000000,"state":"active","ping":45},{"user_id":331,"name":"lili.winters","steam_id":76561199391478575,"connected_time":3307000000000,"state":"active","ping":133},{"user_id":343,"name":"★CamLikesCow★","steam_id":76561198140812640,"connected_time":2428000000000,"state":"active","ping":47}]},{"server_id":16,"name":"Uncletopia | New York City | 4 | Community","name_short":"nyc-4","host":"nyc-1.us.uncletopia.com","port":27045,"enabled":true,"region":"us-east","cc":"us","latitude":40.73061,"longitude":-73.93524,"reserved":0,"last_update":"0001-01-01T00:00:00Z","name_a2s":"Uncletopia | New York City | 4 | Community","protocol":17,"map":"workshop/cp_villa_b19.ugc2113052569","folder":"tf","game":"Team Fortress","app_id":440,"player_count":0,"max_players":24,"Bots":0,"server_type":"Dedicated","server_os":"Linux","password":true,"vac":true,"version":"7708610","steam_id":85568392924742821,"keywords":["cp","nocrits","nodmgspread","uncletopia"],"game_id":440,"stv_port":27046,"stv_name":"Uncletopia | New York City | 4 | Community | STV","players":null},{"server_id":142,"name":"Uncletopia | São Paulo | 1 | All Maps","name_short":"sao-1","host":"sao-1.br.uncletopia.com","port":27015,"enabled":true,"region":"sa","cc":"br","latitude":-23.533773,"longitude":-46.62529,"reserved":0,"last_update":"0001-01-01T00:00:00Z","name_a2s":"Uncletopia | São Paulo | 1 | All Maps","protocol":17,"map":"koth_highpass","folder":"tf","game":"Team Fortress","app_id":440,"player_count":4,"max_players":24,"Bots":0,"server_type":"Dedicated","server_os":"Linux","password":true,"vac":true,"version":"7708610","steam_id":85568392924469996,"keywords":["cp","nocrits","nodmgspread","uncletopia"],"game_id":440,"stv_port":27016,"stv_name":"Uncletopia | São Paulo | 1 | All Maps | STV","players":[{"user_id":279,"name":"URINATE!!","steam_id":76561198380824431,"connected_time":14000000000,"state":"spawning","ping":46},{"user_id":252,"name":"vinisaurus","steam_id":76561198112127509,"connected_time":3219000000000,"state":"active","ping":66},{"user_id":260,"name":"Warscro","steam_id":76561198145955876,"connected_time":1885000000000,"state":"active","ping":71},{"user_id":253,"name":"Emisu","steam_id":76561198278086794,"connected_time":3137000000000,"state":"active","ping":61}]},{"server_id":143,"name":"Uncletopia | São Paulo | 2 | All Maps","name_short":"sao-2","host":"sao-2.br.uncletopia.com","port":27015,"enabled":true,"region":"sa","cc":"br","latitude":-23.533773,"longitude":-46.62529,"reserved":0,"last_update":"0001-01-01T00:00:00Z","name_a2s":"Uncletopia | São Paulo | 2 | All Maps","protocol":17,"map":"pl_frontier_final","folder":"tf","game":"Team Fortress","app_id":440,"player_count":0,"max_players":24,"Bots":0,"server_type":"Dedicated","server_os":"Linux","password":true,"vac":true,"version":"7708610","steam_id":85568392924485349,"keywords":["nocrits","nodmgspread","payload","uncletopia"],"game_id":440,"stv_port":27016,"stv_name":"Uncletopia | São Paulo | 2 | All Maps | STV","players":null},{"server_id":7,"name":"Uncletopia | Seattle | 1 | All Maps","name_short":"sea-1","host":"sea-1.us.uncletopia.com","port":27015,"enabled":true,"region":"us-west","cc":"us","latitude":47.608013,"longitude":-122.33517,"reserved":0,"last_update":"0001-01-01T00:00:00Z","name_a2s":"Uncletopia | Seattle | 1 | All Maps","protocol":17,"map":"pl_badwater","folder":"tf","game":"Team Fortress","app_id":440,"player_count":23,"max_players":24,"Bots":0,"server_type":"Dedicated","server_os":"Linux","password":true,"vac":true,"version":"7708610","steam_id":85568392924469997,"keywords":["nocrits","nodmgspread","payload","uncletopia"],"game_id":440,"stv_port":27016,"stv_name":"Uncletopia | Seattle | 1 | All Maps | STV","players":[{"user_id":310,"name":"challen","steam_id":76561197961277967,"connected_time":371000000000,"state":"active","ping":65},{"user_id":316,"name":"ThePriceIsRice","steam_id":76561198079069543,"connected_time":2000000000,"state":"spawning","ping":152},{"user_id":295,"name":"nelly modelo","steam_id":76561198044875206,"connected_time":1627000000000,"state":"active","ping":49},{"user_id":307,"name":"THUD","steam_id":76561198009630323,"connected_time":577000000000,"state":"active","ping":47},{"user_id":261,"name":"lker","steam_id":76561197976975075,"connected_time":3766000000000,"state":"active","ping":112},{"user_id":243,"name":"mr dave busting","steam_id":76561198058890821,"connected_time":5209000000000,"state":"active","ping":108},{"user_id":312,"name":"Phil McKracken","steam_id":76561198085244878,"connected_time":330000000000,"state":"active","ping":130},{"user_id":300,"name":"luigee","steam_id":76561198117645744,"connected_time":1412000000000,"state":"active","ping":85},{"user_id":303,"name":"hot cha","steam_id":76561198170083101,"connected_time":1321000000000,"state":"active","ping":130},{"user_id":290,"name":"tf2 engineer feet","steam_id":76561198062712676,"connected_time":2019000000000,"state":"active","ping":40},{"user_id":257,"name":"Luca","steam_id":76561198125087140,"connected_time":4704000000000,"state":"active","ping":47},{"user_id":277,"name":"Sailor","steam_id":76561199081983517,"connected_time":2321000000000,"state":"active","ping":95},{"user_id":314,"name":"Aux","steam_id":76561199091651065,"connected_time":170000000000,"state":"active","ping":66},{"user_id":313,"name":"blinkerton city","steam_id":76561198054270410,"connected_time":306000000000,"state":"active","ping":54},{"user_id":301,"name":"doordash addiction","steam_id":76561198115816025,"connected_time":1370000000000,"state":"active","ping":43},{"user_id":247,"name":"busting on dave","steam_id":76561198072789439,"connected_time":5080000000000,"state":"active","ping":38},{"user_id":262,"name":"Sweets","steam_id":76561198998446307,"connected_time":3762000000000,"state":"active","ping":264},{"user_id":315,"name":"Zippy","steam_id":76561198279229422,"connected_time":47000000000,"state":"active","ping":126},{"user_id":305,"name":"Tom Skirrett","steam_id":76561198014600788,"connected_time":594000000000,"state":"active","ping":62},{"user_id":269,"name":"mhmyeah_yeahmhm","steam_id":76561198341190679,"connected_time":3008000000000,"state":"active","ping":51},{"user_id":268,"name":"the dubious creature","steam_id":76561199058944087,"connected_time":3317000000000,"state":"active","ping":56},{"user_id":282,"name":"Defeat","steam_id":76561198065203818,"connected_time":2176000000000,"state":"active","ping":37},{"user_id":275,"name":"Rude Dog","steam_id":76561197980385816,"connected_time":2510000000000,"state":"active","ping":49}]},{"server_id":119,"name":"Uncletopia | Seattle | 2 | All Maps","name_short":"sea-2","host":"sea-1.us.uncletopia.com","port":27025,"enabled":true,"region":"us-west","cc":"us","latitude":47.608013,"longitude":-122.33517,"reserved":0,"last_update":"0001-01-01T00:00:00Z","name_a2s":"Uncletopia | Seattle | 2 | All Maps","protocol":17,"map":"pl_upward","folder":"tf","game":"Team Fortress","app_id":440,"player_count":24,"max_players":24,"Bots":0,"server_type":"Dedicated","server_os":"Linux","password":true,"vac":true,"version":"7708610","steam_id":85568392924469998,"keywords":["nocrits","nodmgspread","payload","uncletopia"],"game_id":440,"stv_port":27026,"stv_name":"Uncletopia | Seattle | 2 | All Maps | STV","players":[{"user_id":132,"name":"Spider","steam_id":76561198051430727,"connected_time":2840000000000,"state":"active","ping":105},{"user_id":155,"name":"KellyKapoor","steam_id":76561198040828123,"connected_time":1355000000000,"state":"active","ping":44},{"user_id":59,"name":"Bear264","steam_id":76561198038712485,"connected_time":7187000000000,"state":"active","ping":50},{"user_id":147,"name":"reiidaya☭","steam_id":76561198325306660,"connected_time":2166000000000,"state":"active","ping":53},{"user_id":177,"name":"Eye","steam_id":76561198065844668,"connected_time":13000000000,"state":"spawning","ping":118},{"user_id":64,"name":"DeckofDragons","steam_id":76561198057398213,"connected_time":6011000000000,"state":"active","ping":83},{"user_id":171,"name":"Jykle","steam_id":76561198077352807,"connected_time":648000000000,"state":"active","ping":55},{"user_id":172,"name":"タケシ","steam_id":76561198052397636,"connected_time":590000000000,"state":"active","ping":136},{"user_id":151,"name":"vinta","steam_id":76561198078562885,"connected_time":1754000000000,"state":"active","ping":83},{"user_id":173,"name":"REALLINUSJEWTIP.","steam_id":76561198056647983,"connected_time":581000000000,"state":"active","ping":109},{"user_id":162,"name":"Cheese","steam_id":76561199435683727,"connected_time":995000000000,"state":"active","ping":138},{"user_id":149,"name":"raochman16","steam_id":76561199433687161,"connected_time":1853000000000,"state":"active","ping":59},{"user_id":160,"name":"Luis wid a mic","steam_id":76561198349570006,"connected_time":1173000000000,"state":"active","ping":106},{"user_id":174,"name":"Vem","steam_id":76561198117273112,"connected_time":283000000000,"state":"active","ping":127},{"user_id":148,"name":"Jumkin","steam_id":76561198136887468,"connected_time":1996000000000,"state":"active","ping":61},{"user_id":175,"name":"plutonium isotope","steam_id":76561198319442494,"connected_time":241000000000,"state":"active","ping":91},{"user_id":141,"name":"Raian","steam_id":76561199138048671,"connected_time":2538000000000,"state":"active","ping":72},{"user_id":79,"name":"stefaniso","steam_id":76561198254876588,"connected_time":5376000000000,"state":"active","ping":89},{"user_id":176,"name":"tokemaster69","steam_id":76561198083996924,"connected_time":54000000000,"state":"active","ping":84},{"user_id":158,"name":"S.N.A.F.U.","steam_id":76561197980128424,"connected_time":1303000000000,"state":"active","ping":125},{"user_id":86,"name":"Mina's Ninas","steam_id":76561198046502179,"connected_time":5010000000000,"state":"active","ping":93},{"user_id":165,"name":"R5-D4","steam_id":76561198025196439,"connected_time":962000000000,"state":"active","ping":58},{"user_id":169,"name":"BasedGod","steam_id":76561198061177973,"connected_time":795000000000,"state":"active","ping":64},{"user_id":145,"name":"a smidgen of shenanigans","steam_id":76561198094158829,"connected_time":2280000000000,"state":"active","ping":63}]},{"server_id":17,"name":"Uncletopia | San Francisco | 1 | All Maps","name_short":"sfo-1","host":"sfo-1.us.uncletopia.com","port":27015,"enabled":true,"region":"us-west","cc":"us","latitude":37.77397,"longitude":-122.4313,"reserved":0,"last_update":"0001-01-01T00:00:00Z","name_a2s":"Uncletopia | San Francisco | 1 | All Maps","protocol":17,"map":"cp_sunshine","folder":"tf","game":"Team Fortress","app_id":440,"player_count":24,"max_players":24,"Bots":0,"server_type":"Dedicated","server_os":"Linux","password":true,"vac":true,"version":"7708610","steam_id":85568392924469999,"keywords":["cp","nocrits","nodmgspread","uncletopia"],"game_id":440,"stv_port":27016,"stv_name":"Uncletopia | San Francisco | 1 | All Maps | STV","players":[{"user_id":158,"name":"Thessalonians 5:26","steam_id":76561199236719411,"connected_time":2027000000000,"state":"active","ping":119},{"user_id":179,"name":"Magicut101","steam_id":76561198049898173,"connected_time":507000000000,"state":"active","ping":129},{"user_id":177,"name":"TurtleDog","steam_id":76561198834309773,"connected_time":577000000000,"state":"active","ping":72},{"user_id":79,"name":"mos","steam_id":76561198300579532,"connected_time":7727000000000,"state":"active","ping":100},{"user_id":178,"name":"despacitosavage98","steam_id":76561198208270929,"connected_time":572000000000,"state":"active","ping":42},{"user_id":118,"name":"Nico","steam_id":76561198125701869,"connected_time":5471000000000,"state":"active","ping":103},{"user_id":124,"name":"devils nightmare","steam_id":76561198068136765,"connected_time":4845000000000,"state":"active","ping":55},{"user_id":166,"name":"Mythos #SaveTF2","steam_id":76561198050243068,"connected_time":1278000000000,"state":"active","ping":100},{"user_id":172,"name":"CSharp","steam_id":76561199185191710,"connected_time":1159000000000,"state":"active","ping":115},{"user_id":165,"name":"Method","steam_id":76561198159176620,"connected_time":1365000000000,"state":"active","ping":44},{"user_id":180,"name":"Froyobot Jones","steam_id":76561198050755415,"connected_time":493000000000,"state":"active","ping":123},{"user_id":163,"name":"Psych03","steam_id":76561198061753667,"connected_time":1474000000000,"state":"active","ping":58},{"user_id":155,"name":"CherryYeti","steam_id":76561199221441151,"connected_time":2248000000000,"state":"active","ping":49},{"user_id":70,"name":"Swaggeroth","steam_id":76561198093911181,"connected_time":8675000000000,"state":"active","ping":105},{"user_id":164,"name":"Matt","steam_id":76561199122703238,"connected_time":1377000000000,"state":"active","ping":59},{"user_id":181,"name":"feelthestretch","steam_id":76561199226718704,"connected_time":447000000000,"state":"active","ping":56},{"user_id":169,"name":"TheFakeApple","steam_id":76561199090113472,"connected_time":1254000000000,"state":"active","ping":70},{"user_id":182,"name":"MORE BOUNCE TO THE OUNCE","steam_id":76561198243399336,"connected_time":412000000000,"state":"active","ping":65},{"user_id":183,"name":"Cute Gatito","steam_id":76561198351147780,"connected_time":365000000000,"state":"active","ping":49},{"user_id":175,"name":"lafredricson","steam_id":76561198300270056,"connected_time":702000000000,"state":"active","ping":105},{"user_id":68,"name":"radio","steam_id":76561198010226481,"connected_time":8776000000000,"state":"active","ping":65},{"user_id":142,"name":"FiddyFoMike","steam_id":76561198057072581,"connected_time":3053000000000,"state":"active","ping":50},{"user_id":115,"name":"Fawful's Minion","steam_id":76561198090120779,"connected_time":5652000000000,"state":"active","ping":92},{"user_id":171,"name":"Bluedemons","steam_id":76561199212058684,"connected_time":1180000000000,"state":"active","ping":63}]},{"server_id":18,"name":"Uncletopia | San Francisco | 2 | All Maps","name_short":"sfo-2","host":"sfo-1.us.uncletopia.com","port":27025,"enabled":true,"region":"us-west","cc":"us","latitude":37.77397,"longitude":-122.4313,"reserved":0,"last_update":"0001-01-01T00:00:00Z","name_a2s":"Uncletopia | San Francisco | 2 | All Maps","protocol":17,"map":"koth_highpass","folder":"tf","game":"Team Fortress","app_id":440,"player_count":0,"max_players":24,"Bots":0,"server_type":"Dedicated","server_os":"Linux","password":true,"vac":true,"version":"7708610","steam_id":85568392924470000,"keywords":["cp","nocrits","nodmgspread","uncletopia"],"game_id":440,"stv_port":27026,"stv_name":"Uncletopia | San Francisco | 2 | All Maps | STV","players":null},{"server_id":19,"name":"Uncletopia | San Francisco | 3 | No Payload","name_short":"sfo-3","host":"sfo-1.us.uncletopia.com","port":27035,"enabled":true,"region":"us-west","cc":"us","latitude":37.77397,"longitude":-122.4313,"reserved":0,"last_update":"0001-01-01T00:00:00Z","name_a2s":"Uncletopia | San Francisco | 3 | No Payload","protocol":17,"map":"cp_foundry","folder":"tf","game":"Team Fortress","app_id":440,"player_count":24,"max_players":24,"Bots":0,"server_type":"Dedicated","server_os":"Linux","password":true,"vac":true,"version":"7708610","steam_id":85568392924742824,"keywords":["cp","nocrits","nodmgspread","uncletopia"],"game_id":440,"stv_port":27036,"stv_name":"Uncletopia | San Francisco | 3 | No Payload | STV","players":[{"user_id":40,"name":"Spearit5464","steam_id":76561199241807676,"connected_time":322000000000,"state":"active","ping":66},{"user_id":21,"name":"green dragon","steam_id":76561198308336837,"connected_time":1384000000000,"state":"active","ping":60},{"user_id":39,"name":"Coyote Bongwater (coffee addict","steam_id":76561199375501871,"connected_time":373000000000,"state":"active","ping":50},{"user_id":30,"name":"PoltergussyLordoftheAsstralVoid","steam_id":76561199195004708,"connected_time":968000000000,"state":"active","ping":61},{"user_id":32,"name":"I like cheese (real)","steam_id":76561198882837408,"connected_time":764000000000,"state":"active","ping":53},{"user_id":41,"name":"Toastedtoast222","steam_id":76561198120756409,"connected_time":296000000000,"state":"active","ping":66},{"user_id":23,"name":"MentalFlicks","steam_id":76561198375911056,"connected_time":1133000000000,"state":"active","ping":59},{"user_id":24,"name":"Fall Damage","steam_id":76561198359917040,"connected_time":1128000000000,"state":"active","ping":68},{"user_id":25,"name":"dapper","steam_id":76561198088132948,"connected_time":1101000000000,"state":"active","ping":73},{"user_id":26,"name":"Ssilkyy","steam_id":76561198974587801,"connected_time":1098000000000,"state":"active","ping":73},{"user_id":27,"name":"Spike90","steam_id":76561198117446241,"connected_time":1052000000000,"state":"active","ping":77},{"user_id":28,"name":"Joe Biden","steam_id":76561199087298510,"connected_time":1047000000000,"state":"active","ping":71},{"user_id":33,"name":"Something useless","steam_id":76561199002772575,"connected_time":670000000000,"state":"active","ping":65},{"user_id":34,"name":"Noodlebox","steam_id":76561197993846770,"connected_time":613000000000,"state":"active","ping":71},{"user_id":35,"name":"Charcoal","steam_id":76561198268638706,"connected_time":541000000000,"state":"active","ping":56},{"user_id":42,"name":"aim canyon","steam_id":76561198075619480,"connected_time":284000000000,"state":"active","ping":65},{"user_id":43,"name":"sky","steam_id":76561198198093438,"connected_time":264000000000,"state":"active","ping":127},{"user_id":38,"name":"BigHam","steam_id":76561198157249056,"connected_time":435000000000,"state":"active","ping":40},{"user_id":44,"name":"Jemini","steam_id":76561198304399637,"connected_time":244000000000,"state":"active","ping":112},{"user_id":45,"name":"chimplicity","steam_id":76561198012097062,"connected_time":217000000000,"state":"active","ping":78},{"user_id":46,"name":"leumas","steam_id":76561198240408540,"connected_time":177000000000,"state":"active","ping":98},{"user_id":47,"name":"The Machina Menace","steam_id":76561198112635823,"connected_time":120000000000,"state":"active","ping":72},{"user_id":48,"name":"Brynkiwi","steam_id":76561198052177917,"connected_time":116000000000,"state":"active","ping":65},{"user_id":49,"name":"Acher","steam_id":76561198117843951,"connected_time":56000000000,"state":"active","ping":121}]},{"server_id":20,"name":"Uncletopia | San Francisco | 4 | Community","name_short":"sfo-4","host":"sfo-1.us.uncletopia.com","port":27045,"enabled":true,"region":"us-west","cc":"us","latitude":37.77397,"longitude":-122.4313,"reserved":0,"last_update":"0001-01-01T00:00:00Z","name_a2s":"Uncletopia | San Francisco | 4 | Community","protocol":17,"map":"workshop/koth_ramjam_v2_b2.ugc2865676487","folder":"tf","game":"Team Fortress","app_id":440,"player_count":0,"max_players":24,"Bots":0,"server_type":"Dedicated","server_os":"Linux","password":true,"vac":true,"version":"7708610","steam_id":85568392924742826,"keywords":["cp","nocrits","nodmgspread","uncletopia"],"game_id":440,"stv_port":27046,"stv_name":"Uncletopia | San Francisco | 4 | Community | STV","players":null},{"server_id":141,"name":"Uncletopia | Sydney | 1 | All Maps","name_short":"syd-1","host":"syd-1.au.uncletopia.com","port":27015,"enabled":true,"region":"au","cc":"au","latitude":-33.865143,"longitude":151.2099,"reserved":0,"last_update":"0001-01-01T00:00:00Z","name_a2s":"Uncletopia | Sydney | 1 | All Maps","protocol":17,"map":"cp_standin_final","folder":"tf","game":"Team Fortress","app_id":440,"player_count":24,"max_players":24,"Bots":0,"server_type":"Dedicated","server_os":"Linux","password":true,"vac":true,"version":"7708610","steam_id":85568392924470001,"keywords":["cp","nocrits","nodmgspread","uncletopia"],"game_id":440,"stv_port":27016,"stv_name":"Uncletopia | Sydney | 1 | All Maps | STV","players":[{"user_id":72,"name":"clueless","steam_id":76561198046239819,"connected_time":1240000000000,"state":"active","ping":122},{"user_id":82,"name":"Q","steam_id":76561198055600105,"connected_time":273000000000,"state":"active","ping":69},{"user_id":79,"name":"jcoll444","steam_id":76561198143025380,"connected_time":427000000000,"state":"active","ping":59},{"user_id":61,"name":"lofty","steam_id":76561198380588357,"connected_time":1920000000000,"state":"active","ping":73},{"user_id":23,"name":"shucks","steam_id":76561198260357417,"connected_time":4497000000000,"state":"active","ping":59},{"user_id":63,"name":"Crip Walking Horse","steam_id":76561198340730741,"connected_time":1806000000000,"state":"active","ping":60},{"user_id":81,"name":"alex","steam_id":76561198053382248,"connected_time":295000000000,"state":"active","ping":44},{"user_id":84,"name":"Soap","steam_id":76561198083094589,"connected_time":236000000000,"state":"active","ping":77},{"user_id":30,"name":"Akunébíokwudigbo","steam_id":76561198197777382,"connected_time":3970000000000,"state":"active","ping":49},{"user_id":75,"name":"squrrel","steam_id":76561198083429611,"connected_time":933000000000,"state":"active","ping":76},{"user_id":74,"name":"ItzDecster","steam_id":76561198321908932,"connected_time":1100000000000,"state":"active","ping":62},{"user_id":78,"name":"ziah","steam_id":76561198159375596,"connected_time":850000000000,"state":"active","ping":57},{"user_id":31,"name":"Gurnie_dingo","steam_id":76561198041639674,"connected_time":3960000000000,"state":"active","ping":109},{"user_id":85,"name":"Biggus Dickus","steam_id":76561199138574655,"connected_time":181000000000,"state":"active","ping":94},{"user_id":45,"name":"blackmanblack","steam_id":76561198309279405,"connected_time":2956000000000,"state":"active","ping":61},{"user_id":87,"name":"ca7x3","steam_id":76561198181194862,"connected_time":125000000000,"state":"active","ping":62},{"user_id":89,"name":"The Goodnight Kiwi","steam_id":76561198866433807,"connected_time":72000000000,"state":"active","ping":61},{"user_id":37,"name":"❄❄❄❄❄❄❄❄","steam_id":76561198159933043,"connected_time":3649000000000,"state":"active","ping":61},{"user_id":73,"name":"electro599","steam_id":76561198058148858,"connected_time":1233000000000,"state":"active","ping":54},{"user_id":39,"name":"⭐⭐⭐⭐⭐⭐⭐⭐","steam_id":76561198054096076,"connected_time":3645000000000,"state":"active","ping":52},{"user_id":90,"name":"Marzell","steam_id":76561198151276153,"connected_time":62000000000,"state":"active","ping":76},{"user_id":91,"name":"internetkittenz13","steam_id":76561198881042979,"connected_time":24000000000,"state":"spawning","ping":1137},{"user_id":48,"name":"wse.","steam_id":76561198272148020,"connected_time":2825000000000,"state":"active","ping":56},{"user_id":49,"name":"LightningBlock","steam_id":76561198289997742,"connected_time":2800000000000,"state":"active","ping":44}]},{"server_id":123,"name":"Uncletopia | Sydney | 2 | All Maps","name_short":"syd-2","host":"syd-1.au.uncletopia.com","port":27025,"enabled":true,"region":"au","cc":"au","latitude":-33.865143,"longitude":151.2099,"reserved":0,"last_update":"0001-01-01T00:00:00Z","name_a2s":"Uncletopia | Sydney | 2 | All Maps","protocol":17,"map":"pl_pier","folder":"tf","game":"Team Fortress","app_id":440,"player_count":13,"max_players":24,"Bots":0,"server_type":"Dedicated","server_os":"Linux","password":true,"vac":true,"version":"7708610","steam_id":85568392924470002,"keywords":["nocrits","nodmgspread","payload","uncletopia"],"game_id":440,"stv_port":27026,"stv_name":"Uncletopia | Sydney | 2 | All Maps | STV","players":[{"user_id":128,"name":"No comment","steam_id":76561199305879202,"connected_time":2872000000000,"state":"active","ping":94},{"user_id":168,"name":"Blueberry Rat","steam_id":76561198149219455,"connected_time":580000000000,"state":"active","ping":50},{"user_id":174,"name":"Barry","steam_id":76561198994478643,"connected_time":224000000000,"state":"active","ping":41},{"user_id":171,"name":"Dingo","steam_id":76561198315774295,"connected_time":358000000000,"state":"active","ping":55},{"user_id":158,"name":"TrackBall Mouse Gaming","steam_id":76561198336090528,"connected_time":982000000000,"state":"active","ping":35},{"user_id":130,"name":"eric_","steam_id":76561198866211879,"connected_time":2803000000000,"state":"active","ping":45},{"user_id":162,"name":"Huntercraft","steam_id":76561198886183880,"connected_time":753000000000,"state":"active","ping":279},{"user_id":163,"name":"Slive","steam_id":76561198296258106,"connected_time":696000000000,"state":"active","ping":69},{"user_id":176,"name":"i like balls","steam_id":76561199010558927,"connected_time":135000000000,"state":"active","ping":149},{"user_id":166,"name":"Ashes","steam_id":76561198105820742,"connected_time":609000000000,"state":"active","ping":66},{"user_id":167,"name":"the lad#savetf2","steam_id":76561198865537226,"connected_time":602000000000,"state":"active","ping":83},{"user_id":175,"name":"yor etornal rward","steam_id":76561199113766992,"connected_time":204000000000,"state":"active","ping":218},{"user_id":138,"name":"Catalyst is life","steam_id":76561199026240631,"connected_time":2465000000000,"state":"active","ping":67}]},{"server_id":395,"name":"Uncletopia | Sydney | 3 | All Maps","name_short":"syd-3","host":"syd-1.au.uncletopia.com","port":27035,"enabled":true,"region":"au","cc":"au","latitude":-33.865143,"longitude":151.2099,"reserved":0,"last_update":"0001-01-01T00:00:00Z","name_a2s":"Uncletopia | Sydney | 3 | All Maps","protocol":17,"map":"koth_viaduct","folder":"tf","game":"Team Fortress","app_id":440,"player_count":2,"max_players":24,"Bots":0,"server_type":"Dedicated","server_os":"Linux","password":true,"vac":true,"version":"7708610","steam_id":85568392925194467,"keywords":["cp","nocrits","nodmgspread","uncletopia"],"game_id":440,"stv_port":27036,"stv_name":"Uncletopia | Sydney | 3 | All Maps | STV","players":[{"user_id":13,"name":"HameLIkesToGame","steam_id":76561199104037198,"connected_time":1035000000000,"state":"active","ping":56},{"user_id":14,"name":"NotABot200","steam_id":76561198376731634,"connected_time":1014000000000,"state":"active","ping":57}]},{"server_id":396,"name":"Uncletopia | Sydney | 4 | All Maps","name_short":"syd-4","host":"syd-1.au.uncletopia.com","port":27045,"enabled":true,"region":"au","cc":"au","latitude":-33.865143,"longitude":151.2099,"reserved":0,"last_update":"0001-01-01T00:00:00Z","name_a2s":"Uncletopia | Sydney | 4 | All Maps","protocol":17,"map":"pl_frontier_final","folder":"tf","game":"Team Fortress","app_id":440,"player_count":0,"max_players":24,"Bots":0,"server_type":"Dedicated","server_os":"Linux","password":true,"vac":true,"version":"7708610","steam_id":85568392925397958,"keywords":["nocrits","nodmgspread","payload","uncletopia"],"game_id":440,"stv_port":27046,"stv_name":"Uncletopia | Sydney | 4 | All Maps | STV","players":null},{"server_id":58,"name":"Uncletopia | Sydney | 5 | No Payload","name_short":"syd-5","host":"syd-1.au.uncletopia.com","port":27055,"enabled":true,"region":"au","cc":"au","latitude":-33.865143,"longitude":151.2099,"reserved":0,"last_update":"0001-01-01T00:00:00Z","name_a2s":"Uncletopia | Sydney | 5 | No Payload","protocol":17,"map":"pl_pier","folder":"tf","game":"Team Fortress","app_id":440,"player_count":0,"max_players":24,"Bots":0,"server_type":"Dedicated","server_os":"Linux","password":true,"vac":true,"version":"7708610","steam_id":85568392925397959,"keywords":["nocrits","nodmgspread","payload","uncletopia"],"game_id":440,"stv_port":27056,"stv_name":"Uncletopia | Sydney | 5 | No Payload | STV","players":null},{"server_id":59,"name":"Uncletopia | Sydney | 6 | Community","name_short":"syd-6","host":"syd-1.au.uncletopia.com","port":27065,"enabled":true,"region":"au","cc":"au","latitude":-33.865143,"longitude":151.2099,"reserved":0,"last_update":"0001-01-01T00:00:00Z","name_a2s":"Uncletopia | Sydney | 6 | Community","protocol":17,"map":"workshop/pl_cactuscanyon_redux_rc4b.ugc2579644293","folder":"tf","game":"Team Fortress","app_id":440,"player_count":0,"max_players":24,"Bots":0,"server_type":"Dedicated","server_os":"Linux","password":true,"vac":true,"version":"7708610","steam_id":85568392925397960,"keywords":["nocrits","nodmgspread","payload","uncletopia"],"game_id":440,"stv_port":27066,"stv_name":"Uncletopia | Sydney | 6 | Community | STV","players":null},{"server_id":49,"name":"Uncletopia | Warsaw | 1 | All Maps","name_short":"waw-1","host":"waw-1.pl.uncletopia.com","port":27015,"enabled":true,"region":"eu","cc":"pl","latitude":52.2297,"longitude":21.017532,"reserved":0,"last_update":"0001-01-01T00:00:00Z","name_a2s":"Uncletopia | Warsaw | 1 | All Maps","protocol":17,"map":"koth_cascade","folder":"tf","game":"Team Fortress","app_id":440,"player_count":0,"max_players":24,"Bots":0,"server_type":"Dedicated","server_os":"Linux","password":true,"vac":true,"version":"7708610","steam_id":85568392925397850,"keywords":["cp","nocrits","nodmgspread","uncletopia"],"game_id":440,"stv_port":27016,"stv_name":"Uncletopia | Warsaw | 1 | All Maps | STV","players":null},{"server_id":50,"name":"Uncletopia | Warsaw | 2 | All Maps","name_short":"waw-2","host":"waw-1.pl.uncletopia.com","port":27025,"enabled":true,"region":"eu","cc":"pl","latitude":52.2297,"longitude":21.017532,"reserved":0,"last_update":"0001-01-01T00:00:00Z","name_a2s":"Uncletopia | Warsaw | 2 | All Maps","protocol":17,"map":"koth_lakeside_final","folder":"tf","game":"Team Fortress","app_id":440,"player_count":2,"max_players":24,"Bots":0,"server_type":"Dedicated","server_os":"Linux","password":true,"vac":true,"version":"7708610","steam_id":85568392925397851,"keywords":["cp","nocrits","nodmgspread","uncletopia"],"game_id":440,"stv_port":27026,"stv_name":"Uncletopia | Warsaw | 2 | All Maps | STV","players":[{"user_id":13,"name":"grammerca2","steam_id":76561198993241319,"connected_time":380000000000,"state":"active","ping":170},{"user_id":14,"name":"LadyVodka","steam_id":76561198934740864,"connected_time":124000000000,"state":"active","ping":187}]},{"server_id":51,"name":"Uncletopia | Warsaw | 3 | All Maps","name_short":"waw-3","host":"waw-1.pl.uncletopia.com","port":27035,"enabled":true,"region":"eu","cc":"pl","latitude":52.2297,"longitude":21.017532,"reserved":0,"last_update":"0001-01-01T00:00:00Z","name_a2s":"Uncletopia | Warsaw | 3 | All Maps","protocol":17,"map":"pl_borneo","folder":"tf","game":"Team Fortress","app_id":440,"player_count":0,"max_players":24,"Bots":0,"server_type":"Dedicated","server_os":"Linux","password":true,"vac":true,"version":"7708610","steam_id":85568392925397852,"keywords":["nocrits","nodmgspread","payload","uncletopia"],"game_id":440,"stv_port":27036,"stv_name":"Uncletopia | Warsaw | 3 | All Maps | STV","players":null},{"server_id":52,"name":"Uncletopia | Warsaw | 4 | All Maps","name_short":"waw-4","host":"waw-1.pl.uncletopia.com","port":27045,"enabled":true,"region":"eu","cc":"pl","latitude":52.2297,"longitude":21.017532,"reserved":0,"last_update":"0001-01-01T00:00:00Z","name_a2s":"Uncletopia | Warsaw | 4 | All Maps","protocol":17,"map":"pl_pier","folder":"tf","game":"Team Fortress","app_id":440,"player_count":0,"max_players":24,"Bots":0,"server_type":"Dedicated","server_os":"Linux","password":true,"vac":true,"version":"7708610","steam_id":85568392925397853,"keywords":["nocrits","nodmgspread","payload","uncletopia"],"game_id":440,"stv_port":27046,"stv_name":"Uncletopia | Warsaw | 4 | All Maps | STV","players":null},{"server_id":53,"name":"Uncletopia | Warsaw | 5 | No Payload","name_short":"waw-5","host":"waw-1.pl.uncletopia.com","port":27055,"enabled":true,"region":"eu","cc":"pl","latitude":52.2297,"longitude":21.017532,"reserved":0,"last_update":"0001-01-01T00:00:00Z","name_a2s":"Uncletopia | Warsaw | 5 | No Payload","protocol":17,"map":"cp_yukon_final","folder":"tf","game":"Team Fortress","app_id":440,"player_count":0,"max_players":24,"Bots":0,"server_type":"Dedicated","server_os":"Linux","password":true,"vac":true,"version":"7708610","steam_id":85568392925397854,"keywords":["cp","nocrits","nodmgspread","uncletopia"],"game_id":440,"stv_port":27056,"stv_name":"Uncletopia | Warsaw | 5 | No Payload | STV","players":null},{"server_id":54,"name":"Uncletopia | Warsaw | 6 | Community","name_short":"waw-6","host":"waw-1.pl.uncletopia.com","port":27065,"enabled":true,"region":"eu","cc":"pl","latitude":52.2297,"longitude":21.017532,"reserved":0,"last_update":"0001-01-01T00:00:00Z","name_a2s":"Uncletopia | Warsaw | 6 | Community","protocol":17,"map":"workshop/pl_eruption_b8c.ugc2865677281","folder":"tf","game":"Team Fortress","app_id":440,"player_count":0,"max_players":24,"Bots":0,"server_type":"Dedicated","server_os":"Linux","password":true,"vac":true,"version":"7708610","steam_id":85568392925397856,"keywords":["nocrits","nodmgspread","payload","uncletopia"],"game_id":440,"stv_port":27066,"stv_name":"Uncletopia | Warsaw | 6 | Community | STV","players":null}]}