{"status":true,"message":"","result":[{"server_id":9,"name":"Uncletopia | Atlanta | 1 | All Maps","name_short":"atl-1","host":"atl-1.us.uncletopia.com","port":27015,"enabled":true,"region":"us-east","cc":"us","latitude":33.753746,"longitude":-84.38633,"reserved":0,"last_update":"0001-01-01T00:00:00Z","name_a2s":"Uncletopia | Atlanta | 1 | All Maps","protocol":17,"map":"pl_swiftwater_final1","folder":"tf","game":"Team Fortress","app_id":440,"player_count":0,"max_players":24,"Bots":0,"server_type":"Dedicated","server_os":"Linux","password":true,"vac":true,"version":"7708610","steam_id":85568392924469982,"keywords":["nocrits","nodmgspread","payload","uncletopia"],"game_id":440,"stv_port":27016,"stv_name":"Uncletopia | Atlanta | 1 | All Maps | STV","players":null},{"server_id":400,"name":"Uncletopia | Atlanta | 3 | All Maps","name_short":"atl-3","host":"atl-1.us.uncletopia.com","port":27035,"enabled":true,"region":"us-east","cc":"us","latitude":33.753746,"longitude":-84.38633,"reserved":0,"last_update":"0001-01-01T00:00:00Z","name_a2s":"Uncletopia | Atlanta | 3 | All Maps","protocol":17,"map":"plr_bananabay","folder":"tf","game":"Team Fortress","app_id":440,"player_count":0,"max_players":24,"Bots":0,"server_type":"Dedicated","server_os":"Linux","password":true,"vac":true,"version":"7708610","steam_id":85568392924515187,"keywords":["nocrits","nodmgspread","payload","uncletopia"],"game_id":440,"stv_port":27036,"stv_name":"Uncletopia | Atlanta | 3 | All Maps | STV","players":null},{"server_id":401,"name":"Uncletopia | Atlanta | 4 | No Payload","name_short":"atl-4","host":"atl-1.us.uncletopia.com","port":27045,"enabled":true,"region":"us-east","cc":"us","latitude":33.753746,"longitude":-84.38633,"reserved":0,"last_update":"0001-01-01T00:00:00Z","name_a2s":"Uncletopia | Atlanta | 4 | No Payload","protocol":17,"map":"plr_bananabay","folder":"tf","game":"Team Fortress","app_id":440,"player_count":0,"max_players":24,"Bots":0,"server_type":"Dedicated","server_os":"Linux","password":true,"vac":true,"version":"7708610","steam_id":85568392924515188,"keywords":["nocrits","nodmgspread","payload","uncletopia"],"game_id":440,"stv_port":27046,"stv_name":"Uncletopia | Atlanta | 4 | No Payload | STV","players":null},{"server_id":2,"name":"Uncletopia | Chicago | 1 | All Maps","name_short":"chi-1","host":"chi-1.us.uncletopia.com","port":27015,"enabled":true,"region":"us-central","cc":"us","latitude":41.881832,"longitude":-87.62318,"reserved":0,"last_update":"0001-01-01T00:00:00Z","name_a2s":"Uncletopia | Chicago | 1 | All Maps","protocol":17,"map":"pl_barnblitz","folder":"tf","game":"Team Fortress","app_id":440,"player_count":24,"max_players":24,"Bots":0,"server_type":"Dedicated","server_os":"Linux","password":true,"vac":true,"version":"7708610","steam_id":85568392924469984,"keywords":["nocrits","nodmgspread","payload","uncletopia"],"game_id":440,"stv_port":27016,"stv_name":"Uncletopia | Chicago | 1 | All Maps | STV","players":[{"user_id":7,"name":"asbestos","steam_id":76561198079178866,"connected_time":1596000000000,"state":"active","ping":64},{"user_id":8,"name":"NvS_t34","steam_id":76561198990953907,"connected_time":1543000000000,"state":"active","ping":65},{"user_id":30,"name":"FrostyFrontier","steam_id":76561198370530394,"connected_time":496000000000,"state":"active","ping":56},{"user_id":10,"name":"Dancing Nuggets","steam_id":76561198307986253,"connected_time":1386000000000,"state":"active","ping":64},{"user_id":15,"name":"The Grich","steam_id":76561199229771413,"connected_time":940000000000,"state":"active","ping":80},{"user_id":40,"name":"icecxld","steam_id":76561198079018805,"connected_time":78000000000,"state":"active","ping":52},{"user_id":16,"name":"extinct111","steam_id":76561199013696367,"connected_time":926000000000,"state":"active","ping":59},{"user_id":19,"name":"Coupon","steam_id":76561198111947598,"connected_time":801000000000,"state":"active","ping":51},{"user_id":20,"name":"McSpazatron","steam_id":76561198955942148,"connected_time":777000000000,"state":"active","ping":81},{"user_id":21,"name":"ash","steam_id":76561198127890645,"connected_time":772000000000,"state":"active","ping":85},{"user_id":28,"name":"Mixomin","steam_id":76561198295061570,"connected_time":553000000000,"state":"active","ping":59},{"user_id":23,"name":"family guy im peter","steam_id":76561199229169396,"connected_time":676000000000,"state":"active","ping":66},{"user_id":24,"name":"Tensa","steam_id":76561198210322871,"connected_time":660000000000,"state":"active","ping":114},{"user_id":26,"name":"SuperJagops","steam_id":76561198034689716,"connected_time":637000000000,"state":"active","ping":61},{"user_id":27,"name":"zuero †","steam_id":76561198158363931,"connected_time":622000000000,"state":"active","ping":79},{"user_id":29,"name":"Hex TheGrassMan #SaveTf2","steam_id":76561198016931455,"connected_time":541000000000,"state":"active","ping":106},{"user_id":39,"name":"Do Moose go Moo?","steam_id":76561198073550620,"connected_time":124000000000,"state":"active","ping":46},{"user_id":32,"name":"fridolin","steam_id":76561198005806915,"connected_time":471000000000,"state":"active","ping":60},{"user_id":33,"name":"The Animated Gamer","steam_id":76561198120639995,"connected_time":430000000000,"state":"active","ping":99},{"user_id":34,"name":"DualiTea","steam_id":76561198081733870,"connected_time":368000000000,"state":"active","ping":55},{"user_id":35,"name":"this world is primal","steam_id":76561198991982630,"connected_time":359000000000,"state":"active","ping":68},{"user_id":36,"name":"Ros","steam_id":76561199055963822,"connected_time":352000000000,"state":"active","ping":86},{"user_id":37,"name":"floppy muppet","steam_id":76561198003076261,"connected_time":323000000000,"state":"active","ping":89},{"user_id":38,"name":"Beans","steam_id":76561198409681530,"connected_time":281000000000,"state":"active","ping":80}]},{"server_id":106,"name":"Uncletopia | Chicago | 2 | All Maps","name_short":"chi-2","host":"chi-1.us.uncletopia.com","port":27025,"enabled":true,"region":"us-central","cc":"us","latitude":41.881832,"longitude":-87.62318,"reserved":0,"last_update":"0001-01-01T00:00:00Z","name_a2s":"Uncletopia | Chicago | 2 | All Maps","protocol":17,"map":"plr_bananabay","folder":"tf","game":"Team Fortress","app_id":440,"player_count":0,"max_players":24,"Bots":0,"server_type":"Dedicated","server_os":"Linux","password":true,"vac":true,"version":"7708610","steam_id":85568392924469985,"keywords":["nocrits","nodmgspread","payload","uncletopia"],"game_id":440,"stv_port":27026,"stv_name":"Uncletopia | Chicago | 2 | All Maps | STV","players":null},{"server_id":402,"name":"Uncletopia | Chicago | 3 | All Maps","name_short":"chi-3","host":"chi-1.us.uncletopia.com","port":27035,"enabled":true,"region":"us-central","cc":"us","latitude":41.881832,"longitude":-87.62318,"reserved":0,"last_update":"0001-01-01T00:00:00Z","name_a2s":"Uncletopia | Chicago | 3 | All Maps","protocol":17,"map":"cp_process_final","folder":"tf","game":"Team Fortress","app_id":440,"player_count":25,"max_players":24,"Bots":0,"server_type":"Dedicated","server_os":"Linux","password":true,"vac":true,"version":"7708610","steam_id":85568392924515191,"keywords":["cp","nocrits","nodmgspread","uncletopia"],"game_id":440,"stv_port":27036,"stv_name":"Uncletopia | Chicago | 3 | All Maps | STV","players":[{"user_id":6,"name":"Dude Named Bob","steam_id":76561198310448093,"connected_time":7647000000000,"state":"active","ping":54},{"user_id":7,"name":"Dwaggy","steam_id":76561198027369555,"connected_time":7564000000000,"state":"active","ping":67},{"user_id":81,"name":"GREG","steam_id":76561198073021168,"connected_time":1325000000000,"state":"active","ping":68},{"user_id":26,"name":"paj","steam_id":76561198080026026,"connected_time":6389000000000,"state":"active","ping":98},{"user_id":10,"name":"kermitcreeper(ZAZA)","steam_id":76561199222829972,"connected_time":7004000000000,"state":"active","ping":45},{"user_id":59,"name":"Lost (14)","steam_id":76561198093713427,"connected_time":3654000000000,"state":"active","ping":60},{"user_id":88,"name":"zonemaster95","steam_id":76561198072572032,"connected_time":680000000000,"state":"active","ping":112},{"user_id":83,"name":"Sgt","steam_id":76561198139818111,"connected_time":1206000000000,"state":"active","ping":66},{"user_id":18,"name":"Ejej","steam_id":76561198986313007,"connected_time":6614000000000,"state":"active","ping":183},{"user_id":89,"name":"Takumi Fujiwara","steam_id":76561198146281101,"connected_time":496000000000,"state":"active","ping":74},{"user_id":76,"name":"bonk","steam_id":76561198004823930,"connected_time":2454000000000,"state":"active","ping":60},{"user_id":72,"name":"Yayifications","steam_id":76561198066227208,"connected_time":2601000000000,"state":"active","ping":73},{"user_id":90,"name":"worlds away","steam_id":76561199412168016,"connected_time":487000000000,"state":"active","ping":86},{"user_id":51,"name":"OKlWONT","steam_id":76561198060328407,"connected_time":4475000000000,"state":"active","ping":72},{"user_id":93,"name":"Amogus The Sussy Baka ඞ","steam_id":76561198008577961,"connected_time":431000000000,"state":"active","ping":75},{"user_id":60,"name":"THE NUT","steam_id":76561198067813626,"connected_time":3643000000000,"state":"active","ping":98},{"user_id":86,"name":"Jerry","steam_id":76561198851602451,"connected_time":815000000000,"state":"active","ping":35},{"user_id":34,"name":"belugawhalegod322","steam_id":76561198115458307,"connected_time":6132000000000,"state":"active","ping":107},{"user_id":97,"name":"Literally Roxy's Wife Tsuyu","steam_id":76561198175421763,"connected_time":125000000000,"state":"active","ping":64},{"user_id":95,"name":"apple","steam_id":76561198090531755,"connected_time":268000000000,"state":"active","ping":60},{"user_id":98,"name":"SomeRandomPerson (F2p)","steam_id":76561198977045933,"connected_time":107000000000,"state":"active","ping":99},{"user_id":77,"name":"Kitsu ♥","steam_id":76561198091741658,"connected_time":2454000000000,"state":"active","ping":73},{"user_id":96,"name":"Kartyac","steam_id":76561197991069005,"connected_time":160000000000,"state":"active","ping":90},{"user_id":99,"name":"Habber The Quesomancer","steam_id":76561198049642751,"connected_time":106000000000,"state":"active","ping":65},{"user_id":101,"name":"Birds1Ω6","steam_id":76561198819495676,"connected_time":17000000000,"state":"spawning","ping":79}]},{"server_id":403,"name":"Uncletopia | Chicago | 4 | All Maps","name_short":"chi-4","host":"chi-1.us.uncletopia.com","port":27045,"enabled":true,"region":"us-central","cc":"us","latitude":41.881832,"longitude":-87.62318,"reserved":0,"last_update":"0001-01-01T00:00:00Z","name_a2s":"Uncletopia | Chicago | 4 | All Maps","protocol":17,"map":"cp_process_final","folder":"tf","game":"Team Fortress","app_id":440,"player_count":0,"max_players":24,"Bots":0,"server_type":"Dedicated","server_os":"Linux","password":true,"vac":true,"version":"7708610","steam_id":85568392924515193,"keywords":["cp","nocrits","nodmgspread","uncletopia"],"game_id":440,"stv_port":27046,"stv_name":"Uncletopia | Chicago | 4 | All Maps | STV","players":null},{"server_id":36,"name":"Uncletopia | Chicago | 5 | All Maps","name_short":"chi-5","host":"chi-2.us.uncletopia.com","port":27015,"enabled":true,"region":"us-central","cc":"us","latitude":41.881832,"longitude":-87.62318,"reserved":0,"last_update":"0001-01-01T00:00:00Z","name_a2s":"Uncletopia | Chicago | 5 | All Maps","protocol":17,"map":"pl_swiftwater_final1","folder":"tf","game":"Team Fortress","app_id":440,"player_count":0,"max_players":24,"Bots":0,"server_type":"Dedicated","server_os":"Linux","password":true,"vac":true,"version":"7708610","steam_id":85568392924866362,"keywords":["nocrits","nodmgspread","payload","uncletopia"],"game_id":440,"stv_port":27016,"stv_name":"Uncletopia | Chicago | 5 | All Maps | STV","players":null},{"server_id":37,"name":"Uncletopia | Chicago | 6 | All Maps","name_short":"chi-6","host":"chi-2.us.uncletopia.com","port":27025,"enabled":true,"region":"us-central","cc":"us","latitude":41.881832,"longitude":-87.62318,"reserved":0,"last_update":"0001-01-01T00:00:00Z","name_a2s":"Uncletopia | Chicago | 6 | All Maps","protocol":17,"map":"pl_swiftwater_final1","folder":"tf","game":"Team Fortress","app_id":440,"player_count":0,"max_players":24,"Bots":0,"server_type":"Dedicated","server_os":"Linux","password":true,"vac":true,"version":"7708610","steam_id":85568392924866363,"keywords":["nocrits","nodmgspread","payload","uncletopia"],"game_id":440,"stv_port":27026,"stv_name":"Uncletopia | Chicago | 6 | All Maps | STV","players":null},{"server_id":38,"name":"Uncletopia | Chicago | 7 | No Payload","name_short":"chi-7","host":"chi-2.us.uncletopia.com","port":27035,"enabled":true,"region":"us-central","cc":"us","latitude":41.881832,"longitude":-87.62318,"reserved":0,"last_update":"0001-01-01T00:00:00Z","name_a2s":"Uncletopia | Chicago | 7 | No Payload","protocol":17,"map":"koth_highpass","folder":"tf","game":"Team Fortress","app_id":440,"player_count":0,"max_players":24,"Bots":0,"server_type":"Dedicated","server_os":"Linux","password":true,"vac":true,"version":"7708610","steam_id":85568392924866364,"keywords":["cp","nocrits","nodmgspread","uncletopia"],"game_id":440,"stv_port":27036,"stv_name":"Uncletopia | Chicago | 7 | No Payload | STV","players":null},{"server_id":39,"name":"Uncletopia | Chicago | 8 | Community","name_short":"chi-8","host":"chi-2.us.uncletopia.com","port":27045,"enabled":true,"region":"us-central","cc":"us","latitude":41.881832,"longitude":-87.62318,"reserved":0,"last_update":"0001-01-01T00:00:00Z","name_a2s":"Uncletopia | Chicago | 8 | Community","protocol":17,"map":"workshop/pl_fifthcurve_rc1.ugc648227046","folder":"tf","game":"Team Fortress","app_id":440,"player_count":0,"max_players":24,"Bots":0,"server_type":"Dedicated","server_os":"Linux","password":true,"vac":true,"version":"7708610","steam_id":85568392924866365,"keywords":["nocrits","nodmgspread","payload","uncletopia"],"game_id":440,"stv_port":27046,"stv_name":"Uncletopia | Chicago | 8 | Community | STV","players":null},{"server_id":8,"name":"Uncletopia | Dallas | 1 | All Maps","name_short":"dal-1","host":"dal-1.us.uncletopia.com","port":27015,"enabled":true,"region":"us-central","cc":"us","latitude":32.779167,"longitude":-96.80889,"reserved":0,"last_update":"0001-01-01T00:00:00Z","name_a2s":"Uncletopia | Dallas | 1 | All Maps","protocol":17,"map":"pl_badwater","folder":"tf","game":"Team Fortress","app_id":440,"player_count":22,"max_players":24,"Bots":0,"server_type":"Dedicated","server_os":"Linux","password":true,"vac":true,"version":"7708610","steam_id":85568392924469986,"keywords":["nocrits","nodmgspread","payload","uncletopia"],"game_id":440,"stv_port":27016,"stv_name":"Uncletopia | Dallas | 1 | All Maps | STV","players":[{"user_id":43,"name":"motherfucker 2.0","steam_id":76561198141189209,"connected_time":64000000000,"state":"active","ping":34},{"user_id":14,"name":"rat","steam_id":76561198057536994,"connected_time":1533000000000,"state":"active","ping":93},{"user_id":44,"name":"firetamer2","steam_id":76561198040886980,"connected_time":58000000000,"state":"active","ping":79},{"user_id":10,"name":"paper","steam_id":76561199075241499,"connected_time":2557000000000,"state":"active","ping":40},{"user_id":32,"name":"ryan2goofy","steam_id":76561198131488280,"connected_time":501000000000,"state":"active","ping":98},{"user_id":36,"name":"static","steam_id":76561199093261935,"connected_time":259000000000,"state":"active","ping":90},{"user_id":42,"name":"the senate","steam_id":76561198353542913,"connected_time":114000000000,"state":"active","ping":121},{"user_id":22,"name":"novu","steam_id":76561198886997024,"connected_time":843000000000,"state":"active","ping":91},{"user_id":19,"name":"Tyler\u0026Fingers","steam_id":76561198085154485,"connected_time":1076000000000,"state":"active","ping":82},{"user_id":37,"name":"Zorlovo","steam_id":76561198006443283,"connected_time":247000000000,"state":"active","ping":91},{"user_id":23,"name":"raduski","steam_id":76561198795699119,"connected_time":808000000000,"state":"active","ping":75},{"user_id":38,"name":"azzy","steam_id":76561198825918211,"connected_time":231000000000,"state":"active","ping":202},{"user_id":25,"name":"Scoron","steam_id":76561198062099305,"connected_time":743000000000,"state":"active","ping":88},{"user_id":26,"name":"deadcalm","steam_id":76561199443781572,"connected_time":736000000000,"state":"active","ping":96},{"user_id":28,"name":"shut up im watching the TV","steam_id":76561198389068053,"connected_time":665000000000,"state":"active","ping":47},{"user_id":29,"name":"crippling fumo addiction","steam_id":76561198115874625,"connected_time":651000000000,"state":"active","ping":83},{"user_id":30,"name":"mac wit the chicken strips","steam_id":76561198257668336,"connected_time":589000000000,"state":"active","ping":45},{"user_id":31,"name":"clems17","steam_id":76561199420685482,"connected_time":544000000000,"state":"active","ping":161},{"user_id":34,"name":"Maranata","steam_id":76561198830158092,"connected_time":398000000000,"state":"active","ping":73},{"user_id":39,"name":"DMM","steam_id":76561198065426171,"connected_time":229000000000,"state":"active","ping":54},{"user_id":40,"name":"Jammburger","steam_id":76561198091716240,"connected_time":226000000000,"state":"active","ping":54},{"user_id":41,"name":"Murky the murloc","steam_id":76561198004343439,"connected_time":216000000000,"state":"active","ping":92}]},{"server_id":108,"name":"Uncletopia | Dallas | 2 | All Maps","name_short":"dal-2","host":"dal-1.us.uncletopia.com","port":27025,"enabled":true,"region":"us-central","cc":"us","latitude":32.779167,"longitude":-96.80889,"reserved":0,"last_update":"0001-01-01T00:00:00Z","name_a2s":"Uncletopia | Dallas | 2 | All Maps","protocol":17,"map":"ctf_well","folder":"tf","game":"Team Fortress","app_id":440,"player_count":0,"max_players":24,"Bots":0,"server_type":"Dedicated","server_os":"Linux","password":true,"vac":true,"version":"7708610","steam_id":85568392924469988,"keywords":["ctf","nocrits","nodmgspread","uncletopia"],"game_id":440,"stv_port":27026,"stv_name":"Uncletopia | Dallas | 2 | All Maps | STV","players":null},{"server_id":5,"name":"Uncletopia | Frankfurt | 1 | All Maps","name_short":"frk-1","host":"frk-1.de.uncletopia.com","port":27015,"enabled":true,"region":"eu","cc":"de","latitude":50.110924,"longitude":8.682127,"reserved":0,"last_update":"0001-01-01T00:00:00Z","name_a2s":"Uncletopia | Frankfurt | 1 | All Maps","protocol":17,"map":"koth_highpass","folder":"tf","game":"Team Fortress","app_id":440,"player_count":24,"max_players":24,"Bots":0,"server_type":"Dedicated","server_os":"Linux","password":true,"vac":true,"version":"7708610","steam_id":85568392924469989,"keywords":["cp","nocrits","nodmgspread","uncletopia"],"game_id":440,"stv_port":27016,"stv_name":"Uncletopia | Frankfurt | 1 | All Maps | STV","players":[{"user_id":307,"name":"anairat","steam_id":76561198863788240,"connected_time":1545000000000,"state":"active","ping":81},{"user_id":275,"name":"Lennox","steam_id":76561198069063554,"connected_time":3377000000000,"state":"active","ping":45},{"user_id":314,"name":"heavy sings (real)","steam_id":76561199023804405,"connected_time":1087000000000,"state":"active","ping":92},{"user_id":292,"name":"HatMann","steam_id":76561198821664938,"connected_time":2628000000000,"state":"active","ping":94},{"user_id":331,"name":"Zigzagzigal","steam_id":76561198025474606,"connected_time":633000000000,"state":"active","ping":73},{"user_id":316,"name":"Astyloblatta","steam_id":76561199222909666,"connected_time":1066000000000,"state":"active","ping":58},{"user_id":319,"name":"jingleboob","steam_id":76561198097507847,"connected_time":999000000000,"state":"active","ping":74},{"user_id":339,"name":"EpicMonkeGaming","steam_id":76561199191051178,"connected_time":209000000000,"state":"active","ping":134},{"user_id":326,"name":"WAAALUIGI ♥","steam_id":76561198142453459,"connected_time":819000000000,"state":"active","ping":60},{"user_id":317,"name":"Jingleboob's Elf","steam_id":76561198067204908,"connected_time":1058000000000,"state":"active","ping":67},{"user_id":318,"name":"leaf eater","steam_id":76561198083359604,"connected_time":1056000000000,"state":"active","ping":55},{"user_id":320,"name":"twitch.tv/biofun_","steam_id":76561198170609049,"connected_time":985000000000,"state":"active","ping":61},{"user_id":329,"name":"WAAARIO ♥","steam_id":76561198148973437,"connected_time":754000000000,"state":"active","ping":47},{"user_id":322,"name":"Nick","steam_id":76561198036109469,"connected_time":914000000000,"state":"active","ping":90},{"user_id":323,"name":"ruby (ribbit)","steam_id":76561198040870467,"connected_time":905000000000,"state":"active","ping":69},{"user_id":336,"name":"Bob Sacamano","steam_id":76561198085610701,"connected_time":517000000000,"state":"active","ping":78},{"user_id":340,"name":"Hexagon","steam_id":76561198151205758,"connected_time":140000000000,"state":"active","ping":56},{"user_id":134,"name":"до смерть","steam_id":76561199042470246,"connected_time":13596000000000,"state":"active","ping":56},{"user_id":330,"name":"2D","steam_id":76561199113659141,"connected_time":657000000000,"state":"active","ping":125},{"user_id":333,"name":"Good Boy","steam_id":76561198090838017,"connected_time":630000000000,"state":"active","ping":59},{"user_id":338,"name":"Fat Pigeon","steam_id":76561198817940142,"connected_time":276000000000,"state":"active","ping":54},{"user_id":135,"name":"nuclear winter","steam_id":76561198189686075,"connected_time":13587000000000,"state":"active","ping":58},{"user_id":335,"name":"kotamine","steam_id":76561198068907991,"connected_time":596000000000,"state":"active","ping":72},{"user_id":291,"name":"DeCypher","steam_id":76561198171992619,"connected_time":2638000000000,"state":"active","ping":67}]},{"server_id":110,"name":"Uncletopia | Frankfurt | 2 | All Maps","name_short":"frk-2","host":"frk-1.de.uncletopia.com","port":27025,"enabled":true,"region":"eu","cc":"de","latitude":50.110924,"longitude":8.682127,"reserved":0,"last_update":"0001-01-01T00:00:00Z","name_a2s":"Uncletopia | Frankfurt | 2 | All Maps","protocol":17,"map":"pl_frontier_final","folder":"tf","game":"Team Fortress","app_id":440,"player_count":24,"max_players":24,"Bots":0,"server_type":"Dedicated","server_os":"Linux","password":true,"vac":true,"version":"7708610","steam_id":85568392924469990,"keywords":["nocrits","nodmgspread","payload","uncletopia"],"game_id":440,"stv_port":27026,"stv_name":"Uncletopia | Frankfurt | 2 | All Maps | STV","players":[{"user_id":329,"name":"tallen","steam_id":76561198061708595,"connected_time":71000000000,"state":"active","ping":64},{"user_id":318,"name":"Cantaloaf","steam_id":76561198222164132,"connected_time":383000000000,"state":"active","ping":183},{"user_id":334,"name":"coin dexter","steam_id":76561198092376975,"connected_time":12000000000,"state":"spawning","ping":45},{"user_id":277,"name":"Bobby Brown","steam_id":76561199061537074,"connected_time":3617000000000,"state":"active","ping":60},{"user_id":313,"name":"Der Herr Doktor","steam_id":76561198119476089,"connected_time":855000000000,"state":"active","ping":50},{"user_id":319,"name":"bMG morlo^","steam_id":76561198249301650,"connected_time":355000000000,"state":"active","ping":44},{"user_id":332,"name":"Klifton","steam_id":76561198803743443,"connected_time":39000000000,"state":"active","ping":81},{"user_id":241,"name":"AFon","steam_id":76561198080783287,"connected_time":5713000000000,"state":"active","ping":90},{"user_id":321,"name":"food","steam_id":76561198308341534,"connected_time":341000000000,"state":"active","ping":60},{"user_id":270,"name":"Circular","steam_id":76561198001536710,"connected_time":4273000000000,"state":"active","ping":57},{"user_id":311,"name":"Maxwell Gaming","steam_id":76561199114568070,"connected_time":1336000000000,"state":"active","ping":89},{"user_id":322,"name":"bMG || i eat sex","steam_id":76561198369335263,"connected_time":323000000000,"state":"active","ping":49},{"user_id":323,"name":"ff:ff:ff:ff:ff:ff","steam_id":76561198072122983,"connected_time":318000000000,"state":"active","ping":64},{"user_id":315,"name":"Fenix","steam_id":76561198407462383,"connected_time":453000000000,"state":"active","ping":52},{"user_id":312,"name":"Ciaguta_rolex","steam_id":76561198046709588,"connected_time":1330000000000,"state":"active","ping":72},{"user_id":291,"name":"MAKENTAKEN","steam_id":76561199127359587,"connected_time":3060000000000,"state":"active","ping":94},{"user_id":328,"name":"Maske","steam_id":76561198078100812,"connected_time":157000000000,"state":"active","ping":51},{"user_id":333,"name":"g","steam_id":76561198033524151,"connected_time":38000000000,"state":"spawning","ping":60},{"user_id":325,"name":"fat fucking pigeon (real)","steam_id":76561198261094295,"connected_time":287000000000,"state":"active","ping":63},{"user_id":326,"name":"Mari Christmas","steam_id":76561197997020707,"connected_time":280000000000,"state":"active","ping":63},{"user_id":289,"name":"Venus⚢","steam_id":76561198018602969,"connected_time":3503000000000,"state":"active","ping":71},{"user_id":327,"name":"System","steam_id":76561199442503973,"connected_time":276000000000,"state":"active","ping":45},{"user_id":303,"name":"Speibsackerl","steam_id":76561198058135257,"connected_time":1773000000000,"state":"active","ping":59},{"user_id":316,"name":"a mild inconvenience","steam_id":76561199087055541,"connected_time":450000000000,"state":"active","ping":211}]},{"server_id":308,"name":"Uncletopia | Frankfurt | 3 | All Maps","name_short":"frk-3","host":"frk-1.de.uncletopia.com","port":27035,"enabled":true,"region":"eu","cc":"de","latitude":50.110924,"longitude":8.682127,"reserved":0,"last_update":"0001-01-01T00:00:00Z","name_a2s":"Uncletopia | Frankfurt | 3 | All Maps","protocol":17,"map":"cp_process_final","folder":"tf","game":"Team Fortress","app_id":440,"player_count":24,"max_players":24,"Bots":0,"server_type":"Dedicated","server_os":"Linux","password":true,"vac":true,"version":"7708610","steam_id":85568392924504274,"keywords":["cp","nocrits","nodmgspread","uncletopia"],"game_id":440,"stv_port":27036,"stv_name":"Uncletopia | Frankfurt | 3 | All Maps | STV","players":[{"user_id":161,"name":"MagicTITIKAKA","steam_id":76561198129509548,"connected_time":431000000000,"state":"active","ping":109},{"user_id":109,"name":"adijuice","steam_id":76561198187079875,"connected_time":3805000000000,"state":"active","ping":91},{"user_id":157,"name":"Alain de l'ombre","steam_id":76561198037938833,"connected_time":637000000000,"state":"active","ping":51},{"user_id":151,"name":"JC","steam_id":76561198029213352,"connected_time":1118000000000,"state":"active","ping":59},{"user_id":59,"name":"Big Gamer (real)","steam_id":76561198160114532,"connected_time":6113000000000,"state":"active","ping":57},{"user_id":159,"name":"Temka","steam_id":76561198331323738,"connected_time":537000000000,"state":"active","ping":62},{"user_id":163,"name":"norespectforthedevil","steam_id":76561197998922218,"connected_time":146000000000,"state":"active","ping":81},{"user_id":162,"name":"tshirt","steam_id":76561198040757844,"connected_time":298000000000,"state":"active","ping":75},{"user_id":160,"name":"Jense","steam_id":76561198825072592,"connected_time":530000000000,"state":"active","ping":61},{"user_id":122,"name":"walpurgis","steam_id":76561199117720299,"connected_time":3144000000000,"state":"active","ping":58},{"user_id":150,"name":"Ennard777","steam_id":76561198965409493,"connected_time":1457000000000,"state":"active","ping":98},{"user_id":146,"name":"Heninem","steam_id":76561197998252354,"connected_time":1710000000000,"state":"active","ping":57},{"user_id":110,"name":"gamma","steam_id":76561198204290247,"connected_time":3796000000000,"state":"active","ping":86},{"user_id":154,"name":"BitToBot","steam_id":76561198124080817,"connected_time":887000000000,"state":"active","ping":47},{"user_id":139,"name":"[UiF] BafTac r/f*ckcars","steam_id":76561198060547050,"connected_time":1935000000000,"state":"active","ping":46},{"user_id":141,"name":"Browlin","steam_id":76561198860807512,"connected_time":1920000000000,"state":"active","ping":76},{"user_id":164,"name":"Volmari","steam_id":76561198054253542,"connected_time":9000000000,"state":"spawning","ping":81},{"user_id":79,"name":"'_'","steam_id":76561198120264459,"connected_time":4993000000000,"state":"active","ping":64},{"user_id":165,"name":"jovi_","steam_id":76561198449280552,"connected_time":8000000000,"state":"active","ping":121},{"user_id":149,"name":"Mr.Schnittlauch","steam_id":76561198295868113,"connected_time":1552000000000,"state":"active","ping":65},{"user_id":156,"name":"LetsWinCarlos2012","steam_id":76561199084826822,"connected_time":720000000000,"state":"active","ping":158},{"user_id":129,"name":"Rambi","steam_id":76561199058078505,"connected_time":2459000000000,"state":"active","ping":161},{"user_id":132,"name":"Optimist 50","steam_id":76561198039631442,"connected_time":2100000000000,"state":"active","ping":88},{"user_id":120,"name":".bRdyyy","steam_id":76561198057256978,"connected_time":3376000000000,"state":"active","ping":53}]},{"server_id":309,"name":"Uncletopia | Frankfurt | 4 | All Maps","name_short":"frk-4","host":"frk-1.de.uncletopia.com","port":27045,"enabled":true,"region":"eu","cc":"de","latitude":50.110924,"longitude":8.682127,"reserved":0,"last_update":"0001-01-01T00:00:00Z","name_a2s":"Uncletopia | Frankfurt | 4 | All Maps","protocol":17,"map":"pl_frontier_final","folder":"tf","game":"Team Fortress","app_id":440,"player_count":24,"max_players":24,"Bots":0,"server_type":"Dedicated","server_os":"Linux","password":true,"vac":true,"version":"7708610","steam_id":85568392924504275,"keywords":["nocrits","nodmgspread","payload","uncletopia"],"game_id":440,"stv_port":27046,"stv_name":"Uncletopia | Frankfurt | 4 | All Maps | STV","players":[{"user_id":214,"name":"Plop_","steam_id":76561198112567921,"connected_time":1277000000000,"state":"active","ping":45},{"user_id":238,"name":"fisch","steam_id":76561198382833003,"connected_time":201000000000,"state":"active","ping":57},{"user_id":233,"name":"Kart is Useless","steam_id":76561198950842095,"connected_time":392000000000,"state":"active","ping":45},{"user_id":220,"name":"Echhin","steam_id":76561198048715382,"connected_time":1178000000000,"state":"active","ping":115},{"user_id":228,"name":"Dzieciol","steam_id":76561198160237556,"connected_time":846000000000,"state":"active","ping":71},{"user_id":243,"name":"Whoopi Goldberg","steam_id":76561199378865926,"connected_time":90000000000,"state":"active","ping":83},{"user_id":250,"name":"Godot","steam_id":76561198339980449,"connected_time":7000000000,"state":"spawning","ping":92},{"user_id":244,"name":"doggoisgod123","steam_id":76561199399926052,"connected_time":90000000000,"state":"active","ping":110},{"user_id":226,"name":"sperma gyerek","steam_id":76561198742407927,"connected_time":882000000000,"state":"active","ping":75},{"user_id":242,"name":"Rohlc","steam_id":76561199056443047,"connected_time":113000000000,"state":"active","ping":57},{"user_id":245,"name":"WhenSheSuccinUrNuts AndUaGangst","steam_id":76561199063168110,"connected_time":86000000000,"state":"active","ping":103},{"user_id":227,"name":"Vanny","steam_id":76561198297961039,"connected_time":871000000000,"state":"active","ping":351},{"user_id":193,"name":"ÃNVS DRÃNVS","steam_id":76561198138733015,"connected_time":2269000000000,"state":"active","ping":106},{"user_id":216,"name":"Furkan","steam_id":76561198175613166,"connected_time":1243000000000,"state":"active","ping":104},{"user_id":224,"name":"YV","steam_id":76561198147868242,"connected_time":1089000000000,"state":"active","ping":45},{"user_id":184,"name":"We are in a world of magic","steam_id":76561198104745492,"connected_time":2895000000000,"state":"active","ping":62},{"user_id":185,"name":"Jon_595","steam_id":76561198846843547,"connected_time":2892000000000,"state":"active","ping":142},{"user_id":208,"name":"cosmetical","steam_id":76561198444036574,"connected_time":1690000000000,"state":"active","ping":76},{"user_id":246,"name":"lilsnek","steam_id":76561198378830443,"connected_time":67000000000,"state":"active","ping":76},{"user_id":219,"name":"Genesis","steam_id":76561198330049859,"connected_time":1205000000000,"state":"active","ping":78},{"user_id":188,"name":"Hoks","steam_id":76561198126442242,"connected_time":2875000000000,"state":"active","ping":120},{"user_id":247,"name":"dotdotdot","steam_id":76561198057628751,"connected_time":66000000000,"state":"active","ping":60},{"user_id":248,"name":"concussion gaming","steam_id":76561198425494530,"connected_time":61000000000,"state":"active","ping":110},{"user_id":249,"name":"0","steam_id":76561198335304615,"connected_time":60000000000,"state":"active","ping":69}]},{"server_id":310,"name":"Uncletopia | Frankfurt | 5 | All Maps","name_short":"frk-5","host":"frk-1.de.uncletopia.com","port":27055,"enabled":true,"region":"eu","cc":"de","latitude":50.110924,"longitude":8.682127,"reserved":0,"last_update":"0001-01-01T00:00:00Z","name_a2s":"Uncletopia | Frankfurt | 5 | All Maps","protocol":17,"map":"pl_swiftwater_final1","folder":"tf","game":"Team Fortress","app_id":440,"player_count":24,"max_players":24,"Bots":0,"server_type":"Dedicated","server_os":"Linux","password":true,"vac":true,"version":"7708610","steam_id":85568392924504277,"keywords":["nocrits","nodmgspread","payload","uncletopia"],"game_id":440,"stv_port":27056,"stv_name":"Uncletopia | Frankfurt | 5 | All Maps | STV","players":[{"user_id":127,"name":"Oak","steam_id":76561198248567360,"connected_time":459000000000,"state":"active","ping":59},{"user_id":110,"name":"Møgmorgen","steam_id":76561198076107263,"connected_time":1765000000000,"state":"active","ping":49},{"user_id":140,"name":"ViktorYoshi","steam_id":76561199157555246,"connected_time":4000000000,"state":"spawning","ping":79},{"user_id":124,"name":"wxyz kapıcı izzet","steam_id":76561198241873438,"connected_time":607000000000,"state":"active","ping":89},{"user_id":133,"name":"queerio","steam_id":76561199400809482,"connected_time":436000000000,"state":"active","ping":59},{"user_id":139,"name":"[TMT] ZombieJezus","steam_id":76561198249338110,"connected_time":228000000000,"state":"active","ping":53},{"user_id":129,"name":"hushhx","steam_id":76561198216200092,"connected_time":452000000000,"state":"active","ping":60},{"user_id":112,"name":"Noob_with_source","steam_id":76561198870362103,"connected_time":1745000000000,"state":"active","ping":60},{"user_id":98,"name":"Chris","steam_id":76561199443600515,"connected_time":2257000000000,"state":"active","ping":73},{"user_id":136,"name":"Madeline from better call saul","steam_id":76561198357551703,"connected_time":299000000000,"state":"active","ping":62},{"user_id":130,"name":"reho-iwnw","steam_id":76561198348062373,"connected_time":451000000000,"state":"active","ping":90},{"user_id":131,"name":"Tel Ltd.","steam_id":76561198045137670,"connected_time":449000000000,"state":"active","ping":59},{"user_id":119,"name":"Cardbrige","steam_id":76561198294453886,"connected_time":1307000000000,"state":"active","ping":52},{"user_id":101,"name":"Ross from F.R.I.E.N.D.S.","steam_id":76561198008511665,"connected_time":2212000000000,"state":"active","ping":61},{"user_id":86,"name":"I love minorities","steam_id":76561199083148582,"connected_time":2991000000000,"state":"active","ping":71},{"user_id":87,"name":"The Wolf Leader","steam_id":76561198038007462,"connected_time":2911000000000,"state":"active","ping":63},{"user_id":134,"name":"Lyell","steam_id":76561198350329389,"connected_time":404000000000,"state":"active","ping":81},{"user_id":106,"name":"sodadrink","steam_id":76561198202990635,"connected_time":2050000000000,"state":"active","ping":64},{"user_id":121,"name":"Kurage","steam_id":76561198021221288,"connected_time":946000000000,"state":"active","ping":63},{"user_id":113,"name":"KingPotatoChips","steam_id":76561198035156465,"connected_time":1684000000000,"state":"active","ping":60},{"user_id":104,"name":"CaptainAwesome","steam_id":76561198030377233,"connected_time":2109000000000,"state":"active","ping":190},{"user_id":135,"name":"NikyuuVl","steam_id":76561198159506454,"connected_time":314000000000,"state":"active","ping":61},{"user_id":115,"name":"N","steam_id":76561198145713411,"connected_time":1638000000000,"state":"active","ping":62},{"user_id":73,"name":"panakid","steam_id":76561198364121077,"connected_time":3932000000000,"state":"active","ping":106}]},{"server_id":311,"name":"Uncletopia | Frankfurt | 6 | All Maps","name_short":"frk-6","host":"frk-1.de.uncletopia.com","port":27065,"enabled":true,"region":"eu","cc":"de","latitude":50.110924,"longitude":8.682127,"reserved":0,"last_update":"0001-01-01T00:00:00Z","name_a2s":"Uncletopia | Frankfurt | 6 | All Maps","protocol":17,"map":"koth_viaduct","folder":"tf","game":"Team Fortress","app_id":440,"player_count":0,"max_players":24,"Bots":0,"server_type":"Dedicated","server_os":"Linux","password":true,"vac":true,"version":"7708610","steam_id":85568392924504278,"keywords":["cp","nocrits","nodmgspread","uncletopia"],"game_id":440,"stv_port":27066,"stv_name":"Uncletopia | Frankfurt | 6 | All Maps | STV","players":null},{"server_id":23,"name":"Uncletopia | Frankfurt | 7 | No Payload","name_short":"frk-7","host":"frk-1.de.uncletopia.com","port":27075,"enabled":true,"region":"eu","cc":"de","latitude":50.110924,"longitude":8.682127,"reserved":0,"last_update":"0001-01-01T00:00:00Z","name_a2s":"Uncletopia | Frankfurt | 7 | No Payload","protocol":17,"map":"koth_viaduct","folder":"tf","game":"Team Fortress","app_id":440,"player_count":0,"max_players":24,"Bots":0,"server_type":"Dedicated","server_os":"Linux","password":true,"vac":true,"version":"7708610","steam_id":85568392924742827,"keywords":["cp","nocrits","nodmgspread","uncletopia"],"game_id":440,"stv_port":27076,"stv_name":"Uncletopia | Frankfurt | 7 | No Payload | STV","players":null},{"server_id":24,"name":"Uncletopia | Frankfurt | 8 | Community","name_short":"frk-8","host":"frk-1.de.uncletopia.com","port":27085,"enabled":true,"region":"eu","cc":"de","latitude":50.110924,"longitude":8.682127,"reserved":0,"last_update":"0001-01-01T00:00:00Z","name_a2s":"Uncletopia | Frankfurt | 8 | Community","protocol":17,"map":"workshop/koth_ramjam_v2_b2.ugc2865676487","folder":"tf","game":"Team Fortress","app_id":440,"player_count":22,"max_players":24,"Bots":0,"server_type":"Dedicated","server_os":"Linux","password":true,"vac":true,"version":"7708610","steam_id":85568392924742828,"keywords":["cp","nocrits","nodmgspread","uncletopia"],"game_id":440,"stv_port":27086,"stv_name":"Uncletopia | Frankfurt | 8 | Community | STV","players":[{"user_id":386,"name":"godmodule","steam_id":76561198165995444,"connected_time":258000000000,"state":"active","ping":61},{"user_id":385,"name":":3","steam_id":76561198036486671,"connected_time":308000000000,"state":"active","ping":60},{"user_id":373,"name":"junior","steam_id":76561198869806001,"connected_time":588000000000,"state":"active","ping":54},{"user_id":375,"name":"1","steam_id":76561198084174868,"connected_time":516000000000,"state":"active","ping":55},{"user_id":387,"name":"CampMaster49","steam_id":76561198353096926,"connected_time":91000000000,"state":"active","ping":73},{"user_id":334,"name":"Yilow","steam_id":76561198040036642,"connected_time":2879000000000,"state":"active","ping":72},{"user_id":363,"name":"Grenelef","steam_id":76561198047617144,"connected_time":964000000000,"state":"active","ping":70},{"user_id":374,"name":"RikyBiky","steam_id":76561198261545177,"connected_time":561000000000,"state":"active","ping":86},{"user_id":235,"name":"Irbynx","steam_id":76561197980421195,"connected_time":7849000000000,"state":"active","ping":89},{"user_id":376,"name":"TwOne","steam_id":76561198042918856,"connected_time":506000000000,"state":"active","ping":45},{"user_id":377,"name":"mimi","steam_id":76561198060648946,"connected_time":441000000000,"state":"active","ping":57},{"user_id":294,"name":"mikey","steam_id":76561198281694064,"connected_time":5078000000000,"state":"active","ping":79},{"user_id":379,"name":"[PW]aloxuhik","steam_id":76561197997042174,"connected_time":430000000000,"state":"active","ping":54},{"user_id":291,"name":"☣Strale☣","steam_id":76561198026578820,"connected_time":5138000000000,"state":"active","ping":65},{"user_id":348,"name":"Dommy","steam_id":76561197990864747,"connected_time":2085000000000,"state":"active","ping":57},{"user_id":292,"name":"Fireeagle711","steam_id":76561198146687146,"connected_time":5127000000000,"state":"active","ping":57},{"user_id":369,"name":"Warpzel65","steam_id":76561198799303596,"connected_time":837000000000,"state":"active","ping":120},{"user_id":382,"name":"...","steam_id":76561198969234594,"connected_time":369000000000,"state":"active","ping":65},{"user_id":371,"name":"burger","steam_id":76561198056932477,"connected_time":835000000000,"state":"active","ping":66},{"user_id":355,"name":"Engineer Gaming","steam_id":76561198866730509,"connected_time":1334000000000,"state":"active","ping":95},{"user_id":356,"name":"idfk","steam_id":76561199013486916,"connected_time":1285000000000,"state":"active","ping":102},{"user_id":384,"name":"seap","steam_id":76561198068054530,"connected_time":330000000000,"state":"active","ping":89}]},{"server_id":202,"name":"Uncletopia | Hong Kong | 1 | All Maps","name_short":"hgk-1","host":"hgk-1.hk.uncletopia.com","port":27015,"enabled":true,"region":"asia","cc":"hk","latitude":22.302711,"longitude":114.177216,"reserved":0,"last_update":"0001-01-01T00:00:00Z","name_a2s":"Uncletopia | Hong Kong | 1 | All Maps","protocol":17,"map":"cp_mountainlab","folder":"tf","game":"Team Fortress","app_id":440,"player_count":22,"max_players":24,"Bots":0,"server_type":"Dedicated","server_os":"Linux","password":true,"vac":true,"version":"7708610","steam_id":85568392924494504,"keywords":["cp","nocrits","nodmgspread","uncletopia"],"game_id":440,"stv_port":27016,"stv_name":"Uncletopia | Hong Kong | 1 | All Maps | STV","players":[{"user_id":389,"name":"rachel","steam_id":76561198057200043,"connected_time":324000000000,"state":"active","ping":76},{"user_id":391,"name":"NOMNOM","steam_id":76561199228203619,"connected_time":49000000000,"state":"spawning","ping":105},{"user_id":332,"name":"tiden2000","steam_id":76561198092969425,"connected_time":4089000000000,"state":"active","ping":72},{"user_id":381,"name":"calebisjk","steam_id":76561198380010286,"connected_time":733000000000,"state":"active","ping":53},{"user_id":371,"name":"instant karma","steam_id":76561198027307933,"connected_time":1565000000000,"state":"active","ping":48},{"user_id":372,"name":"Kawaii Koneko-chan","steam_id":76561198057662510,"connected_time":1455000000000,"state":"active","ping":85},{"user_id":355,"name":"母の肉団子","steam_id":76561198069561896,"connected_time":2500000000000,"state":"active","ping":42},{"user_id":370,"name":"scrabble","steam_id":76561198171588410,"connected_time":1566000000000,"state":"active","ping":73},{"user_id":392,"name":"Hallucates","steam_id":76561198872636453,"connected_time":21000000000,"state":"active","ping":96},{"user_id":393,"name":"Cartoon","steam_id":76561199215858531,"connected_time":20000000000,"state":"spawning","ping":92},{"user_id":334,"name":"Luye","steam_id":76561198811403379,"connected_time":4041000000000,"state":"active","ping":97},{"user_id":373,"name":"scrumpy","steam_id":76561198242319638,"connected_time":1422000000000,"state":"active","ping":50},{"user_id":383,"name":"mosqito","steam_id":76561198195487041,"connected_time":611000000000,"state":"active","ping":77},{"user_id":308,"name":"NathellaBoi","steam_id":76561198093299560,"connected_time":5328000000000,"state":"active","ping":71},{"user_id":329,"name":"Yes'Tir'Day","steam_id":76561198091798037,"connected_time":4452000000000,"state":"active","ping":102},{"user_id":145,"name":"it chrmis time","steam_id":76561198055553140,"connected_time":11287000000000,"state":"active","ping":80},{"user_id":351,"name":"the real is real!!!!!!","steam_id":76561198442507642,"connected_time":3163000000000,"state":"active","ping":76},{"user_id":386,"name":"i like balls","steam_id":76561199010558927,"connected_time":440000000000,"state":"active","ping":101},{"user_id":353,"name":"junbi OK","steam_id":76561198116387218,"connected_time":2621000000000,"state":"active","ping":89},{"user_id":331,"name":"AmaiToxic","steam_id":76561199122491157,"connected_time":4292000000000,"state":"active","ping":65},{"user_id":363,"name":"lk❆","steam_id":76561199077602424,"connected_time":2126000000000,"state":"active","ping":51},{"user_id":387,"name":"Caelum","steam_id":76561198094074693,"connected_time":427000000000,"state":"active","ping":85}]},{"server_id":1,"name":"Uncletopia | Los Angeles | 1 | All Maps","name_short":"lax-1","host":"lax-1.us.uncletopia.com","port":27015,"enabled":true,"region":"us-west","cc":"us","latitude":33.94279,"longitude":-118.41004,"reserved":0,"last_update":"0001-01-01T00:00:00Z","name_a2s":"Uncletopia | Los Angeles | 1 | All Maps","protocol":17,"map":"cp_snakewater_final1","folder":"tf","game":"Team Fortress","app_id":440,"player_count":0,"max_players":24,"Bots":0,"server_type":"Dedicated","server_os":"Linux","password":true,"vac":true,"version":"7708610","steam_id":85568392924469991,"keywords":["cp","nocrits","nodmgspread","uncletopia"],"game_id":440,"stv_port":27016,"stv_name":"Uncletopia | Los Angeles | 1 | All Maps | STV","players":null},{"server_id":112,"name":"Uncletopia | Los Angeles | 2 | All Maps","name_short":"lax-2","host":"lax-1.us.uncletopia.com","port":27025,"enabled":true,"region":"us-west","cc":"us","latitude":33.94279,"longitude":-118.41004,"reserved":0,"last_update":"0001-01-01T00:00:00Z","name_a2s":"Uncletopia | Los Angeles | 2 | All Maps","protocol":17,"map":"cp_snakewater_final1","folder":"tf","game":"Team Fortress","app_id":440,"player_count":0,"max_players":24,"Bots":0,"server_type":"Dedicated","server_os":"Linux","password":true,"vac":true,"version":"7708610","steam_id":85568392924469992,"keywords":["cp","nocrits","nodmgspread","uncletopia"],"game_id":440,"stv_port":27026,"stv_name":"Uncletopia | Los Angeles | 2 | All Maps | STV","players":null},{"server_id":324,"name":"Uncletopia | Los Angeles | 3 | All Maps","name_short":"lax-3","host":"lax-1.us.uncletopia.com","port":27035,"enabled":true,"region":"us-west","cc":"us","latitude":33.94279,"longitude":-118.41004,"reserved":0,"last_update":"0001-01-01T00:00:00Z","name_a2s":"Uncletopia | Los Angeles | 3 | All Maps","protocol":17,"map":"cp_mountainlab","folder":"tf","game":"Team Fortress","app_id":440,"player_count":0,"max_players":24,"Bots":0,"server_type":"Dedicated","server_os":"Linux","password":true,"vac":true,"version":"7708610","steam_id":85568392924510198,"keywords":["cp","nocrits","nodmgspread","uncletopia"],"game_id":440,"stv_port":27036,"stv_name":"Uncletopia | Los Angeles | 3 | All Maps | STV","players":null},{"server_id":25,"name":"Uncletopia | Los Angeles | 4 | No Payload","name_short":"lax-4","host":"lax-1.us.uncletopia.com","port":27045,"enabled":true,"region":"us-west","cc":"us","latitude":33.94279,"longitude":-118.41004,"reserved":0,"last_update":"0001-01-01T00:00:00Z","name_a2s":"Uncletopia | Los Angeles | 4 | No Payload","protocol":17,"map":"pl_swiftwater_final1","folder":"tf","game":"Team Fortress","app_id":440,"player_count":0,"max_players":24,"Bots":0,"server_type":"Dedicated","server_os":"Linux","password":true,"vac":true,"version":"7708610","steam_id":85568392924510199,"keywords":["nocrits","nodmgspread","payload","uncletopia"],"game_id":440,"stv_port":27046,"stv_name":"Uncletopia | Los Angeles | 4 | No Payload | STV","players":null},{"server_id":11,"name":"Uncletopia | London | 1 | All Maps","name_short":"lon-1","host":"lon-1.uk.uncletopia.com","port":27015,"enabled":true,"region":"eu","cc":"gb","latitude":51.509865,"longitude":-0.118092,"reserved":0,"last_update":"0001-01-01T00:00:00Z","name_a2s":"Uncletopia | London | 1 | All Maps","protocol":17,"map":"pl_barnblitz","folder":"tf","game":"Team Fortress","app_id":440,"player_count":24,"max_players":24,"Bots":0,"server_type":"Dedicated","server_os":"Linux","password":true,"vac":true,"version":"7708610","steam_id":85568392924367362,"keywords":["nocrits","nodmgspread","payload","uncletopia"],"game_id":440,"stv_port":27016,"stv_name":"Uncletopia | London | 1 | All Maps | STV","players":[{"user_id":367,"name":"Kareem","steam_id":76561198364462049,"connected_time":1821000000000,"state":"active","ping":102},{"user_id":346,"name":"ӋԼן.maS","steam_id":76561198114953928,"connected_time":2607000000000,"state":"active","ping":74},{"user_id":303,"name":"jan-anne-wiebe","steam_id":76561199077022985,"connected_time":5934000000000,"state":"active","ping":51},{"user_id":386,"name":"|SoW| IgI","steam_id":76561198001541383,"connected_time":505000000000,"state":"active","ping":79},{"user_id":394,"name":"Dr. WAH","steam_id":76561198297778149,"connected_time":97000000000,"state":"spawning","ping":95},{"user_id":361,"name":"Gideon","steam_id":76561198045132575,"connected_time":2018000000000,"state":"active","ping":41},{"user_id":379,"name":"SacralDeer","steam_id":76561198870674284,"connected_time":1079000000000,"state":"active","ping":115},{"user_id":387,"name":"Car Gear","steam_id":76561199183213205,"connected_time":501000000000,"state":"active","ping":50},{"user_id":391,"name":"Mr. Huntsman","steam_id":76561197981910397,"connected_time":342000000000,"state":"active","ping":60},{"user_id":378,"name":"johnmonkey1973","steam_id":76561198838725081,"connected_time":1091000000000,"state":"active","ping":49},{"user_id":383,"name":"KPhii","steam_id":76561198970587061,"connected_time":524000000000,"state":"active","ping":58},{"user_id":348,"name":"Blink","steam_id":76561198144033005,"connected_time":2602000000000,"state":"active","ping":48},{"user_id":389,"name":"sumweeb","steam_id":76561198311624395,"connected_time":486000000000,"state":"active","ping":40},{"user_id":393,"name":"Table","steam_id":76561198091145295,"connected_time":143000000000,"state":"active","ping":101},{"user_id":365,"name":"More abs then ribs","steam_id":76561198060143998,"connected_time":1933000000000,"state":"active","ping":46},{"user_id":375,"name":"Gonir","steam_id":76561199032834372,"connected_time":1274000000000,"state":"active","ping":81},{"user_id":363,"name":"arowin24","steam_id":76561198077342689,"connected_time":1996000000000,"state":"active","ping":51},{"user_id":384,"name":"Talento","steam_id":76561198163890959,"connected_time":522000000000,"state":"active","ping":30},{"user_id":370,"name":"The creator of sex","steam_id":76561199213901239,"connected_time":1601000000000,"state":"active","ping":39},{"user_id":388,"name":"fuzzymanboob12321","steam_id":76561199068951322,"connected_time":499000000000,"state":"active","ping":83},{"user_id":344,"name":"Johnny Boy","steam_id":76561197969525453,"connected_time":2748000000000,"state":"active","ping":68},{"user_id":339,"name":"NonProphet","steam_id":76561198280149820,"connected_time":3327000000000,"state":"active","ping":55},{"user_id":390,"name":"MrXtr","steam_id":76561198966247397,"connected_time":465000000000,"state":"active","ping":64},{"user_id":382,"name":"Hooggers","steam_id":76561198120447741,"connected_time":555000000000,"state":"active","ping":70}]},{"server_id":114,"name":"Uncletopia | London | 2 | All Maps","name_short":"lon-2","host":"lon-1.uk.uncletopia.com","port":27025,"enabled":true,"region":"eu","cc":"gb","latitude":51.509865,"longitude":-0.118092,"reserved":0,"last_update":"0001-01-01T00:00:00Z","name_a2s":"Uncletopia | London | 2 | All Maps","protocol":17,"map":"pl_frontier_final","folder":"tf","game":"Team Fortress","app_id":440,"player_count":24,"max_players":24,"Bots":0,"server_type":"Dedicated","server_os":"Linux","password":true,"vac":true,"version":"7708610","steam_id":85568392924470941,"keywords":["nocrits","nodmgspread","payload","uncletopia"],"game_id":440,"stv_port":27026,"stv_name":"Uncletopia | London | 2 | All Maps | STV","players":[{"user_id":282,"name":"Radiv","steam_id":76561198118298009,"connected_time":834000000000,"state":"active","ping":73},{"user_id":283,"name":"sone","steam_id":76561198002562878,"connected_time":834000000000,"state":"active","ping":43},{"user_id":301,"name":"«Bigly»","steam_id":76561198067284969,"connected_time":37000000000,"state":"active","ping":63},{"user_id":257,"name":"romaingallo","steam_id":76561198268112907,"connected_time":1820000000000,"state":"active","ping":61},{"user_id":284,"name":"Dikoffski","steam_id":76561198181995161,"connected_time":826000000000,"state":"active","ping":92},{"user_id":279,"name":"Dr. Funkenstein","steam_id":76561197977816210,"connected_time":931000000000,"state":"active","ping":48},{"user_id":280,"name":"Vasko Жабата","steam_id":76561198205475839,"connected_time":885000000000,"state":"active","ping":97},{"user_id":248,"name":"Scootz","steam_id":76561198018491455,"connected_time":2619000000000,"state":"active","ping":50},{"user_id":294,"name":"Meowth","steam_id":76561198439442146,"connected_time":582000000000,"state":"active","ping":107},{"user_id":300,"name":"Mannequin","steam_id":76561198128833974,"connected_time":163000000000,"state":"active","ping":53},{"user_id":298,"name":"dafydd","steam_id":76561198052200325,"connected_time":247000000000,"state":"active","ping":90},{"user_id":286,"name":"notsosaltyasiankid","steam_id":76561199065340798,"connected_time":722000000000,"state":"active","ping":65},{"user_id":264,"name":"テイルス","steam_id":76561198022403271,"connected_time":1504000000000,"state":"active","ping":57},{"user_id":287,"name":"Alfiine","steam_id":76561198206082887,"connected_time":684000000000,"state":"active","ping":71},{"user_id":281,"name":"Fox","steam_id":76561198079364100,"connected_time":879000000000,"state":"active","ping":73},{"user_id":265,"name":"ㄚ卂乃ㄖ丨千卂乃ㄩ","steam_id":76561198174160738,"connected_time":1497000000000,"state":"active","ping":66},{"user_id":266,"name":"Инспектор Атас","steam_id":76561199175688390,"connected_time":1495000000000,"state":"active","ping":87},{"user_id":293,"name":"coachnetworkoperared514","steam_id":76561198236015392,"connected_time":589000000000,"state":"active","ping":121},{"user_id":290,"name":"Druid5333","steam_id":76561198348066287,"connected_time":662000000000,"state":"active","ping":62},{"user_id":224,"name":"When Life gives you Lemons","steam_id":76561198318290663,"connected_time":3842000000000,"state":"active","ping":59},{"user_id":274,"name":"( ]KROAN[ )","steam_id":76561198022840710,"connected_time":1095000000000,"state":"active","ping":75},{"user_id":297,"name":"purplecan","steam_id":76561199208283508,"connected_time":299000000000,"state":"active","ping":73},{"user_id":299,"name":"SOULDOG","steam_id":76561199212057006,"connected_time":225000000000,"state":"active","ping":76},{"user_id":276,"name":"ajm","steam_id":76561198025484784,"connected_time":991000000000,"state":"active","ping":57}]},{"server_id":320,"name":"Uncletopia | London | 3 | All Maps","name_short":"lon-3","host":"lon-1.uk.uncletopia.com","port":27035,"enabled":true,"region":"eu","cc":"gb","latitude":51.509865,"longitude":-0.118092,"reserved":0,"last_update":"0001-01-01T00:00:00Z","name_a2s":"Uncletopia | London | 3 | All Maps","protocol":17,"map":"koth_harvest_final","folder":"tf","game":"Team Fortress","app_id":440,"player_count":24,"max_players":24,"Bots":0,"server_type":"Dedicated","server_os":"Linux","password":true,"vac":true,"version":"7708610","steam_id":85568392924510192,"keywords":["cp","nocrits","nodmgspread","uncletopia"],"game_id":440,"stv_port":27036,"stv_name":"Uncletopia | London | 3 | All Maps | STV","players":[{"user_id":323,"name":"Deadly Queen","steam_id":76561198352144873,"connected_time":2038000000000,"state":"active","ping":89},{"user_id":358,"name":".Aq","steam_id":76561198043376092,"connected_time":41000000000,"state":"active","ping":85},{"user_id":342,"name":"CheekiBreekiBoi","steam_id":76561198089977062,"connected_time":1019000000000,"state":"active","ping":58},{"user_id":339,"name":"[SST] Tora","steam_id":76561198060583505,"connected_time":1223000000000,"state":"active","ping":110},{"user_id":334,"name":"Domberry","steam_id":76561199346712175,"connected_time":1364000000000,"state":"active","ping":128},{"user_id":285,"name":"Smag","steam_id":76561198153675141,"connected_time":3378000000000,"state":"active","ping":41},{"user_id":277,"name":"random_player691","steam_id":76561199209946306,"connected_time":3590000000000,"state":"active","ping":51},{"user_id":329,"name":"Diana Ball","steam_id":76561198382533813,"connected_time":1615000000000,"state":"active","ping":35},{"user_id":336,"name":"Festive Yuletart","steam_id":76561198023918830,"connected_time":1304000000000,"state":"active","ping":43},{"user_id":355,"name":"Tsunaris (i play kazoo)","steam_id":76561198357653870,"connected_time":121000000000,"state":"active","ping":92},{"user_id":352,"name":"Milosz52","steam_id":76561199060940204,"connected_time":316000000000,"state":"active","ping":84},{"user_id":293,"name":"TheFlames","steam_id":76561198179314694,"connected_time":3055000000000,"state":"active","ping":60},{"user_id":346,"name":"Andersexe","steam_id":76561198383864449,"connected_time":652000000000,"state":"active","ping":60},{"user_id":341,"name":"Suomenjuusto","steam_id":76561198991491758,"connected_time":1085000000000,"state":"active","ping":88},{"user_id":309,"name":"lookbrood","steam_id":76561198025592834,"connected_time":2763000000000,"state":"active","ping":50},{"user_id":338,"name":"drew","steam_id":76561198012304706,"connected_time":1280000000000,"state":"active","ping":96},{"user_id":356,"name":"gamercatsvr","steam_id":76561199242794862,"connected_time":114000000000,"state":"spawning","ping":53},{"user_id":298,"name":"Laax","steam_id":76561198938409558,"connected_time":2990000000000,"state":"active","ping":128},{"user_id":353,"name":"☞ Danabol ☜","steam_id":76561198380864259,"connected_time":309000000000,"state":"active","ping":74},{"user_id":337,"name":"opaacic","steam_id":76561199158514501,"connected_time":1303000000000,"state":"active","ping":74},{"user_id":348,"name":"Yate","steam_id":76561198063141490,"connected_time":634000000000,"state":"active","ping":75},{"user_id":349,"name":"The Funny Cat 面白い猫","steam_id":76561198439978112,"connected_time":613000000000,"state":"active","ping":95},{"user_id":357,"name":"Gryoss","steam_id":76561197999837111,"connected_time":85000000000,"state":"active","ping":112},{"user_id":319,"name":"I'm bad.","steam_id":76561198876259318,"connected_time":2344000000000,"state":"active","ping":62}]},{"server_id":321,"name":"Uncletopia | London | 4 | All Maps","name_short":"lon-4","host":"lon-1.uk.uncletopia.com","port":27045,"enabled":true,"region":"eu","cc":"gb","latitude":51.509865,"longitude":-0.118092,"reserved":0,"last_update":"0001-01-01T00:00:00Z","name_a2s":"Uncletopia | London | 4 | All Maps","protocol":17,"map":"pl_pier","folder":"tf","game":"Team Fortress","app_id":440,"player_count":0,"max_players":24,"Bots":0,"server_type":"Dedicated","server_os":"Linux","password":true,"vac":true,"version":"7708610","steam_id":85568392924510193,"keywords":["nocrits","nodmgspread","payload","uncletopia"],"game_id":440,"stv_port":27046,"stv_name":"Uncletopia | London | 4 | All Maps | STV","players":null},{"server_id":21,"name":"Uncletopia | London | 5 | All Maps","name_short":"lon-5","host":"lon-1.uk.uncletopia.com","port":27055,"enabled":true,"region":"eu","cc":"gb","latitude":51.509865,"longitude":-0.118092,"reserved":0,"last_update":"0001-01-01T00:00:00Z","name_a2s":"Uncletopia | London | 5 | All Maps","protocol":17,"map":"pl_snowycoast","folder":"tf","game":"Team Fortress","app_id":440,"player_count":0,"max_players":24,"Bots":0,"server_type":"Dedicated","server_os":"Linux","password":true,"vac":true,"version":"7708610","steam_id":85568392924742829,"keywords":["nocrits","nodmgspread","payload","uncletopia"],"game_id":440,"stv_port":27056,"stv_name":"Uncletopia | London | 5 | All Maps | STV","players":null},{"server_id":22,"name":"Uncletopia | London | 6 | All Maps","name_short":"lon-6","host":"lon-1.uk.uncletopia.com","port":27065,"enabled":true,"region":"eu","cc":"gb","latitude":51.509865,"longitude":-0.118092,"reserved":0,"last_update":"0001-01-01T00:00:00Z","name_a2s":"Uncletopia | London | 6 | All Maps","protocol":17,"map":"pl_badwater","folder":"tf","game":"Team Fortress","app_id":440,"player_count":0,"max_players":24,"Bots":0,"server_type":"Dedicated","server_os":"Linux","password":true,"vac":true,"version":"7708610","steam_id":85568392924742830,"keywords":["nocrits","nodmgspread","payload","uncletopia"],"game_id":440,"stv_port":27066,"stv_name":"Uncletopia | London | 6 | All Maps | STV","players":null},{"server_id":40,"name":"Uncletopia | London | 7 | No Payload","name_short":"lon-7","host":"lon-1.uk.uncletopia.com","port":27075,"enabled":true,"region":"eu","cc":"gb","latitude":51.509865,"longitude":-0.118092,"reserved":0,"last_update":"0001-01-01T00:00:00Z","name_a2s":"Uncletopia | London | 7 | No Payload","protocol":17,"map":"koth_lakeside_final","folder":"tf","game":"Team Fortress","app_id":440,"player_count":0,"max_players":24,"Bots":0,"server_type":"Dedicated","server_os":"Linux","password":true,"vac":true,"version":"7708610","steam_id":85568392924964314,"keywords":["cp","nocrits","nodmgspread","uncletopia"],"game_id":440,"stv_port":27076,"stv_name":"Uncletopia | London | 7 | No Payload | STV","players":null},{"server_id":41,"name":"Uncletopia | London | 8 | Community","name_short":"lon-8","host":"lon-1.uk.uncletopia.com","port":27085,"enabled":true,"region":"eu","cc":"gb","latitude":51.509865,"longitude":-0.118092,"reserved":0,"last_update":"0001-01-01T00:00:00Z","name_a2s":"Uncletopia | London | 8 | Community","protocol":17,"map":"koth_highpass","folder":"tf","game":"Team Fortress","app_id":440,"player_count":0,"max_players":24,"Bots":0,"server_type":"Dedicated","server_os":"Linux","password":true,"vac":true,"version":"7708610","steam_id":85568392924964315,"keywords":["cp","nocrits","nodmgspread","uncletopia"],"game_id":440,"stv_port":27086,"stv_name":"Uncletopia | London | 8 | Community | STV","players":null},{"server_id":300,"name":"Uncletopia | Montréal | 1 | All Maps","name_short":"mtl-1","host":"mtl-1.ca.uncletopia.com","port":27015,"enabled":true,"region":"us-east","cc":"ca","latitude":45.50889,"longitude":-73.56167,"reserved":0,"last_update":"0001-01-01T00:00:00Z","name_a2s":"Uncletopia | Montréal | 1 | All Maps","protocol":17,"map":"pl_barnblitz","folder":"tf","game":"Team Fortress","app_id":440,"player_count":0,"max_players":24,"Bots":0,"server_type":"Dedicated","server_os":"Linux","password":true,"vac":true,"version":"7708610","steam_id":85568392924500087,"keywords":["nocrits","nodmgspread","payload","uncletopia"],"game_id":440,"stv_port":0,"stv_name":"","players":null},{"server_id":301,"name":"Uncletopia | Montréal | 2 | All Maps","name_short":"mtl-2","host":"mtl-1.ca.uncletopia.com","port":27025,"enabled":true,"region":"us-east","cc":"ca","latitude":45.50889,"longitude":-73.56167,"reserved":0,"last_update":"0001-01-01T00:00:00Z","name_a2s":"Uncletopia | Montréal | 2 | All Maps","protocol":17,"map":"pl_frontier_final","folder":"tf","game":"Team Fortress","app_id":440,"player_count":0,"max_players":24,"Bots":0,"server_type":"Dedicated","server_os":"Linux","password":true,"vac":true,"version":"7708610","steam_id":85568392924500088,"keywords":["nocrits","nodmgspread","payload","uncletopia"],"game_id":440,"stv_port":0,"stv_name":"","players":null},{"server_id":302,"name":"Uncletopia | Montréal | 3 | All Maps","name_short":"mtl-3","host":"mtl-1.ca.uncletopia.com","port":27035,"enabled":true,"region":"us-east","cc":"ca","latitude":45.50889,"longitude":-73.56167,"reserved":0,"last_update":"0001-01-01T00:00:00Z","name_a2s":"Uncletopia | Montréal | 3 | All Maps","protocol":17,"map":"pl_snowycoast","folder":"tf","game":"Team Fortress","app_id":440,"player_count":0,"max_players":24,"Bots":0,"server_type":"Dedicated","server_os":"Linux","password":true,"vac":true,"version":"7708610","steam_id":85568392924500089,"keywords":["nocrits","nodmgspread","payload","uncletopia"],"game_id":440,"stv_port":0,"stv_name":"","players":null},{"server_id":303,"name":"Uncletopia | Montréal | 4 | No Payload","name_short":"mtl-4","host":"mtl-1.ca.uncletopia.com","port":27045,"enabled":true,"region":"us-east","cc":"ca","latitude":45.50889,"longitude":-73.56167,"reserved":0,"last_update":"0001-01-01T00:00:00Z","name_a2s":"Uncletopia | Montréal | 4 | No Payload","protocol":17,"map":"pl_frontier_final","folder":"tf","game":"Team Fortress","app_id":440,"player_count":0,"max_players":24,"Bots":0,"server_type":"Dedicated","server_os":"Linux","password":true,"vac":true,"version":"7708610","steam_id":85568392924500090,"keywords":["nocrits","nodmgspread","payload","uncletopia"],"game_id":440,"stv_port":0,"stv_name":"","players":null},{"server_id":13,"name":"Uncletopia | New York City | 1 | All Maps","name_short":"nyc-1","host":"nyc-1.us.uncletopia.com","port":27015,"enabled":true,"region":"us-east","cc":"us","latitude":40.73061,"longitude":-73.93524,"reserved":0,"last_update":"0001-01-01T00:00:00Z","name_a2s":"Uncletopia | New York City | 1 | All Maps","protocol":17,"map":"cp_dustbowl","folder":"tf","game":"Team Fortress","app_id":440,"player_count":8,"max_players":24,"Bots":0,"server_type":"Dedicated","server_os":"Linux","password":true,"vac":true,"version":"7708610","steam_id":85568392924469993,"keywords":["cp","nocrits","nodmgspread","uncletopia"],"game_id":440,"stv_port":27016,"stv_name":"Uncletopia | New York City | 1 | All Maps | STV","players":[{"user_id":4,"name":"rev174","steam_id":76561198027981090,"connected_time":1543000000000,"state":"active","ping":56},{"user_id":5,"name":"Gabe Newell's Address","steam_id":76561198257027820,"connected_time":1350000000000,"state":"active","ping":66},{"user_id":6,"name":"Sharky Sparkerson","steam_id":76561198066934860,"connected_time":953000000000,"state":"active","ping":48},{"user_id":7,"name":"FigBaguette","steam_id":76561198076596803,"connected_time":766000000000,"state":"active","ping":93},{"user_id":8,"name":"Kanye's number one fan","steam_id":76561198846610729,"connected_time":335000000000,"state":"active","ping":277},{"user_id":9,"name":"PirateKing12","steam_id":76561198992193468,"connected_time":278000000000,"state":"active","ping":36},{"user_id":10,"name":"Filbert","steam_id":76561198983923861,"connected_time":255000000000,"state":"active","ping":59},{"user_id":11,"name":"joe","steam_id":76561198819471419,"connected_time":60000000000,"state":"active","ping":61}]},{"server_id":14,"name":"Uncletopia | New York City | 2 | All Maps","name_short":"nyc-2","host":"nyc-1.us.uncletopia.com","port":27025,"enabled":true,"region":"us-east","cc":"us","latitude":40.73061,"longitude":-73.93524,"reserved":0,"last_update":"0001-01-01T00:00:00Z","name_a2s":"Uncletopia | New York City | 2 | All Maps","protocol":17,"map":"pl_badwater","folder":"tf","game":"Team Fortress","app_id":440,"player_count":6,"max_players":24,"Bots":0,"server_type":"Dedicated","server_os":"Linux","password":true,"vac":true,"version":"7708610","steam_id":85568392924469994,"keywords":["nocrits","nodmgspread","payload","uncletopia"],"game_id":440,"stv_port":27026,"stv_name":"Uncletopia | New York City | 2 | All Maps | STV","players":[{"user_id":4,"name":"cooperson","steam_id":76561198276866938,"connected_time":1146000000000,"state":"active","ping":53},{"user_id":5,"name":"Phoenix","steam_id":76561199222233650,"connected_time":1042000000000,"state":"active","ping":38},{"user_id":6,"name":"\"I LOVE EVERYBODY\"-ye     Space","steam_id":76561198167797009,"connected_time":933000000000,"state":"active","ping":73},{"user_id":7,"name":"You Don't Nomi.","steam_id":76561197969137836,"connected_time":674000000000,"state":"active","ping":43},{"user_id":8,"name":"A_Malebolgia","steam_id":76561198097722818,"connected_time":593000000000,"state":"active","ping":77},{"user_id":9,"name":"Dana","steam_id":76561198331338298,"connected_time":359000000000,"state":"active","ping":48}]},{"server_id":15,"name":"Uncletopia | New York City | 3 | All Maps","name_short":"nyc-3","host":"nyc-1.us.uncletopia.com","port":27035,"enabled":true,"region":"us-east","cc":"us","latitude":40.73061,"longitude":-73.93524,"reserved":0,"last_update":"0001-01-01T00:00:00Z","name_a2s":"Uncletopia | New York City | 3 | All Maps","protocol":17,"map":"pl_swiftwater_final1","folder":"tf","game":"Team Fortress","app_id":440,"player_count":0,"max_players":24,"Bots":0,"server_type":"Dedicated","server_os":"Linux","password":true,"vac":true,"version":"7708610","steam_id":85568392924742820,"keywords":["nocrits","nodmgspread","payload","uncletopia"],"game_id":440,"stv_port":27036,"stv_name":"Uncletopia | New York City | 3 | All Maps | STV","players":null},{"server_id":16,"name":"Uncletopia | New York City | 4 | Community","name_short":"nyc-4","host":"nyc-1.us.uncletopia.com","port":27045,"enabled":true,"region":"us-east","cc":"us","latitude":40.73061,"longitude":-73.93524,"reserved":0,"last_update":"0001-01-01T00:00:00Z","name_a2s":"Uncletopia | New York City | 4 | Community","protocol":17,"map":"pl_upward","folder":"tf","game":"Team Fortress","app_id":440,"player_count":0,"max_players":24,"Bots":0,"server_type":"Dedicated","server_os":"Linux","password":true,"vac":true,"version":"7708610","steam_id":85568392924742821,"keywords":["nocrits","nodmgspread","payload","uncletopia"],"game_id":440,"stv_port":27046,"stv_name":"Uncletopia | New York City | 4 | Community | STV","players":null},{"server_id":142,"name":"Uncletopia | São Paulo | 1 | All Maps","name_short":"sao-1","host":"sao-1.br.uncletopia.com","port":27015,"enabled":true,"region":"sa","cc":"br","latitude":-23.533773,"longitude":-46.62529,"reserved":0,"last_update":"0001-01-01T00:00:00Z","name_a2s":"Uncletopia | São Paulo | 1 | All Maps","protocol":17,"map":"koth_viaduct","folder":"tf","game":"Team Fortress","app_id":440,"player_count":0,"max_players":24,"Bots":0,"server_type":"Dedicated","server_os":"Linux","password":true,"vac":true,"version":"7708610","steam_id":85568392924469996,"keywords":["cp","nocrits","nodmgspread","uncletopia"],"game_id":440,"stv_port":27016,"stv_name":"Uncletopia | São Paulo | 1 | All Maps | STV","players":null},{"server_id":143,"name":"Uncletopia | São Paulo | 2 | All Maps","name_short":"sao-2","host":"sao-2.br.uncletopia.com","port":27015,"enabled":true,"region":"sa","cc":"br","latitude":-23.533773,"longitude":-46.62529,"reserved":0,"last_update":"0001-01-01T00:00:00Z","name_a2s":"Uncletopia | São Paulo | 2 | All Maps","protocol":17,"map":"pl_badwater","folder":"tf","game":"Team Fortress","app_id":440,"player_count":0,"max_players":24,"Bots":0,"server_type":"Dedicated","server_os":"Linux","password":true,"vac":true,"version":"7708610","steam_id":85568392924485349,"keywords":["nocrits","nodmgspread","payload","uncletopia"],"game_id":440,"stv_port":27016,"stv_name":"Uncletopia | São Paulo | 2 | All Maps | STV","players":null},{"server_id":7,"name":"Uncletopia | Seattle | 1 | All Maps","name_short":"sea-1","host":"sea-1.us.uncletopia.com","port":27015,"enabled":true,"region":"us-west","cc":"us","latitude":47.608013,"longitude":-122.33517,"reserved":0,"last_update":"0001-01-01T00:00:00Z","name_a2s":"Uncletopia | Seattle | 1 | All Maps","protocol":17,"map":"cp_snakewater_final1","folder":"tf","game":"Team Fortress","app_id":440,"player_count":0,"max_players":24,"Bots":0,"server_type":"Dedicated","server_os":"Linux","password":true,"vac":true,"version":"7708610","steam_id":85568392924469997,"keywords":["cp","nocrits","nodmgspread","uncletopia"],"game_id":440,"stv_port":27016,"stv_name":"Uncletopia | Seattle | 1 | All Maps | STV","players":null},{"server_id":119,"name":"Uncletopia | Seattle | 2 | All Maps","name_short":"sea-2","host":"sea-1.us.uncletopia.com","port":27025,"enabled":true,"region":"us-west","cc":"us","latitude":47.608013,"longitude":-122.33517,"reserved":0,"last_update":"0001-01-01T00:00:00Z","name_a2s":"Uncletopia | Seattle | 2 | All Maps","protocol":17,"map":"pl_frontier_final","folder":"tf","game":"Team Fortress","app_id":440,"player_count":0,"max_players":24,"Bots":0,"server_type":"Dedicated","server_os":"Linux","password":true,"vac":true,"version":"7708610","steam_id":85568392924469998,"keywords":["nocrits","nodmgspread","payload","uncletopia"],"game_id":440,"stv_port":27026,"stv_name":"Uncletopia | Seattle | 2 | All Maps | STV","players":null},{"server_id":17,"name":"Uncletopia | San Francisco | 1 | All Maps","name_short":"sfo-1","host":"sfo-1.us.uncletopia.com","port":27015,"enabled":true,"region":"us-west","cc":"us","latitude":37.77397,"longitude":-122.4313,"reserved":0,"last_update":"0001-01-01T00:00:00Z","name_a2s":"Uncletopia | San Francisco | 1 | All Maps","protocol":17,"map":"koth_lakeside_final","folder":"tf","game":"Team Fortress","app_id":440,"player_count":0,"max_players":24,"Bots":0,"server_type":"Dedicated","server_os":"Linux","password":true,"vac":true,"version":"7708610","steam_id":85568392924469999,"keywords":["cp","nocrits","nodmgspread","uncletopia"],"game_id":440,"stv_port":27016,"stv_name":"Uncletopia | San Francisco | 1 | All Maps | STV","players":null},{"server_id":18,"name":"Uncletopia | San Francisco | 2 | All Maps","name_short":"sfo-2","host":"sfo-1.us.uncletopia.com","port":27025,"enabled":true,"region":"us-west","cc":"us","latitude":37.77397,"longitude":-122.4313,"reserved":0,"last_update":"0001-01-01T00:00:00Z","name_a2s":"Uncletopia | San Francisco | 2 | All Maps","protocol":17,"map":"cp_process_final","folder":"tf","game":"Team Fortress","app_id":440,"player_count":0,"max_players":24,"Bots":0,"server_type":"Dedicated","server_os":"Linux","password":true,"vac":true,"version":"7708610","steam_id":85568392924470000,"keywords":["cp","nocrits","nodmgspread","uncletopia"],"game_id":440,"stv_port":27026,"stv_name":"Uncletopia | San Francisco | 2 | All Maps | STV","players":null},{"server_id":19,"name":"Uncletopia | San Francisco | 3 | No Payload","name_short":"sfo-3","host":"sfo-1.us.uncletopia.com","port":27035,"enabled":true,"region":"us-west","cc":"us","latitude":37.77397,"longitude":-122.4313,"reserved":0,"last_update":"0001-01-01T00:00:00Z","name_a2s":"Uncletopia | San Francisco | 3 | No Payload","protocol":17,"map":"cp_mountainlab","folder":"tf","game":"Team Fortress","app_id":440,"player_count":0,"max_players":24,"Bots":0,"server_type":"Dedicated","server_os":"Linux","password":true,"vac":true,"version":"7708610","steam_id":85568392924742824,"keywords":["cp","nocrits","nodmgspread","uncletopia"],"game_id":440,"stv_port":27036,"stv_name":"Uncletopia | San Francisco | 3 | No Payload | STV","players":null},{"server_id":20,"name":"Uncletopia | San Francisco | 4 | Community","name_short":"sfo-4","host":"sfo-1.us.uncletopia.com","port":27045,"enabled":true,"region":"us-west","cc":"us","latitude":37.77397,"longitude":-122.4313,"reserved":0,"last_update":"0001-01-01T00:00:00Z","name_a2s":"Uncletopia | San Francisco | 4 | Community","protocol":17,"map":"cp_altitude","folder":"tf","game":"Team Fortress","app_id":440,"player_count":0,"max_players":24,"Bots":0,"server_type":"Dedicated","server_os":"Linux","password":true,"vac":true,"version":"7708610","steam_id":85568392924742826,"keywords":["cp","nocrits","nodmgspread","uncletopia"],"game_id":440,"stv_port":27046,"stv_name":"Uncletopia | San Francisco | 4 | Community | STV","players":null},{"server_id":141,"name":"Uncletopia | Sydney | 1 | All Maps","name_short":"syd-1","host":"syd-1.au.uncletopia.com","port":27015,"enabled":true,"region":"au","cc":"au","latitude":-33.865143,"longitude":151.2099,"reserved":0,"last_update":"0001-01-01T00:00:00Z","name_a2s":"Uncletopia | Sydney | 1 | All Maps","protocol":17,"map":"pl_barnblitz","folder":"tf","game":"Team Fortress","app_id":440,"player_count":0,"max_players":24,"Bots":0,"server_type":"Dedicated","server_os":"Linux","password":true,"vac":true,"version":"7708610","steam_id":85568392924470001,"keywords":["nocrits","nodmgspread","payload","uncletopia"],"game_id":440,"stv_port":27016,"stv_name":"Uncletopia | Sydney | 1 | All Maps | STV","players":null},{"server_id":123,"name":"Uncletopia | Sydney | 2 | All Maps","name_short":"syd-2","host":"syd-1.au.uncletopia.com","port":27025,"enabled":true,"region":"au","cc":"au","latitude":-33.865143,"longitude":151.2099,"reserved":0,"last_update":"0001-01-01T00:00:00Z","name_a2s":"Uncletopia | Sydney | 2 | All Maps","protocol":17,"map":"koth_lakeside_final","folder":"tf","game":"Team Fortress","app_id":440,"player_count":0,"max_players":24,"Bots":0,"server_type":"Dedicated","server_os":"Linux","password":true,"vac":true,"version":"7708610","steam_id":85568392924470002,"keywords":["cp","nocrits","nodmgspread","uncletopia"],"game_id":440,"stv_port":27026,"stv_name":"Uncletopia | Sydney | 2 | All Maps | STV","players":null},{"server_id":395,"name":"Uncletopia | Sydney | 3 | All Maps","name_short":"syd-3","host":"syd-1.au.uncletopia.com","port":27035,"enabled":true,"region":"au","cc":"au","latitude":-33.865143,"longitude":151.2099,"reserved":0,"last_update":"0001-01-01T00:00:00Z","name_a2s":"Uncletopia | Sydney | 3 | All Maps","protocol":17,"map":"cp_altitude","folder":"tf","game":"Team Fortress","app_id":440,"player_count":0,"max_players":24,"Bots":0,"server_type":"Dedicated","server_os":"Linux","password":true,"vac":true,"version":"7708610","steam_id":85568392925194467,"keywords":["cp","nocrits","nodmgspread","uncletopia"],"game_id":440,"stv_port":27036,"stv_name":"Uncletopia | Sydney | 3 | All Maps | STV","players":null},{"server_id":396,"name":"Uncletopia | Sydney | 4 | All Maps","name_short":"syd-4","host":"syd-1.au.uncletopia.com","port":27045,"enabled":true,"region":"au","cc":"au","latitude":-33.865143,"longitude":151.2099,"reserved":0,"last_update":"0001-01-01T00:00:00Z","name_a2s":"Uncletopia | Sydney | 4 | All Maps","protocol":17,"map":"plr_bananabay","folder":"tf","game":"Team Fortress","app_id":440,"player_count":0,"max_players":24,"Bots":0,"server_type":"Dedicated","server_os":"Linux","password":true,"vac":true,"version":"7708610","steam_id":85568392925397958,"keywords":["nocrits","nodmgspread","payload","uncletopia"],"game_id":440,"stv_port":27046,"stv_name":"Uncletopia | Sydney | 4 | All Maps | STV","players":null},{"server_id":58,"name":"Uncletopia | Sydney | 5 | No Payload","name_short":"syd-5","host":"syd-1.au.uncletopia.com","port":27055,"enabled":true,"region":"au","cc":"au","latitude":-33.865143,"longitude":151.2099,"reserved":0,"last_update":"0001-01-01T00:00:00Z","name_a2s":"Uncletopia | Sydney | 5 | No Payload","protocol":17,"map":"plr_bananabay","folder":"tf","game":"Team Fortress","app_id":440,"player_count":0,"max_players":24,"Bots":0,"server_type":"Dedicated","server_os":"Linux","password":true,"vac":true,"version":"7708610","steam_id":85568392925397959,"keywords":["nocrits","nodmgspread","payload","uncletopia"],"game_id":440,"stv_port":27056,"stv_name":"Uncletopia | Sydney | 5 | No Payload | STV","players":null},{"server_id":59,"name":"Uncletopia | Sydney | 6 | Community","name_short":"syd-6","host":"syd-1.au.uncletopia.com","port":27065,"enabled":true,"region":"au","cc":"au","latitude":-33.865143,"longitude":151.2099,"reserved":0,"last_update":"0001-01-01T00:00:00Z","name_a2s":"Uncletopia | Sydney | 6 | Community","protocol":17,"map":"koth_lakeside_final","folder":"tf","game":"Team Fortress","app_id":440,"player_count":0,"max_players":24,"Bots":0,"server_type":"Dedicated","server_os":"Linux","password":true,"vac":true,"version":"7708610","steam_id":85568392925397960,"keywords":["cp","nocrits","nodmgspread","uncletopia"],"game_id":440,"stv_port":27066,"stv_name":"Uncletopia | Sydney | 6 | Community | STV","players":null},{"server_id":49,"name":"Uncletopia | Warsaw | 1 | All Maps","name_short":"waw-1","host":"waw-1.pl.uncletopia.com","port":27015,"enabled":true,"region":"eu","cc":"pl","latitude":52.2297,"longitude":21.017532,"reserved":0,"last_update":"0001-01-01T00:00:00Z","name_a2s":"Uncletopia | Warsaw | 1 | All Maps","protocol":17,"map":"koth_viaduct","folder":"tf","game":"Team Fortress","app_id":440,"player_count":0,"max_players":24,"Bots":0,"server_type":"Dedicated","server_os":"Linux","password":true,"vac":true,"version":"7708610","steam_id":85568392925397850,"keywords":["cp","nocrits","nodmgspread","uncletopia"],"game_id":440,"stv_port":27016,"stv_name":"Uncletopia | Warsaw | 1 | All Maps | STV","players":null},{"server_id":50,"name":"Uncletopia | Warsaw | 2 | All Maps","name_short":"waw-2","host":"waw-1.pl.uncletopia.com","port":27025,"enabled":true,"region":"eu","cc":"pl","latitude":52.2297,"longitude":21.017532,"reserved":0,"last_update":"0001-01-01T00:00:00Z","name_a2s":"Uncletopia | Warsaw | 2 | All Maps","protocol":17,"map":"koth_cascade","folder":"tf","game":"Team Fortress","app_id":440,"player_count":0,"max_players":24,"Bots":0,"server_type":"Dedicated","server_os":"Linux","password":true,"vac":true,"version":"7708610","steam_id":85568392925397851,"keywords":["cp","nocrits","nodmgspread","uncletopia"],"game_id":440,"stv_port":27026,"stv_name":"Uncletopia | Warsaw | 2 | All Maps | STV","players":null},{"server_id":51,"name":"Uncletopia | Warsaw | 3 | All Maps","name_short":"waw-3","host":"waw-1.pl.uncletopia.com","port":27035,"enabled":true,"region":"eu","cc":"pl","latitude":52.2297,"longitude":21.017532,"reserved":0,"last_update":"0001-01-01T00:00:00Z","name_a2s":"Uncletopia | Warsaw | 3 | All Maps","protocol":17,"map":"cp_process_final","folder":"tf","game":"Team Fortress","app_id":440,"player_count":0,"max_players":24,"Bots":0,"server_type":"Dedicated","server_os":"Linux","password":true,"vac":true,"version":"7708610","steam_id":85568392925397852,"keywords":["cp","nocrits","nodmgspread","uncletopia"],"game_id":440,"stv_port":27036,"stv_name":"Uncletopia | Warsaw | 3 | All Maps | STV","players":null},{"server_id":52,"name":"Uncletopia | Warsaw | 4 | All Maps","name_short":"waw-4","host":"waw-1.pl.uncletopia.com","port":27045,"enabled":true,"region":"eu","cc":"pl","latitude":52.2297,"longitude":21.017532,"reserved":0,"last_update":"0001-01-01T00:00:00Z","name_a2s":"Uncletopia | Warsaw | 4 | All Maps","protocol":17,"map":"koth_cascade","folder":"tf","game":"Team Fortress","app_id":440,"player_count":0,"max_players":24,"Bots":0,"server_type":"Dedicated","server_os":"Linux","password":true,"vac":true,"version":"7708610","steam_id":85568392925397853,"keywords":["cp","nocrits","nodmgspread","uncletopia"],"game_id":440,"stv_port":27046,"stv_name":"Uncletopia | Warsaw | 4 | All Maps | STV","players":null},{"server_id":53,"name":"Uncletopia | Warsaw | 5 | No Payload","name_short":"waw-5","host":"waw-1.pl.uncletopia.com","port":27055,"enabled":true,"region":"eu","cc":"pl","latitude":52.2297,"longitude":21.017532,"reserved":0,"last_update":"0001-01-01T00:00:00Z","name_a2s":"Uncletopia | Warsaw | 5 | No Payload","protocol":17,"map":"cp_altitude","folder":"tf","game":"Team Fortress","app_id":440,"player_count":0,"max_players":24,"Bots":0,"server_type":"Dedicated","server_os":"Linux","password":true,"vac":true,"version":"7708610","steam_id":85568392925397854,"keywords":["cp","nocrits","nodmgspread","uncletopia"],"game_id":440,"stv_port":27056,"stv_name":"Uncletopia | Warsaw | 5 | No Payload | STV","players":null},{"server_id":54,"name":"Uncletopia | Warsaw | 6 | Community","name_short":"waw-6","host":"waw-1.pl.uncletopia.com","port":27065,"enabled":true,"region":"eu","cc":"pl","latitude":52.2297,"longitude":21.017532,"reserved":0,"last_update":"0001-01-01T00:00:00Z","name_a2s":"Uncletopia | Warsaw | 6 | Community","protocol":17,"map":"workshop/cp_reckoner_rc6.ugc674719999","folder":"tf","game":"Team Fortress","app_id":440,"player_count":0,"max_players":24,"Bots":0,"server_type":"Dedicated","server_os":"Linux","password":true,"vac":true,"version":"7708610","steam_id":85568392925397856,"keywords":["cp","nocrits","nodmgspread","uncletopia"],"game_id":440,"stv_port":27066,"stv_name":"Uncletopia | Warsaw | 6 | Community | STV","players":null}]}