{"status":true,"message":"","result":[{"server_id":9,"name":"Uncletopia | Atlanta | 1 | All Maps","name_short":"atl-1","host":"atl-1.us.uncletopia.com","port":27015,"enabled":true,"region":"us-east","cc":"us","latitude":33.753746,"longitude":-84.38633,"reserved":0,"last_update":"0001-01-01T00:00:00Z","name_a2s":"Uncletopia | Atlanta | 1 | All Maps","protocol":17,"map":"pl_pier","folder":"tf","game":"Team Fortress","app_id":440,"player_count":0,"max_players":24,"Bots":0,"server_type":"Dedicated","server_os":"Linux","password":true,"vac":true,"version":"7961495","steam_id":85568392924469982,"keywords":["nocrits","nodmgspread","payload","uncletopia"],"game_id":440,"stv_port":27016,"stv_name":"Uncletopia | Atlanta | 1 | All Maps | STV","players":null},{"server_id":104,"name":"Uncletopia | Atlanta | 2 | All Maps","name_short":"atl-2","host":"atl-1.us.uncletopia.com","port":27025,"enabled":true,"region":"us-east","cc":"us","latitude":33.753746,"longitude":-84.38633,"reserved":0,"last_update":"0001-01-01T00:00:00Z","name_a2s":"Uncletopia | Atlanta | 2 | All Maps","protocol":17,"map":"koth_cascade","folder":"tf","game":"Team Fortress","app_id":440,"player_count":0,"max_players":24,"Bots":0,"server_type":"Dedicated","server_os":"Linux","password":true,"vac":true,"version":"7961495","steam_id":85568392924469983,"keywords":["cp","nocrits","nodmgspread","uncletopia"],"game_id":440,"stv_port":27026,"stv_name":"Uncletopia | Atlanta | 2 | All Maps | STV","players":null},{"server_id":400,"name":"Uncletopia | Atlanta | 3 | Stopwatch","name_short":"atl-3","host":"atl-1.us.uncletopia.com","port":27035,"enabled":true,"region":"us-east","cc":"us","latitude":33.753746,"longitude":-84.38633,"reserved":0,"last_update":"0001-01-01T00:00:00Z","name_a2s":"Uncletopia | Atlanta | 3 | Stopwatch","protocol":17,"map":"cp_granary","folder":"tf","game":"Team Fortress","app_id":440,"player_count":0,"max_players":24,"Bots":0,"server_type":"Dedicated","server_os":"Linux","password":true,"vac":true,"version":"7961495","steam_id":85568392924515187,"keywords":["cp","nocrits","nodmgspread","uncletopia"],"game_id":440,"stv_port":27036,"stv_name":"Uncletopia | Atlanta | 3 | Stopwatch | STV","players":null},{"server_id":401,"name":"Uncletopia | Atlanta | 4 | Community","name_short":"atl-4","host":"atl-1.us.uncletopia.com","port":27045,"enabled":true,"region":"us-east","cc":"us","latitude":33.753746,"longitude":-84.38633,"reserved":0,"last_update":"0001-01-01T00:00:00Z","name_a2s":"Uncletopia | Atlanta | 4 | Community","protocol":17,"map":"koth_kemptown_rc1","folder":"tf","game":"Team Fortress","app_id":440,"player_count":0,"max_players":24,"Bots":0,"server_type":"Dedicated","server_os":"Linux","password":true,"vac":true,"version":"7961495","steam_id":85568392924515188,"keywords":["cp","nocrits","nodmgspread","uncletopia"],"game_id":440,"stv_port":27046,"stv_name":"Uncletopia | Atlanta | 4 | Community | STV","players":null},{"server_id":2,"name":"Uncletopia | Chicago | 1 | All Maps","name_short":"chi-1","host":"chi-1.us.uncletopia.com","port":27015,"enabled":true,"region":"us-central","cc":"us","latitude":41.881832,"longitude":-87.62318,"reserved":0,"last_update":"0001-01-01T00:00:00Z","name_a2s":"Uncletopia | Chicago | 1 | All Maps","protocol":17,"map":"pl_pier","folder":"tf","game":"Team Fortress","app_id":440,"player_count":24,"max_players":24,"Bots":0,"server_type":"Dedicated","server_os":"Linux","password":true,"vac":true,"version":"7961495","steam_id":85568392924469984,"keywords":["nocrits","nodmgspread","payload","uncletopia"],"game_id":440,"stv_port":27016,"stv_name":"Uncletopia | Chicago | 1 | All Maps | STV","players":[{"user_id":183,"name":"fish (2:3)","steam_id":76561198134331073,"connected_time":2371000000000,"state":"active","ping":106},{"user_id":129,"name":"dirty disgusting troll","steam_id":76561198882404753,"connected_time":6050000000000,"state":"active","ping":76},{"user_id":208,"name":"xXKamcamXx","steam_id":76561199011044624,"connected_time":240000000000,"state":"active","ping":53},{"user_id":167,"name":"Rori","steam_id":76561198052582902,"connected_time":3029000000000,"state":"active","ping":50},{"user_id":209,"name":"Triples_","steam_id":76561198094249561,"connected_time":229000000000,"state":"active","ping":58},{"user_id":169,"name":"Smiles","steam_id":76561198107197973,"connected_time":2829000000000,"state":"active","ping":55},{"user_id":196,"name":"GROOVYROOM","steam_id":76561199153684166,"connected_time":1090000000000,"state":"active","ping":45},{"user_id":205,"name":"STRYKYR","steam_id":76561198100942212,"connected_time":485000000000,"state":"active","ping":75},{"user_id":193,"name":"Flower Boy","steam_id":76561199128786637,"connected_time":1545000000000,"state":"active","ping":103},{"user_id":63,"name":"Shaunt","steam_id":76561198171551057,"connected_time":10020000000000,"state":"active","ping":48},{"user_id":173,"name":"raaabr","steam_id":76561198050339024,"connected_time":2713000000000,"state":"active","ping":88},{"user_id":187,"name":"Minus 8","steam_id":76561198812090491,"connected_time":1941000000000,"state":"active","ping":120},{"user_id":163,"name":"agentish","steam_id":76561198055088122,"connected_time":3644000000000,"state":"active","ping":50},{"user_id":195,"name":"Giorno_Giovanna","steam_id":76561199014402406,"connected_time":1127000000000,"state":"active","ping":156},{"user_id":200,"name":"Ayylmao","steam_id":76561198104780147,"connected_time":829000000000,"state":"active","ping":51},{"user_id":186,"name":"Swedish Crowbar","steam_id":76561199105488936,"connected_time":2098000000000,"state":"active","ping":149},{"user_id":119,"name":"Rornir","steam_id":76561198081829615,"connected_time":6238000000000,"state":"active","ping":42},{"user_id":197,"name":"AceDeuce","steam_id":76561198049904924,"connected_time":958000000000,"state":"active","ping":58},{"user_id":64,"name":"BatMatt","steam_id":76561198045910433,"connected_time":10004000000000,"state":"active","ping":75},{"user_id":178,"name":"Bork Bork","steam_id":76561198145554472,"connected_time":2672000000000,"state":"active","ping":62},{"user_id":179,"name":"mudspaw","steam_id":76561198101327448,"connected_time":2665000000000,"state":"active","ping":64},{"user_id":198,"name":"GreySweaterCat","steam_id":76561198351860293,"connected_time":871000000000,"state":"active","ping":76},{"user_id":182,"name":"Necrophage#SaveTF2","steam_id":76561198861595622,"connected_time":2557000000000,"state":"active","ping":97},{"user_id":203,"name":"R{FITH}‚Ñ¢ Z4LTte","steam_id":76561198283258068,"connected_time":548000000000,"state":"active","ping":60}]},{"server_id":106,"name":"Uncletopia | Chicago | 2 | All Maps","name_short":"chi-2","host":"chi-1.us.uncletopia.com","port":27025,"enabled":true,"region":"us-central","cc":"us","latitude":41.881832,"longitude":-87.62318,"reserved":0,"last_update":"0001-01-01T00:00:00Z","name_a2s":"Uncletopia | Chicago | 2 | All Maps","protocol":17,"map":"pl_frontier_final","folder":"tf","game":"Team Fortress","app_id":440,"player_count":24,"max_players":24,"Bots":0,"server_type":"Dedicated","server_os":"Linux","password":true,"vac":true,"version":"7961495","steam_id":85568392924469985,"keywords":["nocrits","nodmgspread","payload","uncletopia"],"game_id":440,"stv_port":27026,"stv_name":"Uncletopia | Chicago | 2 | All Maps | STV","players":[{"user_id":98,"name":"mechiimi","steam_id":76561198321627268,"connected_time":1547000000000,"state":"active","ping":112},{"user_id":89,"name":"Voracious Puma","steam_id":76561197963621649,"connected_time":2458000000000,"state":"active","ping":86},{"user_id":96,"name":"Drachma","steam_id":76561198007310514,"connected_time":1566000000000,"state":"active","ping":54},{"user_id":93,"name":"Dum_Bass(Fish)","steam_id":76561197988105207,"connected_time":2108000000000,"state":"active","ping":63},{"user_id":70,"name":"Red_Hatkins","steam_id":76561198214004105,"connected_time":3652000000000,"state":"active","ping":89},{"user_id":117,"name":"SteeredAxe","steam_id":76561198081309492,"connected_time":355000000000,"state":"active","ping":61},{"user_id":113,"name":"kombucha king","steam_id":76561198057076267,"connected_time":490000000000,"state":"active","ping":75},{"user_id":73,"name":"Brown_Dream","steam_id":76561198975766145,"connected_time":3535000000000,"state":"active","ping":77},{"user_id":97,"name":"Milkraccoon","steam_id":76561198027061016,"connected_time":1565000000000,"state":"active","ping":71},{"user_id":118,"name":"stall","steam_id":76561199152861652,"connected_time":279000000000,"state":"active","ping":56},{"user_id":100,"name":"the keebler","steam_id":76561199486326945,"connected_time":1468000000000,"state":"active","ping":74},{"user_id":91,"name":"Lobster cackles","steam_id":76561198978665598,"connected_time":2244000000000,"state":"active","ping":77},{"user_id":68,"name":"Trotsky Gaming","steam_id":76561199101638460,"connected_time":3664000000000,"state":"active","ping":78},{"user_id":83,"name":"Oopsie Daisy ‚ùã","steam_id":76561198042144492,"connected_time":3004000000000,"state":"active","ping":74},{"user_id":103,"name":"Huebirds of Happiness","steam_id":76561198281693747,"connected_time":1402000000000,"state":"active","ping":62},{"user_id":107,"name":"Kentucky Fried Lullaby","steam_id":76561198047845399,"connected_time":1291000000000,"state":"active","ping":74},{"user_id":119,"name":"MeatBall","steam_id":76561199055196261,"connected_time":223000000000,"state":"active","ping":72},{"user_id":34,"name":"Green Mario","steam_id":76561198094325997,"connected_time":5597000000000,"state":"active","ping":76},{"user_id":92,"name":"DoomSpiral","steam_id":76561199099015519,"connected_time":2238000000000,"state":"active","ping":75},{"user_id":86,"name":"Beepleton The 3rd","steam_id":76561198081466207,"connected_time":2718000000000,"state":"active","ping":83},{"user_id":67,"name":"6t26j","steam_id":76561198278282836,"connected_time":3709000000000,"state":"active","ping":53},{"user_id":110,"name":"Doylin","steam_id":76561198113413927,"connected_time":1225000000000,"state":"active","ping":93},{"user_id":109,"name":"jyp","steam_id":76561198208382525,"connected_time":1278000000000,"state":"active","ping":59},{"user_id":115,"name":"big fish","steam_id":76561198186479818,"connected_time":480000000000,"state":"active","ping":118}]},{"server_id":402,"name":"Uncletopia | Chicago | 3 | All Maps","name_short":"chi-3","host":"chi-1.us.uncletopia.com","port":27035,"enabled":true,"region":"us-central","cc":"us","latitude":41.881832,"longitude":-87.62318,"reserved":0,"last_update":"0001-01-01T00:00:00Z","name_a2s":"Uncletopia | Chicago | 3 | All Maps","protocol":17,"map":"pl_frontier_final","folder":"tf","game":"Team Fortress","app_id":440,"player_count":0,"max_players":24,"Bots":0,"server_type":"Dedicated","server_os":"Linux","password":true,"vac":true,"version":"7961495","steam_id":85568392924515191,"keywords":["nocrits","nodmgspread","payload","uncletopia"],"game_id":440,"stv_port":27036,"stv_name":"Uncletopia | Chicago | 3 | All Maps | STV","players":null},{"server_id":403,"name":"Uncletopia | Chicago | 4 | All Maps","name_short":"chi-4","host":"chi-1.us.uncletopia.com","port":27045,"enabled":true,"region":"us-central","cc":"us","latitude":41.881832,"longitude":-87.62318,"reserved":0,"last_update":"0001-01-01T00:00:00Z","name_a2s":"Uncletopia | Chicago | 4 | All Maps","protocol":17,"map":"koth_cascade","folder":"tf","game":"Team Fortress","app_id":440,"player_count":6,"max_players":24,"Bots":0,"server_type":"Dedicated","server_os":"Linux","password":true,"vac":true,"version":"7961495","steam_id":85568392924515193,"keywords":["cp","nocrits","nodmgspread","uncletopia"],"game_id":440,"stv_port":27046,"stv_name":"Uncletopia | Chicago | 4 | All Maps | STV","players":[{"user_id":4,"name":"Hovg9000","steam_id":76561199191556710,"connected_time":495000000000,"state":"active","ping":78},{"user_id":5,"name":"Groundlaser49","steam_id":76561198259288290,"connected_time":366000000000,"state":"active","ping":61},{"user_id":6,"name":"Lunacy","steam_id":76561198400892015,"connected_time":238000000000,"state":"active","ping":63},{"user_id":7,"name":"Bosnian bomb dodger","steam_id":76561199467334502,"connected_time":233000000000,"state":"active","ping":89},{"user_id":9,"name":"lambmyth","steam_id":76561199215261209,"connected_time":46000000000,"state":"active","ping":80},{"user_id":10,"name":"Xander","steam_id":76561199100623603,"connected_time":39000000000,"state":"active","ping":60}]},{"server_id":36,"name":"Uncletopia | Chicago | 5 | All Maps","name_short":"chi-5","host":"chi-2.us.uncletopia.com","port":27015,"enabled":true,"region":"us-central","cc":"us","latitude":41.881832,"longitude":-87.62318,"reserved":0,"last_update":"0001-01-01T00:00:00Z","name_a2s":"Uncletopia | Chicago | 5 | All Maps","protocol":17,"map":"cp_altitude","folder":"tf","game":"Team Fortress","app_id":440,"player_count":1,"max_players":24,"Bots":0,"server_type":"Dedicated","server_os":"Linux","password":true,"vac":true,"version":"7961495","steam_id":85568392924866362,"keywords":["cp","nocrits","nodmgspread","uncletopia"],"game_id":440,"stv_port":27016,"stv_name":"Uncletopia | Chicago | 5 | All Maps | STV","players":[{"user_id":35,"name":"Aribari (She/Her)","steam_id":76561198117327938,"connected_time":107000000000,"state":"spawning","ping":80}]},{"server_id":37,"name":"Uncletopia | Chicago | 6 | All Maps","name_short":"chi-6","host":"chi-2.us.uncletopia.com","port":27025,"enabled":true,"region":"us-central","cc":"us","latitude":41.881832,"longitude":-87.62318,"reserved":0,"last_update":"0001-01-01T00:00:00Z","name_a2s":"Uncletopia | Chicago | 6 | All Maps","protocol":17,"map":"pl_frontier_final","folder":"tf","game":"Team Fortress","app_id":440,"player_count":0,"max_players":24,"Bots":0,"server_type":"Dedicated","server_os":"Linux","password":true,"vac":true,"version":"7961495","steam_id":85568392924866363,"keywords":["nocrits","nodmgspread","payload","uncletopia"],"game_id":440,"stv_port":27026,"stv_name":"Uncletopia | Chicago | 6 | All Maps | STV","players":null},{"server_id":38,"name":"Uncletopia | Chicago | 7 | Stopwatch","name_short":"chi-7","host":"chi-2.us.uncletopia.com","port":27035,"enabled":true,"region":"us-central","cc":"us","latitude":41.881832,"longitude":-87.62318,"reserved":0,"last_update":"0001-01-01T00:00:00Z","name_a2s":"Uncletopia | Chicago | 7 | Stopwatch","protocol":17,"map":"workshop/koth_bagel_rc6.ugc2514036946","folder":"tf","game":"Team Fortress","app_id":440,"player_count":23,"max_players":24,"Bots":0,"server_type":"Dedicated","server_os":"Linux","password":true,"vac":true,"version":"7961495","steam_id":85568392924866364,"keywords":["cp","nocrits","nodmgspread","uncletopia"],"game_id":440,"stv_port":27036,"stv_name":"Uncletopia | Chicago | 7 | Stopwatch | STV","players":[{"user_id":89,"name":"Soup","steam_id":76561198079000665,"connected_time":462000000000,"state":"active","ping":45},{"user_id":79,"name":"Herb","steam_id":76561198330311949,"connected_time":785000000000,"state":"active","ping":60},{"user_id":88,"name":"Travorski","steam_id":76561198072493142,"connected_time":567000000000,"state":"active","ping":92},{"user_id":81,"name":"Sentry Food","steam_id":76561198042926224,"connected_time":760000000000,"state":"active","ping":80},{"user_id":95,"name":"Jamie","steam_id":76561198058840477,"connected_time":202000000000,"state":"active","ping":96},{"user_id":98,"name":"lynt","steam_id":76561198988333976,"connected_time":24000000000,"state":"active","ping":61},{"user_id":76,"name":"The Helpful Mute","steam_id":76561198078359985,"connected_time":1089000000000,"state":"active","ping":54},{"user_id":63,"name":"9AM | Lunean LFP","steam_id":76561198106546230,"connected_time":2039000000000,"state":"active","ping":61},{"user_id":84,"name":"drdonutman","steam_id":76561197998488821,"connected_time":729000000000,"state":"active","ping":70},{"user_id":53,"name":"pnut","steam_id":76561198043862737,"connected_time":2248000000000,"state":"active","ping":60},{"user_id":64,"name":"Larry Fisherman","steam_id":76561198068654532,"connected_time":2032000000000,"state":"active","ping":76},{"user_id":96,"name":"Beast_727","steam_id":76561198390289197,"connected_time":126000000000,"state":"active","ping":53},{"user_id":25,"name":"uhhh","steam_id":76561198894548454,"connected_time":3950000000000,"state":"active","ping":54},{"user_id":94,"name":"is it really canid","steam_id":76561198103496593,"connected_time":237000000000,"state":"active","ping":62},{"user_id":70,"name":"Ortho","steam_id":76561198840797083,"connected_time":1570000000000,"state":"active","ping":84},{"user_id":71,"name":"bear","steam_id":76561198909415646,"connected_time":1511000000000,"state":"active","ping":77},{"user_id":43,"name":"cree","steam_id":76561198392539722,"connected_time":3109000000000,"state":"active","ping":78},{"user_id":49,"name":"Yoloyofroyo","steam_id":76561198195752298,"connected_time":2571000000000,"state":"active","ping":67},{"user_id":93,"name":"TheKyleB","steam_id":76561198202515104,"connected_time":327000000000,"state":"active","ping":46},{"user_id":77,"name":"asdfjas;","steam_id":76561199309942092,"connected_time":1018000000000,"state":"active","ping":96},{"user_id":87,"name":"Moron","steam_id":76561198290041736,"connected_time":638000000000,"state":"active","ping":89},{"user_id":91,"name":"BLANK3T [They/He femboy on THC]","steam_id":76561198028875624,"connected_time":411000000000,"state":"active","ping":99},{"user_id":62,"name":"w33d5m0k3r5 1NC.","steam_id":76561198249206656,"connected_time":2093000000000,"state":"active","ping":77}]},{"server_id":39,"name":"Uncletopia | Chicago | 8 | Community","name_short":"chi-8","host":"chi-2.us.uncletopia.com","port":27045,"enabled":true,"region":"us-central","cc":"us","latitude":41.881832,"longitude":-87.62318,"reserved":0,"last_update":"0001-01-01T00:00:00Z","name_a2s":"Uncletopia | Chicago | 8 | Community","protocol":17,"map":"workshop/pl_vigil_rc10.ugc1266210012","folder":"tf","game":"Team Fortress","app_id":440,"player_count":0,"max_players":24,"Bots":0,"server_type":"Dedicated","server_os":"Linux","password":true,"vac":true,"version":"7961495","steam_id":85568392924866365,"keywords":["nocrits","nodmgspread","payload","uncletopia"],"game_id":440,"stv_port":27046,"stv_name":"Uncletopia | Chicago | 8 | Community | STV","players":null},{"server_id":8,"name":"Uncletopia | Dallas | 1 | All Maps","name_short":"dal-1","host":"dal-1.us.uncletopia.com","port":27015,"enabled":true,"region":"us-central","cc":"us","latitude":32.779167,"longitude":-96.80889,"reserved":0,"last_update":"0001-01-01T00:00:00Z","name_a2s":"Uncletopia | Dallas | 1 | All Maps","protocol":17,"map":"pl_borneo","folder":"tf","game":"Team Fortress","app_id":440,"player_count":24,"max_players":24,"Bots":0,"server_type":"Dedicated","server_os":"Linux","password":true,"vac":true,"version":"7961495","steam_id":85568392924469986,"keywords":["nocrits","nodmgspread","payload","uncletopia"],"game_id":440,"stv_port":27016,"stv_name":"Uncletopia | Dallas | 1 | All Maps | STV","players":[{"user_id":359,"name":"Heathcliff","steam_id":76561198044288534,"connected_time":923000000000,"state":"active","ping":94},{"user_id":355,"name":"Lord Garrard","steam_id":76561198212184303,"connected_time":1178000000000,"state":"active","ping":55},{"user_id":345,"name":"Ockulus","steam_id":76561199069638460,"connected_time":1636000000000,"state":"active","ping":78},{"user_id":339,"name":"Genius Meme","steam_id":76561198162911254,"connected_time":1850000000000,"state":"active","ping":82},{"user_id":357,"name":"Spy on Training","steam_id":76561198872678762,"connected_time":1114000000000,"state":"active","ping":79},{"user_id":329,"name":"Sniper","steam_id":76561198837804866,"connected_time":2515000000000,"state":"active","ping":95},{"user_id":330,"name":"ThatFrog","steam_id":76561198437198904,"connected_time":2510000000000,"state":"active","ping":85},{"user_id":336,"name":"Prof. Eggnog","steam_id":76561198193389166,"connected_time":2109000000000,"state":"active","ping":92},{"user_id":370,"name":"shakoiwa","steam_id":76561199059441773,"connected_time":44000000000,"state":"active","ping":138},{"user_id":363,"name":"rando","steam_id":76561198093506296,"connected_time":706000000000,"state":"active","ping":83},{"user_id":368,"name":"Tots","steam_id":76561198027485007,"connected_time":394000000000,"state":"active","ping":60},{"user_id":358,"name":"Sup m8","steam_id":76561198081659121,"connected_time":1010000000000,"state":"active","ping":41},{"user_id":340,"name":"mel KUSH","steam_id":76561198215559840,"connected_time":1841000000000,"state":"active","ping":69},{"user_id":367,"name":"HeadOfB.O.XNews","steam_id":76561198823322405,"connected_time":414000000000,"state":"active","ping":52},{"user_id":342,"name":"zzzPoison‚ô°","steam_id":76561198302928116,"connected_time":1786000000000,"state":"active","ping":90},{"user_id":365,"name":"Blitzy","steam_id":76561198149472890,"connected_time":424000000000,"state":"active","ping":106},{"user_id":362,"name":"Speejoink","steam_id":76561198076863045,"connected_time":743000000000,"state":"active","ping":61},{"user_id":346,"name":"Magician Wen-li","steam_id":76561198189688217,"connected_time":1625000000000,"state":"active","ping":89},{"user_id":347,"name":"NGsterson","steam_id":76561198162108154,"connected_time":1623000000000,"state":"active","ping":107},{"user_id":313,"name":"ThePriceIsRice","steam_id":76561198079069543,"connected_time":4106000000000,"state":"active","ping":113},{"user_id":361,"name":"üÖúüÖîüÖîüÖöüÖ¢üÖ£üÖî\ufffd\ufffd\ufffd","steam_id":76561197999748343,"connected_time":848000000000,"state":"active","ping":43},{"user_id":369,"name":"MouxeWare","steam_id":76561199339512223,"connected_time":394000000000,"state":"active","ping":126},{"user_id":364,"name":"Space Lizard","steam_id":76561198056798193,"connected_time":672000000000,"state":"active","ping":87},{"user_id":366,"name":"r0ck","steam_id":76561198395892272,"connected_time":423000000000,"state":"active","ping":110}]},{"server_id":108,"name":"Uncletopia | Dallas | 2 | All Maps","name_short":"dal-2","host":"dal-1.us.uncletopia.com","port":27025,"enabled":true,"region":"us-central","cc":"us","latitude":32.779167,"longitude":-96.80889,"reserved":0,"last_update":"0001-01-01T00:00:00Z","name_a2s":"Uncletopia | Dallas | 2 | All Maps","protocol":17,"map":"koth_highpass","folder":"tf","game":"Team Fortress","app_id":440,"player_count":0,"max_players":24,"Bots":0,"server_type":"Dedicated","server_os":"Linux","password":true,"vac":true,"version":"7961495","steam_id":85568392924469988,"keywords":["cp","nocrits","nodmgspread","uncletopia"],"game_id":440,"stv_port":27026,"stv_name":"Uncletopia | Dallas | 2 | All Maps | STV","players":null},{"server_id":404,"name":"Uncletopia | Dallas | 3 | All Maps","name_short":"dal-3","host":"dal-1.us.uncletopia.com","port":27035,"enabled":true,"region":"us-central","cc":"us","latitude":32.779167,"longitude":-96.80889,"reserved":0,"last_update":"0001-01-01T00:00:00Z","name_a2s":"Uncletopia | Dallas | 3 | All Maps","protocol":17,"map":"pl_borneo","folder":"tf","game":"Team Fortress","app_id":440,"player_count":0,"max_players":24,"Bots":0,"server_type":"Dedicated","server_os":"Linux","password":true,"vac":true,"version":"7961495","steam_id":85568392924515219,"keywords":["nocrits","nodmgspread","payload","uncletopia"],"game_id":440,"stv_port":27036,"stv_name":"Uncletopia | Dallas | 3 | All Maps | STV","players":null},{"server_id":405,"name":"Uncletopia | Dallas | 4 | Community","name_short":"dal-4","host":"dal-1.us.uncletopia.com","port":27045,"enabled":true,"region":"us-central","cc":"us","latitude":32.779167,"longitude":-96.80889,"reserved":0,"last_update":"0001-01-01T00:00:00Z","name_a2s":"Uncletopia | Dallas | 4 | Community","protocol":17,"map":"pl_pier","folder":"tf","game":"Team Fortress","app_id":440,"player_count":0,"max_players":24,"Bots":0,"server_type":"Dedicated","server_os":"Linux","password":true,"vac":true,"version":"7961495","steam_id":85568392924515220,"keywords":["nocrits","nodmgspread","payload","uncletopia"],"game_id":440,"stv_port":27046,"stv_name":"Uncletopia | Dallas | 4 | Community | STV","players":null},{"server_id":5,"name":"Uncletopia | Frankfurt | 1 | All Maps","name_short":"frk-1","host":"frk-1.de.uncletopia.com","port":27015,"enabled":true,"region":"eu","cc":"de","latitude":50.110924,"longitude":8.682127,"reserved":0,"last_update":"0001-01-01T00:00:00Z","name_a2s":"Uncletopia | Frankfurt | 1 | All Maps","protocol":17,"map":"pl_upward","folder":"tf","game":"Team Fortress","app_id":440,"player_count":23,"max_players":24,"Bots":0,"server_type":"Dedicated","server_os":"Linux","password":true,"vac":true,"version":"7961495","steam_id":85568392924469989,"keywords":["nocrits","nodmgspread","payload","uncletopia"],"game_id":440,"stv_port":27016,"stv_name":"Uncletopia | Frankfurt | 1 | All Maps | STV","players":[{"user_id":193,"name":"WomenBeardLike","steam_id":76561198390184314,"connected_time":1482000000000,"state":"active","ping":63},{"user_id":199,"name":"Ixsus\u003c3","steam_id":76561198094756869,"connected_time":1032000000000,"state":"active","ping":56},{"user_id":215,"name":"booba","steam_id":76561198158018284,"connected_time":246000000000,"state":"active","ping":57},{"user_id":213,"name":"TAFI03","steam_id":76561198213082089,"connected_time":267000000000,"state":"active","ping":56},{"user_id":95,"name":"Spheedermern","steam_id":76561198160898152,"connected_time":8356000000000,"state":"active","ping":65},{"user_id":205,"name":"LOBZIK","steam_id":76561198114830120,"connected_time":809000000000,"state":"active","ping":75},{"user_id":186,"name":"etc","steam_id":76561197998394797,"connected_time":1775000000000,"state":"active","ping":51},{"user_id":152,"name":"DeCypher \u003c3","steam_id":76561198171992619,"connected_time":4326000000000,"state":"active","ping":69},{"user_id":211,"name":"Fish 'n' Chips","steam_id":76561198033476886,"connected_time":598000000000,"state":"active","ping":54},{"user_id":159,"name":"Musicano","steam_id":76561198114541088,"connected_time":3482000000000,"state":"active","ping":86},{"user_id":207,"name":"Lesu","steam_id":76561198064130397,"connected_time":713000000000,"state":"active","ping":59},{"user_id":96,"name":"Isohel [Kiba]","steam_id":76561198129032662,"connected_time":8348000000000,"state":"active","ping":77},{"user_id":149,"name":"Vilmukas","steam_id":76561199106648396,"connected_time":4593000000000,"state":"active","ping":59},{"user_id":177,"name":"WHUSSKEY","steam_id":76561198137827441,"connected_time":2403000000000,"state":"active","ping":65},{"user_id":202,"name":"Homosapien","steam_id":76561197972035953,"connected_time":978000000000,"state":"active","ping":46},{"user_id":166,"name":"respect the sightline","steam_id":76561198111134021,"connected_time":3018000000000,"state":"active","ping":81},{"user_id":212,"name":"Borazilla","steam_id":76561198083626821,"connected_time":539000000000,"state":"active","ping":103},{"user_id":217,"name":"Ch4bby","steam_id":76561198058792875,"connected_time":77000000000,"state":"active","ping":55},{"user_id":216,"name":"Dot","steam_id":76561198047299145,"connected_time":243000000000,"state":"active","ping":78},{"user_id":206,"name":"Ptahotep","steam_id":76561198008708645,"connected_time":799000000000,"state":"active","ping":53},{"user_id":204,"name":"wicked","steam_id":76561198164376035,"connected_time":917000000000,"state":"active","ping":73},{"user_id":169,"name":"rets_","steam_id":76561198061551392,"connected_time":2900000000000,"state":"active","ping":41},{"user_id":214,"name":"sheetie","steam_id":76561199036935539,"connected_time":251000000000,"state":"active","ping":44}]},{"server_id":110,"name":"Uncletopia | Frankfurt | 2 | All Maps","name_short":"frk-2","host":"frk-1.de.uncletopia.com","port":27025,"enabled":true,"region":"eu","cc":"de","latitude":50.110924,"longitude":8.682127,"reserved":0,"last_update":"0001-01-01T00:00:00Z","name_a2s":"Uncletopia | Frankfurt | 2 | All Maps","protocol":17,"map":"cp_altitude","folder":"tf","game":"Team Fortress","app_id":440,"player_count":23,"max_players":24,"Bots":0,"server_type":"Dedicated","server_os":"Linux","password":true,"vac":true,"version":"7961495","steam_id":85568392924469990,"keywords":["cp","nocrits","nodmgspread","uncletopia"],"game_id":440,"stv_port":27026,"stv_name":"Uncletopia | Frankfurt | 2 | All Maps | STV","players":[{"user_id":136,"name":"D0kai","steam_id":76561198389271720,"connected_time":1326000000000,"state":"active","ping":51},{"user_id":150,"name":"orange","steam_id":76561198963378933,"connected_time":587000000000,"state":"active","ping":57},{"user_id":141,"name":"Adrian Picche","steam_id":76561198009335657,"connected_time":807000000000,"state":"active","ping":73},{"user_id":45,"name":"Wata","steam_id":76561198098418814,"connected_time":7432000000000,"state":"active","ping":33},{"user_id":149,"name":"Syd","steam_id":76561198020515027,"connected_time":670000000000,"state":"active","ping":99},{"user_id":158,"name":"Adolf Potter","steam_id":76561198120554557,"connected_time":185000000000,"state":"active","ping":58},{"user_id":111,"name":"dmEngineer_tf2 #SaveTF2","steam_id":76561199388956338,"connected_time":3142000000000,"state":"active","ping":76},{"user_id":154,"name":"lawn","steam_id":76561198001243486,"connected_time":274000000000,"state":"active","ping":59},{"user_id":80,"name":"N5LH","steam_id":76561199112528775,"connected_time":4710000000000,"state":"active","ping":120},{"user_id":91,"name":"Hercules","steam_id":76561198041164170,"connected_time":4290000000000,"state":"active","ping":59},{"user_id":159,"name":"Mase","steam_id":76561199005591075,"connected_time":155000000000,"state":"active","ping":73},{"user_id":160,"name":"MalleJongen","steam_id":76561198142728039,"connected_time":109000000000,"state":"active","ping":502},{"user_id":137,"name":"[T]aKer","steam_id":76561198001778013,"connected_time":1136000000000,"state":"active","ping":53},{"user_id":119,"name":"dolo","steam_id":76561198206672297,"connected_time":2784000000000,"state":"active","ping":57},{"user_id":151,"name":"Big Balls Bill","steam_id":76561198045998627,"connected_time":477000000000,"state":"active","ping":61},{"user_id":161,"name":"Van Elf","steam_id":76561198125442551,"connected_time":98000000000,"state":"active","ping":62},{"user_id":139,"name":"Twik","steam_id":76561198023835056,"connected_time":853000000000,"state":"active","ping":59},{"user_id":126,"name":"lunchback of notre dame","steam_id":76561199136755064,"connected_time":2309000000000,"state":"active","ping":56},{"user_id":162,"name":"YeeterSkeeter","steam_id":76561198015380933,"connected_time":87000000000,"state":"active","ping":64},{"user_id":132,"name":"TriR–ò–å","steam_id":76561198119622375,"connected_time":1584000000000,"state":"active","ping":74},{"user_id":135,"name":"twday","steam_id":76561198895316494,"connected_time":1395000000000,"state":"active","ping":77},{"user_id":120,"name":"Myia","steam_id":76561198087813206,"connected_time":2760000000000,"state":"active","ping":45},{"user_id":43,"name":"TheMasterOfTheZaZa","steam_id":76561197994310420,"connected_time":7455000000000,"state":"active","ping":70}]},{"server_id":308,"name":"Uncletopia | Frankfurt | 3 | All Maps","name_short":"frk-3","host":"frk-1.de.uncletopia.com","port":27035,"enabled":true,"region":"eu","cc":"de","latitude":50.110924,"longitude":8.682127,"reserved":0,"last_update":"0001-01-01T00:00:00Z","name_a2s":"Uncletopia | Frankfurt | 3 | All Maps","protocol":17,"map":"pl_upward","folder":"tf","game":"Team Fortress","app_id":440,"player_count":24,"max_players":24,"Bots":0,"server_type":"Dedicated","server_os":"Linux","password":true,"vac":true,"version":"7961495","steam_id":85568392924504274,"keywords":["nocrits","nodmgspread","payload","uncletopia"],"game_id":440,"stv_port":27036,"stv_name":"Uncletopia | Frankfurt | 3 | All Maps | STV","players":[{"user_id":566,"name":"Economic crisis","steam_id":76561198063562843,"connected_time":642000000000,"state":"active","ping":62},{"user_id":567,"name":"cez","steam_id":76561198361380956,"connected_time":592000000000,"state":"active","ping":80},{"user_id":516,"name":"AleXandriX","steam_id":76561198035203950,"connected_time":4204000000000,"state":"active","ping":58},{"user_id":555,"name":"papa louie professional","steam_id":76561198101292843,"connected_time":1114000000000,"state":"active","ping":46},{"user_id":540,"name":"Geoff the Oracle","steam_id":76561198053759965,"connected_time":3091000000000,"state":"active","ping":67},{"user_id":571,"name":"Nugget","steam_id":76561198338916407,"connected_time":335000000000,"state":"active","ping":79},{"user_id":535,"name":"glorpis","steam_id":76561199225333422,"connected_time":3326000000000,"state":"active","ping":64},{"user_id":536,"name":"Bottle O' Scrumpy","steam_id":76561199244250562,"connected_time":3281000000000,"state":"active","ping":107},{"user_id":531,"name":"tallen","steam_id":76561198061708595,"connected_time":3644000000000,"state":"active","ping":85},{"user_id":573,"name":"–®–∞–ø–∫–∞ #TF2Center","steam_id":76561198368792603,"connected_time":301000000000,"state":"active","ping":71},{"user_id":570,"name":"‚ò≠TheDevilsEye‚ò≠","steam_id":76561198017379398,"connected_time":455000000000,"state":"active","ping":72},{"user_id":551,"name":"–ºe–Ω—è –∑o–≤y—Ç A–≤ac a –≤ac?","steam_id":76561198172046813,"connected_time":1209000000000,"state":"active","ping":64},{"user_id":568,"name":"PWizard","steam_id":76561198026458489,"connected_time":577000000000,"state":"active","ping":71},{"user_id":550,"name":"KajaStorm","steam_id":76561199215842872,"connected_time":1504000000000,"state":"active","ping":129},{"user_id":523,"name":"Kylul_","steam_id":76561198042981061,"connected_time":4091000000000,"state":"active","ping":55},{"user_id":445,"name":"Archive","steam_id":76561198071255385,"connected_time":9162000000000,"state":"active","ping":87},{"user_id":575,"name":"Sulejman______________________\ufffd","steam_id":76561198276847676,"connected_time":175000000000,"state":"active","ping":94},{"user_id":505,"name":"_Alonso","steam_id":76561198041893314,"connected_time":5527000000000,"state":"active","ping":51},{"user_id":574,"name":"SpacePig","steam_id":76561198044662873,"connected_time":253000000000,"state":"active","ping":91},{"user_id":525,"name":"Majima Goro","steam_id":76561198064734905,"connected_time":4058000000000,"state":"active","ping":92},{"user_id":564,"name":"Master Of Noob","steam_id":76561198217926783,"connected_time":730000000000,"state":"active","ping":72},{"user_id":561,"name":"bob","steam_id":76561198309295580,"connected_time":887000000000,"state":"active","ping":49},{"user_id":562,"name":"2023","steam_id":76561198857712172,"connected_time":852000000000,"state":"active","ping":60},{"user_id":563,"name":"Dzieciol","steam_id":76561198160237556,"connected_time":838000000000,"state":"active","ping":73}]},{"server_id":309,"name":"Uncletopia | Frankfurt | 4 | All Maps","name_short":"frk-4","host":"frk-1.de.uncletopia.com","port":27045,"enabled":true,"region":"eu","cc":"de","latitude":50.110924,"longitude":8.682127,"reserved":0,"last_update":"0001-01-01T00:00:00Z","name_a2s":"Uncletopia | Frankfurt | 4 | All Maps","protocol":17,"map":"pl_badwater","folder":"tf","game":"Team Fortress","app_id":440,"player_count":24,"max_players":24,"Bots":0,"server_type":"Dedicated","server_os":"Linux","password":true,"vac":true,"version":"7961495","steam_id":85568392924504275,"keywords":["nocrits","nodmgspread","payload","uncletopia"],"game_id":440,"stv_port":27046,"stv_name":"Uncletopia | Frankfurt | 4 | All Maps | STV","players":[{"user_id":334,"name":"roblan11","steam_id":76561198066839258,"connected_time":2131000000000,"state":"active","ping":42},{"user_id":371,"name":"dick dick","steam_id":76561198311044984,"connected_time":49000000000,"state":"active","ping":65},{"user_id":266,"name":"luma","steam_id":76561198081649669,"connected_time":6742000000000,"state":"active","ping":60},{"user_id":328,"name":"porta","steam_id":76561198876318011,"connected_time":2276000000000,"state":"active","ping":45},{"user_id":344,"name":"WolfmanCZ","steam_id":76561199157141414,"connected_time":1050000000000,"state":"active","ping":67},{"user_id":357,"name":"outlaw","steam_id":76561198323805289,"connected_time":809000000000,"state":"active","ping":44},{"user_id":325,"name":"Mza28","steam_id":76561198873993324,"connected_time":2353000000000,"state":"active","ping":60},{"user_id":346,"name":"Puse_4ka (p_ng)","steam_id":76561198192857093,"connected_time":948000000000,"state":"active","ping":94},{"user_id":370,"name":"bl√•haj","steam_id":76561198094268619,"connected_time":224000000000,"state":"active","ping":59},{"user_id":365,"name":"‚ú¶Ô∏é SuWhoop‚ú¶","steam_id":76561198026173671,"connected_time":556000000000,"state":"active","ping":57},{"user_id":366,"name":"Larry Ca√±onga","steam_id":76561198081053203,"connected_time":469000000000,"state":"active","ping":189},{"user_id":367,"name":"A Table","steam_id":76561198130963095,"connected_time":380000000000,"state":"active","ping":73},{"user_id":350,"name":"flr","steam_id":76561198249327786,"connected_time":851000000000,"state":"active","ping":75},{"user_id":322,"name":"Predrag218","steam_id":76561199242439630,"connected_time":2438000000000,"state":"active","ping":124},{"user_id":339,"name":"Flamy?","steam_id":76561198024332838,"connected_time":1876000000000,"state":"active","ping":79},{"user_id":368,"name":"Seb, Comrade","steam_id":76561198040279587,"connected_time":370000000000,"state":"active","ping":98},{"user_id":351,"name":"tier 10 spellcaster","steam_id":76561198031573426,"connected_time":845000000000,"state":"active","ping":61},{"user_id":289,"name":"Mike","steam_id":76561198228455736,"connected_time":4350000000000,"state":"active","ping":67},{"user_id":369,"name":"katten","steam_id":76561198163615254,"connected_time":361000000000,"state":"active","ping":53},{"user_id":352,"name":"Solymr ibn Wali Barad","steam_id":76561198044008976,"connected_time":829000000000,"state":"active","ping":73},{"user_id":298,"name":"Arentrir","steam_id":76561198334126785,"connected_time":3587000000000,"state":"active","ping":75},{"user_id":354,"name":"HilldogGaming‚ôõ","steam_id":76561198082209322,"connected_time":823000000000,"state":"active","ping":86},{"user_id":260,"name":"marvi444","steam_id":76561198431534139,"connected_time":6983000000000,"state":"active","ping":44},{"user_id":358,"name":"Takyonan","steam_id":76561198820784240,"connected_time":794000000000,"state":"active","ping":112}]},{"server_id":310,"name":"Uncletopia | Frankfurt | 5 | All Maps","name_short":"frk-5","host":"frk-1.de.uncletopia.com","port":27055,"enabled":true,"region":"eu","cc":"de","latitude":50.110924,"longitude":8.682127,"reserved":0,"last_update":"0001-01-01T00:00:00Z","name_a2s":"Uncletopia | Frankfurt | 5 | All Maps","protocol":17,"map":"pl_upward","folder":"tf","game":"Team Fortress","app_id":440,"player_count":24,"max_players":24,"Bots":0,"server_type":"Dedicated","server_os":"Linux","password":true,"vac":true,"version":"7961495","steam_id":85568392924504277,"keywords":["nocrits","nodmgspread","payload","uncletopia"],"game_id":440,"stv_port":27056,"stv_name":"Uncletopia | Frankfurt | 5 | All Maps | STV","players":[{"user_id":90,"name":"Far ‚àû","steam_id":76561199166149359,"connected_time":2222000000000,"state":"active","ping":80},{"user_id":107,"name":"certainly","steam_id":76561198082899111,"connected_time":1572000000000,"state":"active","ping":45},{"user_id":80,"name":"NocoTheWitcher","steam_id":76561199168369877,"connected_time":2624000000000,"state":"active","ping":55},{"user_id":81,"name":"Largo","steam_id":76561198844368927,"connected_time":2620000000000,"state":"active","ping":63},{"user_id":27,"name":"WMP‚Ñ¢","steam_id":76561198001376594,"connected_time":5397000000000,"state":"active","ping":74},{"user_id":66,"name":"VK2124 :D","steam_id":76561198111130688,"connected_time":4293000000000,"state":"active","ping":100},{"user_id":38,"name":"Finem Belli","steam_id":76561198227177976,"connected_time":4882000000000,"state":"active","ping":48},{"user_id":121,"name":"beeper","steam_id":76561198130416479,"connected_time":1006000000000,"state":"active","ping":49},{"user_id":126,"name":"IS3BITEL","steam_id":76561199178060325,"connected_time":561000000000,"state":"active","ping":67},{"user_id":73,"name":"MiniMoys","steam_id":76561198320166458,"connected_time":2869000000000,"state":"active","ping":64},{"user_id":105,"name":"I ate all my bullets D:","steam_id":76561198267838767,"connected_time":1630000000000,"state":"active","ping":54},{"user_id":130,"name":"TheEventGuy","steam_id":76561197972797744,"connected_time":222000000000,"state":"active","ping":66},{"user_id":129,"name":"kreeekz","steam_id":76561198014431602,"connected_time":322000000000,"state":"active","ping":73},{"user_id":127,"name":"ALARM","steam_id":76561198120686521,"connected_time":465000000000,"state":"active","ping":64},{"user_id":108,"name":"Zstan","steam_id":76561198042052464,"connected_time":1569000000000,"state":"active","ping":186},{"user_id":109,"name":"fuo","steam_id":76561197995536944,"connected_time":1528000000000,"state":"active","ping":45},{"user_id":128,"name":"panakid","steam_id":76561198364121077,"connected_time":353000000000,"state":"active","ping":87},{"user_id":45,"name":"Para Bellum","steam_id":76561198375413446,"connected_time":4823000000000,"state":"active","ping":63},{"user_id":123,"name":"Xeno","steam_id":76561198975556646,"connected_time":953000000000,"state":"active","ping":52},{"user_id":104,"name":"RNM96965825","steam_id":76561198263233108,"connected_time":1654000000000,"state":"active","ping":98},{"user_id":124,"name":"HEHRAHA KRITTY KRAT :3","steam_id":76561198210951041,"connected_time":935000000000,"state":"active","ping":60},{"user_id":120,"name":"Confused1221","steam_id":76561199061802741,"connected_time":1099000000000,"state":"active","ping":62},{"user_id":115,"name":"Skinny Heavy","steam_id":76561199114598660,"connected_time":1435000000000,"state":"active","ping":131},{"user_id":131,"name":"dank pank","steam_id":76561198995052713,"connected_time":86000000000,"state":"active","ping":60}]},{"server_id":311,"name":"Uncletopia | Frankfurt | 6 | All Maps","name_short":"frk-6","host":"frk-1.de.uncletopia.com","port":27065,"enabled":true,"region":"eu","cc":"de","latitude":50.110924,"longitude":8.682127,"reserved":0,"last_update":"0001-01-01T00:00:00Z","name_a2s":"Uncletopia | Frankfurt | 6 | All Maps","protocol":17,"map":"koth_viaduct","folder":"tf","game":"Team Fortress","app_id":440,"player_count":0,"max_players":24,"Bots":0,"server_type":"Dedicated","server_os":"Linux","password":true,"vac":true,"version":"7961495","steam_id":85568392924504278,"keywords":["cp","nocrits","nodmgspread","uncletopia"],"game_id":440,"stv_port":27066,"stv_name":"Uncletopia | Frankfurt | 6 | All Maps | STV","players":null},{"server_id":23,"name":"Uncletopia | Frankfurt | 7 | Stopwatch","name_short":"frk-7","host":"frk-1.de.uncletopia.com","port":27075,"enabled":true,"region":"eu","cc":"de","latitude":50.110924,"longitude":8.682127,"reserved":0,"last_update":"0001-01-01T00:00:00Z","name_a2s":"Uncletopia | Frankfurt | 7 | Stopwatch","protocol":17,"map":"pl_frontier_final","folder":"tf","game":"Team Fortress","app_id":440,"player_count":0,"max_players":24,"Bots":0,"server_type":"Dedicated","server_os":"Linux","password":true,"vac":true,"version":"7961495","steam_id":85568392924742827,"keywords":["nocrits","nodmgspread","payload","uncletopia"],"game_id":440,"stv_port":27076,"stv_name":"Uncletopia | Frankfurt | 7 | Stopwatch | STV","players":null},{"server_id":24,"name":"Uncletopia | Frankfurt | 8 | Community","name_short":"frk-8","host":"frk-1.de.uncletopia.com","port":27085,"enabled":true,"region":"eu","cc":"de","latitude":50.110924,"longitude":8.682127,"reserved":0,"last_update":"0001-01-01T00:00:00Z","name_a2s":"Uncletopia | Frankfurt | 8 | Community","protocol":17,"map":"workshop/koth_bagel_rc6.ugc2514036946","folder":"tf","game":"Team Fortress","app_id":440,"player_count":0,"max_players":24,"Bots":0,"server_type":"Dedicated","server_os":"Linux","password":true,"vac":true,"version":"7961495","steam_id":85568392924742828,"keywords":["cp","nocrits","nodmgspread","uncletopia"],"game_id":440,"stv_port":27086,"stv_name":"Uncletopia | Frankfurt | 8 | Community | STV","players":null},{"server_id":202,"name":"Uncletopia | Hong Kong | 1 | All Maps","name_short":"hgk-1","host":"hgk-1.hk.uncletopia.com","port":27015,"enabled":true,"region":"asia","cc":"hk","latitude":22.302711,"longitude":114.177216,"reserved":0,"last_update":"0001-01-01T00:00:00Z","name_a2s":"Uncletopia | Hong Kong | 1 | All Maps","protocol":17,"map":"cp_mountainlab","folder":"tf","game":"Team Fortress","app_id":440,"player_count":0,"max_players":24,"Bots":0,"server_type":"Dedicated","server_os":"Linux","password":true,"vac":true,"version":"7961495","steam_id":85568392924494504,"keywords":["cp","nocrits","nodmgspread","uncletopia"],"game_id":440,"stv_port":27016,"stv_name":"Uncletopia | Hong Kong | 1 | All Maps | STV","players":null},{"server_id":1,"name":"Uncletopia | Los Angeles | 1 | All Maps","name_short":"lax-1","host":"lax-1.us.uncletopia.com","port":27015,"enabled":true,"region":"us-west","cc":"us","latitude":33.94279,"longitude":-118.41004,"reserved":0,"last_update":"0001-01-01T00:00:00Z","name_a2s":"Uncletopia | Los Angeles | 1 | All Maps","protocol":17,"map":"cp_sunshine","folder":"tf","game":"Team Fortress","app_id":440,"player_count":0,"max_players":24,"Bots":0,"server_type":"Dedicated","server_os":"Linux","password":true,"vac":true,"version":"7961495","steam_id":85568392924469991,"keywords":["cp","nocrits","nodmgspread","uncletopia"],"game_id":440,"stv_port":27016,"stv_name":"Uncletopia | Los Angeles | 1 | All Maps | STV","players":null},{"server_id":112,"name":"Uncletopia | Los Angeles | 2 | All Maps","name_short":"lax-2","host":"lax-1.us.uncletopia.com","port":27025,"enabled":true,"region":"us-west","cc":"us","latitude":33.94279,"longitude":-118.41004,"reserved":0,"last_update":"0001-01-01T00:00:00Z","name_a2s":"Uncletopia | Los Angeles | 2 | All Maps","protocol":17,"map":"cp_mountainlab","folder":"tf","game":"Team Fortress","app_id":440,"player_count":0,"max_players":24,"Bots":0,"server_type":"Dedicated","server_os":"Linux","password":true,"vac":true,"version":"7961495","steam_id":85568392924469992,"keywords":["cp","nocrits","nodmgspread","uncletopia"],"game_id":440,"stv_port":27026,"stv_name":"Uncletopia | Los Angeles | 2 | All Maps | STV","players":null},{"server_id":324,"name":"Uncletopia | Los Angeles | 3 | All Maps","name_short":"lax-3","host":"lax-1.us.uncletopia.com","port":27035,"enabled":true,"region":"us-west","cc":"us","latitude":33.94279,"longitude":-118.41004,"reserved":0,"last_update":"0001-01-01T00:00:00Z","name_a2s":"Uncletopia | Los Angeles | 3 | All Maps","protocol":17,"map":"pl_frontier_final","folder":"tf","game":"Team Fortress","app_id":440,"player_count":0,"max_players":24,"Bots":0,"server_type":"Dedicated","server_os":"Linux","password":true,"vac":true,"version":"7961495","steam_id":85568392924510198,"keywords":["nocrits","nodmgspread","payload","uncletopia"],"game_id":440,"stv_port":27036,"stv_name":"Uncletopia | Los Angeles | 3 | All Maps | STV","players":null},{"server_id":25,"name":"Uncletopia | Los Angeles | 4 | Stopwatch","name_short":"lax-4","host":"lax-1.us.uncletopia.com","port":27045,"enabled":true,"region":"us-west","cc":"us","latitude":33.94279,"longitude":-118.41004,"reserved":0,"last_update":"0001-01-01T00:00:00Z","name_a2s":"Uncletopia | Los Angeles | 4 | Stopwatch","protocol":17,"map":"pl_barnblitz","folder":"tf","game":"Team Fortress","app_id":440,"player_count":0,"max_players":24,"Bots":0,"server_type":"Dedicated","server_os":"Linux","password":true,"vac":true,"version":"7961495","steam_id":85568392924510199,"keywords":["nocrits","nodmgspread","payload","uncletopia"],"game_id":440,"stv_port":27046,"stv_name":"Uncletopia | Los Angeles | 4 | Stopwatch | STV","players":null},{"server_id":11,"name":"Uncletopia | London | 1 | All Maps","name_short":"lon-1","host":"lon-1.uk.uncletopia.com","port":27015,"enabled":true,"region":"eu","cc":"gb","latitude":51.509865,"longitude":-0.118092,"reserved":0,"last_update":"0001-01-01T00:00:00Z","name_a2s":"Uncletopia | London | 1 | All Maps","protocol":17,"map":"pl_frontier_final","folder":"tf","game":"Team Fortress","app_id":440,"player_count":24,"max_players":24,"Bots":0,"server_type":"Dedicated","server_os":"Linux","password":true,"vac":true,"version":"7961495","steam_id":85568392924367362,"keywords":["nocrits","nodmgspread","payload","uncletopia"],"game_id":440,"stv_port":27016,"stv_name":"Uncletopia | London | 1 | All Maps | STV","players":[{"user_id":553,"name":"Brem","steam_id":76561198202349485,"connected_time":1382000000000,"state":"active","ping":68},{"user_id":571,"name":"„Ç¥Mr.Büñ§„Ç¥","steam_id":76561198987456770,"connected_time":416000000000,"state":"active","ping":65},{"user_id":476,"name":"shooer!","steam_id":76561198110531281,"connected_time":9944000000000,"state":"active","ping":70},{"user_id":577,"name":"Yrj√∂ Koskinen Yrj√∂-Koskinen","steam_id":76561198368181145,"connected_time":160000000000,"state":"active","ping":89},{"user_id":546,"name":"Rai_to","steam_id":76561199013720618,"connected_time":1893000000000,"state":"active","ping":84},{"user_id":560,"name":"PrimedTime","steam_id":76561198142348648,"connected_time":1238000000000,"state":"active","ping":179},{"user_id":573,"name":"Fuck it (unhandicaps)","steam_id":76561197983095579,"connected_time":235000000000,"state":"active","ping":82},{"user_id":564,"name":"a second plane","steam_id":76561199401283123,"connected_time":1165000000000,"state":"active","ping":49},{"user_id":537,"name":"Vince","steam_id":76561198128953279,"connected_time":2395000000000,"state":"active","ping":76},{"user_id":509,"name":"gibb (official)","steam_id":76561198074097655,"connected_time":5548000000000,"state":"active","ping":44},{"user_id":544,"name":"Aaron","steam_id":76561197990046953,"connected_time":2144000000000,"state":"active","ping":60},{"user_id":505,"name":"Sir Cauterize","steam_id":76561198047079422,"connected_time":5570000000000,"state":"active","ping":51},{"user_id":580,"name":"Naeso","steam_id":76561198068602498,"connected_time":59000000000,"state":"active","ping":45},{"user_id":566,"name":"ScampSixteen","steam_id":76561198021771000,"connected_time":1002000000000,"state":"active","ping":52},{"user_id":557,"name":"powej","steam_id":76561198056381418,"connected_time":1269000000000,"state":"active","ping":43},{"user_id":558,"name":"$t@lker_Tim","steam_id":76561198963658042,"connected_time":1259000000000,"state":"active","ping":120},{"user_id":528,"name":"transgender e-girl","steam_id":76561198168589809,"connected_time":3063000000000,"state":"active","ping":73},{"user_id":547,"name":"waitrose gaming","steam_id":76561198011450253,"connected_time":1829000000000,"state":"active","ping":53},{"user_id":565,"name":"Kƒêany","steam_id":76561198080838373,"connected_time":1070000000000,"state":"active","ping":74},{"user_id":576,"name":"ExtraFlames","steam_id":76561199136146246,"connected_time":189000000000,"state":"active","ping":63},{"user_id":562,"name":"perry the platypus","steam_id":76561199379159771,"connected_time":1226000000000,"state":"active","ping":165},{"user_id":570,"name":"Mak≈Çowicz","steam_id":76561198281831506,"connected_time":670000000000,"state":"active","ping":86},{"user_id":575,"name":"NI","steam_id":76561198941142018,"connected_time":220000000000,"state":"active","ping":98},{"user_id":579,"name":"trite","steam_id":76561197983765323,"connected_time":113000000000,"state":"active","ping":56}]},{"server_id":114,"name":"Uncletopia | London | 2 | All Maps","name_short":"lon-2","host":"lon-1.uk.uncletopia.com","port":27025,"enabled":true,"region":"eu","cc":"gb","latitude":51.509865,"longitude":-0.118092,"reserved":0,"last_update":"0001-01-01T00:00:00Z","name_a2s":"Uncletopia | London | 2 | All Maps","protocol":17,"map":"koth_harvest_final","folder":"tf","game":"Team Fortress","app_id":440,"player_count":4,"max_players":24,"Bots":0,"server_type":"Dedicated","server_os":"Linux","password":true,"vac":true,"version":"7961495","steam_id":85568392924470941,"keywords":["cp","nocrits","nodmgspread","uncletopia"],"game_id":440,"stv_port":27026,"stv_name":"Uncletopia | London | 2 | All Maps | STV","players":[{"user_id":38,"name":"Pao_is_good","steam_id":76561199071206846,"connected_time":349000000000,"state":"active","ping":91},{"user_id":39,"name":"Mikki Morfin","steam_id":76561198199870045,"connected_time":176000000000,"state":"active","ping":106},{"user_id":26,"name":"Warpzel65","steam_id":76561198799303596,"connected_time":2205000000000,"state":"active","ping":111},{"user_id":36,"name":"GregerUlander","steam_id":76561198152375055,"connected_time":782000000000,"state":"active","ping":79}]},{"server_id":320,"name":"Uncletopia | London | 3 | All Maps","name_short":"lon-3","host":"lon-1.uk.uncletopia.com","port":27035,"enabled":true,"region":"eu","cc":"gb","latitude":51.509865,"longitude":-0.118092,"reserved":0,"last_update":"0001-01-01T00:00:00Z","name_a2s":"Uncletopia | London | 3 | All Maps","protocol":17,"map":"pl_barnblitz","folder":"tf","game":"Team Fortress","app_id":440,"player_count":24,"max_players":24,"Bots":0,"server_type":"Dedicated","server_os":"Linux","password":true,"vac":true,"version":"7961495","steam_id":85568392924510192,"keywords":["nocrits","nodmgspread","payload","uncletopia"],"game_id":440,"stv_port":27036,"stv_name":"Uncletopia | London | 3 | All Maps | STV","players":[{"user_id":208,"name":"Cosmetic brain","steam_id":76561198055936410,"connected_time":301000000000,"state":"active","ping":75},{"user_id":186,"name":"ratot","steam_id":76561198063132645,"connected_time":2180000000000,"state":"active","ping":52},{"user_id":210,"name":"Jon ÔΩ•·¥óÔΩ•","steam_id":76561199380849468,"connected_time":237000000000,"state":"active","ping":62},{"user_id":198,"name":"ElElliot","steam_id":76561198842278840,"connected_time":1106000000000,"state":"active","ping":115},{"user_id":216,"name":"Shoobs","steam_id":76561198146537507,"connected_time":81000000000,"state":"active","ping":75},{"user_id":197,"name":"Sir Mega Pint","steam_id":76561198093177578,"connected_time":1190000000000,"state":"active","ping":65},{"user_id":179,"name":"Cookies and Bakies","steam_id":76561198017442928,"connected_time":3056000000000,"state":"active","ping":65},{"user_id":219,"name":"High-Key Cat","steam_id":76561198012929012,"connected_time":7000000000,"state":"spawning","ping":59},{"user_id":207,"name":"Bread","steam_id":76561198065231771,"connected_time":389000000000,"state":"active","ping":75},{"user_id":212,"name":"mr sparkles","steam_id":76561197980736364,"connected_time":201000000000,"state":"active","ping":88},{"user_id":217,"name":"coella","steam_id":76561198442803577,"connected_time":78000000000,"state":"active","ping":68},{"user_id":193,"name":"Cornmac","steam_id":76561198104780569,"connected_time":1673000000000,"state":"active","ping":67},{"user_id":189,"name":"LuddeKudde","steam_id":76561198394550832,"connected_time":2063000000000,"state":"active","ping":74},{"user_id":139,"name":"night.s","steam_id":76561198326287823,"connected_time":5484000000000,"state":"active","ping":80},{"user_id":213,"name":"Fat Pigeon","steam_id":76561198817940142,"connected_time":198000000000,"state":"active","ping":45},{"user_id":200,"name":"SwiftKarma","steam_id":76561199005694153,"connected_time":1090000000000,"state":"active","ping":67},{"user_id":214,"name":"–∫–µ–∫—Å","steam_id":76561199203525443,"connected_time":185000000000,"state":"active","ping":93},{"user_id":173,"name":"Cowspace","steam_id":76561198072733227,"connected_time":3237000000000,"state":"active","ping":69},{"user_id":174,"name":"Daniel","steam_id":76561198072565213,"connected_time":3218000000000,"state":"active","ping":72},{"user_id":215,"name":"flange","steam_id":76561198040182692,"connected_time":183000000000,"state":"active","ping":38},{"user_id":101,"name":"cansado","steam_id":76561198003898089,"connected_time":8454000000000,"state":"active","ping":71},{"user_id":188,"name":"Ricey","steam_id":76561198832961307,"connected_time":2155000000000,"state":"active","ping":50},{"user_id":144,"name":"ULTRAGIBUS","steam_id":76561198880402882,"connected_time":5130000000000,"state":"active","ping":164},{"user_id":196,"name":"8 Ball","steam_id":76561197960988736,"connected_time":1622000000000,"state":"active","ping":48}]},{"server_id":321,"name":"Uncletopia | London | 4 | All Maps","name_short":"lon-4","host":"lon-1.uk.uncletopia.com","port":27045,"enabled":true,"region":"eu","cc":"gb","latitude":51.509865,"longitude":-0.118092,"reserved":0,"last_update":"0001-01-01T00:00:00Z","name_a2s":"Uncletopia | London | 4 | All Maps","protocol":17,"map":"cp_dustbowl","folder":"tf","game":"Team Fortress","app_id":440,"player_count":23,"max_players":24,"Bots":0,"server_type":"Dedicated","server_os":"Linux","password":true,"vac":true,"version":"7961495","steam_id":85568392924510193,"keywords":["cp","nocrits","nodmgspread","uncletopia"],"game_id":440,"stv_port":27046,"stv_name":"Uncletopia | London | 4 | All Maps | STV","players":[{"user_id":154,"name":"hyvakii705","steam_id":76561198086630552,"connected_time":1167000000000,"state":"active","ping":90},{"user_id":107,"name":"Marabosha","steam_id":76561198137599173,"connected_time":3879000000000,"state":"active","ping":110},{"user_id":123,"name":"I.AM.THE.BOOP.WHICH.IS.APROACHI","steam_id":76561198049342507,"connected_time":3469000000000,"state":"active","ping":88},{"user_id":145,"name":"shix","steam_id":76561198819968777,"connected_time":1713000000000,"state":"active","ping":87},{"user_id":161,"name":"Paper","steam_id":76561199037749675,"connected_time":624000000000,"state":"active","ping":26},{"user_id":158,"name":"Jouppi","steam_id":76561198063725468,"connected_time":929000000000,"state":"active","ping":97},{"user_id":160,"name":"You Don't Nomi.","steam_id":76561197969137836,"connected_time":635000000000,"state":"active","ping":124},{"user_id":162,"name":"one nation under gock","steam_id":76561198170026338,"connected_time":524000000000,"state":"active","ping":82},{"user_id":152,"name":"T√° pr√°ta√≠ go maith","steam_id":76561198372536459,"connected_time":1261000000000,"state":"active","ping":59},{"user_id":131,"name":"Parmenides","steam_id":76561198079849761,"connected_time":2635000000000,"state":"active","ping":48},{"user_id":94,"name":"JaneDoe","steam_id":76561198067081506,"connected_time":5298000000000,"state":"active","ping":86},{"user_id":135,"name":"snert","steam_id":76561198451550309,"connected_time":2421000000000,"state":"active","ping":57},{"user_id":163,"name":"niandits","steam_id":76561198419798900,"connected_time":425000000000,"state":"active","ping":172},{"user_id":132,"name":"spy's arent real","steam_id":76561198165871469,"connected_time":2625000000000,"state":"active","ping":68},{"user_id":78,"name":"Henry Fonda","steam_id":76561199378865926,"connected_time":6660000000000,"state":"active","ping":78},{"user_id":164,"name":"GarlicRodent","steam_id":76561198252853460,"connected_time":414000000000,"state":"active","ping":46},{"user_id":79,"name":"That Bussy Can Squirt","steam_id":76561199185615752,"connected_time":6522000000000,"state":"active","ping":53},{"user_id":133,"name":"DeterminedXD[HUN]","steam_id":76561199469006453,"connected_time":2514000000000,"state":"active","ping":102},{"user_id":147,"name":"gronk","steam_id":76561199031539961,"connected_time":1666000000000,"state":"active","ping":60},{"user_id":168,"name":"Plep","steam_id":76561198840259819,"connected_time":135000000000,"state":"active","ping":55},{"user_id":166,"name":"moocow916","steam_id":76561198040954339,"connected_time":274000000000,"state":"active","ping":40},{"user_id":155,"name":"HaylingZar","steam_id":76561198053559897,"connected_time":1158000000000,"state":"active","ping":59},{"user_id":119,"name":"TwinProfanity","steam_id":76561198159512387,"connected_time":3729000000000,"state":"active","ping":57}]},{"server_id":21,"name":"Uncletopia | London | 5 | All Maps","name_short":"lon-5","host":"lon-1.uk.uncletopia.com","port":27055,"enabled":true,"region":"eu","cc":"gb","latitude":51.509865,"longitude":-0.118092,"reserved":0,"last_update":"0001-01-01T00:00:00Z","name_a2s":"Uncletopia | London | 5 | All Maps","protocol":17,"map":"pl_barnblitz","folder":"tf","game":"Team Fortress","app_id":440,"player_count":18,"max_players":24,"Bots":0,"server_type":"Dedicated","server_os":"Linux","password":true,"vac":true,"version":"7961495","steam_id":85568392924742829,"keywords":["nocrits","nodmgspread","payload","uncletopia"],"game_id":440,"stv_port":27056,"stv_name":"Uncletopia | London | 5 | All Maps | STV","players":[{"user_id":128,"name":"‚ò∏Koala99‚ò∏","steam_id":76561198375591154,"connected_time":237000000000,"state":"active","ping":52},{"user_id":132,"name":"Gabe Howard","steam_id":76561198331677788,"connected_time":64000000000,"state":"active","ping":79},{"user_id":129,"name":"Josuavl","steam_id":76561199206211988,"connected_time":226000000000,"state":"active","ping":204},{"user_id":133,"name":"Fridge","steam_id":76561198071665589,"connected_time":23000000000,"state":"active","ping":104},{"user_id":131,"name":"cof","steam_id":76561199128417805,"connected_time":153000000000,"state":"active","ping":55},{"user_id":134,"name":"brtaba","steam_id":76561198796334790,"connected_time":6000000000,"state":"spawning","ping":54},{"user_id":125,"name":"sosor","steam_id":76561199121520983,"connected_time":486000000000,"state":"active","ping":43},{"user_id":135,"name":"STEVE","steam_id":76561198063475894,"connected_time":1000000000,"state":"spawning","ping":90},{"user_id":116,"name":"Even R√º√ºd","steam_id":76561197981144291,"connected_time":927000000000,"state":"active","ping":69},{"user_id":95,"name":"DrFast","steam_id":76561198138637093,"connected_time":2091000000000,"state":"active","ping":51},{"user_id":136,"name":"Marky","steam_id":76561199474556920,"connected_time":0,"state":"spawning","ping":39},{"user_id":119,"name":"F","steam_id":76561199149462792,"connected_time":770000000000,"state":"active","ping":65},{"user_id":117,"name":"iniT","steam_id":76561198019883794,"connected_time":805000000000,"state":"active","ping":47},{"user_id":30,"name":"bitkomet","steam_id":76561198058232147,"connected_time":5510000000000,"state":"active","ping":77},{"user_id":121,"name":"Carbadox","steam_id":76561198180779897,"connected_time":768000000000,"state":"active","ping":47},{"user_id":122,"name":"‚Ñ¶","steam_id":76561199088570961,"connected_time":738000000000,"state":"active","ping":131},{"user_id":78,"name":"CreepyYellowDuck","steam_id":76561198000479387,"connected_time":3530000000000,"state":"active","ping":41},{"user_id":123,"name":"cw446","steam_id":76561198056983371,"connected_time":658000000000,"state":"active","ping":60}]},{"server_id":22,"name":"Uncletopia | London | 6 | All Maps","name_short":"lon-6","host":"lon-1.uk.uncletopia.com","port":27065,"enabled":true,"region":"eu","cc":"gb","latitude":51.509865,"longitude":-0.118092,"reserved":0,"last_update":"0001-01-01T00:00:00Z","name_a2s":"Uncletopia | London | 6 | All Maps","protocol":17,"map":"pl_barnblitz","folder":"tf","game":"Team Fortress","app_id":440,"player_count":24,"max_players":24,"Bots":0,"server_type":"Dedicated","server_os":"Linux","password":true,"vac":true,"version":"7961495","steam_id":85568392924742830,"keywords":["nocrits","nodmgspread","payload","uncletopia"],"game_id":440,"stv_port":27066,"stv_name":"Uncletopia | London | 6 | All Maps | STV","players":[{"user_id":280,"name":"Pinkchup","steam_id":76561198106802803,"connected_time":9661000000000,"state":"active","ping":74},{"user_id":382,"name":"litho","steam_id":76561199012941780,"connected_time":617000000000,"state":"active","ping":37},{"user_id":383,"name":"mossfan1","steam_id":76561198087525446,"connected_time":472000000000,"state":"active","ping":77},{"user_id":245,"name":"fence_","steam_id":76561198150386379,"connected_time":12167000000000,"state":"active","ping":43},{"user_id":375,"name":"d","steam_id":76561198165550964,"connected_time":1114000000000,"state":"active","ping":49},{"user_id":304,"name":"Fissure","steam_id":76561198272595481,"connected_time":7391000000000,"state":"active","ping":72},{"user_id":384,"name":"Yody Morris","steam_id":76561199217126057,"connected_time":425000000000,"state":"active","ping":57},{"user_id":364,"name":"Tanza -","steam_id":76561197961335217,"connected_time":1535000000000,"state":"active","ping":64},{"user_id":394,"name":"MK-Ultra Violence","steam_id":76561198081328238,"connected_time":152000000000,"state":"active","ping":75},{"user_id":376,"name":"xXx_PR0_C00M3R_G4M3R!_xXx","steam_id":76561199496470378,"connected_time":1096000000000,"state":"active","ping":171},{"user_id":173,"name":"After8","steam_id":76561198090750865,"connected_time":17305000000000,"state":"active","ping":74},{"user_id":367,"name":"Yachooo","steam_id":76561198085972300,"connected_time":1493000000000,"state":"active","ping":67},{"user_id":385,"name":"Spoingus","steam_id":76561198161402859,"connected_time":417000000000,"state":"active","ping":78},{"user_id":395,"name":"YOUR MOTHER","steam_id":76561199122009463,"connected_time":137000000000,"state":"active","ping":82},{"user_id":396,"name":"Ritzy","steam_id":76561198381955342,"connected_time":124000000000,"state":"active","ping":45},{"user_id":337,"name":"Deimos","steam_id":76561198852007512,"connected_time":3450000000000,"state":"active","ping":65},{"user_id":398,"name":"Stuid","steam_id":76561199427506542,"connected_time":108000000000,"state":"active","ping":85},{"user_id":393,"name":"hongcha","steam_id":76561198269154534,"connected_time":192000000000,"state":"active","ping":48},{"user_id":387,"name":"Mr Sex","steam_id":76561198284096862,"connected_time":408000000000,"state":"active","ping":75},{"user_id":388,"name":"Bob.","steam_id":76561198330093822,"connected_time":403000000000,"state":"active","ping":89},{"user_id":329,"name":"Katealyst","steam_id":76561198331215039,"connected_time":3832000000000,"state":"active","ping":62},{"user_id":399,"name":"Dr. Funkenstein","steam_id":76561197977816210,"connected_time":105000000000,"state":"active","ping":68},{"user_id":391,"name":"coronary artery bypass graft","steam_id":76561198106808440,"connected_time":262000000000,"state":"active","ping":56},{"user_id":339,"name":"Sergeant_cross","steam_id":76561198148270425,"connected_time":3349000000000,"state":"active","ping":68}]},{"server_id":40,"name":"Uncletopia | London | 7 | Stopwatch","name_short":"lon-7","host":"lon-1.uk.uncletopia.com","port":27075,"enabled":true,"region":"eu","cc":"gb","latitude":51.509865,"longitude":-0.118092,"reserved":0,"last_update":"0001-01-01T00:00:00Z","name_a2s":"Uncletopia | London | 7 | Stopwatch","protocol":17,"map":"koth_lakeside_final","folder":"tf","game":"Team Fortress","app_id":440,"player_count":0,"max_players":24,"Bots":0,"server_type":"Dedicated","server_os":"Linux","password":true,"vac":true,"version":"7961495","steam_id":85568392924964314,"keywords":["cp","nocrits","nodmgspread","uncletopia"],"game_id":440,"stv_port":27076,"stv_name":"Uncletopia | London | 7 | Stopwatch | STV","players":null},{"server_id":41,"name":"Uncletopia | London | 8 | Community","name_short":"lon-8","host":"lon-1.uk.uncletopia.com","port":27085,"enabled":true,"region":"eu","cc":"gb","latitude":51.509865,"longitude":-0.118092,"reserved":0,"last_update":"0001-01-01T00:00:00Z","name_a2s":"Uncletopia | London | 8 | Community","protocol":17,"map":"workshop/koth_bagel_rc6.ugc2514036946","folder":"tf","game":"Team Fortress","app_id":440,"player_count":0,"max_players":24,"Bots":0,"server_type":"Dedicated","server_os":"Linux","password":true,"vac":true,"version":"7961495","steam_id":85568392924964315,"keywords":["cp","nocrits","nodmgspread","uncletopia"],"game_id":440,"stv_port":27086,"stv_name":"Uncletopia | London | 8 | Community | STV","players":null},{"server_id":300,"name":"Uncletopia | Montr√©al | 1 | All Maps","name_short":"mtl-1","host":"mtl-1.ca.uncletopia.com","port":27015,"enabled":true,"region":"us-east","cc":"ca","latitude":45.50889,"longitude":-73.56167,"reserved":0,"last_update":"0001-01-01T00:00:00Z","name_a2s":"","protocol":0,"map":"","folder":"","game":"","app_id":0,"player_count":0,"max_players":0,"Bots":0,"server_type":"","server_os":"","password":false,"vac":false,"version":"","steam_id":0,"keywords":null,"game_id":0,"stv_port":0,"stv_name":"","players":null},{"server_id":301,"name":"Uncletopia | Montr√©al | 2 | ???","name_short":"mtl-2","host":"mtl-1.ca.uncletopia.com","port":27025,"enabled":true,"region":"us-east","cc":"ca","latitude":45.50889,"longitude":-73.56167,"reserved":0,"last_update":"0001-01-01T00:00:00Z","name_a2s":"","protocol":0,"map":"","folder":"","game":"","app_id":0,"player_count":0,"max_players":0,"Bots":0,"server_type":"","server_os":"","password":false,"vac":false,"version":"","steam_id":0,"keywords":null,"game_id":0,"stv_port":0,"stv_name":"","players":null},{"server_id":13,"name":"Uncletopia | New York City | 1 | All Maps","name_short":"nyc-1","host":"nyc-1.us.uncletopia.com","port":27015,"enabled":true,"region":"us-east","cc":"us","latitude":40.73061,"longitude":-73.93524,"reserved":0,"last_update":"0001-01-01T00:00:00Z","name_a2s":"Uncletopia | New York City | 1 | All Maps","protocol":17,"map":"pl_pier","folder":"tf","game":"Team Fortress","app_id":440,"player_count":24,"max_players":24,"Bots":0,"server_type":"Dedicated","server_os":"Linux","password":true,"vac":true,"version":"7961495","steam_id":85568392924469993,"keywords":["nocrits","nodmgspread","payload","uncletopia"],"game_id":440,"stv_port":27016,"stv_name":"Uncletopia | New York City | 1 | All Maps | STV","players":[{"user_id":209,"name":"GuyGoom","steam_id":76561198254522178,"connected_time":2289000000000,"state":"active","ping":65},{"user_id":230,"name":"the.land.of.avalon","steam_id":76561198245431668,"connected_time":1392000000000,"state":"active","ping":71},{"user_id":194,"name":"pussyclapper69 (Ape)","steam_id":76561198237827742,"connected_time":3400000000000,"state":"active","ping":54},{"user_id":233,"name":"DeviserDude","steam_id":76561198298631671,"connected_time":1162000000000,"state":"active","ping":69},{"user_id":197,"name":"œÜCliff RacerœÜ","steam_id":76561198095908193,"connected_time":3235000000000,"state":"active","ping":49},{"user_id":216,"name":"The Sack Remover","steam_id":76561198154616010,"connected_time":2043000000000,"state":"active","ping":86},{"user_id":235,"name":"hobojoemama","steam_id":76561198108345568,"connected_time":1082000000000,"state":"active","ping":86},{"user_id":241,"name":"-W3E- grim10465","steam_id":76561198045698581,"connected_time":404000000000,"state":"active","ping":30},{"user_id":227,"name":"Yoyo_Dodo","steam_id":76561198136879596,"connected_time":1654000000000,"state":"active","ping":180},{"user_id":204,"name":"Primal","steam_id":76561197983118203,"connected_time":2644000000000,"state":"active","ping":80},{"user_id":228,"name":"Lorents","steam_id":76561198796919618,"connected_time":1524000000000,"state":"active","ping":138},{"user_id":242,"name":"Chris","steam_id":76561198044278802,"connected_time":293000000000,"state":"active","ping":52},{"user_id":243,"name":"Maurdakar","steam_id":76561197983420976,"connected_time":293000000000,"state":"active","ping":81},{"user_id":213,"name":"2manyman","steam_id":76561198067156972,"connected_time":2173000000000,"state":"active","ping":70},{"user_id":208,"name":"Nephi","steam_id":76561198031525122,"connected_time":2411000000000,"state":"active","ping":85},{"user_id":214,"name":"Wilma","steam_id":76561198138420251,"connected_time":2161000000000,"state":"active","ping":77},{"user_id":232,"name":"Olympic Toe Curling","steam_id":76561198433807531,"connected_time":1320000000000,"state":"active","ping":75},{"user_id":237,"name":"milk","steam_id":76561198813251405,"connected_time":766000000000,"state":"active","ping":50},{"user_id":220,"name":"3/4'' x 18'' industrial pipe","steam_id":76561198094042613,"connected_time":1859000000000,"state":"active","ping":81},{"user_id":221,"name":"Winter the Witchie","steam_id":76561198151971178,"connected_time":1844000000000,"state":"active","ping":78},{"user_id":191,"name":"Rigby","steam_id":76561198258121396,"connected_time":3546000000000,"state":"active","ping":82},{"user_id":236,"name":"leboeufbn","steam_id":76561199228923100,"connected_time":907000000000,"state":"active","ping":78},{"user_id":225,"name":"cheesebro","steam_id":76561198002072852,"connected_time":1692000000000,"state":"active","ping":105},{"user_id":239,"name":"jxh300","steam_id":76561199196579894,"connected_time":744000000000,"state":"active","ping":65}]},{"server_id":14,"name":"Uncletopia | New York City | 2 | All Maps","name_short":"nyc-2","host":"nyc-1.us.uncletopia.com","port":27025,"enabled":true,"region":"us-east","cc":"us","latitude":40.73061,"longitude":-73.93524,"reserved":0,"last_update":"0001-01-01T00:00:00Z","name_a2s":"Uncletopia | New York City | 2 | All Maps","protocol":17,"map":"pl_snowycoast","folder":"tf","game":"Team Fortress","app_id":440,"player_count":0,"max_players":24,"Bots":0,"server_type":"Dedicated","server_os":"Linux","password":true,"vac":true,"version":"7961495","steam_id":85568392924469994,"keywords":["nocrits","nodmgspread","payload","uncletopia"],"game_id":440,"stv_port":27026,"stv_name":"Uncletopia | New York City | 2 | All Maps | STV","players":null},{"server_id":15,"name":"Uncletopia | New York City | 3 | Stopwatch","name_short":"nyc-3","host":"nyc-1.us.uncletopia.com","port":27035,"enabled":true,"region":"us-east","cc":"us","latitude":40.73061,"longitude":-73.93524,"reserved":0,"last_update":"0001-01-01T00:00:00Z","name_a2s":"Uncletopia | New York City | 3 | Stopwatch","protocol":17,"map":"cp_gullywash_final1","folder":"tf","game":"Team Fortress","app_id":440,"player_count":0,"max_players":24,"Bots":0,"server_type":"Dedicated","server_os":"Linux","password":true,"vac":true,"version":"7961495","steam_id":85568392924742820,"keywords":["cp","nocrits","nodmgspread","uncletopia"],"game_id":440,"stv_port":27036,"stv_name":"Uncletopia | New York City | 3 | Stopwatch | STV","players":null},{"server_id":16,"name":"Uncletopia | New York City | 4 | Community","name_short":"nyc-4","host":"nyc-1.us.uncletopia.com","port":27045,"enabled":true,"region":"us-east","cc":"us","latitude":40.73061,"longitude":-73.93524,"reserved":0,"last_update":"0001-01-01T00:00:00Z","name_a2s":"Uncletopia | New York City | 4 | Community","protocol":17,"map":"cp_altitude","folder":"tf","game":"Team Fortress","app_id":440,"player_count":0,"max_players":24,"Bots":0,"server_type":"Dedicated","server_os":"Linux","password":true,"vac":true,"version":"7961495","steam_id":85568392924742821,"keywords":["cp","nocrits","nodmgspread","uncletopia"],"game_id":440,"stv_port":27046,"stv_name":"Uncletopia | New York City | 4 | Community | STV","players":null},{"server_id":142,"name":"Uncletopia | S√£o Paulo | 1 | All Maps","name_short":"sao-1","host":"sao-1.br.uncletopia.com","port":27015,"enabled":true,"region":"sa","cc":"br","latitude":-23.533773,"longitude":-46.62529,"reserved":0,"last_update":"0001-01-01T00:00:00Z","name_a2s":"Uncletopia | S√£o Paulo | 1 | All Maps","protocol":17,"map":"koth_viaduct","folder":"tf","game":"Team Fortress","app_id":440,"player_count":0,"max_players":24,"Bots":0,"server_type":"Dedicated","server_os":"Linux","password":true,"vac":true,"version":"7961495","steam_id":85568392924469996,"keywords":["cp","nocrits","nodmgspread","uncletopia"],"game_id":440,"stv_port":27016,"stv_name":"Uncletopia | S√£o Paulo | 1 | All Maps | STV","players":null},{"server_id":143,"name":"Uncletopia | S√£o Paulo | 2 | Community","name_short":"sao-2","host":"sao-2.br.uncletopia.com","port":27015,"enabled":true,"region":"sa","cc":"br","latitude":-23.533773,"longitude":-46.62529,"reserved":0,"last_update":"0001-01-01T00:00:00Z","name_a2s":"Uncletopia | S√£o Paulo | 2 | Community","protocol":17,"map":"workshop/pl_fifthcurve_rc1.ugc648227046","folder":"tf","game":"Team Fortress","app_id":440,"player_count":0,"max_players":24,"Bots":0,"server_type":"Dedicated","server_os":"Linux","password":true,"vac":true,"version":"7961495","steam_id":85568392924485349,"keywords":["nocrits","nodmgspread","payload","uncletopia"],"game_id":440,"stv_port":27016,"stv_name":"Uncletopia | S√£o Paulo | 2 | Community | STV","players":null},{"server_id":7,"name":"Uncletopia | Seattle | 1 | All Maps","name_short":"sea-1","host":"sea-1.us.uncletopia.com","port":27015,"enabled":true,"region":"us-west","cc":"us","latitude":47.608013,"longitude":-122.33517,"reserved":0,"last_update":"0001-01-01T00:00:00Z","name_a2s":"Uncletopia | Seattle | 1 | All Maps","protocol":17,"map":"pl_swiftwater_final1","folder":"tf","game":"Team Fortress","app_id":440,"player_count":24,"max_players":24,"Bots":0,"server_type":"Dedicated","server_os":"Linux","password":true,"vac":true,"version":"7961495","steam_id":85568392924469997,"keywords":["nocrits","nodmgspread","payload","uncletopia"],"game_id":440,"stv_port":27016,"stv_name":"Uncletopia | Seattle | 1 | All Maps | STV","players":[{"user_id":242,"name":"Shark Sandwich","steam_id":76561198025007938,"connected_time":1358000000000,"state":"active","ping":45},{"user_id":251,"name":"Maid 'n' China","steam_id":76561198423392976,"connected_time":395000000000,"state":"active","ping":60},{"user_id":246,"name":"allahsdroptop","steam_id":76561198133195238,"connected_time":845000000000,"state":"active","ping":62},{"user_id":188,"name":"louise sneeze","steam_id":76561198062451648,"connected_time":5412000000000,"state":"active","ping":90},{"user_id":238,"name":"BlazedBunny","steam_id":76561198243610560,"connected_time":1823000000000,"state":"active","ping":63},{"user_id":216,"name":"TheSpiritWolf12","steam_id":76561198186225203,"connected_time":3575000000000,"state":"active","ping":61},{"user_id":228,"name":"Ranch","steam_id":76561198035557013,"connected_time":3179000000000,"state":"active","ping":92},{"user_id":240,"name":"Samni Chippu","steam_id":76561198088054190,"connected_time":1439000000000,"state":"active","ping":66},{"user_id":132,"name":"Xynnan","steam_id":76561198122232186,"connected_time":9499000000000,"state":"active","ping":98},{"user_id":245,"name":"Mcaraway2","steam_id":76561198049916886,"connected_time":861000000000,"state":"active","ping":91},{"user_id":247,"name":"Lactose ‡πëÔ≠•","steam_id":76561198208256987,"connected_time":819000000000,"state":"active","ping":66},{"user_id":234,"name":"Mitchell","steam_id":76561197972922328,"connected_time":2024000000000,"state":"active","ping":75},{"user_id":248,"name":"pirate (real)","steam_id":76561199247095754,"connected_time":791000000000,"state":"active","ping":85},{"user_id":235,"name":"Saint Pablo","steam_id":76561198083300159,"connected_time":1865000000000,"state":"active","ping":73},{"user_id":253,"name":"Schuuz","steam_id":76561198045105223,"connected_time":369000000000,"state":"active","ping":107},{"user_id":254,"name":"Vortiger","steam_id":76561198275813176,"connected_time":327000000000,"state":"active","ping":61},{"user_id":250,"name":"zinnk","steam_id":76561198092081825,"connected_time":411000000000,"state":"active","ping":61},{"user_id":221,"name":"[ibb‚Ñ¢]Shadow20X6-ENGI","steam_id":76561198019292755,"connected_time":3387000000000,"state":"active","ping":75},{"user_id":185,"name":"Flea103","steam_id":76561198085863864,"connected_time":6086000000000,"state":"active","ping":101},{"user_id":227,"name":"Sir Loincloth","steam_id":76561198033073991,"connected_time":3273000000000,"state":"active","ping":62},{"user_id":209,"name":"Buswolley","steam_id":76561197995205571,"connected_time":4198000000000,"state":"active","ping":59},{"user_id":225,"name":"enhanced with disney's FastPlay","steam_id":76561198164134387,"connected_time":3361000000000,"state":"active","ping":50},{"user_id":252,"name":"Mr defrost","steam_id":76561198322125657,"connected_time":395000000000,"state":"active","ping":52},{"user_id":237,"name":"fwoov","steam_id":76561198129166260,"connected_time":1856000000000,"state":"active","ping":75}]},{"server_id":119,"name":"Uncletopia | Seattle | 2 | All Maps","name_short":"sea-2","host":"sea-1.us.uncletopia.com","port":27025,"enabled":true,"region":"us-west","cc":"us","latitude":47.608013,"longitude":-122.33517,"reserved":0,"last_update":"0001-01-01T00:00:00Z","name_a2s":"Uncletopia | Seattle | 2 | All Maps","protocol":17,"map":"koth_highpass","folder":"tf","game":"Team Fortress","app_id":440,"player_count":0,"max_players":24,"Bots":0,"server_type":"Dedicated","server_os":"Linux","password":true,"vac":true,"version":"7961495","steam_id":85568392924469998,"keywords":["cp","nocrits","nodmgspread","uncletopia"],"game_id":440,"stv_port":27026,"stv_name":"Uncletopia | Seattle | 2 | All Maps | STV","players":null},{"server_id":406,"name":"Uncletopia | Seattle | 3 | Stopwatch","name_short":"sea-3","host":"sea-1.us.uncletopia.com","port":27035,"enabled":true,"region":"us-west","cc":"us","latitude":47.608013,"longitude":-122.33517,"reserved":0,"last_update":"0001-01-01T00:00:00Z","name_a2s":"Uncletopia | Seattle | 3 | Stopwatch","protocol":17,"map":"cp_gullywash_final1","folder":"tf","game":"Team Fortress","app_id":440,"player_count":0,"max_players":24,"Bots":0,"server_type":"Dedicated","server_os":"Linux","password":true,"vac":true,"version":"7961495","steam_id":85568392924515217,"keywords":["cp","nocrits","nodmgspread","uncletopia"],"game_id":440,"stv_port":27036,"stv_name":"Uncletopia | Seattle | 3 | Stopwatch | STV","players":null},{"server_id":17,"name":"Uncletopia | San Francisco | 1 | All Maps","name_short":"sfo-1","host":"sfo-1.us.uncletopia.com","port":27015,"enabled":true,"region":"us-west","cc":"us","latitude":37.77397,"longitude":-122.4313,"reserved":0,"last_update":"0001-01-01T00:00:00Z","name_a2s":"Uncletopia | San Francisco | 1 | All Maps","protocol":17,"map":"koth_cascade","folder":"tf","game":"Team Fortress","app_id":440,"player_count":0,"max_players":24,"Bots":0,"server_type":"Dedicated","server_os":"Linux","password":true,"vac":true,"version":"7961495","steam_id":85568392924469999,"keywords":["cp","nocrits","nodmgspread","uncletopia"],"game_id":440,"stv_port":27016,"stv_name":"Uncletopia | San Francisco | 1 | All Maps | STV","players":null},{"server_id":18,"name":"Uncletopia | San Francisco | 2 | All Maps","name_short":"sfo-2","host":"sfo-1.us.uncletopia.com","port":27025,"enabled":true,"region":"us-west","cc":"us","latitude":37.77397,"longitude":-122.4313,"reserved":0,"last_update":"0001-01-01T00:00:00Z","name_a2s":"Uncletopia | San Francisco | 2 | All Maps","protocol":17,"map":"pl_frontier_final","folder":"tf","game":"Team Fortress","app_id":440,"player_count":0,"max_players":24,"Bots":0,"server_type":"Dedicated","server_os":"Linux","password":true,"vac":true,"version":"7961495","steam_id":85568392924470000,"keywords":["nocrits","nodmgspread","payload","uncletopia"],"game_id":440,"stv_port":27026,"stv_name":"Uncletopia | San Francisco | 2 | All Maps | STV","players":null},{"server_id":19,"name":"Uncletopia | San Francisco | 3 | Stopwatch","name_short":"sfo-3","host":"sfo-1.us.uncletopia.com","port":27035,"enabled":true,"region":"us-west","cc":"us","latitude":37.77397,"longitude":-122.4313,"reserved":0,"last_update":"0001-01-01T00:00:00Z","name_a2s":"Uncletopia | San Francisco | 3 | Stopwatch","protocol":17,"map":"pl_pier","folder":"tf","game":"Team Fortress","app_id":440,"player_count":0,"max_players":24,"Bots":0,"server_type":"Dedicated","server_os":"Linux","password":true,"vac":true,"version":"7961495","steam_id":85568392924742824,"keywords":["nocrits","nodmgspread","payload","uncletopia"],"game_id":440,"stv_port":27036,"stv_name":"Uncletopia | San Francisco | 3 | Stopwatch | STV","players":null},{"server_id":20,"name":"Uncletopia | San Francisco | 4 | Community","name_short":"sfo-4","host":"sfo-1.us.uncletopia.com","port":27045,"enabled":true,"region":"us-west","cc":"us","latitude":37.77397,"longitude":-122.4313,"reserved":0,"last_update":"0001-01-01T00:00:00Z","name_a2s":"Uncletopia | San Francisco | 4 | Community","protocol":17,"map":"pl_pier","folder":"tf","game":"Team Fortress","app_id":440,"player_count":0,"max_players":24,"Bots":0,"server_type":"Dedicated","server_os":"Linux","password":true,"vac":true,"version":"7961495","steam_id":85568392924742826,"keywords":["nocrits","nodmgspread","payload","uncletopia"],"game_id":440,"stv_port":27046,"stv_name":"Uncletopia | San Francisco | 4 | Community | STV","players":null},{"server_id":141,"name":"Uncletopia | Sydney | 1 | All Maps","name_short":"syd-1","host":"syd-1.au.uncletopia.com","port":27015,"enabled":true,"region":"au","cc":"au","latitude":-33.865143,"longitude":151.2099,"reserved":0,"last_update":"0001-01-01T00:00:00Z","name_a2s":"Uncletopia | Sydney | 1 | All Maps","protocol":17,"map":"koth_lakeside_final","folder":"tf","game":"Team Fortress","app_id":440,"player_count":0,"max_players":24,"Bots":0,"server_type":"Dedicated","server_os":"Linux","password":true,"vac":true,"version":"7961495","steam_id":85568392924470001,"keywords":["cp","nocrits","nodmgspread","uncletopia"],"game_id":440,"stv_port":27016,"stv_name":"Uncletopia | Sydney | 1 | All Maps | STV","players":null},{"server_id":123,"name":"Uncletopia | Sydney | 2 | All Maps","name_short":"syd-2","host":"syd-1.au.uncletopia.com","port":27025,"enabled":true,"region":"au","cc":"au","latitude":-33.865143,"longitude":151.2099,"reserved":0,"last_update":"0001-01-01T00:00:00Z","name_a2s":"Uncletopia | Sydney | 2 | All Maps","protocol":17,"map":"koth_lakeside_final","folder":"tf","game":"Team Fortress","app_id":440,"player_count":0,"max_players":24,"Bots":0,"server_type":"Dedicated","server_os":"Linux","password":true,"vac":true,"version":"7961495","steam_id":85568392924470002,"keywords":["cp","nocrits","nodmgspread","uncletopia"],"game_id":440,"stv_port":27026,"stv_name":"Uncletopia | Sydney | 2 | All Maps | STV","players":null},{"server_id":395,"name":"Uncletopia | Sydney | 3 | All Maps","name_short":"syd-3","host":"syd-1.au.uncletopia.com","port":27035,"enabled":true,"region":"au","cc":"au","latitude":-33.865143,"longitude":151.2099,"reserved":0,"last_update":"0001-01-01T00:00:00Z","name_a2s":"Uncletopia | Sydney | 3 | All Maps","protocol":17,"map":"cp_dustbowl","folder":"tf","game":"Team Fortress","app_id":440,"player_count":0,"max_players":24,"Bots":0,"server_type":"Dedicated","server_os":"Linux","password":true,"vac":true,"version":"7961495","steam_id":85568392925194467,"keywords":["cp","nocrits","nodmgspread","uncletopia"],"game_id":440,"stv_port":27036,"stv_name":"Uncletopia | Sydney | 3 | All Maps | STV","players":null},{"server_id":396,"name":"Uncletopia | Sydney | 4 | All Maps","name_short":"syd-4","host":"syd-1.au.uncletopia.com","port":27045,"enabled":true,"region":"au","cc":"au","latitude":-33.865143,"longitude":151.2099,"reserved":0,"last_update":"0001-01-01T00:00:00Z","name_a2s":"Uncletopia | Sydney | 4 | All Maps","protocol":17,"map":"cp_sunshine","folder":"tf","game":"Team Fortress","app_id":440,"player_count":0,"max_players":24,"Bots":0,"server_type":"Dedicated","server_os":"Linux","password":true,"vac":true,"version":"7961495","steam_id":85568392925397958,"keywords":["cp","nocrits","nodmgspread","uncletopia"],"game_id":440,"stv_port":27046,"stv_name":"Uncletopia | Sydney | 4 | All Maps | STV","players":null},{"server_id":58,"name":"Uncletopia | Sydney | 5 | Stopwatch","name_short":"syd-5","host":"syd-1.au.uncletopia.com","port":27055,"enabled":true,"region":"au","cc":"au","latitude":-33.865143,"longitude":151.2099,"reserved":0,"last_update":"0001-01-01T00:00:00Z","name_a2s":"Uncletopia | Sydney | 5 | Stopwatch","protocol":17,"map":"workshop/koth_ashville_final.ugc2130459942","folder":"tf","game":"Team Fortress","app_id":440,"player_count":0,"max_players":24,"Bots":0,"server_type":"Dedicated","server_os":"Linux","password":true,"vac":true,"version":"7961495","steam_id":85568392925397959,"keywords":["cp","nocrits","nodmgspread","uncletopia"],"game_id":440,"stv_port":27056,"stv_name":"Uncletopia | Sydney | 5 | Stopwatch | STV","players":null},{"server_id":59,"name":"Uncletopia | Sydney | 6 | Community","name_short":"syd-6","host":"syd-1.au.uncletopia.com","port":27065,"enabled":true,"region":"au","cc":"au","latitude":-33.865143,"longitude":151.2099,"reserved":0,"last_update":"0001-01-01T00:00:00Z","name_a2s":"Uncletopia | Sydney | 6 | Community","protocol":17,"map":"workshop/koth_kemptown_rc1.ugc767410655","folder":"tf","game":"Team Fortress","app_id":440,"player_count":0,"max_players":24,"Bots":0,"server_type":"Dedicated","server_os":"Linux","password":true,"vac":true,"version":"7961495","steam_id":85568392925397960,"keywords":["cp","nocrits","nodmgspread","uncletopia"],"game_id":440,"stv_port":27066,"stv_name":"Uncletopia | Sydney | 6 | Community | STV","players":null},{"server_id":49,"name":"Uncletopia | Warsaw | 1 | All Maps","name_short":"waw-1","host":"waw-1.pl.uncletopia.com","port":27015,"enabled":true,"region":"eu","cc":"pl","latitude":52.2297,"longitude":21.017532,"reserved":0,"last_update":"0001-01-01T00:00:00Z","name_a2s":"Uncletopia | Warsaw | 1 | All Maps","protocol":17,"map":"koth_lakeside_final","folder":"tf","game":"Team Fortress","app_id":440,"player_count":0,"max_players":24,"Bots":0,"server_type":"Dedicated","server_os":"Linux","password":true,"vac":true,"version":"7961495","steam_id":85568392925397850,"keywords":["cp","nocrits","nodmgspread","uncletopia"],"game_id":440,"stv_port":27016,"stv_name":"Uncletopia | Warsaw | 1 | All Maps | STV","players":null},{"server_id":50,"name":"Uncletopia | Warsaw | 2 | All Maps","name_short":"waw-2","host":"waw-1.pl.uncletopia.com","port":27025,"enabled":true,"region":"eu","cc":"pl","latitude":52.2297,"longitude":21.017532,"reserved":0,"last_update":"0001-01-01T00:00:00Z","name_a2s":"Uncletopia | Warsaw | 2 | All Maps","protocol":17,"map":"cp_altitude","folder":"tf","game":"Team Fortress","app_id":440,"player_count":0,"max_players":24,"Bots":0,"server_type":"Dedicated","server_os":"Linux","password":true,"vac":true,"version":"7961495","steam_id":85568392925397851,"keywords":["cp","nocrits","nodmgspread","uncletopia"],"game_id":440,"stv_port":27026,"stv_name":"Uncletopia | Warsaw | 2 | All Maps | STV","players":null},{"server_id":51,"name":"Uncletopia | Warsaw | 3 | All Maps","name_short":"waw-3","host":"waw-1.pl.uncletopia.com","port":27035,"enabled":true,"region":"eu","cc":"pl","latitude":52.2297,"longitude":21.017532,"reserved":0,"last_update":"0001-01-01T00:00:00Z","name_a2s":"Uncletopia | Warsaw | 3 | All Maps","protocol":17,"map":"pl_pier","folder":"tf","game":"Team Fortress","app_id":440,"player_count":14,"max_players":24,"Bots":0,"server_type":"Dedicated","server_os":"Linux","password":true,"vac":true,"version":"7961495","steam_id":85568392925397852,"keywords":["nocrits","nodmgspread","payload","uncletopia"],"game_id":440,"stv_port":27036,"stv_name":"Uncletopia | Warsaw | 3 | All Maps | STV","players":[{"user_id":222,"name":"rhean\u002621","steam_id":76561198389400021,"connected_time":846000000000,"state":"active","ping":46},{"user_id":223,"name":"AllInTw0","steam_id":76561199063146937,"connected_time":809000000000,"state":"active","ping":84},{"user_id":228,"name":"wi-fi","steam_id":76561199474140904,"connected_time":202000000000,"state":"active","ping":116},{"user_id":209,"name":"Baklava Enjoyer","steam_id":76561198990679631,"connected_time":1590000000000,"state":"active","ping":87},{"user_id":229,"name":"Pitsa","steam_id":76561198337250544,"connected_time":165000000000,"state":"active","ping":104},{"user_id":210,"name":"‚ôÇ MGE ‚ôÇ PUPSIK ‚ôÇ","steam_id":76561198308302932,"connected_time":1574000000000,"state":"active","ping":103},{"user_id":226,"name":"Litauszki Zoltan","steam_id":76561198103182374,"connected_time":627000000000,"state":"active","ping":98},{"user_id":230,"name":"Mischail","steam_id":76561198016127010,"connected_time":76000000000,"state":"active","ping":91},{"user_id":231,"name":"Asfalto","steam_id":76561199149972879,"connected_time":47000000000,"state":"active","ping":64},{"user_id":191,"name":"Pastoss","steam_id":76561198379098260,"connected_time":3094000000000,"state":"active","ping":76},{"user_id":212,"name":"JareJare","steam_id":76561199040893751,"connected_time":1544000000000,"state":"active","ping":73},{"user_id":220,"name":"D_for_Dumbass","steam_id":76561198908993740,"connected_time":1024000000000,"state":"active","ping":67},{"user_id":149,"name":"Killbasa","steam_id":76561198064868400,"connected_time":6331000000000,"state":"active","ping":147},{"user_id":153,"name":"Aku+","steam_id":76561198813782795,"connected_time":6220000000000,"state":"active","ping":97}]},{"server_id":52,"name":"Uncletopia | Warsaw | 4 | All Maps","name_short":"waw-4","host":"waw-1.pl.uncletopia.com","port":27045,"enabled":true,"region":"eu","cc":"pl","latitude":52.2297,"longitude":21.017532,"reserved":0,"last_update":"0001-01-01T00:00:00Z","name_a2s":"Uncletopia | Warsaw | 4 | All Maps","protocol":17,"map":"cp_altitude","folder":"tf","game":"Team Fortress","app_id":440,"player_count":0,"max_players":24,"Bots":0,"server_type":"Dedicated","server_os":"Linux","password":true,"vac":true,"version":"7961495","steam_id":85568392925397853,"keywords":["cp","nocrits","nodmgspread","uncletopia"],"game_id":440,"stv_port":27046,"stv_name":"Uncletopia | Warsaw | 4 | All Maps | STV","players":null},{"server_id":53,"name":"Uncletopia | Warsaw | 5 | Stopwatch","name_short":"waw-5","host":"waw-1.pl.uncletopia.com","port":27055,"enabled":true,"region":"eu","cc":"pl","latitude":52.2297,"longitude":21.017532,"reserved":0,"last_update":"0001-01-01T00:00:00Z","name_a2s":"Uncletopia | Warsaw | 5 | Stopwatch","protocol":17,"map":"workshop/pl_vigil_rc10.ugc1266210012","folder":"tf","game":"Team Fortress","app_id":440,"player_count":0,"max_players":24,"Bots":0,"server_type":"Dedicated","server_os":"Linux","password":true,"vac":true,"version":"7961495","steam_id":85568392925397854,"keywords":["nocrits","nodmgspread","payload","uncletopia"],"game_id":440,"stv_port":27056,"stv_name":"Uncletopia | Warsaw | 5 | Stopwatch | STV","players":null},{"server_id":54,"name":"Uncletopia | Warsaw | 6 | Community","name_short":"waw-6","host":"waw-1.pl.uncletopia.com","port":27065,"enabled":true,"region":"eu","cc":"pl","latitude":52.2297,"longitude":21.017532,"reserved":0,"last_update":"0001-01-01T00:00:00Z","name_a2s":"Uncletopia | Warsaw | 6 | Community","protocol":17,"map":"cp_altitude","folder":"tf","game":"Team Fortress","app_id":440,"player_count":5,"max_players":24,"Bots":0,"server_type":"Dedicated","server_os":"Linux","password":true,"vac":true,"version":"7961495","steam_id":85568392925397856,"keywords":["cp","nocrits","nodmgspread","uncletopia"],"game_id":440,"stv_port":27066,"stv_name":"Uncletopia | Warsaw | 6 | Community | STV","players":[{"user_id":5,"name":"PLai·É¶nex","steam_id":76561199175516566,"connected_time":946000000000,"state":"active","ping":69},{"user_id":6,"name":"odacovA","steam_id":76561199383345208,"connected_time":678000000000,"state":"active","ping":170},{"user_id":7,"name":"TWiNZY „ÉÑ","steam_id":76561198162833715,"connected_time":571000000000,"state":"active","ping":117},{"user_id":8,"name":"_MirS—Åou—Ç_","steam_id":76561198061305864,"connected_time":505000000000,"state":"active","ping":109},{"user_id":9,"name":"Sansas_274","steam_id":76561199026961394,"connected_time":340000000000,"state":"active","ping":61}]}]}