{"status":true,"message":"","result":[{"server_id":9,"name":"Uncletopia | Atlanta | 1 | All Maps","name_short":"atl-1","host":"atl-1.us.uncletopia.com","port":27015,"enabled":true,"region":"us-east","cc":"us","latitude":33.753746,"longitude":-84.38633,"reserved":0,"last_update":"0001-01-01T00:00:00Z","name_a2s":"Uncletopia | Atlanta | 1 | All Maps","protocol":17,"map":"pl_snowycoast","folder":"tf","game":"Team Fortress","app_id":440,"player_count":23,"max_players":24,"Bots":0,"server_type":"Dedicated","server_os":"Linux","password":true,"vac":true,"version":"7882260","steam_id":85568392924469982,"keywords":["nocrits","nodmgspread","payload","uncletopia"],"game_id":440,"stv_port":27016,"stv_name":"Uncletopia | Atlanta | 1 | All Maps | STV","players":[{"user_id":465,"name":"nomad","steam_id":76561197998740399,"connected_time":416000000000,"state":"active","ping":67},{"user_id":462,"name":"Sophie","steam_id":76561198170408057,"connected_time":445000000000,"state":"active","ping":53},{"user_id":471,"name":"drain.pablo.2005","steam_id":76561198303963691,"connected_time":60000000000,"state":"active","ping":54},{"user_id":289,"name":"LUM","steam_id":76561198069976825,"connected_time":11597000000000,"state":"active","ping":87},{"user_id":464,"name":"eish","steam_id":76561198089463603,"connected_time":420000000000,"state":"active","ping":121},{"user_id":469,"name":"Am da Best","steam_id":76561198163825955,"connected_time":84000000000,"state":"active","ping":103},{"user_id":444,"name":"Zugzwang","steam_id":76561199224446350,"connected_time":1971000000000,"state":"active","ping":107},{"user_id":455,"name":"Communist Zobomafoo","steam_id":76561198068173978,"connected_time":1202000000000,"state":"active","ping":88},{"user_id":445,"name":"emilee (evil)","steam_id":76561198061455664,"connected_time":1837000000000,"state":"active","ping":72},{"user_id":466,"name":"Wahooka","steam_id":76561197962240925,"connected_time":393000000000,"state":"active","ping":56},{"user_id":427,"name":"Yam Jazzy Jim","steam_id":76561198000788950,"connected_time":3076000000000,"state":"active","ping":77},{"user_id":452,"name":"shploopie","steam_id":76561198264289810,"connected_time":1256000000000,"state":"active","ping":104},{"user_id":451,"name":"boppetson","steam_id":76561198073529045,"connected_time":1259000000000,"state":"active","ping":62},{"user_id":412,"name":"O'Keearns","steam_id":76561198042213797,"connected_time":3833000000000,"state":"active","ping":44},{"user_id":470,"name":"Ok then","steam_id":76561198891914787,"connected_time":83000000000,"state":"active","ping":113},{"user_id":372,"name":"lil hog","steam_id":76561199230929836,"connected_time":4822000000000,"state":"active","ping":79},{"user_id":468,"name":"Jin","steam_id":76561198119873148,"connected_time":245000000000,"state":"active","ping":76},{"user_id":463,"name":"thomasdee725!!!","steam_id":76561199189526173,"connected_time":442000000000,"state":"active","ping":127},{"user_id":457,"name":"Looney","steam_id":76561198280518635,"connected_time":1055000000000,"state":"active","ping":88},{"user_id":456,"name":"BIG HOG","steam_id":76561198079923652,"connected_time":1105000000000,"state":"active","ping":75},{"user_id":449,"name":"Toonice","steam_id":76561198402994885,"connected_time":1434000000000,"state":"active","ping":84},{"user_id":442,"name":"big ol' buford","steam_id":76561198290675957,"connected_time":2132000000000,"state":"active","ping":64},{"user_id":410,"name":"DiGiorno's Pizza","steam_id":76561198142244035,"connected_time":4139000000000,"state":"active","ping":75}]},{"server_id":104,"name":"Uncletopia | Atlanta | 2 | All Maps","name_short":"atl-2","host":"atl-1.us.uncletopia.com","port":27025,"enabled":true,"region":"us-east","cc":"us","latitude":33.753746,"longitude":-84.38633,"reserved":0,"last_update":"0001-01-01T00:00:00Z","name_a2s":"Uncletopia | Atlanta | 2 | All Maps","protocol":17,"map":"koth_viaduct","folder":"tf","game":"Team Fortress","app_id":440,"player_count":24,"max_players":24,"Bots":0,"server_type":"Dedicated","server_os":"Linux","password":true,"vac":true,"version":"7882260","steam_id":85568392924469983,"keywords":["cp","nocrits","nodmgspread","uncletopia"],"game_id":440,"stv_port":27026,"stv_name":"Uncletopia | Atlanta | 2 | All Maps | STV","players":[{"user_id":369,"name":"ESS Jet","steam_id":76561198098130891,"connected_time":1603000000000,"state":"active","ping":70},{"user_id":366,"name":"Doomagedden","steam_id":76561198272589475,"connected_time":1762000000000,"state":"active","ping":69},{"user_id":382,"name":"Biome","steam_id":76561198133485826,"connected_time":327000000000,"state":"active","ping":63},{"user_id":309,"name":"NFT(non functioning testicle)","steam_id":76561198092435966,"connected_time":6139000000000,"state":"active","ping":97},{"user_id":379,"name":"A_Malebolgia","steam_id":76561198097722818,"connected_time":455000000000,"state":"active","ping":89},{"user_id":365,"name":"M@verick","steam_id":76561198006363519,"connected_time":1872000000000,"state":"active","ping":75},{"user_id":315,"name":"SpycyNoodles","steam_id":76561198309439750,"connected_time":5646000000000,"state":"active","ping":92},{"user_id":346,"name":"Stakie","steam_id":76561198401556657,"connected_time":3668000000000,"state":"active","ping":160},{"user_id":351,"name":"Bad Rollout","steam_id":76561197971948876,"connected_time":3209000000000,"state":"active","ping":77},{"user_id":383,"name":"Gareg","steam_id":76561198171325614,"connected_time":307000000000,"state":"active","ping":114},{"user_id":377,"name":"blue_tristan03","steam_id":76561199468377688,"connected_time":800000000000,"state":"active","ping":105},{"user_id":362,"name":"the piss maker (F2P)","steam_id":76561199338113724,"connected_time":1913000000000,"state":"active","ping":103},{"user_id":384,"name":"Throathurt","steam_id":76561198030711450,"connected_time":204000000000,"state":"active","ping":55},{"user_id":380,"name":"Notation","steam_id":76561198119509319,"connected_time":448000000000,"state":"active","ping":45},{"user_id":301,"name":"EndlessSpace45","steam_id":76561198081117820,"connected_time":6924000000000,"state":"active","ping":85},{"user_id":373,"name":"ShadowWasUhOh","steam_id":76561198400361935,"connected_time":1340000000000,"state":"active","ping":49},{"user_id":385,"name":"Worst Scenario","steam_id":76561199052130229,"connected_time":141000000000,"state":"active","ping":68},{"user_id":334,"name":"matt","steam_id":76561198151093701,"connected_time":4651000000000,"state":"active","ping":82},{"user_id":368,"name":"kazoo2","steam_id":76561198260473504,"connected_time":1729000000000,"state":"active","ping":84},{"user_id":306,"name":"SaLt_VauLt","steam_id":76561199096277985,"connected_time":6704000000000,"state":"active","ping":73},{"user_id":335,"name":"Apetometrist","steam_id":76561198045391635,"connected_time":4637000000000,"state":"active","ping":86},{"user_id":212,"name":"aisu","steam_id":76561198043768507,"connected_time":13724000000000,"state":"active","ping":88},{"user_id":376,"name":"TheRiGuy21","steam_id":76561199466243640,"connected_time":980000000000,"state":"active","ping":94},{"user_id":371,"name":"join the fifth church today!","steam_id":76561198329087915,"connected_time":1514000000000,"state":"active","ping":98}]},{"server_id":400,"name":"Uncletopia | Atlanta | 3 | Community","name_short":"atl-3","host":"atl-1.us.uncletopia.com","port":27035,"enabled":true,"region":"us-east","cc":"us","latitude":33.753746,"longitude":-84.38633,"reserved":0,"last_update":"0001-01-01T00:00:00Z","name_a2s":"Uncletopia | Atlanta | 3 | Community","protocol":17,"map":"workshop/koth_kemptown_rc1.ugc767410655","folder":"tf","game":"Team Fortress","app_id":440,"player_count":0,"max_players":24,"Bots":0,"server_type":"Dedicated","server_os":"Linux","password":true,"vac":true,"version":"7882260","steam_id":85568392924515187,"keywords":["cp","nocrits","nodmgspread","uncletopia"],"game_id":440,"stv_port":27036,"stv_name":"Uncletopia | Atlanta | 3 | Community | STV","players":null},{"server_id":401,"name":"Uncletopia | Atlanta | 4 | No Payload","name_short":"atl-4","host":"atl-1.us.uncletopia.com","port":27045,"enabled":true,"region":"us-east","cc":"us","latitude":33.753746,"longitude":-84.38633,"reserved":0,"last_update":"0001-01-01T00:00:00Z","name_a2s":"","protocol":0,"map":"","folder":"","game":"","app_id":0,"player_count":0,"max_players":0,"Bots":0,"server_type":"","server_os":"","password":false,"vac":false,"version":"","steam_id":0,"keywords":null,"game_id":0,"stv_port":0,"stv_name":"","players":null},{"server_id":2,"name":"Uncletopia | Chicago | 1 | All Maps","name_short":"chi-1","host":"chi-1.us.uncletopia.com","port":27015,"enabled":true,"region":"us-central","cc":"us","latitude":41.881832,"longitude":-87.62318,"reserved":0,"last_update":"0001-01-01T00:00:00Z","name_a2s":"Uncletopia | Chicago | 1 | All Maps","protocol":17,"map":"cp_egypt_final","folder":"tf","game":"Team Fortress","app_id":440,"player_count":24,"max_players":24,"Bots":0,"server_type":"Dedicated","server_os":"Linux","password":true,"vac":true,"version":"7882260","steam_id":85568392924469984,"keywords":["cp","nocrits","nodmgspread","uncletopia"],"game_id":440,"stv_port":27016,"stv_name":"Uncletopia | Chicago | 1 | All Maps | STV","players":[{"user_id":437,"name":"Ras","steam_id":76561198123546775,"connected_time":2561000000000,"state":"active","ping":65},{"user_id":441,"name":"Bananaramagrams","steam_id":76561198084429090,"connected_time":2045000000000,"state":"active","ping":83},{"user_id":378,"name":"b3afy","steam_id":76561198084208649,"connected_time":7697000000000,"state":"active","ping":95},{"user_id":456,"name":"waltuh","steam_id":76561198363541736,"connected_time":784000000000,"state":"active","ping":88},{"user_id":463,"name":"Ricky Dicky Doo Dah Grimes","steam_id":76561198143221900,"connected_time":327000000000,"state":"active","ping":60},{"user_id":427,"name":"Alpharious","steam_id":76561197970289529,"connected_time":3660000000000,"state":"active","ping":71},{"user_id":461,"name":"Person","steam_id":76561198093244204,"connected_time":749000000000,"state":"active","ping":72},{"user_id":453,"name":"coodge","steam_id":76561198139080439,"connected_time":1347000000000,"state":"active","ping":76},{"user_id":411,"name":"Filthy Acts at Reasonable Price","steam_id":76561198354615890,"connected_time":5339000000000,"state":"active","ping":97},{"user_id":458,"name":"StonedGiant","steam_id":76561197984386932,"connected_time":779000000000,"state":"active","ping":59},{"user_id":413,"name":"MankTKO","steam_id":76561198189421005,"connected_time":4865000000000,"state":"active","ping":52},{"user_id":440,"name":"Glue Gulper","steam_id":76561198158014525,"connected_time":2056000000000,"state":"active","ping":56},{"user_id":421,"name":"worker","steam_id":76561198039608940,"connected_time":4601000000000,"state":"active","ping":103},{"user_id":459,"name":"s1lence","steam_id":76561198115542047,"connected_time":759000000000,"state":"active","ping":75},{"user_id":455,"name":"DinoGoof","steam_id":76561198998427283,"connected_time":795000000000,"state":"active","ping":77},{"user_id":446,"name":"blob","steam_id":76561198122375328,"connected_time":1967000000000,"state":"active","ping":55},{"user_id":454,"name":"Musica Universalis","steam_id":76561198184794174,"connected_time":1089000000000,"state":"active","ping":83},{"user_id":444,"name":"Zoot","steam_id":76561198121944243,"connected_time":2035000000000,"state":"active","ping":74},{"user_id":377,"name":"Praise_to_the_Flashlight!","steam_id":76561199001728789,"connected_time":7834000000000,"state":"active","ping":59},{"user_id":412,"name":"Drew P. Sack","steam_id":76561198036201738,"connected_time":4868000000000,"state":"active","ping":54},{"user_id":445,"name":".JIFF","steam_id":76561198045181760,"connected_time":2003000000000,"state":"active","ping":60},{"user_id":460,"name":"Megumin","steam_id":76561198115278249,"connected_time":756000000000,"state":"active","ping":87},{"user_id":449,"name":"DinkleBerg","steam_id":76561198891626233,"connected_time":1658000000000,"state":"active","ping":60},{"user_id":438,"name":"Lia_Rein","steam_id":76561198151569597,"connected_time":2116000000000,"state":"active","ping":142}]},{"server_id":106,"name":"Uncletopia | Chicago | 2 | All Maps","name_short":"chi-2","host":"chi-1.us.uncletopia.com","port":27025,"enabled":true,"region":"us-central","cc":"us","latitude":41.881832,"longitude":-87.62318,"reserved":0,"last_update":"0001-01-01T00:00:00Z","name_a2s":"Uncletopia | Chicago | 2 | All Maps","protocol":17,"map":"pl_frontier_final","folder":"tf","game":"Team Fortress","app_id":440,"player_count":24,"max_players":24,"Bots":0,"server_type":"Dedicated","server_os":"Linux","password":true,"vac":true,"version":"7882260","steam_id":85568392924469985,"keywords":["nocrits","nodmgspread","payload","uncletopia"],"game_id":440,"stv_port":27026,"stv_name":"Uncletopia | Chicago | 2 | All Maps | STV","players":[{"user_id":660,"name":"skullface","steam_id":76561198353704776,"connected_time":717000000000,"state":"active","ping":66},{"user_id":664,"name":"thememer","steam_id":76561199435896127,"connected_time":408000000000,"state":"active","ping":85},{"user_id":666,"name":"Kasodani Kyouko","steam_id":76561198023178589,"connected_time":332000000000,"state":"active","ping":83},{"user_id":638,"name":"Chief Diggery K.","steam_id":76561198066629137,"connected_time":2011000000000,"state":"active","ping":107},{"user_id":667,"name":"Django","steam_id":76561197971158403,"connected_time":249000000000,"state":"active","ping":72},{"user_id":668,"name":"Hylic","steam_id":76561199051314589,"connected_time":227000000000,"state":"active","ping":61},{"user_id":639,"name":"MAXIMUM OVERDRIVE","steam_id":76561198113992547,"connected_time":1989000000000,"state":"active","ping":80},{"user_id":669,"name":"captain Damien","steam_id":76561198813245551,"connected_time":225000000000,"state":"active","ping":106},{"user_id":645,"name":"cavemanDv","steam_id":76561198111927196,"connected_time":1824000000000,"state":"active","ping":76},{"user_id":657,"name":"artichoke","steam_id":76561198980994364,"connected_time":1489000000000,"state":"active","ping":96},{"user_id":662,"name":"We believe in you!","steam_id":76561198219252313,"connected_time":530000000000,"state":"active","ping":61},{"user_id":642,"name":"JellyParrot","steam_id":76561199190990163,"connected_time":1859000000000,"state":"active","ping":65},{"user_id":620,"name":"The Loveable CHI.I.BI.","steam_id":76561198039262228,"connected_time":3564000000000,"state":"active","ping":84},{"user_id":670,"name":"Zhenaj","steam_id":76561199209016136,"connected_time":179000000000,"state":"active","ping":62},{"user_id":673,"name":"Takyon","steam_id":76561198172075186,"connected_time":82000000000,"state":"active","ping":174},{"user_id":671,"name":"BurakkiHitsu","steam_id":76561198314156737,"connected_time":166000000000,"state":"active","ping":76},{"user_id":659,"name":"BobbyLord_II","steam_id":76561198062356650,"connected_time":1152000000000,"state":"active","ping":71},{"user_id":663,"name":"Ask Nicely For Heals","steam_id":76561198138478907,"connected_time":469000000000,"state":"active","ping":49},{"user_id":647,"name":"JustTryMeNow","steam_id":76561198262681545,"connected_time":1810000000000,"state":"active","ping":63},{"user_id":648,"name":"Brian","steam_id":76561198144650969,"connected_time":1802000000000,"state":"active","ping":67},{"user_id":672,"name":"evnobev","steam_id":76561198038966462,"connected_time":158000000000,"state":"active","ping":53},{"user_id":632,"name":"Rick Yeti","steam_id":76561198025462553,"connected_time":2435000000000,"state":"active","ping":71},{"user_id":674,"name":"A Can of Arizona Green Tea","steam_id":76561198062481133,"connected_time":65000000000,"state":"active","ping":114},{"user_id":675,"name":"Zhafel","steam_id":76561198378724859,"connected_time":58000000000,"state":"active","ping":180}]},{"server_id":402,"name":"Uncletopia | Chicago | 3 | All Maps","name_short":"chi-3","host":"chi-1.us.uncletopia.com","port":27035,"enabled":true,"region":"us-central","cc":"us","latitude":41.881832,"longitude":-87.62318,"reserved":0,"last_update":"0001-01-01T00:00:00Z","name_a2s":"Uncletopia | Chicago | 3 | All Maps","protocol":17,"map":"pl_pier","folder":"tf","game":"Team Fortress","app_id":440,"player_count":24,"max_players":24,"Bots":0,"server_type":"Dedicated","server_os":"Linux","password":true,"vac":true,"version":"7882260","steam_id":85568392924515191,"keywords":["nocrits","nodmgspread","payload","uncletopia"],"game_id":440,"stv_port":27036,"stv_name":"Uncletopia | Chicago | 3 | All Maps | STV","players":[{"user_id":602,"name":"Callahan","steam_id":76561197976928457,"connected_time":802000000000,"state":"active","ping":96},{"user_id":601,"name":"let me cook","steam_id":76561198075858067,"connected_time":823000000000,"state":"active","ping":60},{"user_id":593,"name":"MantisToboggan","steam_id":76561197969447887,"connected_time":1317000000000,"state":"active","ping":133},{"user_id":413,"name":"Rukks","steam_id":76561197993918954,"connected_time":13455000000000,"state":"active","ping":88},{"user_id":608,"name":"A Black Square","steam_id":76561198043570320,"connected_time":146000000000,"state":"active","ping":69},{"user_id":567,"name":"-π- BakaD","steam_id":76561197960559169,"connected_time":2568000000000,"state":"active","ping":60},{"user_id":579,"name":"Drapph","steam_id":76561199384213314,"connected_time":1726000000000,"state":"active","ping":69},{"user_id":600,"name":"1998 Volvo S70 T5","steam_id":76561198258615044,"connected_time":913000000000,"state":"active","ping":75},{"user_id":576,"name":"the nuisance","steam_id":76561198396326793,"connected_time":1822000000000,"state":"active","ping":86},{"user_id":607,"name":"veryscaryreaper","steam_id":76561198380018244,"connected_time":247000000000,"state":"active","ping":74},{"user_id":570,"name":"Wild_Rumpus","steam_id":76561198066393719,"connected_time":2425000000000,"state":"active","ping":63},{"user_id":586,"name":"Dumb Kid","steam_id":76561198304180941,"connected_time":1602000000000,"state":"active","ping":77},{"user_id":581,"name":"cucumper","steam_id":76561198079504588,"connected_time":1698000000000,"state":"active","ping":68},{"user_id":552,"name":"aphexjh","steam_id":76561197985854658,"connected_time":3108000000000,"state":"active","ping":56},{"user_id":573,"name":"bane","steam_id":76561198196769297,"connected_time":1953000000000,"state":"active","ping":56},{"user_id":587,"name":"kibsta","steam_id":76561198991982630,"connected_time":1600000000000,"state":"active","ping":64},{"user_id":574,"name":"Vapor Man","steam_id":76561198210173112,"connected_time":1907000000000,"state":"active","ping":148},{"user_id":536,"name":"Kedata","steam_id":76561198047750050,"connected_time":4235000000000,"state":"active","ping":45},{"user_id":598,"name":"Dev","steam_id":76561198388276870,"connected_time":980000000000,"state":"active","ping":94},{"user_id":578,"name":"Sean Bae","steam_id":76561198036909521,"connected_time":1791000000000,"state":"active","ping":63},{"user_id":609,"name":"Jeromius","steam_id":76561198051865275,"connected_time":103000000000,"state":"active","ping":71},{"user_id":610,"name":"juan.rodriguez.1982","steam_id":76561198101608910,"connected_time":64000000000,"state":"active","ping":45},{"user_id":611,"name":"{FITH}™ SmittyWun {FM}","steam_id":76561198079531938,"connected_time":40000000000,"state":"active","ping":76},{"user_id":590,"name":"firstlastmcgee","steam_id":76561198170187989,"connected_time":1538000000000,"state":"active","ping":62}]},{"server_id":403,"name":"Uncletopia | Chicago | 4 | All Maps","name_short":"chi-4","host":"chi-1.us.uncletopia.com","port":27045,"enabled":true,"region":"us-central","cc":"us","latitude":41.881832,"longitude":-87.62318,"reserved":0,"last_update":"0001-01-01T00:00:00Z","name_a2s":"Uncletopia | Chicago | 4 | All Maps","protocol":17,"map":"ctf_well","folder":"tf","game":"Team Fortress","app_id":440,"player_count":22,"max_players":24,"Bots":0,"server_type":"Dedicated","server_os":"Linux","password":true,"vac":true,"version":"7882260","steam_id":85568392924515193,"keywords":["ctf","nocrits","nodmgspread","uncletopia"],"game_id":440,"stv_port":27046,"stv_name":"Uncletopia | Chicago | 4 | All Maps | STV","players":[{"user_id":261,"name":"bachphong760","steam_id":76561199433780443,"connected_time":475000000000,"state":"active","ping":96},{"user_id":265,"name":"The J-Man is here","steam_id":76561199063414911,"connected_time":174000000000,"state":"active","ping":71},{"user_id":258,"name":"TwT#savetf2","steam_id":76561198432226673,"connected_time":568000000000,"state":"active","ping":100},{"user_id":234,"name":"Evolution","steam_id":76561198144767370,"connected_time":3118000000000,"state":"active","ping":51},{"user_id":199,"name":"toxicpeck @@yahoocum","steam_id":76561198213385439,"connected_time":5714000000000,"state":"active","ping":119},{"user_id":264,"name":"WhoIsFrosty","steam_id":76561198880588117,"connected_time":230000000000,"state":"active","ping":48},{"user_id":238,"name":"RiverEgg","steam_id":76561198888913405,"connected_time":2398000000000,"state":"active","ping":53},{"user_id":267,"name":"Rukh","steam_id":76561197999361315,"connected_time":89000000000,"state":"active","ping":84},{"user_id":32,"name":"Snake Handler","steam_id":76561198027198306,"connected_time":18069000000000,"state":"active","ping":59},{"user_id":171,"name":"Tskuno","steam_id":76561198129291597,"connected_time":8305000000000,"state":"active","ping":49},{"user_id":259,"name":"Mr.Newt_","steam_id":76561198042906063,"connected_time":527000000000,"state":"active","ping":53},{"user_id":260,"name":"hashmap","steam_id":76561198043794014,"connected_time":491000000000,"state":"active","ping":57},{"user_id":262,"name":"Tony Montana","steam_id":76561198029042605,"connected_time":448000000000,"state":"active","ping":50},{"user_id":224,"name":"Skeleton Dad","steam_id":76561198021489595,"connected_time":3619000000000,"state":"active","ping":84},{"user_id":263,"name":"Mablinlok","steam_id":76561197992718242,"connected_time":446000000000,"state":"active","ping":76},{"user_id":250,"name":"Katy","steam_id":76561198079395814,"connected_time":1469000000000,"state":"active","ping":67},{"user_id":255,"name":"peedrinker","steam_id":76561198876275070,"connected_time":922000000000,"state":"active","ping":71},{"user_id":225,"name":"Toastie","steam_id":76561198246760934,"connected_time":3585000000000,"state":"active","ping":58},{"user_id":204,"name":"Nicoarn121","steam_id":76561198156297440,"connected_time":5588000000000,"state":"active","ping":50},{"user_id":205,"name":"Pulmonary Edema","steam_id":76561198116555093,"connected_time":5582000000000,"state":"active","ping":112},{"user_id":226,"name":"carrot cake","steam_id":76561198055174915,"connected_time":3505000000000,"state":"active","ping":67},{"user_id":233,"name":"We Ball","steam_id":76561199122315920,"connected_time":3256000000000,"state":"active","ping":74}]},{"server_id":36,"name":"Uncletopia | Chicago | 5 | All Maps","name_short":"chi-5","host":"chi-2.us.uncletopia.com","port":27015,"enabled":true,"region":"us-central","cc":"us","latitude":41.881832,"longitude":-87.62318,"reserved":0,"last_update":"0001-01-01T00:00:00Z","name_a2s":"Uncletopia | Chicago | 5 | All Maps","protocol":17,"map":"cp_steel","folder":"tf","game":"Team Fortress","app_id":440,"player_count":23,"max_players":24,"Bots":0,"server_type":"Dedicated","server_os":"Linux","password":true,"vac":true,"version":"7882260","steam_id":85568392924866362,"keywords":["cp","nocrits","nodmgspread","uncletopia"],"game_id":440,"stv_port":27016,"stv_name":"Uncletopia | Chicago | 5 | All Maps | STV","players":[{"user_id":446,"name":"WHATISYOURNAME","steam_id":76561198342560783,"connected_time":1397000000000,"state":"active","ping":68},{"user_id":452,"name":"BeanLordGamer","steam_id":76561199466512390,"connected_time":1112000000000,"state":"active","ping":86},{"user_id":307,"name":"swag messiah","steam_id":76561198204995668,"connected_time":12055000000000,"state":"active","ping":82},{"user_id":432,"name":"CHEEKY EUNUCH","steam_id":76561198990825232,"connected_time":2206000000000,"state":"active","ping":59},{"user_id":458,"name":"sunny","steam_id":76561198069380992,"connected_time":138000000000,"state":"active","ping":75},{"user_id":435,"name":"Jobius","steam_id":76561198145561348,"connected_time":2171000000000,"state":"active","ping":68},{"user_id":453,"name":"beats","steam_id":76561199245717718,"connected_time":1075000000000,"state":"active","ping":51},{"user_id":372,"name":"[GUT] RiDiK®","steam_id":76561197969756446,"connected_time":6196000000000,"state":"active","ping":56},{"user_id":459,"name":"PoisonIvy","steam_id":76561198072384574,"connected_time":100000000000,"state":"active","ping":52},{"user_id":309,"name":"Shadow Wizard Money Gang","steam_id":76561198135736718,"connected_time":11292000000000,"state":"active","ping":91},{"user_id":456,"name":"aiming with drawing tablet","steam_id":76561198397662124,"connected_time":800000000000,"state":"active","ping":85},{"user_id":438,"name":"too funky ᗜˬᗜ","steam_id":76561199120399776,"connected_time":2108000000000,"state":"active","ping":69},{"user_id":427,"name":"Angry Ginger","steam_id":76561198256929349,"connected_time":2543000000000,"state":"active","ping":55},{"user_id":436,"name":"Dead","steam_id":76561199234305965,"connected_time":2169000000000,"state":"active","ping":79},{"user_id":415,"name":"Sleepy","steam_id":76561198273471153,"connected_time":3414000000000,"state":"active","ping":76},{"user_id":460,"name":"tlm","steam_id":76561198178457461,"connected_time":94000000000,"state":"active","ping":60},{"user_id":380,"name":"Gentoo Linux Gaming","steam_id":76561197999657118,"connected_time":5882000000000,"state":"active","ping":83},{"user_id":440,"name":"CHAIRMAN MAO GAMING","steam_id":76561198066018972,"connected_time":2024000000000,"state":"active","ping":77},{"user_id":451,"name":"Cleric","steam_id":76561198045887994,"connected_time":1189000000000,"state":"active","ping":49},{"user_id":454,"name":"Mati [EST]","steam_id":76561197994743813,"connected_time":1065000000000,"state":"active","ping":189},{"user_id":419,"name":"Orca?","steam_id":76561198164341099,"connected_time":3246000000000,"state":"active","ping":84},{"user_id":455,"name":"Kunata","steam_id":76561198050998975,"connected_time":1043000000000,"state":"active","ping":70},{"user_id":448,"name":"RarestGuide","steam_id":76561198050338923,"connected_time":1332000000000,"state":"active","ping":74}]},{"server_id":37,"name":"Uncletopia | Chicago | 6 | All Maps","name_short":"chi-6","host":"chi-2.us.uncletopia.com","port":27025,"enabled":true,"region":"us-central","cc":"us","latitude":41.881832,"longitude":-87.62318,"reserved":0,"last_update":"0001-01-01T00:00:00Z","name_a2s":"Uncletopia | Chicago | 6 | All Maps","protocol":17,"map":"cp_mercenarypark","folder":"tf","game":"Team Fortress","app_id":440,"player_count":20,"max_players":24,"Bots":0,"server_type":"Dedicated","server_os":"Linux","password":true,"vac":true,"version":"7882260","steam_id":85568392924866363,"keywords":["cp","nocrits","nodmgspread","uncletopia"],"game_id":440,"stv_port":27026,"stv_name":"Uncletopia | Chicago | 6 | All Maps | STV","players":[{"user_id":425,"name":"Solstrom","steam_id":76561198313364985,"connected_time":642000000000,"state":"active","ping":68},{"user_id":422,"name":"The Chosen One","steam_id":76561199046984627,"connected_time":704000000000,"state":"active","ping":87},{"user_id":409,"name":"[RGGL] Baccouch","steam_id":76561198001480670,"connected_time":1795000000000,"state":"active","ping":57},{"user_id":423,"name":"great uncle Terry","steam_id":76561198001488041,"connected_time":681000000000,"state":"active","ping":83},{"user_id":424,"name":"simonkey","steam_id":76561199087174108,"connected_time":676000000000,"state":"active","ping":50},{"user_id":402,"name":"sky walker","steam_id":76561198937717599,"connected_time":2115000000000,"state":"active","ping":70},{"user_id":417,"name":"Rex","steam_id":76561198138365053,"connected_time":1398000000000,"state":"active","ping":113},{"user_id":426,"name":"trajectory EATS","steam_id":76561198313226860,"connected_time":209000000000,"state":"active","ping":57},{"user_id":427,"name":"⊰Aero⊱","steam_id":76561198084648457,"connected_time":203000000000,"state":"active","ping":59},{"user_id":392,"name":"FamishedNinja","steam_id":76561198310786497,"connected_time":2613000000000,"state":"active","ping":84},{"user_id":393,"name":"Spaghetti","steam_id":76561198019383013,"connected_time":2592000000000,"state":"active","ping":77},{"user_id":428,"name":"bonkers","steam_id":76561199206080182,"connected_time":170000000000,"state":"active","ping":76},{"user_id":420,"name":"BigNugs","steam_id":76561198056402610,"connected_time":1132000000000,"state":"active","ping":62},{"user_id":412,"name":"Angel Wolfie","steam_id":76561198026562237,"connected_time":1748000000000,"state":"active","ping":57},{"user_id":429,"name":"Freak787","steam_id":76561198411730325,"connected_time":70000000000,"state":"active","ping":85},{"user_id":400,"name":"anonpain","steam_id":76561198081317092,"connected_time":2271000000000,"state":"active","ping":58},{"user_id":404,"name":"MEDIC!!!","steam_id":76561198265522923,"connected_time":2110000000000,"state":"active","ping":68},{"user_id":372,"name":"Ata","steam_id":76561198349085545,"connected_time":4275000000000,"state":"active","ping":77},{"user_id":406,"name":"lil homie gay ass","steam_id":76561198044804626,"connected_time":2048000000000,"state":"active","ping":78},{"user_id":408,"name":"Recursive Gamer","steam_id":76561198042102952,"connected_time":2019000000000,"state":"active","ping":64}]},{"server_id":38,"name":"Uncletopia | Chicago | 7 | Stopwatch Beta","name_short":"chi-7","host":"chi-2.us.uncletopia.com","port":27035,"enabled":true,"region":"us-central","cc":"us","latitude":41.881832,"longitude":-87.62318,"reserved":0,"last_update":"0001-01-01T00:00:00Z","name_a2s":"Uncletopia | Chicago | 7 | Stopwatch Beta","protocol":17,"map":"pl_borneo","folder":"tf","game":"Team Fortress","app_id":440,"player_count":0,"max_players":24,"Bots":0,"server_type":"Dedicated","server_os":"Linux","password":true,"vac":true,"version":"7882260","steam_id":85568392924866364,"keywords":["nocrits","nodmgspread","payload","uncletopia"],"game_id":440,"stv_port":27036,"stv_name":"Uncletopia | Chicago | 7 | Stopwatch Beta | STV","players":null},{"server_id":39,"name":"Uncletopia | Chicago | 8 | Community","name_short":"chi-8","host":"chi-2.us.uncletopia.com","port":27045,"enabled":true,"region":"us-central","cc":"us","latitude":41.881832,"longitude":-87.62318,"reserved":0,"last_update":"0001-01-01T00:00:00Z","name_a2s":"Uncletopia | Chicago | 8 | Community","protocol":17,"map":"workshop/koth_trenchfoot_b1a.ugc731436616","folder":"tf","game":"Team Fortress","app_id":440,"player_count":0,"max_players":24,"Bots":0,"server_type":"Dedicated","server_os":"Linux","password":true,"vac":true,"version":"7882260","steam_id":85568392924866365,"keywords":["cp","nocrits","nodmgspread","uncletopia"],"game_id":440,"stv_port":27046,"stv_name":"Uncletopia | Chicago | 8 | Community | STV","players":null},{"server_id":8,"name":"Uncletopia | Dallas | 1 | All Maps","name_short":"dal-1","host":"dal-1.us.uncletopia.com","port":27015,"enabled":true,"region":"us-central","cc":"us","latitude":32.779167,"longitude":-96.80889,"reserved":0,"last_update":"0001-01-01T00:00:00Z","name_a2s":"Uncletopia | Dallas | 1 | All Maps","protocol":17,"map":"pl_badwater","folder":"tf","game":"Team Fortress","app_id":440,"player_count":24,"max_players":24,"Bots":0,"server_type":"Dedicated","server_os":"Linux","password":true,"vac":true,"version":"7882260","steam_id":85568392924469986,"keywords":["nocrits","nodmgspread","payload","uncletopia"],"game_id":440,"stv_port":27016,"stv_name":"Uncletopia | Dallas | 1 | All Maps | STV","players":[{"user_id":422,"name":"KRUSHER (volume off)","steam_id":76561198072157019,"connected_time":390000000000,"state":"active","ping":57},{"user_id":423,"name":"Still Alive","steam_id":76561198042523000,"connected_time":370000000000,"state":"active","ping":74},{"user_id":412,"name":"Smug","steam_id":76561198448205229,"connected_time":937000000000,"state":"active","ping":70},{"user_id":389,"name":"deb","steam_id":76561198414336279,"connected_time":2663000000000,"state":"active","ping":60},{"user_id":424,"name":"sithreis","steam_id":76561198000564263,"connected_time":355000000000,"state":"active","ping":68},{"user_id":418,"name":"Someone gaming","steam_id":76561198156690812,"connected_time":782000000000,"state":"active","ping":58},{"user_id":329,"name":"motherofdragons96","steam_id":76561198864779097,"connected_time":5989000000000,"state":"active","ping":77},{"user_id":410,"name":"Top-G Man","steam_id":76561199122152458,"connected_time":994000000000,"state":"active","ping":107},{"user_id":405,"name":"Signum","steam_id":76561198035445618,"connected_time":1345000000000,"state":"active","ping":59},{"user_id":394,"name":"Ace","steam_id":76561198878661482,"connected_time":1907000000000,"state":"active","ping":34},{"user_id":404,"name":"Liebesträume","steam_id":76561198038862034,"connected_time":1371000000000,"state":"active","ping":70},{"user_id":420,"name":"moe","steam_id":76561198929586245,"connected_time":663000000000,"state":"active","ping":68},{"user_id":425,"name":"Idk","steam_id":76561198971629959,"connected_time":338000000000,"state":"active","ping":133},{"user_id":397,"name":"❤MICHIMOMOS❤","steam_id":76561199221395732,"connected_time":1866000000000,"state":"active","ping":77},{"user_id":403,"name":"iluvtoust","steam_id":76561198869269207,"connected_time":1412000000000,"state":"active","ping":51},{"user_id":426,"name":"lanoc","steam_id":76561198055415367,"connected_time":261000000000,"state":"active","ping":59},{"user_id":365,"name":"my_fish","steam_id":76561198058993241,"connected_time":3899000000000,"state":"active","ping":72},{"user_id":401,"name":"ateb","steam_id":76561198087200115,"connected_time":1663000000000,"state":"active","ping":88},{"user_id":395,"name":"Yoshimelon","steam_id":76561198253054325,"connected_time":1899000000000,"state":"active","ping":45},{"user_id":408,"name":"Killroy NQP ❤","steam_id":76561198006983771,"connected_time":1220000000000,"state":"active","ping":85},{"user_id":409,"name":"KOJAKK","steam_id":76561199060841878,"connected_time":1190000000000,"state":"active","ping":91},{"user_id":398,"name":"CreativeCoffeeCake","steam_id":76561198323542875,"connected_time":1857000000000,"state":"active","ping":66},{"user_id":417,"name":"Mutzy™","steam_id":76561198085858203,"connected_time":843000000000,"state":"active","ping":86},{"user_id":374,"name":"LossNonsense","steam_id":76561198077167840,"connected_time":3800000000000,"state":"active","ping":56}]},{"server_id":108,"name":"Uncletopia | Dallas | 2 | All Maps","name_short":"dal-2","host":"dal-1.us.uncletopia.com","port":27025,"enabled":true,"region":"us-central","cc":"us","latitude":32.779167,"longitude":-96.80889,"reserved":0,"last_update":"0001-01-01T00:00:00Z","name_a2s":"Uncletopia | Dallas | 2 | All Maps","protocol":17,"map":"cp_snakewater_final1","folder":"tf","game":"Team Fortress","app_id":440,"player_count":24,"max_players":24,"Bots":0,"server_type":"Dedicated","server_os":"Linux","password":true,"vac":true,"version":"7882260","steam_id":85568392924469988,"keywords":["cp","nocrits","nodmgspread","uncletopia"],"game_id":440,"stv_port":27026,"stv_name":"Uncletopia | Dallas | 2 | All Maps | STV","players":[{"user_id":240,"name":"D(b) Hell","steam_id":76561198067869016,"connected_time":8888000000000,"state":"active","ping":71},{"user_id":315,"name":"BLOOD !","steam_id":76561198004400850,"connected_time":3007000000000,"state":"active","ping":60},{"user_id":250,"name":"HeroProc","steam_id":76561197993296892,"connected_time":7897000000000,"state":"active","ping":71},{"user_id":353,"name":"счизяѳ","steam_id":76561199182960322,"connected_time":340000000000,"state":"active","ping":51},{"user_id":304,"name":"Dog","steam_id":76561198450992953,"connected_time":3471000000000,"state":"active","ping":90},{"user_id":326,"name":"Gеяо","steam_id":76561198082463658,"connected_time":2463000000000,"state":"active","ping":106},{"user_id":340,"name":"errant","steam_id":76561197961758410,"connected_time":705000000000,"state":"active","ping":37},{"user_id":352,"name":"OneFineLime","steam_id":76561198926837311,"connected_time":374000000000,"state":"active","ping":76},{"user_id":324,"name":"ShiddyKong","steam_id":76561198189742189,"connected_time":2475000000000,"state":"active","ping":55},{"user_id":346,"name":"TeriyakiDynamite","steam_id":76561198050049346,"connected_time":504000000000,"state":"active","ping":100},{"user_id":349,"name":"Pinetree w/ apples.","steam_id":76561198105411709,"connected_time":467000000000,"state":"active","ping":107},{"user_id":306,"name":"Reaper","steam_id":76561198435826103,"connected_time":3452000000000,"state":"active","ping":67},{"user_id":339,"name":"WinnieThuhPoo","steam_id":76561199114579127,"connected_time":871000000000,"state":"active","ping":67},{"user_id":345,"name":"s a d b o y s","steam_id":76561198037481669,"connected_time":545000000000,"state":"active","ping":85},{"user_id":338,"name":"pipes","steam_id":76561198067262024,"connected_time":967000000000,"state":"active","ping":83},{"user_id":334,"name":"gonk","steam_id":76561198061206732,"connected_time":1660000000000,"state":"active","ping":93},{"user_id":347,"name":"squid","steam_id":76561198092509893,"connected_time":484000000000,"state":"active","ping":55},{"user_id":328,"name":"LtK","steam_id":76561197993180943,"connected_time":2415000000000,"state":"active","ping":39},{"user_id":350,"name":"vi","steam_id":76561198388123421,"connected_time":456000000000,"state":"active","ping":81},{"user_id":319,"name":"Phosu","steam_id":76561198180162801,"connected_time":2955000000000,"state":"active","ping":69},{"user_id":251,"name":"Turudo","steam_id":76561197997648031,"connected_time":7808000000000,"state":"active","ping":55},{"user_id":286,"name":"Yoru","steam_id":76561198119698950,"connected_time":5661000000000,"state":"active","ping":124},{"user_id":294,"name":"walmart","steam_id":76561199051524205,"connected_time":4750000000000,"state":"active","ping":42},{"user_id":354,"name":"Minlit","steam_id":76561198205832799,"connected_time":185000000000,"state":"active","ping":57}]},{"server_id":5,"name":"Uncletopia | Frankfurt | 1 | All Maps","name_short":"frk-1","host":"frk-1.de.uncletopia.com","port":27015,"enabled":true,"region":"eu","cc":"de","latitude":50.110924,"longitude":8.682127,"reserved":0,"last_update":"0001-01-01T00:00:00Z","name_a2s":"Uncletopia | Frankfurt | 1 | All Maps","protocol":17,"map":"pl_barnblitz","folder":"tf","game":"Team Fortress","app_id":440,"player_count":0,"max_players":24,"Bots":0,"server_type":"Dedicated","server_os":"Linux","password":true,"vac":true,"version":"7882260","steam_id":85568392924469989,"keywords":["nocrits","nodmgspread","payload","uncletopia"],"game_id":440,"stv_port":27016,"stv_name":"Uncletopia | Frankfurt | 1 | All Maps | STV","players":null},{"server_id":110,"name":"Uncletopia | Frankfurt | 2 | All Maps","name_short":"frk-2","host":"frk-1.de.uncletopia.com","port":27025,"enabled":true,"region":"eu","cc":"de","latitude":50.110924,"longitude":8.682127,"reserved":0,"last_update":"0001-01-01T00:00:00Z","name_a2s":"Uncletopia | Frankfurt | 2 | All Maps","protocol":17,"map":"koth_viaduct","folder":"tf","game":"Team Fortress","app_id":440,"player_count":0,"max_players":24,"Bots":0,"server_type":"Dedicated","server_os":"Linux","password":true,"vac":true,"version":"7882260","steam_id":85568392924469990,"keywords":["cp","nocrits","nodmgspread","uncletopia"],"game_id":440,"stv_port":27026,"stv_name":"Uncletopia | Frankfurt | 2 | All Maps | STV","players":null},{"server_id":308,"name":"Uncletopia | Frankfurt | 3 | All Maps","name_short":"frk-3","host":"frk-1.de.uncletopia.com","port":27035,"enabled":true,"region":"eu","cc":"de","latitude":50.110924,"longitude":8.682127,"reserved":0,"last_update":"0001-01-01T00:00:00Z","name_a2s":"Uncletopia | Frankfurt | 3 | All Maps","protocol":17,"map":"ctf_2fort","folder":"tf","game":"Team Fortress","app_id":440,"player_count":18,"max_players":24,"Bots":0,"server_type":"Dedicated","server_os":"Linux","password":true,"vac":true,"version":"7882260","steam_id":85568392924504274,"keywords":["ctf","nocrits","nodmgspread","uncletopia"],"game_id":440,"stv_port":27036,"stv_name":"Uncletopia | Frankfurt | 3 | All Maps | STV","players":[{"user_id":524,"name":"Segra blw.tf","steam_id":76561198441974031,"connected_time":2395000000000,"state":"active","ping":64},{"user_id":547,"name":"lacurio","steam_id":76561198059701776,"connected_time":548000000000,"state":"active","ping":47},{"user_id":542,"name":"ShovelHero","steam_id":76561198086869029,"connected_time":917000000000,"state":"active","ping":49},{"user_id":545,"name":"LIGHTWEIGHT BABY","steam_id":76561198002761980,"connected_time":707000000000,"state":"active","ping":58},{"user_id":525,"name":"Fran","steam_id":76561199070516960,"connected_time":2297000000000,"state":"active","ping":60},{"user_id":526,"name":"NotChloe","steam_id":76561198080658092,"connected_time":2073000000000,"state":"active","ping":69},{"user_id":551,"name":"The.Real.Genesis","steam_id":76561198999652040,"connected_time":450000000000,"state":"active","ping":37},{"user_id":553,"name":"why rum gone","steam_id":76561198158484784,"connected_time":280000000000,"state":"active","ping":59},{"user_id":528,"name":"Matteo Il Biondo","steam_id":76561198315389475,"connected_time":2009000000000,"state":"active","ping":74},{"user_id":541,"name":"Intruder","steam_id":76561198156128173,"connected_time":1168000000000,"state":"active","ping":75},{"user_id":538,"name":"Genuine","steam_id":76561197966295765,"connected_time":1636000000000,"state":"active","ping":33},{"user_id":537,"name":"Kopatych","steam_id":76561198922879432,"connected_time":1679000000000,"state":"active","ping":78},{"user_id":555,"name":"Raufaser","steam_id":76561199266632227,"connected_time":226000000000,"state":"active","ping":54},{"user_id":558,"name":"Real Lad™","steam_id":76561198053730933,"connected_time":109000000000,"state":"active","ping":68},{"user_id":531,"name":"(/•0•)/ WoW","steam_id":76561198144990790,"connected_time":1897000000000,"state":"active","ping":81},{"user_id":557,"name":"OREO","steam_id":76561199229118371,"connected_time":195000000000,"state":"active","ping":116},{"user_id":539,"name":"BoBunny McGlitter","steam_id":76561198057403817,"connected_time":1595000000000,"state":"active","ping":66},{"user_id":544,"name":"Spectral Sloth","steam_id":76561198170083139,"connected_time":778000000000,"state":"active","ping":81}]},{"server_id":309,"name":"Uncletopia | Frankfurt | 4 | All Maps","name_short":"frk-4","host":"frk-1.de.uncletopia.com","port":27045,"enabled":true,"region":"eu","cc":"de","latitude":50.110924,"longitude":8.682127,"reserved":0,"last_update":"0001-01-01T00:00:00Z","name_a2s":"Uncletopia | Frankfurt | 4 | All Maps","protocol":17,"map":"cp_altitude","folder":"tf","game":"Team Fortress","app_id":440,"player_count":0,"max_players":24,"Bots":0,"server_type":"Dedicated","server_os":"Linux","password":true,"vac":true,"version":"7882260","steam_id":85568392924504275,"keywords":["cp","nocrits","nodmgspread","uncletopia"],"game_id":440,"stv_port":27046,"stv_name":"Uncletopia | Frankfurt | 4 | All Maps | STV","players":null},{"server_id":310,"name":"Uncletopia | Frankfurt | 5 | All Maps","name_short":"frk-5","host":"frk-1.de.uncletopia.com","port":27055,"enabled":true,"region":"eu","cc":"de","latitude":50.110924,"longitude":8.682127,"reserved":0,"last_update":"0001-01-01T00:00:00Z","name_a2s":"Uncletopia | Frankfurt | 5 | All Maps","protocol":17,"map":"cp_altitude","folder":"tf","game":"Team Fortress","app_id":440,"player_count":24,"max_players":24,"Bots":0,"server_type":"Dedicated","server_os":"Linux","password":true,"vac":true,"version":"7882260","steam_id":85568392924504277,"keywords":["cp","nocrits","nodmgspread","uncletopia"],"game_id":440,"stv_port":27056,"stv_name":"Uncletopia | Frankfurt | 5 | All Maps | STV","players":[{"user_id":472,"name":"Krocon","steam_id":76561198084906316,"connected_time":3158000000000,"state":"active","ping":85},{"user_id":469,"name":"woop","steam_id":76561198985105074,"connected_time":3276000000000,"state":"active","ping":76},{"user_id":508,"name":"pvtemback","steam_id":76561198887302382,"connected_time":1285000000000,"state":"active","ping":78},{"user_id":517,"name":"Tamirdadon","steam_id":76561198317551573,"connected_time":655000000000,"state":"active","ping":88},{"user_id":420,"name":"Ostara","steam_id":76561198200054489,"connected_time":5683000000000,"state":"active","ping":70},{"user_id":421,"name":"Kelpy G gaming","steam_id":76561198056995633,"connected_time":5675000000000,"state":"active","ping":71},{"user_id":501,"name":"Doruk Küçükduman","steam_id":76561198399815628,"connected_time":2060000000000,"state":"active","ping":97},{"user_id":495,"name":"herbal tea","steam_id":76561197980736364,"connected_time":2383000000000,"state":"active","ping":71},{"user_id":524,"name":"TidB","steam_id":76561198055342304,"connected_time":432000000000,"state":"active","ping":60},{"user_id":382,"name":"Michał","steam_id":76561198320346362,"connected_time":7712000000000,"state":"active","ping":49},{"user_id":446,"name":"Droy","steam_id":76561198065854668,"connected_time":5037000000000,"state":"active","ping":54},{"user_id":453,"name":"Nicholas Angel","steam_id":76561198434652604,"connected_time":4280000000000,"state":"active","ping":95},{"user_id":485,"name":"WATANG!","steam_id":76561198040478926,"connected_time":2591000000000,"state":"active","ping":61},{"user_id":504,"name":"Sabour","steam_id":76561197963965445,"connected_time":1379000000000,"state":"active","ping":59},{"user_id":519,"name":"an idiot","steam_id":76561198172542535,"connected_time":527000000000,"state":"active","ping":67},{"user_id":488,"name":"astigmatic","steam_id":76561199103959197,"connected_time":2564000000000,"state":"active","ping":94},{"user_id":521,"name":"Steen","steam_id":76561198122992510,"connected_time":504000000000,"state":"active","ping":46},{"user_id":511,"name":"Jucatron","steam_id":76561198044259577,"connected_time":1201000000000,"state":"active","ping":88},{"user_id":526,"name":"DarkSoulBG24","steam_id":76561198273701478,"connected_time":245000000000,"state":"active","ping":70},{"user_id":454,"name":"Desmond","steam_id":76561198151053844,"connected_time":4261000000000,"state":"active","ping":91},{"user_id":512,"name":"Charles Darwin","steam_id":76561197973496139,"connected_time":1193000000000,"state":"active","ping":60},{"user_id":525,"name":"Dan86130","steam_id":76561199187190436,"connected_time":273000000000,"state":"active","ping":63},{"user_id":482,"name":"etc","steam_id":76561197998394797,"connected_time":2792000000000,"state":"active","ping":55},{"user_id":513,"name":"Luna","steam_id":76561198839699085,"connected_time":1190000000000,"state":"active","ping":52}]},{"server_id":311,"name":"Uncletopia | Frankfurt | 6 | All Maps","name_short":"frk-6","host":"frk-1.de.uncletopia.com","port":27065,"enabled":true,"region":"eu","cc":"de","latitude":50.110924,"longitude":8.682127,"reserved":0,"last_update":"0001-01-01T00:00:00Z","name_a2s":"Uncletopia | Frankfurt | 6 | All Maps","protocol":17,"map":"koth_cascade","folder":"tf","game":"Team Fortress","app_id":440,"player_count":0,"max_players":24,"Bots":0,"server_type":"Dedicated","server_os":"Linux","password":true,"vac":true,"version":"7882260","steam_id":85568392924504278,"keywords":["cp","nocrits","nodmgspread","uncletopia"],"game_id":440,"stv_port":27066,"stv_name":"Uncletopia | Frankfurt | 6 | All Maps | STV","players":null},{"server_id":23,"name":"Uncletopia | Frankfurt | 7 | Stopwatch Beta","name_short":"frk-7","host":"frk-1.de.uncletopia.com","port":27075,"enabled":true,"region":"eu","cc":"de","latitude":50.110924,"longitude":8.682127,"reserved":0,"last_update":"0001-01-01T00:00:00Z","name_a2s":"Uncletopia | Frankfurt | 7 | Stopwatch Beta","protocol":17,"map":"workshop/koth_ashville_final.ugc2130459942","folder":"tf","game":"Team Fortress","app_id":440,"player_count":0,"max_players":24,"Bots":0,"server_type":"Dedicated","server_os":"Linux","password":true,"vac":true,"version":"7882260","steam_id":85568392924742827,"keywords":["cp","nocrits","nodmgspread","uncletopia"],"game_id":440,"stv_port":27076,"stv_name":"Uncletopia | Frankfurt | 7 | Stopwatch Beta | STV","players":null},{"server_id":24,"name":"Uncletopia | Frankfurt | 8 | Community","name_short":"frk-8","host":"frk-1.de.uncletopia.com","port":27085,"enabled":true,"region":"eu","cc":"de","latitude":50.110924,"longitude":8.682127,"reserved":0,"last_update":"0001-01-01T00:00:00Z","name_a2s":"Uncletopia | Frankfurt | 8 | Community","protocol":17,"map":"workshop/pl_emerge_rc2.ugc888027758","folder":"tf","game":"Team Fortress","app_id":440,"player_count":0,"max_players":24,"Bots":0,"server_type":"Dedicated","server_os":"Linux","password":true,"vac":true,"version":"7882260","steam_id":85568392924742828,"keywords":["nocrits","nodmgspread","payload","uncletopia"],"game_id":440,"stv_port":27086,"stv_name":"Uncletopia | Frankfurt | 8 | Community | STV","players":null},{"server_id":202,"name":"Uncletopia | Hong Kong | 1 | All Maps","name_short":"hgk-1","host":"hgk-1.hk.uncletopia.com","port":27015,"enabled":true,"region":"asia","cc":"hk","latitude":22.302711,"longitude":114.177216,"reserved":0,"last_update":"0001-01-01T00:00:00Z","name_a2s":"Uncletopia | Hong Kong | 1 | All Maps","protocol":17,"map":"koth_cascade","folder":"tf","game":"Team Fortress","app_id":440,"player_count":0,"max_players":24,"Bots":0,"server_type":"Dedicated","server_os":"Linux","password":true,"vac":true,"version":"7882260","steam_id":85568392924494504,"keywords":["cp","nocrits","nodmgspread","uncletopia"],"game_id":440,"stv_port":27016,"stv_name":"Uncletopia | Hong Kong | 1 | All Maps | STV","players":null},{"server_id":1,"name":"Uncletopia | Los Angeles | 1 | All Maps","name_short":"lax-1","host":"lax-1.us.uncletopia.com","port":27015,"enabled":true,"region":"us-west","cc":"us","latitude":33.94279,"longitude":-118.41004,"reserved":0,"last_update":"0001-01-01T00:00:00Z","name_a2s":"Uncletopia | Los Angeles | 1 | All Maps","protocol":17,"map":"cp_snakewater_final1","folder":"tf","game":"Team Fortress","app_id":440,"player_count":24,"max_players":24,"Bots":0,"server_type":"Dedicated","server_os":"Linux","password":true,"vac":true,"version":"7882260","steam_id":85568392924469991,"keywords":["cp","nocrits","nodmgspread","uncletopia"],"game_id":440,"stv_port":27016,"stv_name":"Uncletopia | Los Angeles | 1 | All Maps | STV","players":[{"user_id":270,"name":"Dr Lazer","steam_id":76561199086408216,"connected_time":52000000000,"state":"active","ping":137},{"user_id":268,"name":"dabri88","steam_id":76561198103645497,"connected_time":165000000000,"state":"active","ping":106},{"user_id":234,"name":"rimble","steam_id":76561198150137369,"connected_time":2191000000000,"state":"active","ping":52},{"user_id":236,"name":"Mute.03","steam_id":76561199229281804,"connected_time":2058000000000,"state":"active","ping":85},{"user_id":249,"name":"jackin626","steam_id":76561198269277735,"connected_time":1054000000000,"state":"active","ping":68},{"user_id":160,"name":"ejschild745","steam_id":76561199013388867,"connected_time":9731000000000,"state":"active","ping":101},{"user_id":246,"name":"HOG RIDER","steam_id":76561198298589502,"connected_time":1227000000000,"state":"active","ping":49},{"user_id":258,"name":"S H I T K I C K E R","steam_id":76561198063381214,"connected_time":736000000000,"state":"active","ping":67},{"user_id":264,"name":"SwordBreaker","steam_id":76561199135564076,"connected_time":521000000000,"state":"active","ping":49},{"user_id":172,"name":"Slim Charles","steam_id":76561197981687895,"connected_time":9349000000000,"state":"active","ping":51},{"user_id":266,"name":"SolarusD","steam_id":76561198029279861,"connected_time":358000000000,"state":"active","ping":52},{"user_id":248,"name":"meisNate","steam_id":76561198215261695,"connected_time":1143000000000,"state":"active","ping":70},{"user_id":254,"name":"Captain Underbelly","steam_id":76561198811270935,"connected_time":808000000000,"state":"active","ping":82},{"user_id":261,"name":"Swade","steam_id":76561198451933553,"connected_time":637000000000,"state":"active","ping":71},{"user_id":251,"name":"Gm_Trash","steam_id":76561199445091548,"connected_time":1025000000000,"state":"active","ping":69},{"user_id":252,"name":"MeAmJosh","steam_id":76561198064983436,"connected_time":941000000000,"state":"active","ping":96},{"user_id":181,"name":"Taunter of Snipers","steam_id":76561198202254225,"connected_time":7991000000000,"state":"active","ping":78},{"user_id":262,"name":"Calypso","steam_id":76561198082939544,"connected_time":571000000000,"state":"active","ping":100},{"user_id":265,"name":"Lepa Radić","steam_id":76561198014698593,"connected_time":503000000000,"state":"active","ping":77},{"user_id":193,"name":"Undeniable","steam_id":76561198378705223,"connected_time":7276000000000,"state":"active","ping":51},{"user_id":267,"name":"PunyHappyFace","steam_id":76561198118059305,"connected_time":313000000000,"state":"active","ping":45},{"user_id":165,"name":"PJROCK101","steam_id":76561198070616561,"connected_time":9548000000000,"state":"active","ping":89},{"user_id":263,"name":"Cheeseburglar","steam_id":76561198880267007,"connected_time":550000000000,"state":"active","ping":56},{"user_id":225,"name":"FI LO","steam_id":76561198976530881,"connected_time":3065000000000,"state":"active","ping":33}]},{"server_id":112,"name":"Uncletopia | Los Angeles | 2 | All Maps","name_short":"lax-2","host":"lax-1.us.uncletopia.com","port":27025,"enabled":true,"region":"us-west","cc":"us","latitude":33.94279,"longitude":-118.41004,"reserved":0,"last_update":"0001-01-01T00:00:00Z","name_a2s":"Uncletopia | Los Angeles | 2 | All Maps","protocol":17,"map":"pl_barnblitz","folder":"tf","game":"Team Fortress","app_id":440,"player_count":24,"max_players":24,"Bots":0,"server_type":"Dedicated","server_os":"Linux","password":true,"vac":true,"version":"7882260","steam_id":85568392924469992,"keywords":["nocrits","nodmgspread","payload","uncletopia"],"game_id":440,"stv_port":27026,"stv_name":"Uncletopia | Los Angeles | 2 | All Maps | STV","players":[{"user_id":42,"name":"firestabber","steam_id":76561198057055577,"connected_time":18429000000000,"state":"active","ping":67},{"user_id":333,"name":"Manchurian Bandit","steam_id":76561198072410042,"connected_time":415000000000,"state":"active","ping":52},{"user_id":318,"name":"dave.","steam_id":76561198112350449,"connected_time":1697000000000,"state":"active","ping":107},{"user_id":338,"name":"Dob Bole","steam_id":76561198056367220,"connected_time":13000000000,"state":"active","ping":43},{"user_id":316,"name":"Flan","steam_id":76561198806992589,"connected_time":1809000000000,"state":"active","ping":60},{"user_id":300,"name":"Kirbo","steam_id":76561198807544788,"connected_time":2531000000000,"state":"active","ping":55},{"user_id":313,"name":"xjlm","steam_id":76561198043497260,"connected_time":1864000000000,"state":"active","ping":66},{"user_id":320,"name":"Zach Reeee","steam_id":76561198096698210,"connected_time":1492000000000,"state":"active","ping":81},{"user_id":321,"name":"Lord Scrubling","steam_id":76561198263744445,"connected_time":1338000000000,"state":"active","ping":74},{"user_id":337,"name":"DonoC","steam_id":76561198274473338,"connected_time":59000000000,"state":"active","ping":90},{"user_id":301,"name":"Sir Nope (TSS)","steam_id":76561198035935649,"connected_time":2519000000000,"state":"active","ping":64},{"user_id":299,"name":"Jonatello","steam_id":76561198045699189,"connected_time":2591000000000,"state":"active","ping":103},{"user_id":307,"name":"Unwavering Flavor","steam_id":76561198053306065,"connected_time":2081000000000,"state":"active","ping":76},{"user_id":277,"name":"cactus eater","steam_id":76561199107499844,"connected_time":3428000000000,"state":"active","ping":65},{"user_id":322,"name":"please stand still plz","steam_id":76561198206922028,"connected_time":1212000000000,"state":"active","ping":49},{"user_id":290,"name":"flo rida","steam_id":76561198226169704,"connected_time":3004000000000,"state":"active","ping":59},{"user_id":314,"name":"CHIKN","steam_id":76561198277792665,"connected_time":1860000000000,"state":"active","ping":52},{"user_id":279,"name":"the man","steam_id":76561199103120314,"connected_time":3375000000000,"state":"active","ping":53},{"user_id":296,"name":"krootonitron","steam_id":76561198114113037,"connected_time":2711000000000,"state":"active","ping":57},{"user_id":335,"name":"Pah-Wraith Gul Dukat","steam_id":76561198033918106,"connected_time":197000000000,"state":"active","ping":51},{"user_id":310,"name":"donutdagger","steam_id":76561199203048300,"connected_time":1994000000000,"state":"active","ping":70},{"user_id":328,"name":"John Wick's puppy","steam_id":76561198064662875,"connected_time":912000000000,"state":"active","ping":52},{"user_id":326,"name":"Jimmy","steam_id":76561198857959855,"connected_time":1039000000000,"state":"active","ping":39},{"user_id":329,"name":"SaturnSeven777","steam_id":76561199468889421,"connected_time":840000000000,"state":"active","ping":163}]},{"server_id":324,"name":"Uncletopia | Los Angeles | 3 | All Maps","name_short":"lax-3","host":"lax-1.us.uncletopia.com","port":27035,"enabled":true,"region":"us-west","cc":"us","latitude":33.94279,"longitude":-118.41004,"reserved":0,"last_update":"0001-01-01T00:00:00Z","name_a2s":"Uncletopia | Los Angeles | 3 | All Maps","protocol":17,"map":"pl_barnblitz","folder":"tf","game":"Team Fortress","app_id":440,"player_count":7,"max_players":24,"Bots":0,"server_type":"Dedicated","server_os":"Linux","password":true,"vac":true,"version":"7882260","steam_id":85568392924510198,"keywords":["nocrits","nodmgspread","payload","uncletopia"],"game_id":440,"stv_port":27036,"stv_name":"Uncletopia | Los Angeles | 3 | All Maps | STV","players":[{"user_id":208,"name":"fire retarded","steam_id":76561198383636396,"connected_time":1173000000000,"state":"active","ping":105},{"user_id":214,"name":"DOPEam1ne","steam_id":76561198112204774,"connected_time":5000000000,"state":"spawning","ping":56},{"user_id":199,"name":"KaiDuck4348","steam_id":76561199060186538,"connected_time":2399000000000,"state":"active","ping":104},{"user_id":207,"name":"Experiment♥","steam_id":76561198000830788,"connected_time":1477000000000,"state":"active","ping":45},{"user_id":203,"name":"orneps489","steam_id":76561199124755916,"connected_time":1895000000000,"state":"active","ping":119},{"user_id":210,"name":"SteveMutt","steam_id":76561198871884341,"connected_time":748000000000,"state":"active","ping":90},{"user_id":120,"name":"tacofever","steam_id":76561198010966507,"connected_time":7244000000000,"state":"active","ping":48}]},{"server_id":25,"name":"Uncletopia | Los Angeles | 4 | Stopwatch Beta","name_short":"lax-4","host":"lax-1.us.uncletopia.com","port":27045,"enabled":true,"region":"us-west","cc":"us","latitude":33.94279,"longitude":-118.41004,"reserved":0,"last_update":"0001-01-01T00:00:00Z","name_a2s":"Uncletopia | Los Angeles | 4 | Stopwatch Beta","protocol":17,"map":"koth_lakeside_final","folder":"tf","game":"Team Fortress","app_id":440,"player_count":0,"max_players":24,"Bots":0,"server_type":"Dedicated","server_os":"Linux","password":true,"vac":true,"version":"7882260","steam_id":85568392924510199,"keywords":["cp","nocrits","nodmgspread","uncletopia"],"game_id":440,"stv_port":27046,"stv_name":"Uncletopia | Los Angeles | 4 | Stopwatch Beta | STV","players":null},{"server_id":11,"name":"Uncletopia | London | 1 | All Maps","name_short":"lon-1","host":"lon-1.uk.uncletopia.com","port":27015,"enabled":true,"region":"eu","cc":"gb","latitude":51.509865,"longitude":-0.118092,"reserved":0,"last_update":"0001-01-01T00:00:00Z","name_a2s":"Uncletopia | London | 1 | All Maps","protocol":17,"map":"pl_snowycoast","folder":"tf","game":"Team Fortress","app_id":440,"player_count":24,"max_players":24,"Bots":0,"server_type":"Dedicated","server_os":"Linux","password":true,"vac":true,"version":"7882260","steam_id":85568392924367362,"keywords":["nocrits","nodmgspread","payload","uncletopia"],"game_id":440,"stv_port":27016,"stv_name":"Uncletopia | London | 1 | All Maps | STV","players":[{"user_id":758,"name":"sora :3","steam_id":76561198096547662,"connected_time":2196000000000,"state":"active","ping":51},{"user_id":747,"name":"AWildTamim","steam_id":76561198048060652,"connected_time":3080000000000,"state":"active","ping":35},{"user_id":752,"name":"e9","steam_id":76561198890193313,"connected_time":2796000000000,"state":"active","ping":60},{"user_id":785,"name":"noobdestroyer420","steam_id":76561199249569889,"connected_time":491000000000,"state":"active","ping":60},{"user_id":788,"name":"eee","steam_id":76561199062586342,"connected_time":257000000000,"state":"active","ping":67},{"user_id":751,"name":"regimiro","steam_id":76561198120457008,"connected_time":2836000000000,"state":"active","ping":49},{"user_id":763,"name":"Hoff","steam_id":76561198026537318,"connected_time":1679000000000,"state":"active","ping":40},{"user_id":794,"name":"Green","steam_id":76561198183580019,"connected_time":92000000000,"state":"active","ping":66},{"user_id":765,"name":"Kahvi","steam_id":76561198723244199,"connected_time":1584000000000,"state":"active","ping":78},{"user_id":777,"name":"KittyKate ❤","steam_id":76561198116340817,"connected_time":933000000000,"state":"active","ping":66},{"user_id":770,"name":"Tronaut","steam_id":76561197961913930,"connected_time":1139000000000,"state":"active","ping":81},{"user_id":791,"name":"teddy","steam_id":76561198007436837,"connected_time":188000000000,"state":"active","ping":30},{"user_id":790,"name":"Aaron","steam_id":76561197990046953,"connected_time":189000000000,"state":"active","ping":58},{"user_id":754,"name":"Mr. Heavy LFT Premiership","steam_id":76561198080912087,"connected_time":2737000000000,"state":"active","ping":70},{"user_id":739,"name":"Eidolon","steam_id":76561198043919565,"connected_time":3465000000000,"state":"active","ping":68},{"user_id":793,"name":"Король Пельменей","steam_id":76561199104623150,"connected_time":117000000000,"state":"active","ping":160},{"user_id":779,"name":"BuzzBees ❤","steam_id":76561198101502273,"connected_time":911000000000,"state":"active","ping":61},{"user_id":773,"name":"Mr.killer","steam_id":76561198290584189,"connected_time":1092000000000,"state":"active","ping":85},{"user_id":756,"name":":3","steam_id":76561199057953617,"connected_time":2357000000000,"state":"active","ping":74},{"user_id":734,"name":"something","steam_id":76561198198581615,"connected_time":3722000000000,"state":"active","ping":68},{"user_id":780,"name":"Very Original Name","steam_id":76561199159833013,"connected_time":896000000000,"state":"active","ping":84},{"user_id":757,"name":"BreadBubbles","steam_id":76561198174332826,"connected_time":2278000000000,"state":"active","ping":61},{"user_id":768,"name":"JeanCorben","steam_id":76561197965133561,"connected_time":1452000000000,"state":"active","ping":43},{"user_id":787,"name":"☁⭍ qBowN∼","steam_id":76561198000980532,"connected_time":401000000000,"state":"active","ping":60}]},{"server_id":114,"name":"Uncletopia | London | 2 | All Maps","name_short":"lon-2","host":"lon-1.uk.uncletopia.com","port":27025,"enabled":true,"region":"eu","cc":"gb","latitude":51.509865,"longitude":-0.118092,"reserved":0,"last_update":"0001-01-01T00:00:00Z","name_a2s":"Uncletopia | London | 2 | All Maps","protocol":17,"map":"pl_borneo","folder":"tf","game":"Team Fortress","app_id":440,"player_count":24,"max_players":24,"Bots":0,"server_type":"Dedicated","server_os":"Linux","password":true,"vac":true,"version":"7882260","steam_id":85568392924470941,"keywords":["nocrits","nodmgspread","payload","uncletopia"],"game_id":440,"stv_port":27026,"stv_name":"Uncletopia | London | 2 | All Maps | STV","players":[{"user_id":644,"name":"Anri Okita's Massive Milkers","steam_id":76561199186352720,"connected_time":2975000000000,"state":"active","ping":57},{"user_id":652,"name":"Nati \"triplePunk\" Noot","steam_id":76561198119449463,"connected_time":1795000000000,"state":"active","ping":56},{"user_id":636,"name":"absorbent robert","steam_id":76561198914610283,"connected_time":3300000000000,"state":"active","ping":75},{"user_id":655,"name":"00uk","steam_id":76561198281873108,"connected_time":1679000000000,"state":"active","ping":75},{"user_id":667,"name":"DeanAdamFry","steam_id":76561198054153160,"connected_time":190000000000,"state":"active","ping":48},{"user_id":648,"name":"Nameless","steam_id":76561198084215731,"connected_time":2590000000000,"state":"active","ping":42},{"user_id":669,"name":"Yelowchy","steam_id":76561198199416121,"connected_time":70000000000,"state":"active","ping":70},{"user_id":649,"name":"rets","steam_id":76561198061551392,"connected_time":2558000000000,"state":"active","ping":53},{"user_id":670,"name":"Laylakikio","steam_id":76561198090146457,"connected_time":65000000000,"state":"active","ping":43},{"user_id":625,"name":"Wattseyy","steam_id":76561198248567360,"connected_time":4075000000000,"state":"active","ping":42},{"user_id":638,"name":"Orange :p","steam_id":76561198963378933,"connected_time":3293000000000,"state":"active","ping":43},{"user_id":658,"name":"Runyohell","steam_id":76561198309876860,"connected_time":1554000000000,"state":"active","ping":85},{"user_id":650,"name":"Bounter","steam_id":76561198072614188,"connected_time":2410000000000,"state":"active","ping":74},{"user_id":627,"name":"KooshIsCool","steam_id":76561198423902979,"connected_time":3901000000000,"state":"active","ping":48},{"user_id":654,"name":"nuke_de","steam_id":76561198859193688,"connected_time":1741000000000,"state":"active","ping":63},{"user_id":461,"name":"Rappin' Sebastian","steam_id":76561198453928256,"connected_time":15020000000000,"state":"active","ping":61},{"user_id":668,"name":"luckyminer98","steam_id":76561198177095691,"connected_time":189000000000,"state":"active","ping":48},{"user_id":657,"name":"THE SASQUATCH","steam_id":76561198197606282,"connected_time":1607000000000,"state":"active","ping":45},{"user_id":634,"name":"Brian","steam_id":76561198077756206,"connected_time":3325000000000,"state":"active","ping":39},{"user_id":653,"name":"Benny Harvey RIP","steam_id":76561198386373871,"connected_time":1771000000000,"state":"active","ping":67},{"user_id":666,"name":"tone","steam_id":76561197975301462,"connected_time":201000000000,"state":"active","ping":54},{"user_id":615,"name":"cantsniff","steam_id":76561198259668029,"connected_time":4789000000000,"state":"active","ping":45},{"user_id":628,"name":"WE HAVE MR HIGHLANDER","steam_id":76561198798803845,"connected_time":3881000000000,"state":"active","ping":45},{"user_id":622,"name":"nebuNEBUnebu","steam_id":76561198307037169,"connected_time":4734000000000,"state":"active","ping":49}]},{"server_id":320,"name":"Uncletopia | London | 3 | All Maps","name_short":"lon-3","host":"lon-1.uk.uncletopia.com","port":27035,"enabled":true,"region":"eu","cc":"gb","latitude":51.509865,"longitude":-0.118092,"reserved":0,"last_update":"0001-01-01T00:00:00Z","name_a2s":"Uncletopia | London | 3 | All Maps","protocol":17,"map":"pl_badwater","folder":"tf","game":"Team Fortress","app_id":440,"player_count":23,"max_players":24,"Bots":0,"server_type":"Dedicated","server_os":"Linux","password":true,"vac":true,"version":"7882260","steam_id":85568392924510192,"keywords":["nocrits","nodmgspread","payload","uncletopia"],"game_id":440,"stv_port":27036,"stv_name":"Uncletopia | London | 3 | All Maps | STV","players":[{"user_id":587,"name":"AndreasMeister","steam_id":76561198305129964,"connected_time":2335000000000,"state":"active","ping":92},{"user_id":501,"name":"pyro gaming","steam_id":76561198087970118,"connected_time":8821000000000,"state":"active","ping":101},{"user_id":579,"name":"Curvi-Picollo","steam_id":76561199426166721,"connected_time":2844000000000,"state":"active","ping":85},{"user_id":618,"name":"madijo","steam_id":76561198012617400,"connected_time":185000000000,"state":"active","ping":73},{"user_id":588,"name":"Potassium Perpetrator","steam_id":76561198317217013,"connected_time":2324000000000,"state":"active","ping":73},{"user_id":615,"name":"df","steam_id":76561198448551449,"connected_time":1081000000000,"state":"active","ping":36},{"user_id":518,"name":"legit gaming","steam_id":76561198263726754,"connected_time":7723000000000,"state":"active","ping":84},{"user_id":570,"name":"shreddies 750g","steam_id":76561198188642265,"connected_time":3304000000000,"state":"active","ping":74},{"user_id":589,"name":"key goose","steam_id":76561197964879379,"connected_time":2320000000000,"state":"active","ping":84},{"user_id":617,"name":"dripstein","steam_id":76561198059598696,"connected_time":189000000000,"state":"active","ping":61},{"user_id":567,"name":"dun-Dun-DUUUUUN!","steam_id":76561198193357946,"connected_time":3527000000000,"state":"active","ping":98},{"user_id":607,"name":"Stańczyk","steam_id":76561197998906563,"connected_time":1538000000000,"state":"active","ping":45},{"user_id":571,"name":"Din Javel","steam_id":76561198043018352,"connected_time":3255000000000,"state":"active","ping":66},{"user_id":612,"name":"Paint","steam_id":76561198166823873,"connected_time":1167000000000,"state":"active","ping":59},{"user_id":609,"name":"(_ _).｡o○","steam_id":76561198298576765,"connected_time":1421000000000,"state":"active","ping":67},{"user_id":576,"name":"PowerOfDraxus | trade.tf","steam_id":76561199105872771,"connected_time":2866000000000,"state":"active","ping":93},{"user_id":487,"name":"scramble gaming","steam_id":76561198100957443,"connected_time":9530000000000,"state":"active","ping":67},{"user_id":603,"name":"Kumquat","steam_id":76561198200490386,"connected_time":1922000000000,"state":"active","ping":72},{"user_id":594,"name":"ksg","steam_id":76561198042894236,"connected_time":2150000000000,"state":"active","ping":76},{"user_id":616,"name":"VampiuS","steam_id":76561197998827007,"connected_time":555000000000,"state":"active","ping":72},{"user_id":611,"name":"Mr_Pulse_","steam_id":76561198095001602,"connected_time":1206000000000,"state":"active","ping":107},{"user_id":600,"name":"The Appleguy","steam_id":76561198444982569,"connected_time":2035000000000,"state":"active","ping":78},{"user_id":604,"name":"MORTAL-WOMBAT","steam_id":76561198101581746,"connected_time":1866000000000,"state":"active","ping":65}]},{"server_id":321,"name":"Uncletopia | London | 4 | All Maps","name_short":"lon-4","host":"lon-1.uk.uncletopia.com","port":27045,"enabled":true,"region":"eu","cc":"gb","latitude":51.509865,"longitude":-0.118092,"reserved":0,"last_update":"0001-01-01T00:00:00Z","name_a2s":"Uncletopia | London | 4 | All Maps","protocol":17,"map":"koth_highpass","folder":"tf","game":"Team Fortress","app_id":440,"player_count":0,"max_players":24,"Bots":0,"server_type":"Dedicated","server_os":"Linux","password":true,"vac":true,"version":"7882260","steam_id":85568392924510193,"keywords":["cp","nocrits","nodmgspread","uncletopia"],"game_id":440,"stv_port":27046,"stv_name":"Uncletopia | London | 4 | All Maps | STV","players":null},{"server_id":21,"name":"Uncletopia | London | 5 | All Maps","name_short":"lon-5","host":"lon-1.uk.uncletopia.com","port":27055,"enabled":true,"region":"eu","cc":"gb","latitude":51.509865,"longitude":-0.118092,"reserved":0,"last_update":"0001-01-01T00:00:00Z","name_a2s":"Uncletopia | London | 5 | All Maps","protocol":17,"map":"pl_swiftwater_final1","folder":"tf","game":"Team Fortress","app_id":440,"player_count":24,"max_players":24,"Bots":0,"server_type":"Dedicated","server_os":"Linux","password":true,"vac":true,"version":"7882260","steam_id":85568392924742829,"keywords":["nocrits","nodmgspread","payload","uncletopia"],"game_id":440,"stv_port":27056,"stv_name":"Uncletopia | London | 5 | All Maps | STV","players":[{"user_id":533,"name":"Dakeyras","steam_id":76561198057069564,"connected_time":1458000000000,"state":"active","ping":100},{"user_id":535,"name":"ScaryTree","steam_id":76561199384362833,"connected_time":1386000000000,"state":"active","ping":51},{"user_id":528,"name":"Nugget","steam_id":76561198338916407,"connected_time":1741000000000,"state":"active","ping":73},{"user_id":529,"name":"Kestrel","steam_id":76561198144033005,"connected_time":1710000000000,"state":"active","ping":51},{"user_id":474,"name":"rob","steam_id":76561198122211848,"connected_time":4623000000000,"state":"active","ping":97},{"user_id":549,"name":"Hypenite","steam_id":76561198067589713,"connected_time":548000000000,"state":"active","ping":75},{"user_id":530,"name":"I LOVE POLAND","steam_id":76561198871136698,"connected_time":1706000000000,"state":"active","ping":43},{"user_id":542,"name":"Famous Anus","steam_id":76561198413675639,"connected_time":1069000000000,"state":"active","ping":69},{"user_id":543,"name":"peso enjoyer","steam_id":76561198798177799,"connected_time":817000000000,"state":"active","ping":81},{"user_id":401,"name":"Enderpanda24","steam_id":76561199461170521,"connected_time":10601000000000,"state":"active","ping":94},{"user_id":506,"name":"Mabert","steam_id":76561198436058407,"connected_time":2591000000000,"state":"active","ping":68},{"user_id":546,"name":"Balen","steam_id":76561198036522265,"connected_time":637000000000,"state":"active","ping":81},{"user_id":518,"name":"Endi","steam_id":76561198914938199,"connected_time":2045000000000,"state":"active","ping":103},{"user_id":510,"name":"sook","steam_id":76561198199117446,"connected_time":2476000000000,"state":"active","ping":53},{"user_id":532,"name":"Ixsus\u003c3","steam_id":76561198094756869,"connected_time":1537000000000,"state":"active","ping":62},{"user_id":519,"name":"Clitorina","steam_id":76561198077570815,"connected_time":2000000000000,"state":"active","ping":45},{"user_id":520,"name":"SoupER","steam_id":76561198063056668,"connected_time":2000000000000,"state":"active","ping":49},{"user_id":545,"name":"Jyghc","steam_id":76561198405980575,"connected_time":669000000000,"state":"active","ping":71},{"user_id":547,"name":"Artificial.Ignorance","steam_id":76561198453090180,"connected_time":621000000000,"state":"active","ping":176},{"user_id":548,"name":"Antifaschistischer","steam_id":76561198452588605,"connected_time":572000000000,"state":"active","ping":71},{"user_id":524,"name":"Finn","steam_id":76561198179960193,"connected_time":1865000000000,"state":"active","ping":36},{"user_id":525,"name":"sarii ☆","steam_id":76561199155102111,"connected_time":1846000000000,"state":"active","ping":83},{"user_id":538,"name":"shadow39344","steam_id":76561198090639618,"connected_time":1337000000000,"state":"active","ping":65},{"user_id":541,"name":"Kick a duck","steam_id":76561198048604631,"connected_time":1224000000000,"state":"active","ping":60}]},{"server_id":22,"name":"Uncletopia | London | 6 | All Maps","name_short":"lon-6","host":"lon-1.uk.uncletopia.com","port":27065,"enabled":true,"region":"eu","cc":"gb","latitude":51.509865,"longitude":-0.118092,"reserved":0,"last_update":"0001-01-01T00:00:00Z","name_a2s":"Uncletopia | London | 6 | All Maps","protocol":17,"map":"pl_frontier_final","folder":"tf","game":"Team Fortress","app_id":440,"player_count":24,"max_players":24,"Bots":0,"server_type":"Dedicated","server_os":"Linux","password":true,"vac":true,"version":"7882260","steam_id":85568392924742830,"keywords":["nocrits","nodmgspread","payload","uncletopia"],"game_id":440,"stv_port":27066,"stv_name":"Uncletopia | London | 6 | All Maps | STV","players":[{"user_id":760,"name":"Calmedy","steam_id":76561198295310457,"connected_time":3037000000000,"state":"active","ping":55},{"user_id":772,"name":"Economic crisis","steam_id":76561198063562843,"connected_time":1028000000000,"state":"active","ping":72},{"user_id":783,"name":"nicco","steam_id":76561198046217866,"connected_time":395000000000,"state":"active","ping":58},{"user_id":734,"name":"Jonno","steam_id":76561198023443744,"connected_time":6154000000000,"state":"active","ping":53},{"user_id":683,"name":"eeeeee","steam_id":76561198017786875,"connected_time":9398000000000,"state":"active","ping":68},{"user_id":757,"name":"Micro","steam_id":76561198289540452,"connected_time":3367000000000,"state":"active","ping":39},{"user_id":782,"name":"(wm) Das Fleisch","steam_id":76561198001250715,"connected_time":407000000000,"state":"active","ping":68},{"user_id":685,"name":"Carrotcracker","steam_id":76561198034862396,"connected_time":9385000000000,"state":"active","ping":82},{"user_id":750,"name":"extra icky","steam_id":76561198097507847,"connected_time":4834000000000,"state":"active","ping":85},{"user_id":715,"name":"Femboy Portal Radio Uncompresse","steam_id":76561198072320671,"connected_time":7206000000000,"state":"active","ping":35},{"user_id":766,"name":"Bromoneto","steam_id":76561198876695014,"connected_time":2568000000000,"state":"active","ping":70},{"user_id":767,"name":"knavepunk","steam_id":76561198158631142,"connected_time":2552000000000,"state":"active","ping":43},{"user_id":768,"name":"Ketania","steam_id":76561198253326789,"connected_time":2549000000000,"state":"active","ping":60},{"user_id":781,"name":"フェムセル❤","steam_id":76561198972654736,"connected_time":667000000000,"state":"active","ping":76},{"user_id":726,"name":"Expanix","steam_id":76561198111125317,"connected_time":6494000000000,"state":"active","ping":59},{"user_id":778,"name":"klaus","steam_id":76561198150394201,"connected_time":907000000000,"state":"active","ping":88},{"user_id":784,"name":"Mi Manchi","steam_id":76561198171573129,"connected_time":390000000000,"state":"active","ping":59},{"user_id":736,"name":"Le bagutte","steam_id":76561198258504847,"connected_time":6145000000000,"state":"active","ping":71},{"user_id":785,"name":"big carrot field. growing well","steam_id":76561198069649097,"connected_time":388000000000,"state":"active","ping":47},{"user_id":716,"name":"Prem Nintendogs Player","steam_id":76561197970114051,"connected_time":7205000000000,"state":"active","ping":45},{"user_id":776,"name":"GAMER","steam_id":76561198025329937,"connected_time":947000000000,"state":"active","ping":54},{"user_id":749,"name":"Into Extra Icky","steam_id":76561198067204908,"connected_time":4969000000000,"state":"active","ping":60},{"user_id":777,"name":"DobreStarachowickie","steam_id":76561198027126737,"connected_time":931000000000,"state":"active","ping":75},{"user_id":780,"name":"Xiqui","steam_id":76561198818386611,"connected_time":855000000000,"state":"active","ping":78}]},{"server_id":40,"name":"Uncletopia | London | 7 | No Payload","name_short":"lon-7","host":"lon-1.uk.uncletopia.com","port":27075,"enabled":true,"region":"eu","cc":"gb","latitude":51.509865,"longitude":-0.118092,"reserved":0,"last_update":"0001-01-01T00:00:00Z","name_a2s":"Uncletopia | London | 7 | No Payload","protocol":17,"map":"ctf_2fort","folder":"tf","game":"Team Fortress","app_id":440,"player_count":21,"max_players":24,"Bots":0,"server_type":"Dedicated","server_os":"Linux","password":true,"vac":true,"version":"7882260","steam_id":85568392924964314,"keywords":["ctf","nocrits","nodmgspread","uncletopia"],"game_id":440,"stv_port":27076,"stv_name":"Uncletopia | London | 7 | No Payload | STV","players":[{"user_id":767,"name":"Max the Mentlegen","steam_id":76561197999182201,"connected_time":269000000000,"state":"active","ping":118},{"user_id":744,"name":"Gimli","steam_id":76561198004149706,"connected_time":2974000000000,"state":"active","ping":60},{"user_id":758,"name":"Space","steam_id":76561198021572167,"connected_time":807000000000,"state":"active","ping":45},{"user_id":756,"name":"Mike Rotch","steam_id":76561198111232378,"connected_time":986000000000,"state":"active","ping":90},{"user_id":729,"name":"Birdseye 2","steam_id":76561197998352095,"connected_time":4322000000000,"state":"active","ping":45},{"user_id":734,"name":"Cheff","steam_id":76561198011475333,"connected_time":3905000000000,"state":"active","ping":54},{"user_id":757,"name":"Cpl. Shephard","steam_id":76561198882051599,"connected_time":925000000000,"state":"active","ping":65},{"user_id":765,"name":"Hans","steam_id":76561198030061999,"connected_time":410000000000,"state":"active","ping":82},{"user_id":770,"name":"Sentry Man","steam_id":76561198088417596,"connected_time":173000000000,"state":"active","ping":94},{"user_id":761,"name":"Gnomes","steam_id":76561198093510773,"connected_time":561000000000,"state":"active","ping":51},{"user_id":762,"name":"JonnyBain","steam_id":76561198090080911,"connected_time":545000000000,"state":"active","ping":67},{"user_id":763,"name":"CLAPPER","steam_id":76561199061808252,"connected_time":528000000000,"state":"active","ping":55},{"user_id":764,"name":"Woop!","steam_id":76561198062352934,"connected_time":513000000000,"state":"active","ping":67},{"user_id":775,"name":"süleyman","steam_id":76561198434846763,"connected_time":15000000000,"state":"active","ping":52},{"user_id":773,"name":"An_Evil_Donut","steam_id":76561198209195408,"connected_time":82000000000,"state":"active","ping":67},{"user_id":769,"name":"padillacampos","steam_id":76561198161923970,"connected_time":250000000000,"state":"active","ping":85},{"user_id":771,"name":"Well, off to hang myself","steam_id":76561198053374944,"connected_time":143000000000,"state":"active","ping":61},{"user_id":772,"name":"MxQuiteGood","steam_id":76561198069780233,"connected_time":127000000000,"state":"active","ping":51},{"user_id":774,"name":"LT.Steeamer","steam_id":76561198271938142,"connected_time":60000000000,"state":"spawning","ping":81},{"user_id":776,"name":"Kyan","steam_id":76561198046566697,"connected_time":3000000000,"state":"spawning","ping":47},{"user_id":728,"name":"Birdseye","steam_id":76561198025852216,"connected_time":4358000000000,"state":"active","ping":47}]},{"server_id":41,"name":"Uncletopia | London | 8 | Community","name_short":"lon-8","host":"lon-1.uk.uncletopia.com","port":27085,"enabled":true,"region":"eu","cc":"gb","latitude":51.509865,"longitude":-0.118092,"reserved":0,"last_update":"0001-01-01T00:00:00Z","name_a2s":"Uncletopia | London | 8 | Community","protocol":17,"map":"workshop/cp_fulgur_rc2a.ugc2068252300","folder":"tf","game":"Team Fortress","app_id":440,"player_count":24,"max_players":24,"Bots":0,"server_type":"Dedicated","server_os":"Linux","password":true,"vac":true,"version":"7882260","steam_id":85568392924964315,"keywords":["cp","nocrits","nodmgspread","uncletopia"],"game_id":440,"stv_port":27086,"stv_name":"Uncletopia | London | 8 | Community | STV","players":[{"user_id":172,"name":"Nintyuk","steam_id":76561197994176164,"connected_time":4793000000000,"state":"active","ping":35},{"user_id":131,"name":"TylowStar","steam_id":76561198357107806,"connected_time":8118000000000,"state":"active","ping":63},{"user_id":240,"name":"DJ Absolute Garbage","steam_id":76561198068000747,"connected_time":130000000000,"state":"active","ping":113},{"user_id":241,"name":"[FP] Shiken","steam_id":76561198257905663,"connected_time":119000000000,"state":"active","ping":65},{"user_id":239,"name":"O4W Guz tf2medium.com","steam_id":76561198384689388,"connected_time":336000000000,"state":"active","ping":32},{"user_id":199,"name":"Zionel","steam_id":76561198202442224,"connected_time":3334000000000,"state":"active","ping":72},{"user_id":193,"name":"ProDG","steam_id":76561198087728099,"connected_time":3709000000000,"state":"active","ping":55},{"user_id":235,"name":"Rappy","steam_id":76561198094882533,"connected_time":536000000000,"state":"active","ping":60},{"user_id":236,"name":"0lloe","steam_id":76561198070861443,"connected_time":528000000000,"state":"active","ping":51},{"user_id":182,"name":"Tegnerud","steam_id":76561198214185612,"connected_time":4469000000000,"state":"active","ping":74},{"user_id":230,"name":"Conan","steam_id":76561198158321202,"connected_time":749000000000,"state":"active","ping":55},{"user_id":194,"name":"SolidB_","steam_id":76561198035626468,"connected_time":3672000000000,"state":"active","ping":60},{"user_id":212,"name":"SPONGE","steam_id":76561198040933472,"connected_time":1374000000000,"state":"active","ping":75},{"user_id":232,"name":"squiddy101","steam_id":76561198210199168,"connected_time":709000000000,"state":"active","ping":179},{"user_id":242,"name":"Volcyy","steam_id":76561198063979124,"connected_time":71000000000,"state":"active","ping":50},{"user_id":200,"name":"D4","steam_id":76561198021159800,"connected_time":3312000000000,"state":"active","ping":81},{"user_id":237,"name":"Juiceydough","steam_id":76561197997323419,"connected_time":472000000000,"state":"active","ping":89},{"user_id":219,"name":"hud_saytext_time 0","steam_id":76561198010327228,"connected_time":1172000000000,"state":"active","ping":71},{"user_id":220,"name":"Kleiner Engel","steam_id":76561198009922500,"connected_time":1135000000000,"state":"active","ping":72},{"user_id":153,"name":"akakez","steam_id":76561198095432821,"connected_time":6448000000000,"state":"active","ping":116},{"user_id":197,"name":"Riordan the Armpit Inspector","steam_id":76561198001346236,"connected_time":3607000000000,"state":"active","ping":78},{"user_id":231,"name":"Clark","steam_id":76561197998520785,"connected_time":732000000000,"state":"active","ping":85},{"user_id":238,"name":"French Lym (Aya)","steam_id":76561198954876624,"connected_time":465000000000,"state":"active","ping":103},{"user_id":234,"name":"vadr","steam_id":76561198334528186,"connected_time":693000000000,"state":"active","ping":50}]},{"server_id":300,"name":"Uncletopia | Montréal | 1 | All Maps","name_short":"mtl-1","host":"mtl-1.ca.uncletopia.com","port":27015,"enabled":true,"region":"us-east","cc":"ca","latitude":45.50889,"longitude":-73.56167,"reserved":0,"last_update":"0001-01-01T00:00:00Z","name_a2s":"Uncletopia | Montréal | 1 | All Maps","protocol":17,"map":"pl_upward","folder":"tf","game":"Team Fortress","app_id":440,"player_count":21,"max_players":24,"Bots":0,"server_type":"Dedicated","server_os":"Linux","password":true,"vac":true,"version":"7882260","steam_id":85568392924500087,"keywords":["nocrits","nodmgspread","payload","uncletopia"],"game_id":440,"stv_port":27016,"stv_name":"Uncletopia | Montréal | 1 | All Maps | STV","players":[{"user_id":216,"name":"captain red","steam_id":76561198191587983,"connected_time":1495000000000,"state":"active","ping":107},{"user_id":196,"name":"Julius Caesar","steam_id":76561198360004673,"connected_time":3135000000000,"state":"active","ping":78},{"user_id":222,"name":"Gas Can","steam_id":76561198162853003,"connected_time":612000000000,"state":"active","ping":89},{"user_id":194,"name":"Bobo","steam_id":76561198052308399,"connected_time":3336000000000,"state":"active","ping":159},{"user_id":210,"name":"j - フライドチキン","steam_id":76561198061224922,"connected_time":2422000000000,"state":"active","ping":56},{"user_id":229,"name":"yale party @ 10","steam_id":76561198173047169,"connected_time":255000000000,"state":"active","ping":49},{"user_id":199,"name":"maplestory","steam_id":76561198132218589,"connected_time":3058000000000,"state":"active","ping":48},{"user_id":225,"name":"Theodore Roosevelt","steam_id":76561197993295656,"connected_time":540000000000,"state":"active","ping":61},{"user_id":226,"name":"Doubting Dave","steam_id":76561198066410749,"connected_time":518000000000,"state":"active","ping":69},{"user_id":219,"name":"Lemurian","steam_id":76561198324118507,"connected_time":1012000000000,"state":"active","ping":70},{"user_id":200,"name":"JustLooking","steam_id":76561198207877387,"connected_time":2934000000000,"state":"active","ping":90},{"user_id":202,"name":"Cres","steam_id":76561198093137002,"connected_time":2857000000000,"state":"active","ping":101},{"user_id":217,"name":"Bush.exe","steam_id":76561198124385307,"connected_time":1493000000000,"state":"active","ping":58},{"user_id":189,"name":"bouncyballs.com","steam_id":76561198236166288,"connected_time":3797000000000,"state":"active","ping":42},{"user_id":209,"name":"TOBY!!!","steam_id":76561199380822531,"connected_time":2528000000000,"state":"active","ping":107},{"user_id":178,"name":"emseaeye","steam_id":76561198161499803,"connected_time":4474000000000,"state":"active","ping":51},{"user_id":215,"name":"alex","steam_id":76561198095203229,"connected_time":1548000000000,"state":"active","ping":58},{"user_id":152,"name":"Yep","steam_id":76561198041437251,"connected_time":5684000000000,"state":"active","ping":62},{"user_id":218,"name":"TheGuyWhoPlays","steam_id":76561198277363002,"connected_time":1406000000000,"state":"active","ping":59},{"user_id":206,"name":"Phone","steam_id":76561198334357092,"connected_time":2782000000000,"state":"active","ping":82},{"user_id":227,"name":"Rue","steam_id":76561198013135993,"connected_time":518000000000,"state":"active","ping":44}]},{"server_id":301,"name":"Uncletopia | Montréal | 2 | All Maps","name_short":"mtl-2","host":"mtl-1.ca.uncletopia.com","port":27025,"enabled":true,"region":"us-east","cc":"ca","latitude":45.50889,"longitude":-73.56167,"reserved":0,"last_update":"0001-01-01T00:00:00Z","name_a2s":"Uncletopia | Montréal | 2 | All Maps","protocol":17,"map":"koth_cascade","folder":"tf","game":"Team Fortress","app_id":440,"player_count":0,"max_players":24,"Bots":0,"server_type":"Dedicated","server_os":"Linux","password":true,"vac":true,"version":"7882260","steam_id":85568392924500088,"keywords":["cp","nocrits","nodmgspread","uncletopia"],"game_id":440,"stv_port":27026,"stv_name":"Uncletopia | Montréal | 2 | All Maps | STV","players":null},{"server_id":302,"name":"Uncletopia | Montréal | 3 | All Maps","name_short":"mtl-3","host":"mtl-1.ca.uncletopia.com","port":27035,"enabled":true,"region":"us-east","cc":"ca","latitude":45.50889,"longitude":-73.56167,"reserved":0,"last_update":"0001-01-01T00:00:00Z","name_a2s":"Uncletopia | Montréal | 3 | All Maps","protocol":17,"map":"koth_highpass","folder":"tf","game":"Team Fortress","app_id":440,"player_count":0,"max_players":24,"Bots":0,"server_type":"Dedicated","server_os":"Linux","password":true,"vac":true,"version":"7882260","steam_id":85568392924500089,"keywords":["cp","nocrits","nodmgspread","uncletopia"],"game_id":440,"stv_port":27036,"stv_name":"Uncletopia | Montréal | 3 | All Maps | STV","players":null},{"server_id":303,"name":"Uncletopia | Montréal | 4 | No Payload","name_short":"mtl-4","host":"mtl-1.ca.uncletopia.com","port":27045,"enabled":true,"region":"us-east","cc":"ca","latitude":45.50889,"longitude":-73.56167,"reserved":0,"last_update":"0001-01-01T00:00:00Z","name_a2s":"Uncletopia | Montréal | 4 | No Payload","protocol":17,"map":"cp_altitude","folder":"tf","game":"Team Fortress","app_id":440,"player_count":0,"max_players":24,"Bots":0,"server_type":"Dedicated","server_os":"Linux","password":true,"vac":true,"version":"7882260","steam_id":85568392924500090,"keywords":["cp","nocrits","nodmgspread","uncletopia"],"game_id":440,"stv_port":27046,"stv_name":"Uncletopia | Montréal | 4 | No Payload | STV","players":null},{"server_id":13,"name":"Uncletopia | New York City | 1 | All Maps","name_short":"nyc-1","host":"nyc-1.us.uncletopia.com","port":27015,"enabled":true,"region":"us-east","cc":"us","latitude":40.73061,"longitude":-73.93524,"reserved":0,"last_update":"0001-01-01T00:00:00Z","name_a2s":"Uncletopia | New York City | 1 | All Maps","protocol":17,"map":"pl_upward","folder":"tf","game":"Team Fortress","app_id":440,"player_count":24,"max_players":24,"Bots":0,"server_type":"Dedicated","server_os":"Linux","password":true,"vac":true,"version":"7882260","steam_id":85568392924469993,"keywords":["nocrits","nodmgspread","payload","uncletopia"],"game_id":440,"stv_port":27016,"stv_name":"Uncletopia | New York City | 1 | All Maps | STV","players":[{"user_id":579,"name":"Major Woody","steam_id":76561198835541533,"connected_time":1355000000000,"state":"active","ping":56},{"user_id":569,"name":"i buried a man yesterday","steam_id":76561199228751836,"connected_time":2148000000000,"state":"active","ping":77},{"user_id":580,"name":"C̷̩͠Ṷ̴̈Ř̶̹S̸̡̓E̷","steam_id":76561199122615792,"connected_time":1351000000000,"state":"active","ping":74},{"user_id":592,"name":"MeatShield 2000","steam_id":76561199375192850,"connected_time":781000000000,"state":"active","ping":122},{"user_id":549,"name":"the relayer","steam_id":76561198089430717,"connected_time":3822000000000,"state":"active","ping":101},{"user_id":596,"name":"heywaitasecond","steam_id":76561199064548292,"connected_time":744000000000,"state":"active","ping":66},{"user_id":560,"name":"Sipder","steam_id":76561198147474387,"connected_time":2982000000000,"state":"active","ping":82},{"user_id":570,"name":"the quest","steam_id":76561198236343140,"connected_time":2143000000000,"state":"active","ping":70},{"user_id":547,"name":"meat glasses","steam_id":76561198046742645,"connected_time":3862000000000,"state":"active","ping":60},{"user_id":571,"name":"Ginger Jesus","steam_id":76561198052386458,"connected_time":2075000000000,"state":"active","ping":41},{"user_id":572,"name":"Sysadmin Stress Release","steam_id":76561197997326384,"connected_time":2064000000000,"state":"active","ping":66},{"user_id":550,"name":"glue sniffer","steam_id":76561198044689778,"connected_time":3815000000000,"state":"active","ping":48},{"user_id":600,"name":"Boom 13","steam_id":76561198126796502,"connected_time":383000000000,"state":"active","ping":85},{"user_id":593,"name":"champion  turkey","steam_id":76561198151338482,"connected_time":769000000000,"state":"active","ping":52},{"user_id":594,"name":"@reallyBigBoss","steam_id":76561198137903950,"connected_time":769000000000,"state":"active","ping":100},{"user_id":601,"name":"Dr. Enforcicle (real)","steam_id":76561198964471859,"connected_time":269000000000,"state":"active","ping":71},{"user_id":574,"name":"dog","steam_id":76561198263873491,"connected_time":1958000000000,"state":"active","ping":62},{"user_id":589,"name":"Ventastega","steam_id":76561197999366317,"connected_time":889000000000,"state":"active","ping":101},{"user_id":575,"name":"hawaiian bread","steam_id":76561197998344127,"connected_time":1924000000000,"state":"active","ping":85},{"user_id":584,"name":"Grilled Jizo","steam_id":76561199250875340,"connected_time":1298000000000,"state":"active","ping":91},{"user_id":578,"name":"Amauri","steam_id":76561198130809137,"connected_time":1519000000000,"state":"active","ping":78},{"user_id":597,"name":"Solo","steam_id":76561198037769834,"connected_time":716000000000,"state":"active","ping":72},{"user_id":591,"name":"dubzy","steam_id":76561198107259309,"connected_time":841000000000,"state":"active","ping":44},{"user_id":598,"name":"Yeahboiiii","steam_id":76561198390325068,"connected_time":712000000000,"state":"active","ping":55}]},{"server_id":14,"name":"Uncletopia | New York City | 2 | All Maps","name_short":"nyc-2","host":"nyc-1.us.uncletopia.com","port":27025,"enabled":true,"region":"us-east","cc":"us","latitude":40.73061,"longitude":-73.93524,"reserved":0,"last_update":"0001-01-01T00:00:00Z","name_a2s":"Uncletopia | New York City | 2 | All Maps","protocol":17,"map":"pl_pier","folder":"tf","game":"Team Fortress","app_id":440,"player_count":22,"max_players":24,"Bots":0,"server_type":"Dedicated","server_os":"Linux","password":true,"vac":true,"version":"7882260","steam_id":85568392924469994,"keywords":["nocrits","nodmgspread","payload","uncletopia"],"game_id":440,"stv_port":27026,"stv_name":"Uncletopia | New York City | 2 | All Maps | STV","players":[{"user_id":164,"name":"Ugzugzug The Bucket Mann","steam_id":76561198836624330,"connected_time":4471000000000,"state":"active","ping":78},{"user_id":214,"name":"bcizzo","steam_id":76561197994399953,"connected_time":833000000000,"state":"active","ping":120},{"user_id":216,"name":"Emails","steam_id":76561198836919458,"connected_time":783000000000,"state":"active","ping":85},{"user_id":211,"name":"leonardo doujinshi","steam_id":76561198025810326,"connected_time":1123000000000,"state":"active","ping":63},{"user_id":223,"name":"you forgot the sauce","steam_id":76561198387016713,"connected_time":506000000000,"state":"active","ping":53},{"user_id":113,"name":"Pozyomka","steam_id":76561198086331015,"connected_time":7415000000000,"state":"active","ping":38},{"user_id":225,"name":"I Like Cheese","steam_id":76561198006265659,"connected_time":485000000000,"state":"active","ping":82},{"user_id":226,"name":"The Nikocado Enjoyer","steam_id":76561198263154374,"connected_time":480000000000,"state":"active","ping":54},{"user_id":227,"name":"Peepster","steam_id":76561198297854733,"connected_time":414000000000,"state":"active","ping":72},{"user_id":168,"name":"Jeugh","steam_id":76561198073498865,"connected_time":4425000000000,"state":"active","ping":85},{"user_id":228,"name":"DrCrent","steam_id":76561198182204161,"connected_time":354000000000,"state":"active","ping":44},{"user_id":169,"name":"wags","steam_id":76561198054448516,"connected_time":4397000000000,"state":"active","ping":75},{"user_id":194,"name":"Ferguson","steam_id":76561198121349387,"connected_time":2314000000000,"state":"active","ping":85},{"user_id":106,"name":"Braamklauw","steam_id":76561198283287697,"connected_time":7707000000000,"state":"active","ping":139},{"user_id":215,"name":"Uriel Ruthven #saveTF2","steam_id":76561198004169379,"connected_time":827000000000,"state":"active","ping":135},{"user_id":202,"name":"Penis Chopper","steam_id":76561199016999537,"connected_time":1395000000000,"state":"active","ping":107},{"user_id":231,"name":"Primal","steam_id":76561197983118203,"connected_time":62000000000,"state":"active","ping":83},{"user_id":203,"name":"suckercockle","steam_id":76561197972601902,"connected_time":1391000000000,"state":"active","ping":105},{"user_id":230,"name":"Lucille_Bluth","steam_id":76561198206133916,"connected_time":164000000000,"state":"active","ping":71},{"user_id":204,"name":"Kona","steam_id":76561199026563078,"connected_time":1359000000000,"state":"active","ping":76},{"user_id":205,"name":"Vervain","steam_id":76561198269642607,"connected_time":1339000000000,"state":"active","ping":121},{"user_id":94,"name":"Jesse Bear","steam_id":76561198217075305,"connected_time":8910000000000,"state":"active","ping":68}]},{"server_id":15,"name":"Uncletopia | New York City | 3 | Stopwatch Beta","name_short":"nyc-3","host":"nyc-1.us.uncletopia.com","port":27035,"enabled":true,"region":"us-east","cc":"us","latitude":40.73061,"longitude":-73.93524,"reserved":0,"last_update":"0001-01-01T00:00:00Z","name_a2s":"Uncletopia | New York City | 3 | Stopwatch Beta","protocol":17,"map":"cp_metalworks","folder":"tf","game":"Team Fortress","app_id":440,"player_count":0,"max_players":24,"Bots":0,"server_type":"Dedicated","server_os":"Linux","password":true,"vac":true,"version":"7882260","steam_id":85568392924742820,"keywords":["cp","nocrits","nodmgspread","uncletopia"],"game_id":440,"stv_port":27036,"stv_name":"Uncletopia | New York City | 3 | Stopwatch Beta | STV","players":null},{"server_id":16,"name":"Uncletopia | New York City | 4 | Community","name_short":"nyc-4","host":"nyc-1.us.uncletopia.com","port":27045,"enabled":true,"region":"us-east","cc":"us","latitude":40.73061,"longitude":-73.93524,"reserved":0,"last_update":"0001-01-01T00:00:00Z","name_a2s":"Uncletopia | New York City | 4 | Community","protocol":17,"map":"workshop/koth_product_final.ugc454272353","folder":"tf","game":"Team Fortress","app_id":440,"player_count":0,"max_players":24,"Bots":0,"server_type":"Dedicated","server_os":"Linux","password":true,"vac":true,"version":"7882260","steam_id":85568392924742821,"keywords":["cp","nocrits","nodmgspread","uncletopia"],"game_id":440,"stv_port":27046,"stv_name":"Uncletopia | New York City | 4 | Community | STV","players":null},{"server_id":142,"name":"Uncletopia | São Paulo | 1 | All Maps","name_short":"sao-1","host":"sao-1.br.uncletopia.com","port":27015,"enabled":true,"region":"sa","cc":"br","latitude":-23.533773,"longitude":-46.62529,"reserved":0,"last_update":"0001-01-01T00:00:00Z","name_a2s":"Uncletopia | São Paulo | 1 | All Maps","protocol":17,"map":"pl_frontier_final","folder":"tf","game":"Team Fortress","app_id":440,"player_count":0,"max_players":24,"Bots":0,"server_type":"Dedicated","server_os":"Linux","password":true,"vac":true,"version":"7882260","steam_id":85568392924469996,"keywords":["nocrits","nodmgspread","payload","uncletopia"],"game_id":440,"stv_port":27016,"stv_name":"Uncletopia | São Paulo | 1 | All Maps | STV","players":null},{"server_id":143,"name":"Uncletopia | São Paulo | 2 | All Maps","name_short":"sao-2","host":"sao-2.br.uncletopia.com","port":27015,"enabled":true,"region":"sa","cc":"br","latitude":-23.533773,"longitude":-46.62529,"reserved":0,"last_update":"0001-01-01T00:00:00Z","name_a2s":"Uncletopia | São Paulo | 2 | All Maps","protocol":17,"map":"cp_dustbowl","folder":"tf","game":"Team Fortress","app_id":440,"player_count":15,"max_players":24,"Bots":0,"server_type":"Dedicated","server_os":"Linux","password":true,"vac":true,"version":"7882260","steam_id":85568392924485349,"keywords":["cp","nocrits","nodmgspread","uncletopia"],"game_id":440,"stv_port":27016,"stv_name":"Uncletopia | São Paulo | 2 | All Maps | STV","players":[{"user_id":230,"name":"stuwpid pyo maim","steam_id":76561199246901712,"connected_time":5698000000000,"state":"active","ping":43},{"user_id":229,"name":"Pootis Gaming","steam_id":76561198878876993,"connected_time":5912000000000,"state":"active","ping":57},{"user_id":251,"name":"lit","steam_id":76561198032697387,"connected_time":1528000000000,"state":"active","ping":44},{"user_id":260,"name":"eDot","steam_id":76561199076298530,"connected_time":746000000000,"state":"active","ping":52},{"user_id":273,"name":"Monk Man","steam_id":76561199436261469,"connected_time":104000000000,"state":"spawning","ping":239},{"user_id":252,"name":"Songalongamon","steam_id":76561198114565169,"connected_time":1503000000000,"state":"active","ping":45},{"user_id":238,"name":"Zaparol","steam_id":76561198971733797,"connected_time":4316000000000,"state":"active","ping":61},{"user_id":256,"name":"vacaloca25","steam_id":76561198082683352,"connected_time":1203000000000,"state":"active","ping":51},{"user_id":259,"name":"anaheisenberg","steam_id":76561198304847307,"connected_time":841000000000,"state":"active","ping":56},{"user_id":262,"name":"Piazinho","steam_id":76561198054820896,"connected_time":468000000000,"state":"active","ping":40},{"user_id":263,"name":"gabrieljunqueirademattos8","steam_id":76561199197138383,"connected_time":448000000000,"state":"spawning","ping":80},{"user_id":267,"name":"Stoopid","steam_id":76561198126485401,"connected_time":313000000000,"state":"active","ping":46},{"user_id":269,"name":"Vitor Brauer","steam_id":76561199240099576,"connected_time":294000000000,"state":"active","ping":52},{"user_id":270,"name":"Ace","steam_id":76561198112033120,"connected_time":271000000000,"state":"active","ping":50},{"user_id":271,"name":"Miguel Dixon","steam_id":76561199276339866,"connected_time":257000000000,"state":"active","ping":96}]},{"server_id":7,"name":"Uncletopia | Seattle | 1 | All Maps","name_short":"sea-1","host":"sea-1.us.uncletopia.com","port":27015,"enabled":true,"region":"us-west","cc":"us","latitude":47.608013,"longitude":-122.33517,"reserved":0,"last_update":"0001-01-01T00:00:00Z","name_a2s":"Uncletopia | Seattle | 1 | All Maps","protocol":17,"map":"koth_brazil","folder":"tf","game":"Team Fortress","app_id":440,"player_count":24,"max_players":24,"Bots":0,"server_type":"Dedicated","server_os":"Linux","password":true,"vac":true,"version":"7882260","steam_id":85568392924469997,"keywords":["cp","nocrits","nodmgspread","uncletopia"],"game_id":440,"stv_port":27016,"stv_name":"Uncletopia | Seattle | 1 | All Maps | STV","players":[{"user_id":424,"name":"Vagrant","steam_id":76561198242536886,"connected_time":1252000000000,"state":"active","ping":90},{"user_id":413,"name":"Geram","steam_id":76561198061979840,"connected_time":2178000000000,"state":"active","ping":90},{"user_id":371,"name":"Bishuhp","steam_id":76561198015062850,"connected_time":4697000000000,"state":"active","ping":49},{"user_id":422,"name":"a","steam_id":76561198212111977,"connected_time":1538000000000,"state":"active","ping":64},{"user_id":396,"name":"Prince Sword","steam_id":76561198054656093,"connected_time":2937000000000,"state":"active","ping":69},{"user_id":438,"name":"bbbbb","steam_id":76561198095480838,"connected_time":195000000000,"state":"active","ping":46},{"user_id":359,"name":"Nüþ","steam_id":76561198043956703,"connected_time":5185000000000,"state":"active","ping":77},{"user_id":423,"name":"mer5277","steam_id":76561198192171041,"connected_time":1388000000000,"state":"active","ping":158},{"user_id":421,"name":"Igrium","steam_id":76561198119549811,"connected_time":1595000000000,"state":"active","ping":73},{"user_id":416,"name":"Bingleton","steam_id":76561197998930473,"connected_time":1763000000000,"state":"active","ping":41},{"user_id":425,"name":"TFBot(2)","steam_id":76561198061284371,"connected_time":1216000000000,"state":"active","ping":80},{"user_id":433,"name":"Sgt. Satire","steam_id":76561198104193483,"connected_time":570000000000,"state":"active","ping":91},{"user_id":427,"name":"☆Atomic Waffle☆","steam_id":76561198100385184,"connected_time":889000000000,"state":"active","ping":78},{"user_id":368,"name":"colespudzo","steam_id":76561198051127147,"connected_time":4742000000000,"state":"active","ping":45},{"user_id":431,"name":"notkadenk","steam_id":76561198837454396,"connected_time":750000000000,"state":"active","ping":52},{"user_id":432,"name":"Hershey Squirts","steam_id":76561198297628284,"connected_time":649000000000,"state":"active","ping":51},{"user_id":420,"name":"Rowmaster","steam_id":76561198271659574,"connected_time":1695000000000,"state":"active","ping":83},{"user_id":379,"name":"TüCold","steam_id":76561198111278197,"connected_time":4193000000000,"state":"active","ping":58},{"user_id":365,"name":"Dingelsmurf the Orange","steam_id":76561198212489267,"connected_time":5013000000000,"state":"active","ping":89},{"user_id":415,"name":"cream team","steam_id":76561198139043953,"connected_time":1811000000000,"state":"active","ping":99},{"user_id":430,"name":"Greskrendtregk","steam_id":76561197969553142,"connected_time":798000000000,"state":"active","ping":61},{"user_id":436,"name":"aoka","steam_id":76561198838294547,"connected_time":362000000000,"state":"active","ping":116},{"user_id":434,"name":"Reggie","steam_id":76561198835737236,"connected_time":549000000000,"state":"active","ping":118},{"user_id":409,"name":"merkury731","steam_id":76561198110565430,"connected_time":2298000000000,"state":"active","ping":116}]},{"server_id":119,"name":"Uncletopia | Seattle | 2 | All Maps","name_short":"sea-2","host":"sea-1.us.uncletopia.com","port":27025,"enabled":true,"region":"us-west","cc":"us","latitude":47.608013,"longitude":-122.33517,"reserved":0,"last_update":"0001-01-01T00:00:00Z","name_a2s":"Uncletopia | Seattle | 2 | All Maps","protocol":17,"map":"cp_egypt_final","folder":"tf","game":"Team Fortress","app_id":440,"player_count":24,"max_players":24,"Bots":0,"server_type":"Dedicated","server_os":"Linux","password":true,"vac":true,"version":"7882260","steam_id":85568392924469998,"keywords":["cp","nocrits","nodmgspread","uncletopia"],"game_id":440,"stv_port":27026,"stv_name":"Uncletopia | Seattle | 2 | All Maps | STV","players":[{"user_id":219,"name":"DanceBunny","steam_id":76561198243610560,"connected_time":2775000000000,"state":"active","ping":74},{"user_id":225,"name":"exephur","steam_id":76561198135763234,"connected_time":2564000000000,"state":"active","ping":60},{"user_id":238,"name":"Eraser cat","steam_id":76561199045570463,"connected_time":487000000000,"state":"active","ping":49},{"user_id":217,"name":"Jacobzeba01","steam_id":76561198131808718,"connected_time":3082000000000,"state":"active","ping":60},{"user_id":229,"name":"soup","steam_id":76561198043209046,"connected_time":1590000000000,"state":"active","ping":79},{"user_id":30,"name":"knot quite","steam_id":76561198042913843,"connected_time":15595000000000,"state":"active","ping":57},{"user_id":241,"name":"duckypotato","steam_id":76561198047703790,"connected_time":443000000000,"state":"active","ping":66},{"user_id":227,"name":"dweamy","steam_id":76561198119181880,"connected_time":2533000000000,"state":"active","ping":85},{"user_id":244,"name":"♦Benji♦","steam_id":76561198313529973,"connected_time":90000000000,"state":"active","ping":49},{"user_id":242,"name":"A Little Guy","steam_id":76561198142464684,"connected_time":149000000000,"state":"active","ping":89},{"user_id":220,"name":"Ranger","steam_id":76561198829369360,"connected_time":2774000000000,"state":"active","ping":115},{"user_id":211,"name":"Spooky","steam_id":76561198030817605,"connected_time":3699000000000,"state":"active","ping":38},{"user_id":169,"name":"old birb man","steam_id":76561199410269097,"connected_time":6498000000000,"state":"active","ping":260},{"user_id":120,"name":"Flores","steam_id":76561198106938500,"connected_time":9554000000000,"state":"active","ping":77},{"user_id":230,"name":"Y2K","steam_id":76561199191855486,"connected_time":1555000000000,"state":"active","ping":48},{"user_id":237,"name":"Big G","steam_id":76561198053279911,"connected_time":774000000000,"state":"active","ping":50},{"user_id":243,"name":"Mico (Mico)","steam_id":76561198125462953,"connected_time":129000000000,"state":"active","ping":54},{"user_id":207,"name":"Unlock The Shock (She/They)","steam_id":76561198823616667,"connected_time":4084000000000,"state":"active","ping":104},{"user_id":192,"name":"oo","steam_id":76561198119626492,"connected_time":5063000000000,"state":"active","ping":73},{"user_id":232,"name":"Femboi Fox","steam_id":76561198915758702,"connected_time":1423000000000,"state":"active","ping":55},{"user_id":208,"name":"Quarter Cheese","steam_id":76561198115814588,"connected_time":4071000000000,"state":"active","ping":44},{"user_id":240,"name":"MrRojan","steam_id":76561197993760849,"connected_time":452000000000,"state":"active","ping":63},{"user_id":236,"name":"nuh uh","steam_id":76561198413839489,"connected_time":962000000000,"state":"active","ping":56},{"user_id":221,"name":"Also UbeR","steam_id":76561198166926843,"connected_time":2676000000000,"state":"active","ping":82}]},{"server_id":406,"name":"Uncletopia | Seattle | 3 | Stopwatch Beta","name_short":"sea-3","host":"sea-1.us.uncletopia.com","port":27035,"enabled":true,"region":"us-west","cc":"us","latitude":47.608013,"longitude":-122.33517,"reserved":0,"last_update":"0001-01-01T00:00:00Z","name_a2s":"Uncletopia | Seattle | 3 | Stopwatch Beta","protocol":17,"map":"workshop/koth_ramjam_rc1.ugc459778887","folder":"tf","game":"Team Fortress","app_id":440,"player_count":0,"max_players":24,"Bots":0,"server_type":"Dedicated","server_os":"Linux","password":true,"vac":true,"version":"7882260","steam_id":85568392924515217,"keywords":["cp","nocrits","nodmgspread","uncletopia"],"game_id":440,"stv_port":27036,"stv_name":"Uncletopia | Seattle | 3 | Stopwatch Beta | STV","players":null},{"server_id":17,"name":"Uncletopia | San Francisco | 1 | All Maps","name_short":"sfo-1","host":"sfo-1.us.uncletopia.com","port":27015,"enabled":true,"region":"us-west","cc":"us","latitude":37.77397,"longitude":-122.4313,"reserved":0,"last_update":"0001-01-01T00:00:00Z","name_a2s":"Uncletopia | San Francisco | 1 | All Maps","protocol":17,"map":"pl_swiftwater_final1","folder":"tf","game":"Team Fortress","app_id":440,"player_count":24,"max_players":24,"Bots":0,"server_type":"Dedicated","server_os":"Linux","password":true,"vac":true,"version":"7882260","steam_id":85568392924469999,"keywords":["nocrits","nodmgspread","payload","uncletopia"],"game_id":440,"stv_port":27016,"stv_name":"Uncletopia | San Francisco | 1 | All Maps | STV","players":[{"user_id":26,"name":"Alkimia","steam_id":76561198385763137,"connected_time":1478000000000,"state":"active","ping":103},{"user_id":29,"name":"wafflehamster2000","steam_id":76561198849161820,"connected_time":1214000000000,"state":"active","ping":144},{"user_id":38,"name":"Friedrich Van Bingle","steam_id":76561198185952115,"connected_time":427000000000,"state":"active","ping":81},{"user_id":20,"name":"Pot8to","steam_id":76561198247598000,"connected_time":2331000000000,"state":"active","ping":76},{"user_id":21,"name":"hypo","steam_id":76561198062479158,"connected_time":2299000000000,"state":"active","ping":77},{"user_id":23,"name":"DawnNannas","steam_id":76561198042915117,"connected_time":1847000000000,"state":"active","ping":71},{"user_id":32,"name":"Morgan","steam_id":76561199224141679,"connected_time":907000000000,"state":"active","ping":44},{"user_id":37,"name":"J_J","steam_id":76561199167597579,"connected_time":662000000000,"state":"active","ping":188},{"user_id":30,"name":"rxea","steam_id":76561198868168910,"connected_time":1154000000000,"state":"active","ping":57},{"user_id":35,"name":"lucwasa14","steam_id":76561199025617634,"connected_time":772000000000,"state":"active","ping":117},{"user_id":39,"name":"RainboomCrash","steam_id":76561198065612273,"connected_time":425000000000,"state":"active","ping":63},{"user_id":40,"name":"Elite_Friendly","steam_id":76561198819972127,"connected_time":403000000000,"state":"active","ping":75},{"user_id":41,"name":"Flyingcat9000","steam_id":76561198179561797,"connected_time":329000000000,"state":"active","ping":45},{"user_id":42,"name":"Frog","steam_id":76561198093257083,"connected_time":327000000000,"state":"active","ping":61},{"user_id":43,"name":"Toad :)","steam_id":76561198163008022,"connected_time":327000000000,"state":"active","ping":61},{"user_id":44,"name":"Carthage (TRANSRIGHTS)","steam_id":76561198049001571,"connected_time":260000000000,"state":"active","ping":96},{"user_id":45,"name":"SiskoSenpai","steam_id":76561198053701833,"connected_time":246000000000,"state":"active","ping":63},{"user_id":46,"name":"GreenDarkSteel","steam_id":76561198274523413,"connected_time":234000000000,"state":"active","ping":73},{"user_id":47,"name":"Avem","steam_id":76561198058763710,"connected_time":229000000000,"state":"active","ping":60},{"user_id":49,"name":"Balls Insurance","steam_id":76561198005860388,"connected_time":195000000000,"state":"active","ping":58},{"user_id":50,"name":"chocky","steam_id":76561198057491296,"connected_time":171000000000,"state":"active","ping":60},{"user_id":51,"name":"R5-D4","steam_id":76561198025196439,"connected_time":107000000000,"state":"active","ping":73},{"user_id":52,"name":"naturia","steam_id":76561198092317849,"connected_time":102000000000,"state":"active","ping":60},{"user_id":53,"name":"Lord Avoc","steam_id":76561198220262416,"connected_time":73000000000,"state":"active","ping":74}]},{"server_id":18,"name":"Uncletopia | San Francisco | 2 | All Maps","name_short":"sfo-2","host":"sfo-1.us.uncletopia.com","port":27025,"enabled":true,"region":"us-west","cc":"us","latitude":37.77397,"longitude":-122.4313,"reserved":0,"last_update":"0001-01-01T00:00:00Z","name_a2s":"Uncletopia | San Francisco | 2 | All Maps","protocol":17,"map":"cp_mountainlab","folder":"tf","game":"Team Fortress","app_id":440,"player_count":0,"max_players":24,"Bots":0,"server_type":"Dedicated","server_os":"Linux","password":true,"vac":true,"version":"7882260","steam_id":85568392924470000,"keywords":["cp","nocrits","nodmgspread","uncletopia"],"game_id":440,"stv_port":27026,"stv_name":"Uncletopia | San Francisco | 2 | All Maps | STV","players":null},{"server_id":19,"name":"Uncletopia | San Francisco | 3 | Stopwatch Beta","name_short":"sfo-3","host":"sfo-1.us.uncletopia.com","port":27035,"enabled":true,"region":"us-west","cc":"us","latitude":37.77397,"longitude":-122.4313,"reserved":0,"last_update":"0001-01-01T00:00:00Z","name_a2s":"Uncletopia | San Francisco | 3 | Stopwatch Beta","protocol":17,"map":"pl_frontier_final","folder":"tf","game":"Team Fortress","app_id":440,"player_count":0,"max_players":24,"Bots":0,"server_type":"Dedicated","server_os":"Linux","password":true,"vac":true,"version":"7882260","steam_id":85568392924742824,"keywords":["nocrits","nodmgspread","payload","uncletopia"],"game_id":440,"stv_port":27036,"stv_name":"Uncletopia | San Francisco | 3 | Stopwatch Beta | STV","players":null},{"server_id":20,"name":"Uncletopia | San Francisco | 4 | Community","name_short":"sfo-4","host":"sfo-1.us.uncletopia.com","port":27045,"enabled":true,"region":"us-west","cc":"us","latitude":37.77397,"longitude":-122.4313,"reserved":0,"last_update":"0001-01-01T00:00:00Z","name_a2s":"Uncletopia | San Francisco | 4 | Community","protocol":17,"map":"workshop/koth_bagel_rc6.ugc2514036946","folder":"tf","game":"Team Fortress","app_id":440,"player_count":0,"max_players":24,"Bots":0,"server_type":"Dedicated","server_os":"Linux","password":true,"vac":true,"version":"7882260","steam_id":85568392924742826,"keywords":["cp","nocrits","nodmgspread","uncletopia"],"game_id":440,"stv_port":27046,"stv_name":"Uncletopia | San Francisco | 4 | Community | STV","players":null},{"server_id":141,"name":"Uncletopia | Sydney | 1 | All Maps","name_short":"syd-1","host":"syd-1.au.uncletopia.com","port":27015,"enabled":true,"region":"au","cc":"au","latitude":-33.865143,"longitude":151.2099,"reserved":0,"last_update":"0001-01-01T00:00:00Z","name_a2s":"Uncletopia | Sydney | 1 | All Maps","protocol":17,"map":"cp_freight_final1","folder":"tf","game":"Team Fortress","app_id":440,"player_count":1,"max_players":24,"Bots":0,"server_type":"Dedicated","server_os":"Linux","password":true,"vac":true,"version":"7882260","steam_id":85568392924470001,"keywords":["cp","nocrits","nodmgspread","uncletopia"],"game_id":440,"stv_port":27016,"stv_name":"Uncletopia | Sydney | 1 | All Maps | STV","players":[{"user_id":457,"name":"Ultimate Spaghet","steam_id":76561198880336399,"connected_time":772000000000,"state":"active","ping":64}]},{"server_id":123,"name":"Uncletopia | Sydney | 2 | All Maps","name_short":"syd-2","host":"syd-1.au.uncletopia.com","port":27025,"enabled":true,"region":"au","cc":"au","latitude":-33.865143,"longitude":151.2099,"reserved":0,"last_update":"0001-01-01T00:00:00Z","name_a2s":"Uncletopia | Sydney | 2 | All Maps","protocol":17,"map":"koth_highpass","folder":"tf","game":"Team Fortress","app_id":440,"player_count":0,"max_players":24,"Bots":0,"server_type":"Dedicated","server_os":"Linux","password":true,"vac":true,"version":"7882260","steam_id":85568392924470002,"keywords":["cp","nocrits","nodmgspread","uncletopia"],"game_id":440,"stv_port":27026,"stv_name":"Uncletopia | Sydney | 2 | All Maps | STV","players":null},{"server_id":395,"name":"Uncletopia | Sydney | 3 | All Maps","name_short":"syd-3","host":"syd-1.au.uncletopia.com","port":27035,"enabled":true,"region":"au","cc":"au","latitude":-33.865143,"longitude":151.2099,"reserved":0,"last_update":"0001-01-01T00:00:00Z","name_a2s":"Uncletopia | Sydney | 3 | All Maps","protocol":17,"map":"pl_badwater","folder":"tf","game":"Team Fortress","app_id":440,"player_count":0,"max_players":24,"Bots":0,"server_type":"Dedicated","server_os":"Linux","password":true,"vac":true,"version":"7882260","steam_id":85568392925194467,"keywords":["nocrits","nodmgspread","payload","uncletopia"],"game_id":440,"stv_port":27036,"stv_name":"Uncletopia | Sydney | 3 | All Maps | STV","players":null},{"server_id":396,"name":"Uncletopia | Sydney | 4 | All Maps","name_short":"syd-4","host":"syd-1.au.uncletopia.com","port":27045,"enabled":true,"region":"au","cc":"au","latitude":-33.865143,"longitude":151.2099,"reserved":0,"last_update":"0001-01-01T00:00:00Z","name_a2s":"Uncletopia | Sydney | 4 | All Maps","protocol":17,"map":"pl_swiftwater_final1","folder":"tf","game":"Team Fortress","app_id":440,"player_count":0,"max_players":24,"Bots":0,"server_type":"Dedicated","server_os":"Linux","password":true,"vac":true,"version":"7882260","steam_id":85568392925397958,"keywords":["nocrits","nodmgspread","payload","uncletopia"],"game_id":440,"stv_port":27046,"stv_name":"Uncletopia | Sydney | 4 | All Maps | STV","players":null},{"server_id":58,"name":"Uncletopia | Sydney | 5 | Stopwatch Beta","name_short":"syd-5","host":"syd-1.au.uncletopia.com","port":27055,"enabled":true,"region":"au","cc":"au","latitude":-33.865143,"longitude":151.2099,"reserved":0,"last_update":"0001-01-01T00:00:00Z","name_a2s":"Uncletopia | Sydney | 5 | Stopwatch Beta","protocol":17,"map":"workshop/pl_vigil_rc9.ugc1266210012","folder":"tf","game":"Team Fortress","app_id":440,"player_count":0,"max_players":24,"Bots":0,"server_type":"Dedicated","server_os":"Linux","password":true,"vac":true,"version":"7882260","steam_id":85568392925397959,"keywords":["nocrits","nodmgspread","payload","uncletopia"],"game_id":440,"stv_port":27056,"stv_name":"Uncletopia | Sydney | 5 | Stopwatch Beta | STV","players":null},{"server_id":59,"name":"Uncletopia | Sydney | 6 | Community","name_short":"syd-6","host":"syd-1.au.uncletopia.com","port":27065,"enabled":true,"region":"au","cc":"au","latitude":-33.865143,"longitude":151.2099,"reserved":0,"last_update":"0001-01-01T00:00:00Z","name_a2s":"Uncletopia | Sydney | 6 | Community","protocol":17,"map":"pl_snowycoast","folder":"tf","game":"Team Fortress","app_id":440,"player_count":0,"max_players":24,"Bots":0,"server_type":"Dedicated","server_os":"Linux","password":true,"vac":true,"version":"7882260","steam_id":85568392925397960,"keywords":["nocrits","nodmgspread","payload","uncletopia"],"game_id":440,"stv_port":27066,"stv_name":"Uncletopia | Sydney | 6 | Community | STV","players":null},{"server_id":49,"name":"Uncletopia | Warsaw | 1 | All Maps","name_short":"waw-1","host":"waw-1.pl.uncletopia.com","port":27015,"enabled":true,"region":"eu","cc":"pl","latitude":52.2297,"longitude":21.017532,"reserved":0,"last_update":"0001-01-01T00:00:00Z","name_a2s":"","protocol":0,"map":"","folder":"","game":"","app_id":0,"player_count":0,"max_players":0,"Bots":0,"server_type":"","server_os":"","password":false,"vac":false,"version":"","steam_id":0,"keywords":null,"game_id":0,"stv_port":0,"stv_name":"","players":null},{"server_id":50,"name":"Uncletopia | Warsaw | 2 | All Maps","name_short":"waw-2","host":"waw-1.pl.uncletopia.com","port":27025,"enabled":true,"region":"eu","cc":"pl","latitude":52.2297,"longitude":21.017532,"reserved":0,"last_update":"0001-01-01T00:00:00Z","name_a2s":"Uncletopia | Warsaw | 2 | All Maps","protocol":17,"map":"cp_snakewater_final1","folder":"tf","game":"Team Fortress","app_id":440,"player_count":0,"max_players":24,"Bots":0,"server_type":"Dedicated","server_os":"Linux","password":true,"vac":true,"version":"7882260","steam_id":85568392925397851,"keywords":["cp","nocrits","nodmgspread","uncletopia"],"game_id":440,"stv_port":27026,"stv_name":"Uncletopia | Warsaw | 2 | All Maps | STV","players":null},{"server_id":51,"name":"Uncletopia | Warsaw | 3 | All Maps","name_short":"waw-3","host":"waw-1.pl.uncletopia.com","port":27035,"enabled":true,"region":"eu","cc":"pl","latitude":52.2297,"longitude":21.017532,"reserved":0,"last_update":"0001-01-01T00:00:00Z","name_a2s":"Uncletopia | Warsaw | 3 | All Maps","protocol":17,"map":"koth_viaduct","folder":"tf","game":"Team Fortress","app_id":440,"player_count":0,"max_players":24,"Bots":0,"server_type":"Dedicated","server_os":"Linux","password":true,"vac":true,"version":"7882260","steam_id":85568392925397852,"keywords":["cp","nocrits","nodmgspread","uncletopia"],"game_id":440,"stv_port":27036,"stv_name":"Uncletopia | Warsaw | 3 | All Maps | STV","players":null},{"server_id":52,"name":"Uncletopia | Warsaw | 4 | All Maps","name_short":"waw-4","host":"waw-1.pl.uncletopia.com","port":27045,"enabled":true,"region":"eu","cc":"pl","latitude":52.2297,"longitude":21.017532,"reserved":0,"last_update":"0001-01-01T00:00:00Z","name_a2s":"Uncletopia | Warsaw | 4 | All Maps","protocol":17,"map":"koth_cascade","folder":"tf","game":"Team Fortress","app_id":440,"player_count":0,"max_players":24,"Bots":0,"server_type":"Dedicated","server_os":"Linux","password":true,"vac":true,"version":"7882260","steam_id":85568392925397853,"keywords":["cp","nocrits","nodmgspread","uncletopia"],"game_id":440,"stv_port":27046,"stv_name":"Uncletopia | Warsaw | 4 | All Maps | STV","players":null},{"server_id":53,"name":"Uncletopia | Warsaw | 5 | Stopwatch Beta","name_short":"waw-5","host":"waw-1.pl.uncletopia.com","port":27055,"enabled":true,"region":"eu","cc":"pl","latitude":52.2297,"longitude":21.017532,"reserved":0,"last_update":"0001-01-01T00:00:00Z","name_a2s":"Uncletopia | Warsaw | 5 | Stopwatch Beta","protocol":17,"map":"cp_mountainlab","folder":"tf","game":"Team Fortress","app_id":440,"player_count":0,"max_players":24,"Bots":0,"server_type":"Dedicated","server_os":"Linux","password":true,"vac":true,"version":"7882260","steam_id":85568392925397854,"keywords":["cp","nocrits","nodmgspread","uncletopia"],"game_id":440,"stv_port":27056,"stv_name":"Uncletopia | Warsaw | 5 | Stopwatch Beta | STV","players":null},{"server_id":54,"name":"Uncletopia | Warsaw | 6 | Community","name_short":"waw-6","host":"waw-1.pl.uncletopia.com","port":27065,"enabled":true,"region":"eu","cc":"pl","latitude":52.2297,"longitude":21.017532,"reserved":0,"last_update":"0001-01-01T00:00:00Z","name_a2s":"Uncletopia | Warsaw | 6 | Community","protocol":17,"map":"workshop/cp_indulge.ugc528106646","folder":"tf","game":"Team Fortress","app_id":440,"player_count":0,"max_players":24,"Bots":0,"server_type":"Dedicated","server_os":"Linux","password":true,"vac":true,"version":"7882260","steam_id":85568392925397856,"keywords":["cp","nocrits","nodmgspread","uncletopia"],"game_id":440,"stv_port":27066,"stv_name":"Uncletopia | Warsaw | 6 | Community | STV","players":null}]}