{"status":true,"message":"","result":[{"server_id":9,"name":"Uncletopia | Atlanta | 1 | All Maps","name_short":"atl-1","host":"atl-1.us.uncletopia.com","port":27015,"enabled":true,"region":"us-east","cc":"us","latitude":33.753746,"longitude":-84.38633,"reserved":0,"last_update":"0001-01-01T00:00:00Z","name_a2s":"Uncletopia | Atlanta | 1 | All Maps","protocol":17,"map":"pl_swiftwater_final1","folder":"tf","game":"Team Fortress","app_id":440,"player_count":18,"max_players":24,"Bots":0,"server_type":"Dedicated","server_os":"Linux","password":true,"vac":true,"version":"7742253","steam_id":85568392924469982,"keywords":["nocrits","nodmgspread","payload","uncletopia"],"game_id":440,"stv_port":27016,"stv_name":"Uncletopia | Atlanta | 1 | All Maps | STV","players":[{"user_id":680,"name":"pseudo-sentient subhuman","steam_id":76561198328210524,"connected_time":3485000000000,"state":"active","ping":105},{"user_id":694,"name":"Nova","steam_id":76561198095212136,"connected_time":801000000000,"state":"active","ping":51},{"user_id":701,"name":"deez ratz","steam_id":76561198864572366,"connected_time":51000000000,"state":"active","ping":106},{"user_id":702,"name":"Brynkiwi","steam_id":76561198052177917,"connected_time":15000000000,"state":"spawning","ping":144},{"user_id":696,"name":"Bzamo","steam_id":76561198039883392,"connected_time":647000000000,"state":"active","ping":45},{"user_id":644,"name":"Frank HardWood","steam_id":76561198109364911,"connected_time":6863000000000,"state":"active","ping":69},{"user_id":686,"name":"♥Ranman♥Femboy♥","steam_id":76561198042144492,"connected_time":1894000000000,"state":"active","ping":46},{"user_id":699,"name":"shep","steam_id":76561198992968144,"connected_time":189000000000,"state":"active","ping":71},{"user_id":697,"name":"Tuna","steam_id":76561198129907971,"connected_time":521000000000,"state":"active","ping":107},{"user_id":688,"name":"Rick132","steam_id":76561198027484631,"connected_time":1855000000000,"state":"active","ping":73},{"user_id":692,"name":"happyman","steam_id":76561199430019599,"connected_time":1644000000000,"state":"active","ping":71},{"user_id":645,"name":"trouse","steam_id":76561198161578754,"connected_time":6859000000000,"state":"active","ping":59},{"user_id":676,"name":"Jimmy Cilantro","steam_id":76561198066145833,"connected_time":3597000000000,"state":"active","ping":76},{"user_id":554,"name":"AureateAura","steam_id":76561198046902265,"connected_time":15831000000000,"state":"active","ping":68},{"user_id":647,"name":"Autism Tutorial Part 4","steam_id":76561198059119797,"connected_time":6823000000000,"state":"active","ping":63},{"user_id":700,"name":"Cat Pog","steam_id":76561198304243946,"connected_time":125000000000,"state":"active","ping":102},{"user_id":690,"name":"JellyParrot","steam_id":76561199190990163,"connected_time":1798000000000,"state":"active","ping":58},{"user_id":650,"name":"Abbashea","steam_id":76561199182136969,"connected_time":6670000000000,"state":"active","ping":92}]},{"server_id":400,"name":"Uncletopia | Atlanta | 3 | Stopwatch Beta","name_short":"atl-3","host":"atl-1.us.uncletopia.com","port":27035,"enabled":true,"region":"us-east","cc":"us","latitude":33.753746,"longitude":-84.38633,"reserved":0,"last_update":"0001-01-01T00:00:00Z","name_a2s":"Uncletopia | Atlanta | 3 | Stopwatch Beta","protocol":17,"map":"pl_upward","folder":"tf","game":"Team Fortress","app_id":440,"player_count":0,"max_players":24,"Bots":0,"server_type":"Dedicated","server_os":"Linux","password":true,"vac":true,"version":"7742253","steam_id":85568392924515187,"keywords":["nocrits","nodmgspread","payload","uncletopia"],"game_id":440,"stv_port":27036,"stv_name":"Uncletopia | Atlanta | 3 | Stopwatch Beta | STV","players":null},{"server_id":401,"name":"Uncletopia | Atlanta | 4 | No Payload","name_short":"atl-4","host":"atl-1.us.uncletopia.com","port":27045,"enabled":true,"region":"us-east","cc":"us","latitude":33.753746,"longitude":-84.38633,"reserved":0,"last_update":"0001-01-01T00:00:00Z","name_a2s":"Uncletopia | Atlanta | 4 | No Payload","protocol":17,"map":"pl_pier","folder":"tf","game":"Team Fortress","app_id":440,"player_count":0,"max_players":24,"Bots":0,"server_type":"Dedicated","server_os":"Linux","password":true,"vac":true,"version":"7723704","steam_id":85568392924515188,"keywords":["nocrits","nodmgspread","payload","uncletopia"],"game_id":440,"stv_port":27046,"stv_name":"Uncletopia | Atlanta | 4 | No Payload | STV","players":null},{"server_id":2,"name":"Uncletopia | Chicago | 1 | All Maps","name_short":"chi-1","host":"chi-1.us.uncletopia.com","port":27015,"enabled":true,"region":"us-central","cc":"us","latitude":41.881832,"longitude":-87.62318,"reserved":0,"last_update":"0001-01-01T00:00:00Z","name_a2s":"Uncletopia | Chicago | 1 | All Maps","protocol":17,"map":"pl_frontier_final","folder":"tf","game":"Team Fortress","app_id":440,"player_count":24,"max_players":24,"Bots":0,"server_type":"Dedicated","server_os":"Linux","password":true,"vac":true,"version":"7742253","steam_id":85568392924469984,"keywords":["nocrits","nodmgspread","payload","uncletopia"],"game_id":440,"stv_port":27016,"stv_name":"Uncletopia | Chicago | 1 | All Maps | STV","players":[{"user_id":599,"name":"Astoriæ!","steam_id":76561199090168858,"connected_time":3606000000000,"state":"active","ping":58},{"user_id":611,"name":"watermelon","steam_id":76561198041770884,"connected_time":2965000000000,"state":"active","ping":94},{"user_id":632,"name":"sweaterfan","steam_id":76561199389567214,"connected_time":211000000000,"state":"active","ping":56},{"user_id":618,"name":"theoatsman","steam_id":76561198880891025,"connected_time":1931000000000,"state":"active","ping":60},{"user_id":547,"name":"Ye ( I Love Caulk ) West","steam_id":76561198068830312,"connected_time":8340000000000,"state":"active","ping":51},{"user_id":604,"name":"Fluffeline","steam_id":76561198352909489,"connected_time":3237000000000,"state":"active","ping":147},{"user_id":625,"name":"Lore","steam_id":76561198098407538,"connected_time":894000000000,"state":"active","ping":54},{"user_id":583,"name":"Clemont007","steam_id":76561198030935625,"connected_time":4942000000000,"state":"active","ping":130},{"user_id":616,"name":"Mari Ohara","steam_id":76561199067734053,"connected_time":2155000000000,"state":"active","ping":67},{"user_id":628,"name":"Gremlin Bird","steam_id":76561198039624549,"connected_time":522000000000,"state":"active","ping":80},{"user_id":615,"name":"goober","steam_id":76561198943598378,"connected_time":2176000000000,"state":"active","ping":50},{"user_id":629,"name":"Exe_Red","steam_id":76561198154952759,"connected_time":360000000000,"state":"active","ping":165},{"user_id":619,"name":"33","steam_id":76561198894676484,"connected_time":1567000000000,"state":"active","ping":111},{"user_id":631,"name":"Loops","steam_id":76561198869085259,"connected_time":269000000000,"state":"active","ping":51},{"user_id":600,"name":"YOU","steam_id":76561198068538473,"connected_time":3462000000000,"state":"active","ping":75},{"user_id":607,"name":"hello","steam_id":76561198063595962,"connected_time":3168000000000,"state":"active","ping":169},{"user_id":612,"name":"MosBlunted","steam_id":76561198259380127,"connected_time":2845000000000,"state":"active","ping":59},{"user_id":620,"name":"Zorlovo","steam_id":76561198006443283,"connected_time":1263000000000,"state":"active","ping":76},{"user_id":576,"name":"Walnut","steam_id":76561198024954863,"connected_time":6214000000000,"state":"active","ping":60},{"user_id":591,"name":"Trusty","steam_id":76561198035444237,"connected_time":4713000000000,"state":"active","ping":70},{"user_id":515,"name":"Webi Wabo","steam_id":76561198799224408,"connected_time":11801000000000,"state":"active","ping":61},{"user_id":630,"name":"BACKYARDIGANS MKULTRA","steam_id":76561199062024437,"connected_time":345000000000,"state":"active","ping":58},{"user_id":626,"name":"Stapler","steam_id":76561198099295077,"connected_time":677000000000,"state":"active","ping":96},{"user_id":520,"name":"debin","steam_id":76561198070711217,"connected_time":11339000000000,"state":"active","ping":59}]},{"server_id":106,"name":"Uncletopia | Chicago | 2 | All Maps","name_short":"chi-2","host":"chi-1.us.uncletopia.com","port":27025,"enabled":true,"region":"us-central","cc":"us","latitude":41.881832,"longitude":-87.62318,"reserved":0,"last_update":"0001-01-01T00:00:00Z","name_a2s":"Uncletopia | Chicago | 2 | All Maps","protocol":17,"map":"cp_altitude","folder":"tf","game":"Team Fortress","app_id":440,"player_count":0,"max_players":24,"Bots":0,"server_type":"Dedicated","server_os":"Linux","password":true,"vac":true,"version":"7742253","steam_id":85568392924469985,"keywords":["cp","nocrits","nodmgspread","uncletopia"],"game_id":440,"stv_port":27026,"stv_name":"Uncletopia | Chicago | 2 | All Maps | STV","players":null},{"server_id":402,"name":"Uncletopia | Chicago | 3 | All Maps","name_short":"chi-3","host":"chi-1.us.uncletopia.com","port":27035,"enabled":true,"region":"us-central","cc":"us","latitude":41.881832,"longitude":-87.62318,"reserved":0,"last_update":"0001-01-01T00:00:00Z","name_a2s":"Uncletopia | Chicago | 3 | All Maps","protocol":17,"map":"pl_upward","folder":"tf","game":"Team Fortress","app_id":440,"player_count":24,"max_players":24,"Bots":0,"server_type":"Dedicated","server_os":"Linux","password":true,"vac":true,"version":"7742253","steam_id":85568392924515191,"keywords":["nocrits","nodmgspread","payload","uncletopia"],"game_id":440,"stv_port":27036,"stv_name":"Uncletopia | Chicago | 3 | All Maps | STV","players":[{"user_id":816,"name":"The_Quiet_One","steam_id":76561198132476501,"connected_time":3275000000000,"state":"active","ping":53},{"user_id":826,"name":"guap master smelvin (no mic)","steam_id":76561198058209703,"connected_time":1518000000000,"state":"active","ping":45},{"user_id":838,"name":"trasho","steam_id":76561198066867150,"connected_time":1173000000000,"state":"active","ping":68},{"user_id":807,"name":"cheese (?)","steam_id":76561198232500756,"connected_time":3371000000000,"state":"active","ping":79},{"user_id":791,"name":"Square Square","steam_id":76561198070481423,"connected_time":5269000000000,"state":"active","ping":76},{"user_id":789,"name":"socK.","steam_id":76561198201986323,"connected_time":5390000000000,"state":"active","ping":59},{"user_id":829,"name":"Randy \"the Man\" Johnson","steam_id":76561198039124445,"connected_time":1488000000000,"state":"active","ping":95},{"user_id":844,"name":"obliviated Gamer ||-iwnl-||","steam_id":76561198044006334,"connected_time":25000000000,"state":"active","ping":91},{"user_id":804,"name":"Joseph \"Biden\" Stalin","steam_id":76561198213863907,"connected_time":3510000000000,"state":"active","ping":125},{"user_id":808,"name":"Topaz","steam_id":76561199093694654,"connected_time":3367000000000,"state":"active","ping":95},{"user_id":845,"name":"womthedom","steam_id":76561198088768287,"connected_time":8000000000,"state":"spawning","ping":89},{"user_id":830,"name":"......","steam_id":76561198067612741,"connected_time":1439000000000,"state":"active","ping":93},{"user_id":824,"name":"im a seal i live in the snow","steam_id":76561198058998371,"connected_time":1648000000000,"state":"active","ping":53},{"user_id":842,"name":"WanderingGenji","steam_id":76561198965812987,"connected_time":634000000000,"state":"active","ping":86},{"user_id":802,"name":"cringe larvae","steam_id":76561198120973162,"connected_time":3520000000000,"state":"active","ping":76},{"user_id":749,"name":"SomeCozyKid","steam_id":76561198086113234,"connected_time":7087000000000,"state":"active","ping":58},{"user_id":832,"name":"Saristan","steam_id":76561198093346048,"connected_time":1306000000000,"state":"active","ping":62},{"user_id":841,"name":"rizzard of oz","steam_id":76561198040907214,"connected_time":895000000000,"state":"active","ping":70},{"user_id":694,"name":"SumTingWong","steam_id":76561198119286222,"connected_time":11537000000000,"state":"active","ping":77},{"user_id":843,"name":"MayDay","steam_id":76561198813524176,"connected_time":47000000000,"state":"active","ping":69},{"user_id":840,"name":"(real)","steam_id":76561198072651849,"connected_time":1038000000000,"state":"active","ping":90},{"user_id":835,"name":"Blue Eyes Ace Dragon.","steam_id":76561198048214237,"connected_time":1264000000000,"state":"active","ping":55},{"user_id":836,"name":"SpiderString (She/She++)","steam_id":76561198092409181,"connected_time":1254000000000,"state":"active","ping":102},{"user_id":837,"name":"Hermit not Kermit","steam_id":76561198106182525,"connected_time":1239000000000,"state":"active","ping":103}]},{"server_id":403,"name":"Uncletopia | Chicago | 4 | All Maps","name_short":"chi-4","host":"chi-1.us.uncletopia.com","port":27045,"enabled":true,"region":"us-central","cc":"us","latitude":41.881832,"longitude":-87.62318,"reserved":0,"last_update":"0001-01-01T00:00:00Z","name_a2s":"Uncletopia | Chicago | 4 | All Maps","protocol":17,"map":"cp_altitude","folder":"tf","game":"Team Fortress","app_id":440,"player_count":0,"max_players":24,"Bots":0,"server_type":"Dedicated","server_os":"Linux","password":true,"vac":true,"version":"7742253","steam_id":85568392924515193,"keywords":["cp","nocrits","nodmgspread","uncletopia"],"game_id":440,"stv_port":27046,"stv_name":"Uncletopia | Chicago | 4 | All Maps | STV","players":null},{"server_id":36,"name":"Uncletopia | Chicago | 5 | All Maps","name_short":"chi-5","host":"chi-2.us.uncletopia.com","port":27015,"enabled":true,"region":"us-central","cc":"us","latitude":41.881832,"longitude":-87.62318,"reserved":0,"last_update":"0001-01-01T00:00:00Z","name_a2s":"Uncletopia | Chicago | 5 | All Maps","protocol":17,"map":"pl_badwater","folder":"tf","game":"Team Fortress","app_id":440,"player_count":24,"max_players":24,"Bots":0,"server_type":"Dedicated","server_os":"Linux","password":true,"vac":true,"version":"7742253","steam_id":85568392924866362,"keywords":["nocrits","nodmgspread","payload","uncletopia"],"game_id":440,"stv_port":27016,"stv_name":"Uncletopia | Chicago | 5 | All Maps | STV","players":[{"user_id":865,"name":"LAMMY FROM UM JAMMER LAMMY","steam_id":76561199013140117,"connected_time":2221000000000,"state":"active","ping":98},{"user_id":856,"name":"Sovulous","steam_id":76561198045389233,"connected_time":3058000000000,"state":"active","ping":50},{"user_id":852,"name":"jayy.t","steam_id":76561198059575962,"connected_time":3115000000000,"state":"active","ping":49},{"user_id":858,"name":"slom","steam_id":76561198073549508,"connected_time":3007000000000,"state":"active","ping":70},{"user_id":863,"name":"Paleo","steam_id":76561198053493855,"connected_time":2417000000000,"state":"active","ping":52},{"user_id":864,"name":"TexNG","steam_id":76561197976341487,"connected_time":2334000000000,"state":"active","ping":76},{"user_id":873,"name":"Newt","steam_id":76561198842909288,"connected_time":1119000000000,"state":"active","ping":106},{"user_id":881,"name":"poopy eater","steam_id":76561198073813695,"connected_time":335000000000,"state":"active","ping":59},{"user_id":833,"name":"_Pai","steam_id":76561198108196753,"connected_time":4870000000000,"state":"active","ping":91},{"user_id":848,"name":"armed slobbery. enguzzlement.","steam_id":76561198237292756,"connected_time":3524000000000,"state":"active","ping":62},{"user_id":875,"name":"SHURIKEN","steam_id":76561197982319164,"connected_time":1024000000000,"state":"active","ping":174},{"user_id":867,"name":"victordead121","steam_id":76561199180843121,"connected_time":2004000000000,"state":"active","ping":117},{"user_id":876,"name":"ratboy","steam_id":76561198087649133,"connected_time":1016000000000,"state":"active","ping":55},{"user_id":871,"name":"Fumpo","steam_id":76561198206873365,"connected_time":1222000000000,"state":"active","ping":69},{"user_id":877,"name":"Room","steam_id":76561199174579733,"connected_time":1012000000000,"state":"active","ping":70},{"user_id":846,"name":"Smashy","steam_id":76561198030704307,"connected_time":3982000000000,"state":"active","ping":70},{"user_id":849,"name":"namaste at home dad","steam_id":76561198056971063,"connected_time":3512000000000,"state":"active","ping":54},{"user_id":816,"name":"bad spy player","steam_id":76561198873699671,"connected_time":6073000000000,"state":"active","ping":99},{"user_id":869,"name":"Fake21","steam_id":76561198282065071,"connected_time":1452000000000,"state":"active","ping":79},{"user_id":839,"name":"jug nut jerry","steam_id":76561198113990147,"connected_time":4810000000000,"state":"active","ping":90},{"user_id":854,"name":"The PPT Speaks for Itself","steam_id":76561198120789856,"connected_time":3108000000000,"state":"active","ping":72},{"user_id":879,"name":"To Hot To Handle","steam_id":76561198975585358,"connected_time":628000000000,"state":"active","ping":66},{"user_id":840,"name":"lug nut larry","steam_id":76561198170643378,"connected_time":4788000000000,"state":"active","ping":77},{"user_id":851,"name":"weeb_whacker #Jenius","steam_id":76561198187098041,"connected_time":3326000000000,"state":"active","ping":49}]},{"server_id":37,"name":"Uncletopia | Chicago | 6 | All Maps","name_short":"chi-6","host":"chi-2.us.uncletopia.com","port":27025,"enabled":true,"region":"us-central","cc":"us","latitude":41.881832,"longitude":-87.62318,"reserved":0,"last_update":"0001-01-01T00:00:00Z","name_a2s":"Uncletopia | Chicago | 6 | All Maps","protocol":17,"map":"koth_lakeside_final","folder":"tf","game":"Team Fortress","app_id":440,"player_count":0,"max_players":24,"Bots":0,"server_type":"Dedicated","server_os":"Linux","password":true,"vac":true,"version":"7742253","steam_id":85568392924866363,"keywords":["cp","nocrits","nodmgspread","uncletopia"],"game_id":440,"stv_port":27026,"stv_name":"Uncletopia | Chicago | 6 | All Maps | STV","players":null},{"server_id":38,"name":"Uncletopia | Chicago | 7 | Stopwatch Beta","name_short":"chi-7","host":"chi-2.us.uncletopia.com","port":27035,"enabled":true,"region":"us-central","cc":"us","latitude":41.881832,"longitude":-87.62318,"reserved":0,"last_update":"0001-01-01T00:00:00Z","name_a2s":"Uncletopia | Chicago | 7 | Stopwatch Beta","protocol":17,"map":"pl_upward","folder":"tf","game":"Team Fortress","app_id":440,"player_count":0,"max_players":24,"Bots":0,"server_type":"Dedicated","server_os":"Linux","password":true,"vac":true,"version":"7742253","steam_id":85568392924866364,"keywords":["nocrits","nodmgspread","payload","uncletopia"],"game_id":440,"stv_port":27036,"stv_name":"Uncletopia | Chicago | 7 | Stopwatch Beta | STV","players":null},{"server_id":39,"name":"Uncletopia | Chicago | 8 | Community","name_short":"chi-8","host":"chi-2.us.uncletopia.com","port":27045,"enabled":true,"region":"us-central","cc":"us","latitude":41.881832,"longitude":-87.62318,"reserved":0,"last_update":"0001-01-01T00:00:00Z","name_a2s":"Uncletopia | Chicago | 8 | Community","protocol":17,"map":"koth_lakeside_final","folder":"tf","game":"Team Fortress","app_id":440,"player_count":0,"max_players":24,"Bots":0,"server_type":"Dedicated","server_os":"Linux","password":true,"vac":true,"version":"7742253","steam_id":85568392924866365,"keywords":["cp","nocrits","nodmgspread","uncletopia"],"game_id":440,"stv_port":27046,"stv_name":"Uncletopia | Chicago | 8 | Community | STV","players":null},{"server_id":8,"name":"Uncletopia | Dallas | 1 | All Maps","name_short":"dal-1","host":"dal-1.us.uncletopia.com","port":27015,"enabled":true,"region":"us-central","cc":"us","latitude":32.779167,"longitude":-96.80889,"reserved":0,"last_update":"0001-01-01T00:00:00Z","name_a2s":"Uncletopia | Dallas | 1 | All Maps","protocol":17,"map":"pl_snowycoast","folder":"tf","game":"Team Fortress","app_id":440,"player_count":0,"max_players":24,"Bots":0,"server_type":"Dedicated","server_os":"Linux","password":true,"vac":true,"version":"7742253","steam_id":85568392924469986,"keywords":["nocrits","nodmgspread","payload","uncletopia"],"game_id":440,"stv_port":27016,"stv_name":"Uncletopia | Dallas | 1 | All Maps | STV","players":null},{"server_id":108,"name":"Uncletopia | Dallas | 2 | All Maps","name_short":"dal-2","host":"dal-1.us.uncletopia.com","port":27025,"enabled":true,"region":"us-central","cc":"us","latitude":32.779167,"longitude":-96.80889,"reserved":0,"last_update":"0001-01-01T00:00:00Z","name_a2s":"Uncletopia | Dallas | 2 | All Maps","protocol":17,"map":"cp_snakewater_final1","folder":"tf","game":"Team Fortress","app_id":440,"player_count":0,"max_players":24,"Bots":0,"server_type":"Dedicated","server_os":"Linux","password":true,"vac":true,"version":"7742253","steam_id":85568392924469988,"keywords":["cp","nocrits","nodmgspread","uncletopia"],"game_id":440,"stv_port":27026,"stv_name":"Uncletopia | Dallas | 2 | All Maps | STV","players":null},{"server_id":5,"name":"Uncletopia | Frankfurt | 1 | All Maps","name_short":"frk-1","host":"frk-1.de.uncletopia.com","port":27015,"enabled":true,"region":"eu","cc":"de","latitude":50.110924,"longitude":8.682127,"reserved":0,"last_update":"0001-01-01T00:00:00Z","name_a2s":"Uncletopia | Frankfurt | 1 | All Maps","protocol":17,"map":"pl_borneo","folder":"tf","game":"Team Fortress","app_id":440,"player_count":11,"max_players":24,"Bots":0,"server_type":"Dedicated","server_os":"Linux","password":true,"vac":true,"version":"7742253","steam_id":85568392924469989,"keywords":["nocrits","nodmgspread","payload","uncletopia"],"game_id":440,"stv_port":27016,"stv_name":"Uncletopia | Frankfurt | 1 | All Maps | STV","players":[{"user_id":5,"name":"Florua","steam_id":76561198182297846,"connected_time":1035000000000,"state":"active","ping":49},{"user_id":6,"name":"No, Why?","steam_id":76561198888755969,"connected_time":965000000000,"state":"active","ping":66},{"user_id":7,"name":"Meric","steam_id":76561198288127610,"connected_time":595000000000,"state":"active","ping":93},{"user_id":8,"name":"Papa sniper","steam_id":76561198941117244,"connected_time":513000000000,"state":"active","ping":101},{"user_id":9,"name":"full power heart attack","steam_id":76561199196568965,"connected_time":408000000000,"state":"active","ping":79},{"user_id":10,"name":"arda","steam_id":76561199031082808,"connected_time":366000000000,"state":"active","ping":46},{"user_id":11,"name":"Grey","steam_id":76561198073954578,"connected_time":357000000000,"state":"active","ping":88},{"user_id":18,"name":"Milkman","steam_id":76561199378523760,"connected_time":126000000000,"state":"active","ping":63},{"user_id":19,"name":"thekoolest88","steam_id":76561199022415672,"connected_time":21000000000,"state":"active","ping":135},{"user_id":14,"name":"I am the one who donks","steam_id":76561198419583460,"connected_time":318000000000,"state":"active","ping":51},{"user_id":15,"name":"night.s","steam_id":76561198326287823,"connected_time":296000000000,"state":"active","ping":67}]},{"server_id":110,"name":"Uncletopia | Frankfurt | 2 | All Maps","name_short":"frk-2","host":"frk-1.de.uncletopia.com","port":27025,"enabled":true,"region":"eu","cc":"de","latitude":50.110924,"longitude":8.682127,"reserved":0,"last_update":"0001-01-01T00:00:00Z","name_a2s":"Uncletopia | Frankfurt | 2 | All Maps","protocol":17,"map":"koth_highpass","folder":"tf","game":"Team Fortress","app_id":440,"player_count":0,"max_players":24,"Bots":0,"server_type":"Dedicated","server_os":"Linux","password":true,"vac":true,"version":"7742253","steam_id":85568392924469990,"keywords":["cp","nocrits","nodmgspread","uncletopia"],"game_id":440,"stv_port":27026,"stv_name":"Uncletopia | Frankfurt | 2 | All Maps | STV","players":null},{"server_id":308,"name":"Uncletopia | Frankfurt | 3 | All Maps","name_short":"frk-3","host":"frk-1.de.uncletopia.com","port":27035,"enabled":true,"region":"eu","cc":"de","latitude":50.110924,"longitude":8.682127,"reserved":0,"last_update":"0001-01-01T00:00:00Z","name_a2s":"Uncletopia | Frankfurt | 3 | All Maps","protocol":17,"map":"cp_dustbowl","folder":"tf","game":"Team Fortress","app_id":440,"player_count":0,"max_players":24,"Bots":0,"server_type":"Dedicated","server_os":"Linux","password":true,"vac":true,"version":"7742253","steam_id":85568392924504274,"keywords":["cp","nocrits","nodmgspread","uncletopia"],"game_id":440,"stv_port":27036,"stv_name":"Uncletopia | Frankfurt | 3 | All Maps | STV","players":null},{"server_id":309,"name":"Uncletopia | Frankfurt | 4 | All Maps","name_short":"frk-4","host":"frk-1.de.uncletopia.com","port":27045,"enabled":true,"region":"eu","cc":"de","latitude":50.110924,"longitude":8.682127,"reserved":0,"last_update":"0001-01-01T00:00:00Z","name_a2s":"Uncletopia | Frankfurt | 4 | All Maps","protocol":17,"map":"cp_sunshine","folder":"tf","game":"Team Fortress","app_id":440,"player_count":0,"max_players":24,"Bots":0,"server_type":"Dedicated","server_os":"Linux","password":true,"vac":true,"version":"7742253","steam_id":85568392924504275,"keywords":["cp","nocrits","nodmgspread","uncletopia"],"game_id":440,"stv_port":27046,"stv_name":"Uncletopia | Frankfurt | 4 | All Maps | STV","players":null},{"server_id":310,"name":"Uncletopia | Frankfurt | 5 | All Maps","name_short":"frk-5","host":"frk-1.de.uncletopia.com","port":27055,"enabled":true,"region":"eu","cc":"de","latitude":50.110924,"longitude":8.682127,"reserved":0,"last_update":"0001-01-01T00:00:00Z","name_a2s":"Uncletopia | Frankfurt | 5 | All Maps","protocol":17,"map":"cp_snakewater_final1","folder":"tf","game":"Team Fortress","app_id":440,"player_count":0,"max_players":24,"Bots":0,"server_type":"Dedicated","server_os":"Linux","password":true,"vac":true,"version":"7742253","steam_id":85568392924504277,"keywords":["cp","nocrits","nodmgspread","uncletopia"],"game_id":440,"stv_port":27056,"stv_name":"Uncletopia | Frankfurt | 5 | All Maps | STV","players":null},{"server_id":311,"name":"Uncletopia | Frankfurt | 6 | All Maps","name_short":"frk-6","host":"frk-1.de.uncletopia.com","port":27065,"enabled":true,"region":"eu","cc":"de","latitude":50.110924,"longitude":8.682127,"reserved":0,"last_update":"0001-01-01T00:00:00Z","name_a2s":"Uncletopia | Frankfurt | 6 | All Maps","protocol":17,"map":"koth_lakeside_final","folder":"tf","game":"Team Fortress","app_id":440,"player_count":0,"max_players":24,"Bots":0,"server_type":"Dedicated","server_os":"Linux","password":true,"vac":true,"version":"7742253","steam_id":85568392924504278,"keywords":["cp","nocrits","nodmgspread","uncletopia"],"game_id":440,"stv_port":27066,"stv_name":"Uncletopia | Frankfurt | 6 | All Maps | STV","players":null},{"server_id":23,"name":"Uncletopia | Frankfurt | 7 | Stopwatch Beta","name_short":"frk-7","host":"frk-1.de.uncletopia.com","port":27075,"enabled":true,"region":"eu","cc":"de","latitude":50.110924,"longitude":8.682127,"reserved":0,"last_update":"0001-01-01T00:00:00Z","name_a2s":"Uncletopia | Frankfurt | 7 | Stopwatch Beta","protocol":17,"map":"pl_badwater","folder":"tf","game":"Team Fortress","app_id":440,"player_count":0,"max_players":24,"Bots":0,"server_type":"Dedicated","server_os":"Linux","password":true,"vac":true,"version":"7742253","steam_id":85568392924742827,"keywords":["nocrits","nodmgspread","payload","uncletopia"],"game_id":440,"stv_port":27076,"stv_name":"Uncletopia | Frankfurt | 7 | Stopwatch Beta | STV","players":null},{"server_id":24,"name":"Uncletopia | Frankfurt | 8 | Community","name_short":"frk-8","host":"frk-1.de.uncletopia.com","port":27085,"enabled":true,"region":"eu","cc":"de","latitude":50.110924,"longitude":8.682127,"reserved":0,"last_update":"0001-01-01T00:00:00Z","name_a2s":"Uncletopia | Frankfurt | 8 | Community","protocol":17,"map":"koth_cascade","folder":"tf","game":"Team Fortress","app_id":440,"player_count":0,"max_players":24,"Bots":0,"server_type":"Dedicated","server_os":"Linux","password":true,"vac":true,"version":"7742253","steam_id":85568392924742828,"keywords":["cp","nocrits","nodmgspread","uncletopia"],"game_id":440,"stv_port":27086,"stv_name":"Uncletopia | Frankfurt | 8 | Community | STV","players":null},{"server_id":202,"name":"Uncletopia | Hong Kong | 1 | All Maps","name_short":"hgk-1","host":"hgk-1.hk.uncletopia.com","port":27015,"enabled":true,"region":"asia","cc":"hk","latitude":22.302711,"longitude":114.177216,"reserved":0,"last_update":"0001-01-01T00:00:00Z","name_a2s":"Uncletopia | Hong Kong | 1 | All Maps","protocol":17,"map":"pl_frontier_final","folder":"tf","game":"Team Fortress","app_id":440,"player_count":24,"max_players":24,"Bots":0,"server_type":"Dedicated","server_os":"Linux","password":true,"vac":true,"version":"7742253","steam_id":85568392924494504,"keywords":["nocrits","nodmgspread","payload","uncletopia"],"game_id":440,"stv_port":27016,"stv_name":"Uncletopia | Hong Kong | 1 | All Maps | STV","players":[{"user_id":212,"name":"moguizhong","steam_id":76561198152588681,"connected_time":1152000000000,"state":"active","ping":84},{"user_id":78,"name":"Urotsuki","steam_id":76561198074339034,"connected_time":14132000000000,"state":"active","ping":74},{"user_id":202,"name":"Puddin","steam_id":76561198140052918,"connected_time":1343000000000,"state":"active","ping":90},{"user_id":201,"name":"Javariced","steam_id":76561198069402937,"connected_time":1359000000000,"state":"active","ping":118},{"user_id":215,"name":"SINDACCO MELON","steam_id":76561199254288337,"connected_time":393000000000,"state":"active","ping":95},{"user_id":210,"name":"qb","steam_id":76561198412329672,"connected_time":1299000000000,"state":"active","ping":91},{"user_id":111,"name":"Bertengkar","steam_id":76561198213031155,"connected_time":10120000000000,"state":"active","ping":97},{"user_id":124,"name":"skypot","steam_id":76561198073840014,"connected_time":9205000000000,"state":"active","ping":128},{"user_id":177,"name":"Icewallowcome(F2p)","steam_id":76561199128295257,"connected_time":4409000000000,"state":"active","ping":93},{"user_id":217,"name":"Beef Wellington","steam_id":76561197995635241,"connected_time":336000000000,"state":"active","ping":108},{"user_id":204,"name":"Turbo.RF4","steam_id":76561199061012484,"connected_time":1332000000000,"state":"active","ping":75},{"user_id":152,"name":"Drutzhfer","steam_id":76561198299948446,"connected_time":6289000000000,"state":"active","ping":110},{"user_id":184,"name":"undercover","steam_id":76561197994194946,"connected_time":3450000000000,"state":"active","ping":92},{"user_id":189,"name":"screaming sniper","steam_id":76561199085568674,"connected_time":3020000000000,"state":"active","ping":59},{"user_id":211,"name":"whippyman","steam_id":76561198137069257,"connected_time":1287000000000,"state":"active","ping":107},{"user_id":183,"name":"CaptainBozo","steam_id":76561199151959977,"connected_time":3740000000000,"state":"active","ping":59},{"user_id":196,"name":"Violezine","steam_id":76561199000502615,"connected_time":2624000000000,"state":"active","ping":81},{"user_id":214,"name":"ѕησωу-єνєιє","steam_id":76561198334099003,"connected_time":523000000000,"state":"active","ping":144},{"user_id":185,"name":"Zacy","steam_id":76561198114841670,"connected_time":3259000000000,"state":"active","ping":68},{"user_id":49,"name":"蠢脸骑士脸不蠢","steam_id":76561198422372840,"connected_time":16342000000000,"state":"active","ping":55},{"user_id":131,"name":"p1st0n","steam_id":76561198992723983,"connected_time":8621000000000,"state":"active","ping":98},{"user_id":216,"name":"TomProPlayer","steam_id":76561199223292521,"connected_time":369000000000,"state":"active","ping":68},{"user_id":87,"name":"lillalune","steam_id":76561198230213828,"connected_time":13764000000000,"state":"active","ping":72},{"user_id":219,"name":"weerez","steam_id":76561198405393811,"connected_time":94000000000,"state":"active","ping":123}]},{"server_id":1,"name":"Uncletopia | Los Angeles | 1 | All Maps","name_short":"lax-1","host":"lax-1.us.uncletopia.com","port":27015,"enabled":true,"region":"us-west","cc":"us","latitude":33.94279,"longitude":-118.41004,"reserved":0,"last_update":"0001-01-01T00:00:00Z","name_a2s":"Uncletopia | Los Angeles | 1 | All Maps","protocol":17,"map":"cp_snakewater_final1","folder":"tf","game":"Team Fortress","app_id":440,"player_count":0,"max_players":24,"Bots":0,"server_type":"Dedicated","server_os":"Linux","password":true,"vac":true,"version":"7742253","steam_id":85568392924469991,"keywords":["cp","nocrits","nodmgspread","uncletopia"],"game_id":440,"stv_port":27016,"stv_name":"Uncletopia | Los Angeles | 1 | All Maps | STV","players":null},{"server_id":112,"name":"Uncletopia | Los Angeles | 2 | All Maps","name_short":"lax-2","host":"lax-1.us.uncletopia.com","port":27025,"enabled":true,"region":"us-west","cc":"us","latitude":33.94279,"longitude":-118.41004,"reserved":0,"last_update":"0001-01-01T00:00:00Z","name_a2s":"Uncletopia | Los Angeles | 2 | All Maps","protocol":17,"map":"pl_frontier_final","folder":"tf","game":"Team Fortress","app_id":440,"player_count":24,"max_players":24,"Bots":0,"server_type":"Dedicated","server_os":"Linux","password":true,"vac":true,"version":"7742253","steam_id":85568392924469992,"keywords":["nocrits","nodmgspread","payload","uncletopia"],"game_id":440,"stv_port":27026,"stv_name":"Uncletopia | Los Angeles | 2 | All Maps | STV","players":[{"user_id":647,"name":"B-0-D-I-E ✓","steam_id":76561198079474904,"connected_time":647000000000,"state":"active","ping":85},{"user_id":648,"name":"toki","steam_id":76561199196943730,"connected_time":642000000000,"state":"active","ping":61},{"user_id":593,"name":"riri ᗜᴗᗜ","steam_id":76561198055462404,"connected_time":5266000000000,"state":"active","ping":40},{"user_id":530,"name":"Tmiracle","steam_id":76561198052375275,"connected_time":9138000000000,"state":"active","ping":41},{"user_id":649,"name":"Isopentyl Ethanoate","steam_id":76561198116389072,"connected_time":621000000000,"state":"active","ping":93},{"user_id":604,"name":"beatrix-mas","steam_id":76561199057103062,"connected_time":4593000000000,"state":"active","ping":54},{"user_id":607,"name":"c49aa4","steam_id":76561199099537250,"connected_time":4426000000000,"state":"active","ping":54},{"user_id":630,"name":"-- .. -.- . / .... ..- -. -","steam_id":76561198109120511,"connected_time":2393000000000,"state":"active","ping":60},{"user_id":567,"name":"selvhat","steam_id":76561198114225509,"connected_time":7287000000000,"state":"active","ping":52},{"user_id":591,"name":"G. Howard Dee","steam_id":76561198058382812,"connected_time":5760000000000,"state":"active","ping":49},{"user_id":629,"name":"jelderjr","steam_id":76561198208862897,"connected_time":2409000000000,"state":"active","ping":51},{"user_id":636,"name":"Pacman","steam_id":76561199466007022,"connected_time":2214000000000,"state":"active","ping":62},{"user_id":656,"name":"Hachet","steam_id":76561198160273704,"connected_time":98000000000,"state":"active","ping":51},{"user_id":651,"name":"Birdman743","steam_id":76561198799636748,"connected_time":613000000000,"state":"active","ping":82},{"user_id":621,"name":"puffer","steam_id":76561199049164456,"connected_time":3318000000000,"state":"active","ping":63},{"user_id":626,"name":"Johnny Metrocop","steam_id":76561199068981957,"connected_time":2819000000000,"state":"active","ping":90},{"user_id":654,"name":"Unliterate","steam_id":76561198088700061,"connected_time":424000000000,"state":"active","ping":92},{"user_id":631,"name":"Grzegorz Brzęczyszczykiewicz","steam_id":76561198229010452,"connected_time":2387000000000,"state":"active","ping":62},{"user_id":653,"name":"B A K U","steam_id":76561198043317070,"connected_time":533000000000,"state":"active","ping":86},{"user_id":602,"name":"Dauntless Duelist","steam_id":76561198025056018,"connected_time":4765000000000,"state":"active","ping":58},{"user_id":615,"name":"E-Spliff","steam_id":76561199093733603,"connected_time":3867000000000,"state":"active","ping":50},{"user_id":646,"name":"hotdog every meal","steam_id":76561198392514273,"connected_time":885000000000,"state":"active","ping":77},{"user_id":633,"name":"kebo","steam_id":76561198237159430,"connected_time":2380000000000,"state":"active","ping":57},{"user_id":635,"name":"scruffer","steam_id":76561198044095460,"connected_time":2322000000000,"state":"active","ping":81}]},{"server_id":324,"name":"Uncletopia | Los Angeles | 3 | All Maps","name_short":"lax-3","host":"lax-1.us.uncletopia.com","port":27035,"enabled":true,"region":"us-west","cc":"us","latitude":33.94279,"longitude":-118.41004,"reserved":0,"last_update":"0001-01-01T00:00:00Z","name_a2s":"Uncletopia | Los Angeles | 3 | All Maps","protocol":17,"map":"cp_mountainlab","folder":"tf","game":"Team Fortress","app_id":440,"player_count":0,"max_players":24,"Bots":0,"server_type":"Dedicated","server_os":"Linux","password":true,"vac":true,"version":"7742253","steam_id":85568392924510198,"keywords":["cp","nocrits","nodmgspread","uncletopia"],"game_id":440,"stv_port":27036,"stv_name":"Uncletopia | Los Angeles | 3 | All Maps | STV","players":null},{"server_id":25,"name":"Uncletopia | Los Angeles | 4 | Stopwatch Beta","name_short":"lax-4","host":"lax-1.us.uncletopia.com","port":27045,"enabled":true,"region":"us-west","cc":"us","latitude":33.94279,"longitude":-118.41004,"reserved":0,"last_update":"0001-01-01T00:00:00Z","name_a2s":"Uncletopia | Los Angeles | 4 | Stopwatch Beta","protocol":17,"map":"workshop/koth_bagel_rc5.ugc2514036946","folder":"tf","game":"Team Fortress","app_id":440,"player_count":0,"max_players":24,"Bots":0,"server_type":"Dedicated","server_os":"Linux","password":true,"vac":true,"version":"7742253","steam_id":85568392924510199,"keywords":["cp","nocrits","nodmgspread","uncletopia"],"game_id":440,"stv_port":27046,"stv_name":"Uncletopia | Los Angeles | 4 | Stopwatch Beta | STV","players":null},{"server_id":11,"name":"Uncletopia | London | 1 | All Maps","name_short":"lon-1","host":"lon-1.uk.uncletopia.com","port":27015,"enabled":true,"region":"eu","cc":"gb","latitude":51.509865,"longitude":-0.118092,"reserved":0,"last_update":"0001-01-01T00:00:00Z","name_a2s":"Uncletopia | London | 1 | All Maps","protocol":17,"map":"cp_altitude","folder":"tf","game":"Team Fortress","app_id":440,"player_count":0,"max_players":24,"Bots":0,"server_type":"Dedicated","server_os":"Linux","password":true,"vac":true,"version":"7742253","steam_id":85568392924367362,"keywords":["cp","nocrits","nodmgspread","uncletopia"],"game_id":440,"stv_port":27016,"stv_name":"Uncletopia | London | 1 | All Maps | STV","players":null},{"server_id":114,"name":"Uncletopia | London | 2 | All Maps","name_short":"lon-2","host":"lon-1.uk.uncletopia.com","port":27025,"enabled":true,"region":"eu","cc":"gb","latitude":51.509865,"longitude":-0.118092,"reserved":0,"last_update":"0001-01-01T00:00:00Z","name_a2s":"Uncletopia | London | 2 | All Maps","protocol":17,"map":"ctf_2fort","folder":"tf","game":"Team Fortress","app_id":440,"player_count":21,"max_players":24,"Bots":0,"server_type":"Dedicated","server_os":"Linux","password":true,"vac":true,"version":"7742253","steam_id":85568392924470941,"keywords":["ctf","nocrits","nodmgspread","uncletopia"],"game_id":440,"stv_port":27026,"stv_name":"Uncletopia | London | 2 | All Maps | STV","players":[{"user_id":64,"name":"Bullets","steam_id":76561198058876482,"connected_time":2653000000000,"state":"active","ping":52},{"user_id":71,"name":"SomeRandomPlayer","steam_id":76561199191051178,"connected_time":1995000000000,"state":"active","ping":142},{"user_id":78,"name":"strangely","steam_id":76561198030697131,"connected_time":489000000000,"state":"active","ping":44},{"user_id":76,"name":"Joe","steam_id":76561198061717026,"connected_time":1244000000000,"state":"active","ping":45},{"user_id":12,"name":"juicymangoes","steam_id":76561198131670413,"connected_time":7969000000000,"state":"active","ping":60},{"user_id":85,"name":"mommy x_x","steam_id":76561199204257697,"connected_time":193000000000,"state":"active","ping":55},{"user_id":79,"name":"sentry buster","steam_id":76561199036120282,"connected_time":478000000000,"state":"active","ping":49},{"user_id":82,"name":"Binky","steam_id":76561198116681081,"connected_time":462000000000,"state":"active","ping":105},{"user_id":83,"name":"Vizziuu","steam_id":76561198134866798,"connected_time":438000000000,"state":"active","ping":67},{"user_id":74,"name":"Senator Armstrong","steam_id":76561198984346408,"connected_time":1606000000000,"state":"active","ping":71},{"user_id":43,"name":"Philippe","steam_id":76561199063606000,"connected_time":5320000000000,"state":"active","ping":94},{"user_id":72,"name":"peruna","steam_id":76561198000721196,"connected_time":1964000000000,"state":"active","ping":77},{"user_id":21,"name":"Linakas","steam_id":76561198299757435,"connected_time":7510000000000,"state":"active","ping":78},{"user_id":29,"name":"Onpwnage","steam_id":76561198011775345,"connected_time":6543000000000,"state":"active","ping":54},{"user_id":80,"name":"PyroHam","steam_id":76561198206285837,"connected_time":477000000000,"state":"active","ping":75},{"user_id":87,"name":"the boil","steam_id":76561199236080782,"connected_time":158000000000,"state":"active","ping":107},{"user_id":69,"name":"weed fairy","steam_id":76561197998843096,"connected_time":2262000000000,"state":"active","ping":76},{"user_id":58,"name":"autistic luigi","steam_id":76561199218285040,"connected_time":3538000000000,"state":"active","ping":77},{"user_id":75,"name":"Иван","steam_id":76561198852621799,"connected_time":1484000000000,"state":"active","ping":79},{"user_id":53,"name":"69Ruby","steam_id":76561198076230407,"connected_time":4716000000000,"state":"active","ping":89},{"user_id":81,"name":"Quacky","steam_id":76561198209759647,"connected_time":475000000000,"state":"active","ping":89}]},{"server_id":320,"name":"Uncletopia | London | 3 | All Maps","name_short":"lon-3","host":"lon-1.uk.uncletopia.com","port":27035,"enabled":true,"region":"eu","cc":"gb","latitude":51.509865,"longitude":-0.118092,"reserved":0,"last_update":"0001-01-01T00:00:00Z","name_a2s":"Uncletopia | London | 3 | All Maps","protocol":17,"map":"pl_upward","folder":"tf","game":"Team Fortress","app_id":440,"player_count":0,"max_players":24,"Bots":0,"server_type":"Dedicated","server_os":"Linux","password":true,"vac":true,"version":"7742253","steam_id":85568392924510192,"keywords":["nocrits","nodmgspread","payload","uncletopia"],"game_id":440,"stv_port":27036,"stv_name":"Uncletopia | London | 3 | All Maps | STV","players":null},{"server_id":321,"name":"Uncletopia | London | 4 | All Maps","name_short":"lon-4","host":"lon-1.uk.uncletopia.com","port":27045,"enabled":true,"region":"eu","cc":"gb","latitude":51.509865,"longitude":-0.118092,"reserved":0,"last_update":"0001-01-01T00:00:00Z","name_a2s":"Uncletopia | London | 4 | All Maps","protocol":17,"map":"koth_highpass","folder":"tf","game":"Team Fortress","app_id":440,"player_count":0,"max_players":24,"Bots":0,"server_type":"Dedicated","server_os":"Linux","password":true,"vac":true,"version":"7742253","steam_id":85568392924510193,"keywords":["cp","nocrits","nodmgspread","uncletopia"],"game_id":440,"stv_port":27046,"stv_name":"Uncletopia | London | 4 | All Maps | STV","players":null},{"server_id":21,"name":"Uncletopia | London | 5 | All Maps","name_short":"lon-5","host":"lon-1.uk.uncletopia.com","port":27055,"enabled":true,"region":"eu","cc":"gb","latitude":51.509865,"longitude":-0.118092,"reserved":0,"last_update":"0001-01-01T00:00:00Z","name_a2s":"Uncletopia | London | 5 | All Maps","protocol":17,"map":"pl_frontier_final","folder":"tf","game":"Team Fortress","app_id":440,"player_count":0,"max_players":24,"Bots":0,"server_type":"Dedicated","server_os":"Linux","password":true,"vac":true,"version":"7742253","steam_id":85568392924742829,"keywords":["nocrits","nodmgspread","payload","uncletopia"],"game_id":440,"stv_port":27056,"stv_name":"Uncletopia | London | 5 | All Maps | STV","players":null},{"server_id":22,"name":"Uncletopia | London | 6 | All Maps","name_short":"lon-6","host":"lon-1.uk.uncletopia.com","port":27065,"enabled":true,"region":"eu","cc":"gb","latitude":51.509865,"longitude":-0.118092,"reserved":0,"last_update":"0001-01-01T00:00:00Z","name_a2s":"Uncletopia | London | 6 | All Maps","protocol":17,"map":"pl_borneo","folder":"tf","game":"Team Fortress","app_id":440,"player_count":0,"max_players":24,"Bots":0,"server_type":"Dedicated","server_os":"Linux","password":true,"vac":true,"version":"7742253","steam_id":85568392924742830,"keywords":["nocrits","nodmgspread","payload","uncletopia"],"game_id":440,"stv_port":27066,"stv_name":"Uncletopia | London | 6 | All Maps | STV","players":null},{"server_id":40,"name":"Uncletopia | London | 7 | No Payload","name_short":"lon-7","host":"lon-1.uk.uncletopia.com","port":27075,"enabled":true,"region":"eu","cc":"gb","latitude":51.509865,"longitude":-0.118092,"reserved":0,"last_update":"0001-01-01T00:00:00Z","name_a2s":"Uncletopia | London | 7 | No Payload","protocol":17,"map":"koth_viaduct","folder":"tf","game":"Team Fortress","app_id":440,"player_count":0,"max_players":24,"Bots":0,"server_type":"Dedicated","server_os":"Linux","password":true,"vac":true,"version":"7742253","steam_id":85568392924964314,"keywords":["cp","nocrits","nodmgspread","uncletopia"],"game_id":440,"stv_port":27076,"stv_name":"Uncletopia | London | 7 | No Payload | STV","players":null},{"server_id":41,"name":"Uncletopia | London | 8 | Community","name_short":"lon-8","host":"lon-1.uk.uncletopia.com","port":27085,"enabled":true,"region":"eu","cc":"gb","latitude":51.509865,"longitude":-0.118092,"reserved":0,"last_update":"0001-01-01T00:00:00Z","name_a2s":"Uncletopia | London | 8 | Community","protocol":17,"map":"cp_altitude","folder":"tf","game":"Team Fortress","app_id":440,"player_count":0,"max_players":24,"Bots":0,"server_type":"Dedicated","server_os":"Linux","password":true,"vac":true,"version":"7742253","steam_id":85568392924964315,"keywords":["cp","nocrits","nodmgspread","uncletopia"],"game_id":440,"stv_port":27086,"stv_name":"Uncletopia | London | 8 | Community | STV","players":null},{"server_id":300,"name":"Uncletopia | Montréal | 1 | All Maps","name_short":"mtl-1","host":"mtl-1.ca.uncletopia.com","port":27015,"enabled":true,"region":"us-east","cc":"ca","latitude":45.50889,"longitude":-73.56167,"reserved":0,"last_update":"0001-01-01T00:00:00Z","name_a2s":"Uncletopia | Montréal | 1 | All Maps","protocol":17,"map":"koth_lakeside_final","folder":"tf","game":"Team Fortress","app_id":440,"player_count":0,"max_players":24,"Bots":0,"server_type":"Dedicated","server_os":"Linux","password":true,"vac":true,"version":"7742253","steam_id":85568392924500087,"keywords":["cp","nocrits","nodmgspread","uncletopia"],"game_id":440,"stv_port":27016,"stv_name":"Uncletopia | Montréal | 1 | All Maps | STV","players":null},{"server_id":301,"name":"Uncletopia | Montréal | 2 | All Maps","name_short":"mtl-2","host":"mtl-1.ca.uncletopia.com","port":27025,"enabled":true,"region":"us-east","cc":"ca","latitude":45.50889,"longitude":-73.56167,"reserved":0,"last_update":"0001-01-01T00:00:00Z","name_a2s":"Uncletopia | Montréal | 2 | All Maps","protocol":17,"map":"koth_highpass","folder":"tf","game":"Team Fortress","app_id":440,"player_count":0,"max_players":24,"Bots":0,"server_type":"Dedicated","server_os":"Linux","password":true,"vac":true,"version":"7742253","steam_id":85568392924500088,"keywords":["cp","nocrits","nodmgspread","uncletopia"],"game_id":440,"stv_port":27026,"stv_name":"Uncletopia | Montréal | 2 | All Maps | STV","players":null},{"server_id":302,"name":"Uncletopia | Montréal | 3 | All Maps","name_short":"mtl-3","host":"mtl-1.ca.uncletopia.com","port":27035,"enabled":true,"region":"us-east","cc":"ca","latitude":45.50889,"longitude":-73.56167,"reserved":0,"last_update":"0001-01-01T00:00:00Z","name_a2s":"Uncletopia | Montréal | 3 | All Maps","protocol":17,"map":"koth_highpass","folder":"tf","game":"Team Fortress","app_id":440,"player_count":0,"max_players":24,"Bots":0,"server_type":"Dedicated","server_os":"Linux","password":true,"vac":true,"version":"7742253","steam_id":85568392924500089,"keywords":["cp","nocrits","nodmgspread","uncletopia"],"game_id":440,"stv_port":27036,"stv_name":"Uncletopia | Montréal | 3 | All Maps | STV","players":null},{"server_id":303,"name":"Uncletopia | Montréal | 4 | No Payload","name_short":"mtl-4","host":"mtl-1.ca.uncletopia.com","port":27045,"enabled":true,"region":"us-east","cc":"ca","latitude":45.50889,"longitude":-73.56167,"reserved":0,"last_update":"0001-01-01T00:00:00Z","name_a2s":"Uncletopia | Montréal | 4 | No Payload","protocol":17,"map":"cp_snakewater_final1","folder":"tf","game":"Team Fortress","app_id":440,"player_count":0,"max_players":24,"Bots":0,"server_type":"Dedicated","server_os":"Linux","password":true,"vac":true,"version":"7742253","steam_id":85568392924500090,"keywords":["cp","nocrits","nodmgspread","uncletopia"],"game_id":440,"stv_port":27046,"stv_name":"Uncletopia | Montréal | 4 | No Payload | STV","players":null},{"server_id":13,"name":"Uncletopia | New York City | 1 | All Maps","name_short":"nyc-1","host":"nyc-1.us.uncletopia.com","port":27015,"enabled":true,"region":"us-east","cc":"us","latitude":40.73061,"longitude":-73.93524,"reserved":0,"last_update":"0001-01-01T00:00:00Z","name_a2s":"Uncletopia | New York City | 1 | All Maps","protocol":17,"map":"pl_pier","folder":"tf","game":"Team Fortress","app_id":440,"player_count":13,"max_players":24,"Bots":0,"server_type":"Dedicated","server_os":"Linux","password":true,"vac":true,"version":"7742253","steam_id":85568392924469993,"keywords":["nocrits","nodmgspread","payload","uncletopia"],"game_id":440,"stv_port":27016,"stv_name":"Uncletopia | New York City | 1 | All Maps | STV","players":[{"user_id":698,"name":"sky.to16","steam_id":76561199211313763,"connected_time":1654000000000,"state":"active","ping":46},{"user_id":709,"name":"BIG HOG","steam_id":76561198079923652,"connected_time":986000000000,"state":"active","ping":81},{"user_id":700,"name":"Wibrr","steam_id":76561198394918954,"connected_time":1629000000000,"state":"active","ping":141},{"user_id":711,"name":"Beter","steam_id":76561198074008506,"connected_time":798000000000,"state":"active","ping":38},{"user_id":702,"name":"A Black Square","steam_id":76561198043570320,"connected_time":1552000000000,"state":"active","ping":74},{"user_id":680,"name":"malkshake, flattener","steam_id":76561198031977478,"connected_time":2865000000000,"state":"active","ping":80},{"user_id":712,"name":"purply-ghost","steam_id":76561199204779865,"connected_time":782000000000,"state":"active","ping":85},{"user_id":714,"name":"the simpsons are wojaks","steam_id":76561199059257565,"connected_time":724000000000,"state":"active","ping":94},{"user_id":718,"name":"Trainzack","steam_id":76561198009479333,"connected_time":408000000000,"state":"active","ping":126},{"user_id":692,"name":"little hog","steam_id":76561199230929836,"connected_time":2251000000000,"state":"active","ping":86},{"user_id":689,"name":"SethMan","steam_id":76561198004402532,"connected_time":2506000000000,"state":"active","ping":71},{"user_id":708,"name":"DoorMan","steam_id":76561199028039753,"connected_time":1281000000000,"state":"active","ping":84},{"user_id":720,"name":"I_Ate_John_F_Kennedy","steam_id":76561199386157451,"connected_time":146000000000,"state":"active","ping":89}]},{"server_id":14,"name":"Uncletopia | New York City | 2 | All Maps","name_short":"nyc-2","host":"nyc-1.us.uncletopia.com","port":27025,"enabled":true,"region":"us-east","cc":"us","latitude":40.73061,"longitude":-73.93524,"reserved":0,"last_update":"0001-01-01T00:00:00Z","name_a2s":"Uncletopia | New York City | 2 | All Maps","protocol":17,"map":"pl_badwater","folder":"tf","game":"Team Fortress","app_id":440,"player_count":0,"max_players":24,"Bots":0,"server_type":"Dedicated","server_os":"Linux","password":true,"vac":true,"version":"7742253","steam_id":85568392924469994,"keywords":["nocrits","nodmgspread","payload","uncletopia"],"game_id":440,"stv_port":27026,"stv_name":"Uncletopia | New York City | 2 | All Maps | STV","players":null},{"server_id":15,"name":"Uncletopia | New York City | 3 | Stopwatch Beta","name_short":"nyc-3","host":"nyc-1.us.uncletopia.com","port":27035,"enabled":true,"region":"us-east","cc":"us","latitude":40.73061,"longitude":-73.93524,"reserved":0,"last_update":"0001-01-01T00:00:00Z","name_a2s":"Uncletopia | New York City | 3 | Stopwatch Beta","protocol":17,"map":"workshop/koth_product_final.ugc454272353","folder":"tf","game":"Team Fortress","app_id":440,"player_count":0,"max_players":24,"Bots":0,"server_type":"Dedicated","server_os":"Linux","password":true,"vac":true,"version":"7742253","steam_id":85568392924742820,"keywords":["cp","nocrits","nodmgspread","uncletopia"],"game_id":440,"stv_port":27036,"stv_name":"Uncletopia | New York City | 3 | Stopwatch Beta | STV","players":null},{"server_id":16,"name":"Uncletopia | New York City | 4 | Community","name_short":"nyc-4","host":"nyc-1.us.uncletopia.com","port":27045,"enabled":true,"region":"us-east","cc":"us","latitude":40.73061,"longitude":-73.93524,"reserved":0,"last_update":"0001-01-01T00:00:00Z","name_a2s":"Uncletopia | New York City | 4 | Community","protocol":17,"map":"workshop/koth_bagel_rc5.ugc2514036946","folder":"tf","game":"Team Fortress","app_id":440,"player_count":0,"max_players":24,"Bots":0,"server_type":"Dedicated","server_os":"Linux","password":true,"vac":true,"version":"7742253","steam_id":85568392924742821,"keywords":["cp","nocrits","nodmgspread","uncletopia"],"game_id":440,"stv_port":27046,"stv_name":"Uncletopia | New York City | 4 | Community | STV","players":null},{"server_id":142,"name":"Uncletopia | São Paulo | 1 | All Maps","name_short":"sao-1","host":"sao-1.br.uncletopia.com","port":27015,"enabled":true,"region":"sa","cc":"br","latitude":-23.533773,"longitude":-46.62529,"reserved":0,"last_update":"0001-01-01T00:00:00Z","name_a2s":"Uncletopia | São Paulo | 1 | All Maps","protocol":17,"map":"koth_lakeside_final","folder":"tf","game":"Team Fortress","app_id":440,"player_count":0,"max_players":24,"Bots":0,"server_type":"Dedicated","server_os":"Linux","password":true,"vac":true,"version":"7742253","steam_id":85568392924469996,"keywords":["cp","nocrits","nodmgspread","uncletopia"],"game_id":440,"stv_port":27016,"stv_name":"Uncletopia | São Paulo | 1 | All Maps | STV","players":null},{"server_id":143,"name":"Uncletopia | São Paulo | 2 | All Maps","name_short":"sao-2","host":"sao-2.br.uncletopia.com","port":27015,"enabled":true,"region":"sa","cc":"br","latitude":-23.533773,"longitude":-46.62529,"reserved":0,"last_update":"0001-01-01T00:00:00Z","name_a2s":"Uncletopia | São Paulo | 2 | All Maps","protocol":17,"map":"cp_dustbowl","folder":"tf","game":"Team Fortress","app_id":440,"player_count":0,"max_players":24,"Bots":0,"server_type":"Dedicated","server_os":"Linux","password":true,"vac":true,"version":"7742253","steam_id":85568392924485349,"keywords":["cp","nocrits","nodmgspread","uncletopia"],"game_id":440,"stv_port":27016,"stv_name":"Uncletopia | São Paulo | 2 | All Maps | STV","players":null},{"server_id":7,"name":"Uncletopia | Seattle | 1 | All Maps","name_short":"sea-1","host":"sea-1.us.uncletopia.com","port":27015,"enabled":true,"region":"us-west","cc":"us","latitude":47.608013,"longitude":-122.33517,"reserved":0,"last_update":"0001-01-01T00:00:00Z","name_a2s":"Uncletopia | Seattle | 1 | All Maps","protocol":17,"map":"pl_swiftwater_final1","folder":"tf","game":"Team Fortress","app_id":440,"player_count":24,"max_players":24,"Bots":0,"server_type":"Dedicated","server_os":"Linux","password":true,"vac":true,"version":"7742253","steam_id":85568392924469997,"keywords":["nocrits","nodmgspread","payload","uncletopia"],"game_id":440,"stv_port":27016,"stv_name":"Uncletopia | Seattle | 1 | All Maps | STV","players":[{"user_id":418,"name":"p9 thunderous prophet","steam_id":76561198131166135,"connected_time":1176000000000,"state":"active","ping":39},{"user_id":379,"name":"SvicidalBug","steam_id":76561198221390504,"connected_time":4518000000000,"state":"active","ping":61},{"user_id":406,"name":"gorlab","steam_id":76561198025089694,"connected_time":2102000000000,"state":"active","ping":60},{"user_id":429,"name":"resh","steam_id":76561198239598834,"connected_time":104000000000,"state":"active","ping":130},{"user_id":363,"name":"butt3r_","steam_id":76561198156374792,"connected_time":5961000000000,"state":"active","ping":46},{"user_id":424,"name":"Arsonist Goose","steam_id":76561198147441830,"connected_time":1135000000000,"state":"active","ping":75},{"user_id":374,"name":"Ducks","steam_id":76561198130038345,"connected_time":4567000000000,"state":"active","ping":61},{"user_id":427,"name":"Be kind to me please","steam_id":76561198998446307,"connected_time":166000000000,"state":"active","ping":64},{"user_id":301,"name":"p9 delight","steam_id":76561197980280272,"connected_time":13294000000000,"state":"active","ping":50},{"user_id":409,"name":"۞Ġ | Dopeness -AA-","steam_id":76561197970115262,"connected_time":2089000000000,"state":"active","ping":45},{"user_id":421,"name":"Knock on the sky and listen","steam_id":76561198077597130,"connected_time":1172000000000,"state":"active","ping":64},{"user_id":422,"name":"MA BEETS","steam_id":76561198168981607,"connected_time":1161000000000,"state":"active","ping":85},{"user_id":384,"name":"fwoov","steam_id":76561198129166260,"connected_time":3432000000000,"state":"active","ping":80},{"user_id":423,"name":"ChillyGomeB0ss","steam_id":76561199039825099,"connected_time":1148000000000,"state":"active","ping":51},{"user_id":386,"name":"ORANGE","steam_id":76561198000401769,"connected_time":3395000000000,"state":"active","ping":52},{"user_id":411,"name":"p9HIGHjorts","steam_id":76561199041179985,"connected_time":2042000000000,"state":"active","ping":65},{"user_id":420,"name":"Sadistic Dentist","steam_id":76561198103189993,"connected_time":1174000000000,"state":"active","ping":75},{"user_id":417,"name":"Jay","steam_id":76561198148464582,"connected_time":1485000000000,"state":"active","ping":93},{"user_id":343,"name":"p9 rorywashere","steam_id":76561198065825165,"connected_time":7706000000000,"state":"active","ping":106},{"user_id":311,"name":"profile name","steam_id":76561198032625036,"connected_time":12242000000000,"state":"active","ping":60},{"user_id":377,"name":"smeasly","steam_id":76561198028718812,"connected_time":4566000000000,"state":"active","ping":43},{"user_id":355,"name":"p9 Doctor™","steam_id":76561198134309750,"connected_time":6456000000000,"state":"active","ping":105},{"user_id":314,"name":"pcplace","steam_id":76561198097987387,"connected_time":11114000000000,"state":"active","ping":47},{"user_id":413,"name":"viciousbellringer","steam_id":76561198086876652,"connected_time":1745000000000,"state":"active","ping":89}]},{"server_id":119,"name":"Uncletopia | Seattle | 2 | All Maps","name_short":"sea-2","host":"sea-1.us.uncletopia.com","port":27025,"enabled":true,"region":"us-west","cc":"us","latitude":47.608013,"longitude":-122.33517,"reserved":0,"last_update":"0001-01-01T00:00:00Z","name_a2s":"Uncletopia | Seattle | 2 | All Maps","protocol":17,"map":"pl_pier","folder":"tf","game":"Team Fortress","app_id":440,"player_count":24,"max_players":24,"Bots":0,"server_type":"Dedicated","server_os":"Linux","password":true,"vac":true,"version":"7742253","steam_id":85568392924469998,"keywords":["nocrits","nodmgspread","payload","uncletopia"],"game_id":440,"stv_port":27026,"stv_name":"Uncletopia | Seattle | 2 | All Maps | STV","players":[{"user_id":578,"name":"goldhed","steam_id":76561198051751133,"connected_time":4993000000000,"state":"active","ping":53},{"user_id":564,"name":"Goober","steam_id":76561198392076712,"connected_time":5632000000000,"state":"active","ping":51},{"user_id":632,"name":"cracky","steam_id":76561197971365444,"connected_time":894000000000,"state":"active","ping":44},{"user_id":596,"name":"Kritzon Treatz","steam_id":76561198880665077,"connected_time":3378000000000,"state":"active","ping":71},{"user_id":613,"name":"Creator of Barrels","steam_id":76561198026724675,"connected_time":1786000000000,"state":"active","ping":93},{"user_id":614,"name":"i ate atomic bomb","steam_id":76561198150406851,"connected_time":1777000000000,"state":"active","ping":73},{"user_id":576,"name":"Konstant","steam_id":76561197994590979,"connected_time":5068000000000,"state":"active","ping":107},{"user_id":640,"name":"Klone","steam_id":76561198854485605,"connected_time":138000000000,"state":"active","ping":81},{"user_id":622,"name":"monsterkill4567","steam_id":76561198272986367,"connected_time":1708000000000,"state":"active","ping":83},{"user_id":629,"name":"Indra Goya","steam_id":76561198044017525,"connected_time":954000000000,"state":"active","ping":45},{"user_id":572,"name":"Mikidy","steam_id":76561197972958970,"connected_time":5363000000000,"state":"active","ping":76},{"user_id":633,"name":"Tom Bombadil","steam_id":76561198044692066,"connected_time":632000000000,"state":"active","ping":126},{"user_id":635,"name":"Beeveelution","steam_id":76561198331526301,"connected_time":392000000000,"state":"active","ping":68},{"user_id":599,"name":"Fungi Esoteric","steam_id":76561198078973439,"connected_time":2821000000000,"state":"active","ping":84},{"user_id":605,"name":"sara","steam_id":76561198283462369,"connected_time":2640000000000,"state":"active","ping":85},{"user_id":634,"name":"Seriously Bruh","steam_id":76561198070408485,"connected_time":492000000000,"state":"active","ping":66},{"user_id":610,"name":"strong and healthy gamer","steam_id":76561198049489349,"connected_time":2139000000000,"state":"active","ping":60},{"user_id":619,"name":"ArmaViviente","steam_id":76561198084098079,"connected_time":1743000000000,"state":"active","ping":111},{"user_id":575,"name":"bullet man","steam_id":76561198080058079,"connected_time":5137000000000,"state":"active","ping":54},{"user_id":636,"name":"Gibus Man","steam_id":76561198257241062,"connected_time":362000000000,"state":"active","ping":37},{"user_id":598,"name":"Szaint","steam_id":76561198165050614,"connected_time":2830000000000,"state":"active","ping":76},{"user_id":639,"name":"Jface1221","steam_id":76561198188082091,"connected_time":204000000000,"state":"active","ping":80},{"user_id":637,"name":"SmallErection","steam_id":76561198071770147,"connected_time":356000000000,"state":"active","ping":64},{"user_id":601,"name":"Finkly","steam_id":76561198049828110,"connected_time":2815000000000,"state":"active","ping":47}]},{"server_id":406,"name":"Uncletopia | Seattle | 3 | Stopwatch Beta","name_short":"sea-3","host":"sea-1.us.uncletopia.com","port":27035,"enabled":true,"region":"us-west","cc":"us","latitude":47.608013,"longitude":-122.33517,"reserved":0,"last_update":"0001-01-01T00:00:00Z","name_a2s":"Uncletopia | Seattle | 3 | Stopwatch Beta","protocol":17,"map":"workshop/pl_vigil_rc9.ugc1266210012","folder":"tf","game":"Team Fortress","app_id":440,"player_count":0,"max_players":24,"Bots":0,"server_type":"Dedicated","server_os":"Linux","password":true,"vac":true,"version":"7742253","steam_id":85568392924515217,"keywords":["nocrits","nodmgspread","payload","uncletopia"],"game_id":440,"stv_port":27036,"stv_name":"Uncletopia | Seattle | 3 | Stopwatch Beta | STV","players":null},{"server_id":17,"name":"Uncletopia | San Francisco | 1 | All Maps","name_short":"sfo-1","host":"sfo-1.us.uncletopia.com","port":27015,"enabled":true,"region":"us-west","cc":"us","latitude":37.77397,"longitude":-122.4313,"reserved":0,"last_update":"0001-01-01T00:00:00Z","name_a2s":"Uncletopia | San Francisco | 1 | All Maps","protocol":17,"map":"koth_nucleus","folder":"tf","game":"Team Fortress","app_id":440,"player_count":0,"max_players":24,"Bots":0,"server_type":"Dedicated","server_os":"Linux","password":true,"vac":true,"version":"7742253","steam_id":85568392924469999,"keywords":["cp","nocrits","nodmgspread","uncletopia"],"game_id":440,"stv_port":27016,"stv_name":"Uncletopia | San Francisco | 1 | All Maps | STV","players":null},{"server_id":18,"name":"Uncletopia | San Francisco | 2 | All Maps","name_short":"sfo-2","host":"sfo-1.us.uncletopia.com","port":27025,"enabled":true,"region":"us-west","cc":"us","latitude":37.77397,"longitude":-122.4313,"reserved":0,"last_update":"0001-01-01T00:00:00Z","name_a2s":"Uncletopia | San Francisco | 2 | All Maps","protocol":17,"map":"pl_pier","folder":"tf","game":"Team Fortress","app_id":440,"player_count":0,"max_players":24,"Bots":0,"server_type":"Dedicated","server_os":"Linux","password":true,"vac":true,"version":"7742253","steam_id":85568392924470000,"keywords":["nocrits","nodmgspread","payload","uncletopia"],"game_id":440,"stv_port":27026,"stv_name":"Uncletopia | San Francisco | 2 | All Maps | STV","players":null},{"server_id":19,"name":"Uncletopia | San Francisco | 3 | Stopwatch Beta","name_short":"sfo-3","host":"sfo-1.us.uncletopia.com","port":27035,"enabled":true,"region":"us-west","cc":"us","latitude":37.77397,"longitude":-122.4313,"reserved":0,"last_update":"0001-01-01T00:00:00Z","name_a2s":"Uncletopia | San Francisco | 3 | Stopwatch Beta","protocol":17,"map":"workshop/koth_ramjam_rc1.ugc459778887","folder":"tf","game":"Team Fortress","app_id":440,"player_count":0,"max_players":24,"Bots":0,"server_type":"Dedicated","server_os":"Linux","password":true,"vac":true,"version":"7742253","steam_id":85568392924742824,"keywords":["cp","nocrits","nodmgspread","uncletopia"],"game_id":440,"stv_port":27036,"stv_name":"Uncletopia | San Francisco | 3 | Stopwatch Beta | STV","players":null},{"server_id":20,"name":"Uncletopia | San Francisco | 4 | Community","name_short":"sfo-4","host":"sfo-1.us.uncletopia.com","port":27045,"enabled":true,"region":"us-west","cc":"us","latitude":37.77397,"longitude":-122.4313,"reserved":0,"last_update":"0001-01-01T00:00:00Z","name_a2s":"Uncletopia | San Francisco | 4 | Community","protocol":17,"map":"workshop/koth_slaughter_rc1.ugc1712845210","folder":"tf","game":"Team Fortress","app_id":440,"player_count":5,"max_players":24,"Bots":0,"server_type":"Dedicated","server_os":"Linux","password":true,"vac":true,"version":"7742253","steam_id":85568392924742826,"keywords":["cp","nocrits","nodmgspread","uncletopia"],"game_id":440,"stv_port":27046,"stv_name":"Uncletopia | San Francisco | 4 | Community | STV","players":[{"user_id":25,"name":"kontractkiller","steam_id":76561198083199441,"connected_time":687000000000,"state":"active","ping":46},{"user_id":27,"name":"Nufrepus","steam_id":76561198065861093,"connected_time":373000000000,"state":"active","ping":45},{"user_id":28,"name":"SMOKE-N-TOKE-PNW","steam_id":76561198963429554,"connected_time":296000000000,"state":"active","ping":58},{"user_id":29,"name":"I'mHighAFPNW","steam_id":76561198067967924,"connected_time":290000000000,"state":"active","ping":89},{"user_id":30,"name":"thoughtographic","steam_id":76561198123607452,"connected_time":106000000000,"state":"active","ping":102}]},{"server_id":141,"name":"Uncletopia | Sydney | 1 | All Maps","name_short":"syd-1","host":"syd-1.au.uncletopia.com","port":27015,"enabled":true,"region":"au","cc":"au","latitude":-33.865143,"longitude":151.2099,"reserved":0,"last_update":"0001-01-01T00:00:00Z","name_a2s":"Uncletopia | Sydney | 1 | All Maps","protocol":17,"map":"pl_swiftwater_final1","folder":"tf","game":"Team Fortress","app_id":440,"player_count":24,"max_players":24,"Bots":0,"server_type":"Dedicated","server_os":"Linux","password":true,"vac":true,"version":"7742253","steam_id":85568392924470001,"keywords":["nocrits","nodmgspread","payload","uncletopia"],"game_id":440,"stv_port":27016,"stv_name":"Uncletopia | Sydney | 1 | All Maps | STV","players":[{"user_id":234,"name":"♥b a p p o","steam_id":76561198085486146,"connected_time":3607000000000,"state":"active","ping":60},{"user_id":253,"name":"Cockfight","steam_id":76561198160277649,"connected_time":2557000000000,"state":"active","ping":63},{"user_id":236,"name":"Paradon YT","steam_id":76561198060176705,"connected_time":3247000000000,"state":"active","ping":105},{"user_id":291,"name":"Enchanted Cat","steam_id":76561198866538028,"connected_time":760000000000,"state":"active","ping":70},{"user_id":293,"name":"lofty","steam_id":76561198380588357,"connected_time":735000000000,"state":"active","ping":62},{"user_id":254,"name":"PhD in Shoe Shining","steam_id":76561198972095766,"connected_time":2547000000000,"state":"active","ping":36},{"user_id":301,"name":"speed bomb","steam_id":76561198277363788,"connected_time":307000000000,"state":"active","ping":76},{"user_id":160,"name":"Worst Sniper","steam_id":76561198025733081,"connected_time":9978000000000,"state":"active","ping":81},{"user_id":288,"name":"squrrel","steam_id":76561198083429611,"connected_time":768000000000,"state":"active","ping":76},{"user_id":295,"name":"Diming","steam_id":76561198325584599,"connected_time":654000000000,"state":"active","ping":66},{"user_id":306,"name":"Bill Nye","steam_id":76561198312898168,"connected_time":147000000000,"state":"active","ping":70},{"user_id":252,"name":"I suck at everything","steam_id":76561199379145463,"connected_time":2670000000000,"state":"active","ping":58},{"user_id":302,"name":"internetkittenz13","steam_id":76561198881042979,"connected_time":221000000000,"state":"active","ping":75},{"user_id":297,"name":"GIANT CHICKENCOW (Monster)","steam_id":76561198025210343,"connected_time":428000000000,"state":"active","ping":54},{"user_id":267,"name":"cullen","steam_id":76561198128695488,"connected_time":2168000000000,"state":"active","ping":60},{"user_id":173,"name":"KeeperOfBalance","steam_id":76561198028070089,"connected_time":8493000000000,"state":"active","ping":82},{"user_id":300,"name":"ljpaters","steam_id":76561198094354484,"connected_time":319000000000,"state":"active","ping":52},{"user_id":216,"name":"Xstroyer","steam_id":76561199094827289,"connected_time":5032000000000,"state":"active","ping":83},{"user_id":304,"name":"demoman","steam_id":76561199083914239,"connected_time":175000000000,"state":"active","ping":61},{"user_id":305,"name":"ages","steam_id":76561198016686295,"connected_time":175000000000,"state":"active","ping":68},{"user_id":284,"name":"hive","steam_id":76561199099744527,"connected_time":933000000000,"state":"active","ping":46},{"user_id":268,"name":"pooparse","steam_id":76561198217959591,"connected_time":2159000000000,"state":"active","ping":60},{"user_id":261,"name":"zombie doggo","steam_id":76561198124268116,"connected_time":2343000000000,"state":"active","ping":104},{"user_id":287,"name":"hawk","steam_id":76561198135164277,"connected_time":823000000000,"state":"active","ping":55}]},{"server_id":123,"name":"Uncletopia | Sydney | 2 | All Maps","name_short":"syd-2","host":"syd-1.au.uncletopia.com","port":27025,"enabled":true,"region":"au","cc":"au","latitude":-33.865143,"longitude":151.2099,"reserved":0,"last_update":"0001-01-01T00:00:00Z","name_a2s":"Uncletopia | Sydney | 2 | All Maps","protocol":17,"map":"pl_borneo","folder":"tf","game":"Team Fortress","app_id":440,"player_count":0,"max_players":24,"Bots":0,"server_type":"Dedicated","server_os":"Linux","password":true,"vac":true,"version":"7742253","steam_id":85568392924470002,"keywords":["nocrits","nodmgspread","payload","uncletopia"],"game_id":440,"stv_port":27026,"stv_name":"Uncletopia | Sydney | 2 | All Maps | STV","players":null},{"server_id":395,"name":"Uncletopia | Sydney | 3 | All Maps","name_short":"syd-3","host":"syd-1.au.uncletopia.com","port":27035,"enabled":true,"region":"au","cc":"au","latitude":-33.865143,"longitude":151.2099,"reserved":0,"last_update":"0001-01-01T00:00:00Z","name_a2s":"Uncletopia | Sydney | 3 | All Maps","protocol":17,"map":"koth_viaduct","folder":"tf","game":"Team Fortress","app_id":440,"player_count":0,"max_players":24,"Bots":0,"server_type":"Dedicated","server_os":"Linux","password":true,"vac":true,"version":"7742253","steam_id":85568392925194467,"keywords":["cp","nocrits","nodmgspread","uncletopia"],"game_id":440,"stv_port":27036,"stv_name":"Uncletopia | Sydney | 3 | All Maps | STV","players":null},{"server_id":396,"name":"Uncletopia | Sydney | 4 | All Maps","name_short":"syd-4","host":"syd-1.au.uncletopia.com","port":27045,"enabled":true,"region":"au","cc":"au","latitude":-33.865143,"longitude":151.2099,"reserved":0,"last_update":"0001-01-01T00:00:00Z","name_a2s":"Uncletopia | Sydney | 4 | All Maps","protocol":17,"map":"koth_highpass","folder":"tf","game":"Team Fortress","app_id":440,"player_count":0,"max_players":24,"Bots":0,"server_type":"Dedicated","server_os":"Linux","password":true,"vac":true,"version":"7742253","steam_id":85568392925397958,"keywords":["cp","nocrits","nodmgspread","uncletopia"],"game_id":440,"stv_port":27046,"stv_name":"Uncletopia | Sydney | 4 | All Maps | STV","players":null},{"server_id":58,"name":"Uncletopia | Sydney | 5 | Stopwatch Beta","name_short":"syd-5","host":"syd-1.au.uncletopia.com","port":27055,"enabled":true,"region":"au","cc":"au","latitude":-33.865143,"longitude":151.2099,"reserved":0,"last_update":"0001-01-01T00:00:00Z","name_a2s":"Uncletopia | Sydney | 5 | Stopwatch Beta","protocol":17,"map":"koth_lakeside_final","folder":"tf","game":"Team Fortress","app_id":440,"player_count":0,"max_players":24,"Bots":0,"server_type":"Dedicated","server_os":"Linux","password":true,"vac":true,"version":"7742253","steam_id":85568392925397959,"keywords":["cp","nocrits","nodmgspread","uncletopia"],"game_id":440,"stv_port":27056,"stv_name":"Uncletopia | Sydney | 5 | Stopwatch Beta | STV","players":null},{"server_id":59,"name":"Uncletopia | Sydney | 6 | Community","name_short":"syd-6","host":"syd-1.au.uncletopia.com","port":27065,"enabled":true,"region":"au","cc":"au","latitude":-33.865143,"longitude":151.2099,"reserved":0,"last_update":"0001-01-01T00:00:00Z","name_a2s":"Uncletopia | Sydney | 6 | Community","protocol":17,"map":"workshop/cp_reckoner_rc6.ugc674719999","folder":"tf","game":"Team Fortress","app_id":440,"player_count":0,"max_players":24,"Bots":0,"server_type":"Dedicated","server_os":"Linux","password":true,"vac":true,"version":"7742253","steam_id":85568392925397960,"keywords":["cp","nocrits","nodmgspread","uncletopia"],"game_id":440,"stv_port":27066,"stv_name":"Uncletopia | Sydney | 6 | Community | STV","players":null},{"server_id":49,"name":"Uncletopia | Warsaw | 1 | All Maps","name_short":"waw-1","host":"waw-1.pl.uncletopia.com","port":27015,"enabled":true,"region":"eu","cc":"pl","latitude":52.2297,"longitude":21.017532,"reserved":0,"last_update":"0001-01-01T00:00:00Z","name_a2s":"","protocol":0,"map":"","folder":"","game":"","app_id":0,"player_count":0,"max_players":0,"Bots":0,"server_type":"","server_os":"","password":false,"vac":false,"version":"","steam_id":0,"keywords":null,"game_id":0,"stv_port":0,"stv_name":"","players":null},{"server_id":50,"name":"Uncletopia | Warsaw | 2 | All Maps","name_short":"waw-2","host":"waw-1.pl.uncletopia.com","port":27025,"enabled":true,"region":"eu","cc":"pl","latitude":52.2297,"longitude":21.017532,"reserved":0,"last_update":"0001-01-01T00:00:00Z","name_a2s":"Uncletopia | Warsaw | 2 | All Maps","protocol":17,"map":"pl_upward","folder":"tf","game":"Team Fortress","app_id":440,"player_count":0,"max_players":24,"Bots":0,"server_type":"Dedicated","server_os":"Linux","password":true,"vac":true,"version":"7742253","steam_id":85568392925397851,"keywords":["nocrits","nodmgspread","payload","uncletopia"],"game_id":440,"stv_port":27026,"stv_name":"Uncletopia | Warsaw | 2 | All Maps | STV","players":null},{"server_id":51,"name":"Uncletopia | Warsaw | 3 | All Maps","name_short":"waw-3","host":"waw-1.pl.uncletopia.com","port":27035,"enabled":true,"region":"eu","cc":"pl","latitude":52.2297,"longitude":21.017532,"reserved":0,"last_update":"0001-01-01T00:00:00Z","name_a2s":"Uncletopia | Warsaw | 3 | All Maps","protocol":17,"map":"koth_lakeside_final","folder":"tf","game":"Team Fortress","app_id":440,"player_count":0,"max_players":24,"Bots":0,"server_type":"Dedicated","server_os":"Linux","password":true,"vac":true,"version":"7742253","steam_id":85568392925397852,"keywords":["cp","nocrits","nodmgspread","uncletopia"],"game_id":440,"stv_port":27036,"stv_name":"Uncletopia | Warsaw | 3 | All Maps | STV","players":null},{"server_id":52,"name":"Uncletopia | Warsaw | 4 | All Maps","name_short":"waw-4","host":"waw-1.pl.uncletopia.com","port":27045,"enabled":true,"region":"eu","cc":"pl","latitude":52.2297,"longitude":21.017532,"reserved":0,"last_update":"0001-01-01T00:00:00Z","name_a2s":"Uncletopia | Warsaw | 4 | All Maps","protocol":17,"map":"pl_upward","folder":"tf","game":"Team Fortress","app_id":440,"player_count":0,"max_players":24,"Bots":0,"server_type":"Dedicated","server_os":"Linux","password":true,"vac":true,"version":"7742253","steam_id":85568392925397853,"keywords":["nocrits","nodmgspread","payload","uncletopia"],"game_id":440,"stv_port":27046,"stv_name":"Uncletopia | Warsaw | 4 | All Maps | STV","players":null},{"server_id":53,"name":"Uncletopia | Warsaw | 5 | Stopwatch Beta","name_short":"waw-5","host":"waw-1.pl.uncletopia.com","port":27055,"enabled":true,"region":"eu","cc":"pl","latitude":52.2297,"longitude":21.017532,"reserved":0,"last_update":"0001-01-01T00:00:00Z","name_a2s":"Uncletopia | Warsaw | 5 | Stopwatch Beta","protocol":17,"map":"pl_swiftwater_final1","folder":"tf","game":"Team Fortress","app_id":440,"player_count":0,"max_players":24,"Bots":0,"server_type":"Dedicated","server_os":"Linux","password":true,"vac":true,"version":"7742253","steam_id":85568392925397854,"keywords":["nocrits","nodmgspread","payload","uncletopia"],"game_id":440,"stv_port":27056,"stv_name":"Uncletopia | Warsaw | 5 | Stopwatch Beta | STV","players":null},{"server_id":54,"name":"Uncletopia | Warsaw | 6 | Community","name_short":"waw-6","host":"waw-1.pl.uncletopia.com","port":27065,"enabled":true,"region":"eu","cc":"pl","latitude":52.2297,"longitude":21.017532,"reserved":0,"last_update":"0001-01-01T00:00:00Z","name_a2s":"Uncletopia | Warsaw | 6 | Community","protocol":17,"map":"koth_highpass","folder":"tf","game":"Team Fortress","app_id":440,"player_count":0,"max_players":24,"Bots":0,"server_type":"Dedicated","server_os":"Linux","password":true,"vac":true,"version":"7742253","steam_id":85568392925397856,"keywords":["cp","nocrits","nodmgspread","uncletopia"],"game_id":440,"stv_port":27066,"stv_name":"Uncletopia | Warsaw | 6 | Community | STV","players":null}]}