{"status":true,"message":"","result":[{"server_id":9,"name":"Uncletopia | Atlanta | 1 | All Maps","name_short":"atl-1","host":"atl-1.us.uncletopia.com","port":27015,"enabled":true,"region":"us-east","cc":"us","latitude":33.753746,"longitude":-84.38633,"reserved":0,"last_update":"0001-01-01T00:00:00Z","name_a2s":"Uncletopia | Atlanta | 1 | All Maps","protocol":17,"map":"koth_harvest_final","folder":"tf","game":"Team Fortress","app_id":440,"player_count":20,"max_players":24,"Bots":0,"server_type":"Dedicated","server_os":"Linux","password":true,"vac":true,"version":"7742253","steam_id":85568392924469982,"keywords":["cp","nocrits","nodmgspread","uncletopia"],"game_id":440,"stv_port":27016,"stv_name":"Uncletopia | Atlanta | 1 | All Maps | STV","players":[{"user_id":176,"name":"Coup de Grass","steam_id":76561198011643226,"connected_time":4038000000000,"state":"active","ping":77},{"user_id":202,"name":"Vladikr1","steam_id":76561198401495362,"connected_time":1965000000000,"state":"active","ping":78},{"user_id":215,"name":"Sanic_Bum","steam_id":76561198094179822,"connected_time":531000000000,"state":"active","ping":59},{"user_id":213,"name":"arashsmash","steam_id":76561198277649058,"connected_time":566000000000,"state":"active","ping":79},{"user_id":196,"name":"pungabot","steam_id":76561198009088243,"connected_time":2233000000000,"state":"active","ping":75},{"user_id":212,"name":"PROtagonist","steam_id":76561198120631837,"connected_time":779000000000,"state":"active","ping":73},{"user_id":205,"name":"Mad Cow‚Äª","steam_id":76561198132498594,"connected_time":1495000000000,"state":"active","ping":63},{"user_id":225,"name":"Ironfyn","steam_id":76561198256850182,"connected_time":24000000000,"state":"spawning","ping":66},{"user_id":218,"name":"Mr. Electric","steam_id":76561198071962415,"connected_time":392000000000,"state":"active","ping":77},{"user_id":216,"name":"damiankiller1243","steam_id":76561198868885090,"connected_time":461000000000,"state":"active","ping":62},{"user_id":219,"name":"ThatGhastyBoi","steam_id":76561199243666311,"connected_time":384000000000,"state":"active","ping":68},{"user_id":194,"name":"Rockhead","steam_id":76561197995196535,"connected_time":2300000000000,"state":"active","ping":67},{"user_id":130,"name":"--_Cook_--","steam_id":76561198080855748,"connected_time":8463000000000,"state":"active","ping":60},{"user_id":182,"name":"yvngbvshvvookie","steam_id":76561198054354674,"connected_time":3271000000000,"state":"active","ping":60},{"user_id":221,"name":"FairHeadcrab","steam_id":76561197999148535,"connected_time":191000000000,"state":"active","ping":61},{"user_id":222,"name":"Commodore_Perry","steam_id":76561197986675784,"connected_time":187000000000,"state":"active","ping":67},{"user_id":119,"name":"VitaminCDS","steam_id":76561198277799227,"connected_time":8835000000000,"state":"active","ping":64},{"user_id":179,"name":"A Fruit","steam_id":76561198951830050,"connected_time":3701000000000,"state":"active","ping":60},{"user_id":210,"name":"ATL1 | to4st","steam_id":76561198981009008,"connected_time":944000000000,"state":"active","ping":69}]},{"server_id":400,"name":"Uncletopia | Atlanta | 3 | Stopwatch Beta","name_short":"atl-3","host":"atl-1.us.uncletopia.com","port":27035,"enabled":true,"region":"us-east","cc":"us","latitude":33.753746,"longitude":-84.38633,"reserved":0,"last_update":"0001-01-01T00:00:00Z","name_a2s":"Uncletopia | Atlanta | 3 | Stopwatch Beta","protocol":17,"map":"pl_pier","folder":"tf","game":"Team Fortress","app_id":440,"player_count":0,"max_players":24,"Bots":0,"server_type":"Dedicated","server_os":"Linux","password":true,"vac":true,"version":"7742253","steam_id":85568392924515187,"keywords":["nocrits","nodmgspread","payload","uncletopia"],"game_id":440,"stv_port":27036,"stv_name":"Uncletopia | Atlanta | 3 | Stopwatch Beta | STV","players":null},{"server_id":401,"name":"Uncletopia | Atlanta | 4 | No Payload","name_short":"atl-4","host":"atl-1.us.uncletopia.com","port":27045,"enabled":true,"region":"us-east","cc":"us","latitude":33.753746,"longitude":-84.38633,"reserved":0,"last_update":"0001-01-01T00:00:00Z","name_a2s":"Uncletopia | Atlanta | 4 | No Payload","protocol":17,"map":"pl_pier","folder":"tf","game":"Team Fortress","app_id":440,"player_count":0,"max_players":24,"Bots":0,"server_type":"Dedicated","server_os":"Linux","password":true,"vac":true,"version":"7723704","steam_id":85568392924515188,"keywords":["nocrits","nodmgspread","payload","uncletopia"],"game_id":440,"stv_port":27046,"stv_name":"Uncletopia | Atlanta | 4 | No Payload | STV","players":null},{"server_id":2,"name":"Uncletopia | Chicago | 1 | All Maps","name_short":"chi-1","host":"chi-1.us.uncletopia.com","port":27015,"enabled":true,"region":"us-central","cc":"us","latitude":41.881832,"longitude":-87.62318,"reserved":0,"last_update":"0001-01-01T00:00:00Z","name_a2s":"Uncletopia | Chicago | 1 | All Maps","protocol":17,"map":"pl_borneo","folder":"tf","game":"Team Fortress","app_id":440,"player_count":24,"max_players":24,"Bots":0,"server_type":"Dedicated","server_os":"Linux","password":true,"vac":true,"version":"7742253","steam_id":85568392924469984,"keywords":["nocrits","nodmgspread","payload","uncletopia"],"game_id":440,"stv_port":27016,"stv_name":"Uncletopia | Chicago | 1 | All Maps | STV","players":[{"user_id":378,"name":"vividbot","steam_id":76561198158980015,"connected_time":296000000000,"state":"active","ping":99},{"user_id":388,"name":"fice (autumnheals)","steam_id":76561198860361610,"connected_time":45000000000,"state":"active","ping":60},{"user_id":382,"name":"Bean0914","steam_id":76561198261906023,"connected_time":246000000000,"state":"active","ping":86},{"user_id":363,"name":"Creepcrafter567","steam_id":76561199096948585,"connected_time":1408000000000,"state":"active","ping":80},{"user_id":307,"name":"Walkiing","steam_id":76561198074473413,"connected_time":3857000000000,"state":"active","ping":46},{"user_id":335,"name":"Stick","steam_id":76561198001509374,"connected_time":2964000000000,"state":"active","ping":72},{"user_id":360,"name":"quacks","steam_id":76561198077934343,"connected_time":1466000000000,"state":"active","ping":72},{"user_id":371,"name":"guy","steam_id":76561198196443262,"connected_time":542000000000,"state":"active","ping":117},{"user_id":379,"name":"supcupman","steam_id":76561198051513866,"connected_time":281000000000,"state":"active","ping":103},{"user_id":366,"name":"GUACANO","steam_id":76561198797828475,"connected_time":1358000000000,"state":"active","ping":95},{"user_id":374,"name":"Gordan Timlothle","steam_id":76561198272013678,"connected_time":482000000000,"state":"active","ping":68},{"user_id":383,"name":"Moizturized","steam_id":76561198873850038,"connected_time":242000000000,"state":"active","ping":89},{"user_id":315,"name":"debin","steam_id":76561198070711217,"connected_time":3618000000000,"state":"active","ping":55},{"user_id":353,"name":"Lunartik","steam_id":76561199004827382,"connected_time":2352000000000,"state":"active","ping":63},{"user_id":381,"name":"pooblygonzooly2012","steam_id":76561198982054880,"connected_time":266000000000,"state":"active","ping":106},{"user_id":338,"name":"LukeBeMe","steam_id":76561198872468968,"connected_time":2956000000000,"state":"active","ping":87},{"user_id":324,"name":"Ye ( I Love Caulk ) West","steam_id":76561198068830312,"connected_time":3488000000000,"state":"active","ping":45},{"user_id":387,"name":"Zack","steam_id":76561197993329752,"connected_time":81000000000,"state":"active","ping":61},{"user_id":385,"name":"Socialism Doesn't Work","steam_id":76561198044115698,"connected_time":222000000000,"state":"active","ping":74},{"user_id":365,"name":"TheMeatlyShaymin","steam_id":76561199078945620,"connected_time":1379000000000,"state":"active","ping":60},{"user_id":357,"name":"TallBit","steam_id":76561199059748976,"connected_time":1805000000000,"state":"active","ping":57},{"user_id":386,"name":"te","steam_id":76561198131245396,"connected_time":220000000000,"state":"active","ping":82},{"user_id":355,"name":"Rornir","steam_id":76561198081829615,"connected_time":2140000000000,"state":"active","ping":42},{"user_id":367,"name":"mercutio","steam_id":76561198203005793,"connected_time":1077000000000,"state":"active","ping":78}]},{"server_id":106,"name":"Uncletopia | Chicago | 2 | All Maps","name_short":"chi-2","host":"chi-1.us.uncletopia.com","port":27025,"enabled":true,"region":"us-central","cc":"us","latitude":41.881832,"longitude":-87.62318,"reserved":0,"last_update":"0001-01-01T00:00:00Z","name_a2s":"Uncletopia | Chicago | 2 | All Maps","protocol":17,"map":"koth_suijin","folder":"tf","game":"Team Fortress","app_id":440,"player_count":1,"max_players":24,"Bots":0,"server_type":"Dedicated","server_os":"Linux","password":true,"vac":true,"version":"7742253","steam_id":85568392924469985,"keywords":["cp","nocrits","nodmgspread","uncletopia"],"game_id":440,"stv_port":27026,"stv_name":"Uncletopia | Chicago | 2 | All Maps | STV","players":[{"user_id":284,"name":"CLG TaRiK","steam_id":76561198839880487,"connected_time":1000000000,"state":"connecting","ping":0}]},{"server_id":402,"name":"Uncletopia | Chicago | 3 | All Maps","name_short":"chi-3","host":"chi-1.us.uncletopia.com","port":27035,"enabled":true,"region":"us-central","cc":"us","latitude":41.881832,"longitude":-87.62318,"reserved":0,"last_update":"0001-01-01T00:00:00Z","name_a2s":"Uncletopia | Chicago | 3 | All Maps","protocol":17,"map":"pl_badwater","folder":"tf","game":"Team Fortress","app_id":440,"player_count":24,"max_players":24,"Bots":0,"server_type":"Dedicated","server_os":"Linux","password":true,"vac":true,"version":"7742253","steam_id":85568392924515191,"keywords":["nocrits","nodmgspread","payload","uncletopia"],"game_id":440,"stv_port":27036,"stv_name":"Uncletopia | Chicago | 3 | All Maps | STV","players":[{"user_id":105,"name":"BurnN8or101","steam_id":76561198132668224,"connected_time":1424000000000,"state":"active","ping":64},{"user_id":68,"name":"tooth","steam_id":76561197986437643,"connected_time":3806000000000,"state":"active","ping":64},{"user_id":112,"name":"caption cool","steam_id":76561197990612056,"connected_time":889000000000,"state":"active","ping":54},{"user_id":75,"name":"delusional schizophrenic","steam_id":76561198323435040,"connected_time":3545000000000,"state":"active","ping":51},{"user_id":100,"name":"About That Beer I Owed Ya","steam_id":76561198071506287,"connected_time":1694000000000,"state":"active","ping":90},{"user_id":88,"name":"Julia","steam_id":76561198175727790,"connected_time":2469000000000,"state":"active","ping":101},{"user_id":118,"name":"Tripp","steam_id":76561198411779080,"connected_time":301000000000,"state":"active","ping":65},{"user_id":117,"name":"PrinceGrotle","steam_id":76561198206131603,"connected_time":369000000000,"state":"active","ping":72},{"user_id":113,"name":"Cassini","steam_id":76561198318526294,"connected_time":824000000000,"state":"active","ping":69},{"user_id":64,"name":"[slug]","steam_id":76561197989592178,"connected_time":3820000000000,"state":"active","ping":49},{"user_id":90,"name":"sammy","steam_id":76561199001307670,"connected_time":2309000000000,"state":"active","ping":108},{"user_id":115,"name":"A Small Burb","steam_id":76561199128915018,"connected_time":622000000000,"state":"active","ping":58},{"user_id":29,"name":"Fudgely","steam_id":76561198039425862,"connected_time":6638000000000,"state":"active","ping":68},{"user_id":106,"name":"Critscare","steam_id":76561198087712508,"connected_time":1411000000000,"state":"active","ping":45},{"user_id":96,"name":"ko","steam_id":76561199011185438,"connected_time":2013000000000,"state":"active","ping":47},{"user_id":98,"name":"Bread Baker","steam_id":76561198185335103,"connected_time":1718000000000,"state":"active","ping":57},{"user_id":119,"name":"Faker","steam_id":76561198849783081,"connected_time":216000000000,"state":"active","ping":66},{"user_id":122,"name":"sansa musa","steam_id":76561198163723555,"connected_time":6000000000,"state":"spawning","ping":241},{"user_id":109,"name":"vinny6","steam_id":76561198386735728,"connected_time":1376000000000,"state":"active","ping":63},{"user_id":85,"name":"crumbles","steam_id":76561198168707036,"connected_time":2542000000000,"state":"active","ping":97},{"user_id":120,"name":"Jerry","steam_id":76561198851602451,"connected_time":182000000000,"state":"active","ping":40},{"user_id":121,"name":"chad","steam_id":76561198216109017,"connected_time":148000000000,"state":"active","ping":68},{"user_id":39,"name":"Totouri","steam_id":76561198004229789,"connected_time":6459000000000,"state":"active","ping":60},{"user_id":86,"name":"JetZ","steam_id":76561199122488957,"connected_time":2532000000000,"state":"active","ping":61}]},{"server_id":403,"name":"Uncletopia | Chicago | 4 | All Maps","name_short":"chi-4","host":"chi-1.us.uncletopia.com","port":27045,"enabled":true,"region":"us-central","cc":"us","latitude":41.881832,"longitude":-87.62318,"reserved":0,"last_update":"0001-01-01T00:00:00Z","name_a2s":"Uncletopia | Chicago | 4 | All Maps","protocol":17,"map":"ctf_2fort","folder":"tf","game":"Team Fortress","app_id":440,"player_count":9,"max_players":24,"Bots":0,"server_type":"Dedicated","server_os":"Linux","password":true,"vac":true,"version":"7742253","steam_id":85568392924515193,"keywords":["ctf","nocrits","nodmgspread","uncletopia"],"game_id":440,"stv_port":27046,"stv_name":"Uncletopia | Chicago | 4 | All Maps | STV","players":[{"user_id":16,"name":"Stop Tryharding :(","steam_id":76561199130074444,"connected_time":2472000000000,"state":"active","ping":72},{"user_id":33,"name":"Luingar","steam_id":76561198008543248,"connected_time":192000000000,"state":"active","ping":64},{"user_id":18,"name":"JamesR","steam_id":76561199436941161,"connected_time":2455000000000,"state":"active","ping":67},{"user_id":19,"name":"Chickenwing","steam_id":76561199347103141,"connected_time":2450000000000,"state":"active","ping":63},{"user_id":21,"name":"TEXAN DREAM","steam_id":76561198119067958,"connected_time":2178000000000,"state":"active","ping":81},{"user_id":32,"name":"Boot Mcstink","steam_id":76561199226873917,"connected_time":380000000000,"state":"active","ping":94},{"user_id":28,"name":"catboy festive edition","steam_id":76561198067881981,"connected_time":841000000000,"state":"active","ping":56},{"user_id":34,"name":"Ze' Skipper","steam_id":76561199098330729,"connected_time":64000000000,"state":"active","ping":75},{"user_id":35,"name":"UWBW","steam_id":76561198007524241,"connected_time":43000000000,"state":"active","ping":58}]},{"server_id":36,"name":"Uncletopia | Chicago | 5 | All Maps","name_short":"chi-5","host":"chi-2.us.uncletopia.com","port":27015,"enabled":true,"region":"us-central","cc":"us","latitude":41.881832,"longitude":-87.62318,"reserved":0,"last_update":"0001-01-01T00:00:00Z","name_a2s":"Uncletopia | Chicago | 5 | All Maps","protocol":17,"map":"cp_dustbowl","folder":"tf","game":"Team Fortress","app_id":440,"player_count":24,"max_players":24,"Bots":0,"server_type":"Dedicated","server_os":"Linux","password":true,"vac":true,"version":"7742253","steam_id":85568392924866362,"keywords":["cp","nocrits","nodmgspread","uncletopia"],"game_id":440,"stv_port":27016,"stv_name":"Uncletopia | Chicago | 5 | All Maps | STV","players":[{"user_id":223,"name":"KaleidoscopeOk7981","steam_id":76561198110449520,"connected_time":2095000000000,"state":"active","ping":86},{"user_id":258,"name":"Malac","steam_id":76561198004482629,"connected_time":120000000000,"state":"active","ping":62},{"user_id":260,"name":"Machina Gayming","steam_id":76561198171026678,"connected_time":73000000000,"state":"active","ping":45},{"user_id":226,"name":"Mikael_01","steam_id":76561199080253129,"connected_time":1983000000000,"state":"active","ping":172},{"user_id":244,"name":"Polpetta777","steam_id":76561198044331477,"connected_time":1041000000000,"state":"active","ping":56},{"user_id":243,"name":"maS","steam_id":76561198033846407,"connected_time":1087000000000,"state":"active","ping":44},{"user_id":259,"name":"Obamacare","steam_id":76561198018894553,"connected_time":90000000000,"state":"active","ping":93},{"user_id":197,"name":"b2023afy","steam_id":76561198084208649,"connected_time":3502000000000,"state":"active","ping":90},{"user_id":220,"name":"TheHarmacist","steam_id":76561198068249096,"connected_time":2230000000000,"state":"active","ping":44},{"user_id":238,"name":"judesro","steam_id":76561198352244888,"connected_time":1614000000000,"state":"active","ping":60},{"user_id":231,"name":"FellowCum","steam_id":76561198809618726,"connected_time":1706000000000,"state":"active","ping":108},{"user_id":235,"name":"SwingDickerson","steam_id":76561198045542926,"connected_time":1630000000000,"state":"active","ping":79},{"user_id":232,"name":"oopsboom24","steam_id":76561199105248648,"connected_time":1671000000000,"state":"active","ping":87},{"user_id":233,"name":"lag","steam_id":76561197963872739,"connected_time":1660000000000,"state":"active","ping":91},{"user_id":203,"name":"Red_Hatkins","steam_id":76561198214004105,"connected_time":3251000000000,"state":"active","ping":90},{"user_id":256,"name":"trans Scott The Woz","steam_id":76561199246002253,"connected_time":318000000000,"state":"active","ping":72},{"user_id":255,"name":"1 Great Wooden Dad","steam_id":76561198377126974,"connected_time":395000000000,"state":"active","ping":63},{"user_id":213,"name":"franzO","steam_id":76561198797910039,"connected_time":2815000000000,"state":"active","ping":76},{"user_id":206,"name":"idiot normie","steam_id":76561198397662124,"connected_time":2945000000000,"state":"active","ping":70},{"user_id":254,"name":"Cato Sicarius","steam_id":76561198185598330,"connected_time":452000000000,"state":"active","ping":65},{"user_id":252,"name":"griff928","steam_id":76561198149614679,"connected_time":534000000000,"state":"active","ping":74},{"user_id":236,"name":"CZS (abbreviation)","steam_id":76561199020233296,"connected_time":1629000000000,"state":"active","ping":89},{"user_id":261,"name":"RickDaglessMD","steam_id":76561197985875169,"connected_time":60000000000,"state":"active","ping":93},{"user_id":248,"name":"ayr","steam_id":76561198083640961,"connected_time":802000000000,"state":"active","ping":73}]},{"server_id":37,"name":"Uncletopia | Chicago | 6 | All Maps","name_short":"chi-6","host":"chi-2.us.uncletopia.com","port":27025,"enabled":true,"region":"us-central","cc":"us","latitude":41.881832,"longitude":-87.62318,"reserved":0,"last_update":"0001-01-01T00:00:00Z","name_a2s":"Uncletopia | Chicago | 6 | All Maps","protocol":17,"map":"pl_upward","folder":"tf","game":"Team Fortress","app_id":440,"player_count":20,"max_players":24,"Bots":0,"server_type":"Dedicated","server_os":"Linux","password":true,"vac":true,"version":"7742253","steam_id":85568392924866363,"keywords":["nocrits","nodmgspread","payload","uncletopia"],"game_id":440,"stv_port":27026,"stv_name":"Uncletopia | Chicago | 6 | All Maps | STV","players":[{"user_id":40,"name":"StarB","steam_id":76561198149605368,"connected_time":2496000000000,"state":"active","ping":85},{"user_id":72,"name":"Scorpie Doodle","steam_id":76561198021845763,"connected_time":27000000000,"state":"active","ping":52},{"user_id":70,"name":"Soldier Impact","steam_id":76561198157004224,"connected_time":169000000000,"state":"active","ping":59},{"user_id":57,"name":"boofgall319","steam_id":76561199122095813,"connected_time":1059000000000,"state":"active","ping":105},{"user_id":59,"name":"RelatableiLLness","steam_id":76561198441669772,"connected_time":1045000000000,"state":"active","ping":87},{"user_id":62,"name":"SewerNinja","steam_id":76561198015268145,"connected_time":944000000000,"state":"active","ping":80},{"user_id":55,"name":"mxtry599","steam_id":76561199278383267,"connected_time":1309000000000,"state":"active","ping":79},{"user_id":56,"name":"sleepy","steam_id":76561198450003554,"connected_time":1123000000000,"state":"active","ping":62},{"user_id":60,"name":"YOU","steam_id":76561198068538473,"connected_time":1035000000000,"state":"active","ping":76},{"user_id":29,"name":"Bully McGuire","steam_id":76561198084230569,"connected_time":2786000000000,"state":"active","ping":51},{"user_id":31,"name":"XFLR5 Direct Foil Analysis","steam_id":76561198072885599,"connected_time":2765000000000,"state":"active","ping":47},{"user_id":47,"name":"The Muffin Man","steam_id":76561199088286427,"connected_time":2081000000000,"state":"active","ping":89},{"user_id":61,"name":"Fluffeline","steam_id":76561198352909489,"connected_time":1018000000000,"state":"active","ping":141},{"user_id":66,"name":"purple","steam_id":76561198239286750,"connected_time":631000000000,"state":"active","ping":72},{"user_id":35,"name":"IPlayGamez","steam_id":76561198041387508,"connected_time":2629000000000,"state":"active","ping":61},{"user_id":36,"name":"Pete","steam_id":76561198044797506,"connected_time":2593000000000,"state":"active","ping":74},{"user_id":64,"name":"srv","steam_id":76561198026589960,"connected_time":785000000000,"state":"active","ping":46},{"user_id":53,"name":"creeeeeee","steam_id":76561198392539722,"connected_time":1751000000000,"state":"active","ping":84},{"user_id":39,"name":"Big Rat","steam_id":76561198065249262,"connected_time":2573000000000,"state":"active","ping":66},{"user_id":71,"name":"Refurbished Condom","steam_id":76561198060342804,"connected_time":169000000000,"state":"active","ping":69}]},{"server_id":38,"name":"Uncletopia | Chicago | 7 | Stopwatch Beta","name_short":"chi-7","host":"chi-2.us.uncletopia.com","port":27035,"enabled":true,"region":"us-central","cc":"us","latitude":41.881832,"longitude":-87.62318,"reserved":0,"last_update":"0001-01-01T00:00:00Z","name_a2s":"Uncletopia | Chicago | 7 | Stopwatch Beta","protocol":17,"map":"koth_lakeside_final","folder":"tf","game":"Team Fortress","app_id":440,"player_count":0,"max_players":24,"Bots":0,"server_type":"Dedicated","server_os":"Linux","password":true,"vac":true,"version":"7742253","steam_id":85568392924866364,"keywords":["cp","nocrits","nodmgspread","uncletopia"],"game_id":440,"stv_port":27036,"stv_name":"Uncletopia | Chicago | 7 | Stopwatch Beta | STV","players":null},{"server_id":39,"name":"Uncletopia | Chicago | 8 | Community","name_short":"chi-8","host":"chi-2.us.uncletopia.com","port":27045,"enabled":true,"region":"us-central","cc":"us","latitude":41.881832,"longitude":-87.62318,"reserved":0,"last_update":"0001-01-01T00:00:00Z","name_a2s":"Uncletopia | Chicago | 8 | Community","protocol":17,"map":"koth_lakeside_final","folder":"tf","game":"Team Fortress","app_id":440,"player_count":0,"max_players":24,"Bots":0,"server_type":"Dedicated","server_os":"Linux","password":true,"vac":true,"version":"7742253","steam_id":85568392924866365,"keywords":["cp","nocrits","nodmgspread","uncletopia"],"game_id":440,"stv_port":27046,"stv_name":"Uncletopia | Chicago | 8 | Community | STV","players":null},{"server_id":8,"name":"Uncletopia | Dallas | 1 | All Maps","name_short":"dal-1","host":"dal-1.us.uncletopia.com","port":27015,"enabled":true,"region":"us-central","cc":"us","latitude":32.779167,"longitude":-96.80889,"reserved":0,"last_update":"0001-01-01T00:00:00Z","name_a2s":"Uncletopia | Dallas | 1 | All Maps","protocol":17,"map":"cp_process_final","folder":"tf","game":"Team Fortress","app_id":440,"player_count":0,"max_players":24,"Bots":0,"server_type":"Dedicated","server_os":"Linux","password":true,"vac":true,"version":"7742253","steam_id":85568392924469986,"keywords":["cp","nocrits","nodmgspread","uncletopia"],"game_id":440,"stv_port":27016,"stv_name":"Uncletopia | Dallas | 1 | All Maps | STV","players":null},{"server_id":108,"name":"Uncletopia | Dallas | 2 | All Maps","name_short":"dal-2","host":"dal-1.us.uncletopia.com","port":27025,"enabled":true,"region":"us-central","cc":"us","latitude":32.779167,"longitude":-96.80889,"reserved":0,"last_update":"0001-01-01T00:00:00Z","name_a2s":"Uncletopia | Dallas | 2 | All Maps","protocol":17,"map":"pl_badwater","folder":"tf","game":"Team Fortress","app_id":440,"player_count":22,"max_players":24,"Bots":0,"server_type":"Dedicated","server_os":"Linux","password":true,"vac":true,"version":"7742253","steam_id":85568392924469988,"keywords":["nocrits","nodmgspread","payload","uncletopia"],"game_id":440,"stv_port":27026,"stv_name":"Uncletopia | Dallas | 2 | All Maps | STV","players":[{"user_id":73,"name":"KageNeeks","steam_id":76561198120450945,"connected_time":4248000000000,"state":"active","ping":64},{"user_id":122,"name":"Funee","steam_id":76561198041048289,"connected_time":60000000000,"state":"active","ping":76},{"user_id":34,"name":"ccat","steam_id":76561198281773224,"connected_time":6449000000000,"state":"active","ping":100},{"user_id":87,"name":"Len","steam_id":76561199141913673,"connected_time":2335000000000,"state":"active","ping":67},{"user_id":116,"name":"WhoIsFrosty","steam_id":76561198880588117,"connected_time":407000000000,"state":"active","ping":81},{"user_id":79,"name":"TacoTurtle","steam_id":76561198320155516,"connected_time":3315000000000,"state":"active","ping":49},{"user_id":43,"name":"Maywolf","steam_id":76561199047166336,"connected_time":5658000000000,"state":"active","ping":91},{"user_id":103,"name":"Scum Knight","steam_id":76561198282444763,"connected_time":1069000000000,"state":"active","ping":83},{"user_id":117,"name":"Starfruit66","steam_id":76561198069917277,"connected_time":235000000000,"state":"active","ping":74},{"user_id":123,"name":"GONE GRUSTLIN","steam_id":76561198209881263,"connected_time":57000000000,"state":"active","ping":124},{"user_id":124,"name":"HanakoToast","steam_id":76561198045233131,"connected_time":54000000000,"state":"active","ping":76},{"user_id":119,"name":"Transbian mommy GF","steam_id":76561198153233822,"connected_time":170000000000,"state":"active","ping":118},{"user_id":96,"name":"BrightOrangeMango","steam_id":76561198023144607,"connected_time":1489000000000,"state":"active","ping":74},{"user_id":120,"name":"giveit5","steam_id":76561198030815437,"connected_time":170000000000,"state":"active","ping":63},{"user_id":102,"name":"HeroOfTime","steam_id":76561199096218001,"connected_time":1156000000000,"state":"active","ping":80},{"user_id":66,"name":"BlazeHX","steam_id":76561198827408017,"connected_time":4874000000000,"state":"active","ping":91},{"user_id":107,"name":"Chap","steam_id":76561198294226443,"connected_time":1029000000000,"state":"active","ping":88},{"user_id":101,"name":"E","steam_id":76561198238236044,"connected_time":1218000000000,"state":"active","ping":55},{"user_id":112,"name":"All 24 Pok√©mon movies at once","steam_id":76561198164738311,"connected_time":647000000000,"state":"active","ping":89},{"user_id":109,"name":"SliFox115","steam_id":76561198006657143,"connected_time":1003000000000,"state":"active","ping":66},{"user_id":85,"name":"Riff","steam_id":76561198066921423,"connected_time":2552000000000,"state":"active","ping":59},{"user_id":115,"name":"Vestuvian","steam_id":76561199007823355,"connected_time":456000000000,"state":"active","ping":73}]},{"server_id":5,"name":"Uncletopia | Frankfurt | 1 | All Maps","name_short":"frk-1","host":"frk-1.de.uncletopia.com","port":27015,"enabled":true,"region":"eu","cc":"de","latitude":50.110924,"longitude":8.682127,"reserved":0,"last_update":"0001-01-01T00:00:00Z","name_a2s":"Uncletopia | Frankfurt | 1 | All Maps","protocol":17,"map":"cp_process_final","folder":"tf","game":"Team Fortress","app_id":440,"player_count":24,"max_players":24,"Bots":0,"server_type":"Dedicated","server_os":"Linux","password":true,"vac":true,"version":"7742253","steam_id":85568392924469989,"keywords":["cp","nocrits","nodmgspread","uncletopia"],"game_id":440,"stv_port":27016,"stv_name":"Uncletopia | Frankfurt | 1 | All Maps | STV","players":[{"user_id":681,"name":"Major Tom","steam_id":76561198117525443,"connected_time":584000000000,"state":"active","ping":48},{"user_id":673,"name":"Femboypawnguy","steam_id":76561198274894771,"connected_time":1041000000000,"state":"active","ping":48},{"user_id":674,"name":"Cock thief","steam_id":76561199213400234,"connected_time":1032000000000,"state":"active","ping":84},{"user_id":672,"name":"Monsteh","steam_id":76561198325898181,"connected_time":1084000000000,"state":"active","ping":70},{"user_id":676,"name":"boglin","steam_id":76561198101977091,"connected_time":925000000000,"state":"active","ping":95},{"user_id":659,"name":"Ôº≤ ÔºØ Ôº¢ Ôº¢ Ôº• Ôº≤ Ôº¥","steam_id":76561198134404830,"connected_time":1543000000000,"state":"active","ping":123},{"user_id":663,"name":"GAMEler","steam_id":76561198121624163,"connected_time":1431000000000,"state":"active","ping":66},{"user_id":656,"name":"mohemmedmokhter2005","steam_id":76561199197650506,"connected_time":1641000000000,"state":"active","ping":108},{"user_id":660,"name":"THE CUM MAN","steam_id":76561198211031435,"connected_time":1506000000000,"state":"active","ping":67},{"user_id":661,"name":"schmick","steam_id":76561198039537958,"connected_time":1455000000000,"state":"active","ping":68},{"user_id":665,"name":"Rz!","steam_id":76561198364380889,"connected_time":1326000000000,"state":"active","ping":131},{"user_id":642,"name":"Sch","steam_id":76561198071341689,"connected_time":3063000000000,"state":"active","ping":77},{"user_id":666,"name":"ROB","steam_id":76561198982164150,"connected_time":1325000000000,"state":"active","ping":72},{"user_id":622,"name":"LetMeTie","steam_id":76561198194923081,"connected_time":4086000000000,"state":"active","ping":80},{"user_id":628,"name":"2023 = year of the gamer","steam_id":76561198032359132,"connected_time":3821000000000,"state":"active","ping":60},{"user_id":667,"name":"elmstJP ‚Ç™ F4.exe","steam_id":76561197997909480,"connected_time":1310000000000,"state":"active","ping":75},{"user_id":679,"name":"KFD","steam_id":76561198157183003,"connected_time":646000000000,"state":"active","ping":77},{"user_id":678,"name":"freemantel30","steam_id":76561198065669800,"connected_time":861000000000,"state":"active","ping":51},{"user_id":623,"name":"Polaris","steam_id":76561198007076931,"connected_time":4039000000000,"state":"active","ping":64},{"user_id":669,"name":"The Ass Beast","steam_id":76561198042774930,"connected_time":1301000000000,"state":"active","ping":80},{"user_id":677,"name":"lyudmilakh","steam_id":76561198362779878,"connected_time":916000000000,"state":"active","ping":81},{"user_id":648,"name":"Martial Autist","steam_id":76561198392067162,"connected_time":2801000000000,"state":"active","ping":61},{"user_id":671,"name":"Lahna","steam_id":76561198064898117,"connected_time":1244000000000,"state":"active","ping":90},{"user_id":630,"name":"DaNick","steam_id":76561198074227634,"connected_time":3780000000000,"state":"active","ping":75}]},{"server_id":110,"name":"Uncletopia | Frankfurt | 2 | All Maps","name_short":"frk-2","host":"frk-1.de.uncletopia.com","port":27025,"enabled":true,"region":"eu","cc":"de","latitude":50.110924,"longitude":8.682127,"reserved":0,"last_update":"0001-01-01T00:00:00Z","name_a2s":"Uncletopia | Frankfurt | 2 | All Maps","protocol":17,"map":"pl_frontier_final","folder":"tf","game":"Team Fortress","app_id":440,"player_count":24,"max_players":24,"Bots":0,"server_type":"Dedicated","server_os":"Linux","password":true,"vac":true,"version":"7742253","steam_id":85568392924469990,"keywords":["nocrits","nodmgspread","payload","uncletopia"],"game_id":440,"stv_port":27026,"stv_name":"Uncletopia | Frankfurt | 2 | All Maps | STV","players":[{"user_id":377,"name":"player","steam_id":76561198054474684,"connected_time":3273000000000,"state":"active","ping":71},{"user_id":402,"name":"Fexo","steam_id":76561197991649243,"connected_time":1884000000000,"state":"active","ping":48},{"user_id":366,"name":"Jonathan","steam_id":76561198087988880,"connected_time":4390000000000,"state":"active","ping":52},{"user_id":415,"name":"MSPaintbrush","steam_id":76561198119987705,"connected_time":634000000000,"state":"active","ping":54},{"user_id":387,"name":"X-tis","steam_id":76561198043837480,"connected_time":2947000000000,"state":"active","ping":73},{"user_id":405,"name":"Cerberus","steam_id":76561198140442059,"connected_time":1826000000000,"state":"active","ping":45},{"user_id":408,"name":"r06u3","steam_id":76561198254099253,"connected_time":1583000000000,"state":"active","ping":178},{"user_id":411,"name":"Elon Ma cs.deals","steam_id":76561199018053264,"connected_time":789000000000,"state":"active","ping":65},{"user_id":401,"name":"Lessoz","steam_id":76561199211572036,"connected_time":1900000000000,"state":"active","ping":94},{"user_id":426,"name":"Hetmanych","steam_id":76561198870926865,"connected_time":403000000000,"state":"active","ping":50},{"user_id":368,"name":"Fat Pigeon","steam_id":76561198817940142,"connected_time":4265000000000,"state":"active","ping":59},{"user_id":407,"name":"Slimeby","steam_id":76561198353438688,"connected_time":1715000000000,"state":"active","ping":78},{"user_id":345,"name":"SODA!!!!!!!","steam_id":76561198107362485,"connected_time":5553000000000,"state":"active","ping":72},{"user_id":413,"name":"Lukas","steam_id":76561198009118452,"connected_time":723000000000,"state":"active","ping":57},{"user_id":333,"name":"citronous","steam_id":76561198093290934,"connected_time":5818000000000,"state":"active","ping":55},{"user_id":328,"name":"F","steam_id":76561199149462792,"connected_time":6646000000000,"state":"active","ping":56},{"user_id":433,"name":"ShawnDawn2","steam_id":76561198165013522,"connected_time":284000000000,"state":"active","ping":47},{"user_id":398,"name":"AXCHNEER","steam_id":76561199191779431,"connected_time":2440000000000,"state":"active","ping":87},{"user_id":414,"name":"snsmac","steam_id":76561198082821185,"connected_time":709000000000,"state":"active","ping":48},{"user_id":409,"name":"Rex","steam_id":76561199032874487,"connected_time":1570000000000,"state":"active","ping":51},{"user_id":391,"name":"Braderzzz009","steam_id":76561198815895618,"connected_time":2786000000000,"state":"active","ping":74},{"user_id":410,"name":"Getrkod","steam_id":76561198986560793,"connected_time":1569000000000,"state":"active","ping":66},{"user_id":385,"name":"baro.ricky","steam_id":76561198172204039,"connected_time":3198000000000,"state":"active","ping":62},{"user_id":418,"name":"SODA ü•§‚ÄºüòÖüòÅü•∂","steam_id":76561198864375604,"connected_time":622000000000,"state":"active","ping":66}]},{"server_id":308,"name":"Uncletopia | Frankfurt | 3 | All Maps","name_short":"frk-3","host":"frk-1.de.uncletopia.com","port":27035,"enabled":true,"region":"eu","cc":"de","latitude":50.110924,"longitude":8.682127,"reserved":0,"last_update":"0001-01-01T00:00:00Z","name_a2s":"Uncletopia | Frankfurt | 3 | All Maps","protocol":17,"map":"koth_highpass","folder":"tf","game":"Team Fortress","app_id":440,"player_count":24,"max_players":24,"Bots":0,"server_type":"Dedicated","server_os":"Linux","password":true,"vac":true,"version":"7742253","steam_id":85568392924504274,"keywords":["cp","nocrits","nodmgspread","uncletopia"],"game_id":440,"stv_port":27036,"stv_name":"Uncletopia | Frankfurt | 3 | All Maps | STV","players":[{"user_id":172,"name":"jge","steam_id":76561198123186387,"connected_time":1166000000000,"state":"active","ping":58},{"user_id":166,"name":"Gyro Zeppeli","steam_id":76561198081369150,"connected_time":1497000000000,"state":"active","ping":98},{"user_id":189,"name":"Landsknecht","steam_id":76561199293036742,"connected_time":612000000000,"state":"active","ping":46},{"user_id":168,"name":"Louki","steam_id":76561198150080041,"connected_time":1403000000000,"state":"active","ping":54},{"user_id":89,"name":"Espa√±aa","steam_id":76561198879587832,"connected_time":7008000000000,"state":"active","ping":79},{"user_id":199,"name":"kunkzero","steam_id":76561198318026565,"connected_time":231000000000,"state":"active","ping":116},{"user_id":169,"name":"the rizzler","steam_id":76561198070664114,"connected_time":1296000000000,"state":"active","ping":60},{"user_id":193,"name":"mattis","steam_id":76561198350120999,"connected_time":355000000000,"state":"active","ping":45},{"user_id":200,"name":"RY4NX15X","steam_id":76561199065561979,"connected_time":162000000000,"state":"active","ping":60},{"user_id":162,"name":"_3tHeR_","steam_id":76561199109870743,"connected_time":2166000000000,"state":"active","ping":68},{"user_id":194,"name":"Lopata","steam_id":76561198820264239,"connected_time":345000000000,"state":"active","ping":82},{"user_id":185,"name":"Loading...","steam_id":76561198441894694,"connected_time":840000000000,"state":"active","ping":66},{"user_id":190,"name":"any√°d","steam_id":76561198415760236,"connected_time":611000000000,"state":"active","ping":81},{"user_id":195,"name":"turbogamer2","steam_id":76561198054980761,"connected_time":332000000000,"state":"active","ping":68},{"user_id":196,"name":"Great Teacher Onizuka","steam_id":76561198808819694,"connected_time":324000000000,"state":"active","ping":43},{"user_id":191,"name":"Incomprehensible","steam_id":76561198305808645,"connected_time":537000000000,"state":"active","ping":66},{"user_id":180,"name":"The Trolldier Grind","steam_id":76561199083882039,"connected_time":1019000000000,"state":"active","ping":58},{"user_id":177,"name":"mmlock","steam_id":76561198069516191,"connected_time":1115000000000,"state":"active","ping":124},{"user_id":163,"name":"K1nG","steam_id":76561198130134788,"connected_time":2136000000000,"state":"active","ping":53},{"user_id":203,"name":"Trydy","steam_id":76561198045322489,"connected_time":45000000000,"state":"active","ping":72},{"user_id":201,"name":"Cippo95","steam_id":76561198255311582,"connected_time":158000000000,"state":"active","ping":61},{"user_id":187,"name":":)","steam_id":76561197962131898,"connected_time":743000000000,"state":"active","ping":71},{"user_id":197,"name":"oba","steam_id":76561199154332423,"connected_time":290000000000,"state":"active","ping":76},{"user_id":198,"name":"DSL","steam_id":76561198186770547,"connected_time":287000000000,"state":"active","ping":92}]},{"server_id":309,"name":"Uncletopia | Frankfurt | 4 | All Maps","name_short":"frk-4","host":"frk-1.de.uncletopia.com","port":27045,"enabled":true,"region":"eu","cc":"de","latitude":50.110924,"longitude":8.682127,"reserved":0,"last_update":"0001-01-01T00:00:00Z","name_a2s":"Uncletopia | Frankfurt | 4 | All Maps","protocol":17,"map":"pl_frontier_final","folder":"tf","game":"Team Fortress","app_id":440,"player_count":24,"max_players":24,"Bots":0,"server_type":"Dedicated","server_os":"Linux","password":true,"vac":true,"version":"7742253","steam_id":85568392924504275,"keywords":["nocrits","nodmgspread","payload","uncletopia"],"game_id":440,"stv_port":27046,"stv_name":"Uncletopia | Frankfurt | 4 | All Maps | STV","players":[{"user_id":36,"name":"zero","steam_id":76561198055365234,"connected_time":5093000000000,"state":"active","ping":73},{"user_id":100,"name":"MAKENTAKEN","steam_id":76561199127359587,"connected_time":1077000000000,"state":"active","ping":89},{"user_id":93,"name":"Gnaisse","steam_id":76561198010560642,"connected_time":1711000000000,"state":"active","ping":90},{"user_id":76,"name":"Spajro","steam_id":76561198257383813,"connected_time":3018000000000,"state":"active","ping":50},{"user_id":77,"name":"Emxx52","steam_id":76561198059374194,"connected_time":3015000000000,"state":"active","ping":68},{"user_id":108,"name":"Capitan Boba","steam_id":76561198058624532,"connected_time":622000000000,"state":"active","ping":58},{"user_id":45,"name":"m√Øk√´y","steam_id":76561198281694064,"connected_time":3943000000000,"state":"active","ping":83},{"user_id":46,"name":"idfk","steam_id":76561199013486916,"connected_time":3870000000000,"state":"active","ping":101},{"user_id":55,"name":"Loop_Cat","steam_id":76561199045902145,"connected_time":3588000000000,"state":"active","ping":112},{"user_id":82,"name":"a great sense of tumor","steam_id":76561198056434693,"connected_time":2708000000000,"state":"active","ping":45},{"user_id":68,"name":"Threon","steam_id":76561198826783545,"connected_time":3394000000000,"state":"active","ping":81},{"user_id":104,"name":"babylon (trademark)","steam_id":76561198314919758,"connected_time":968000000000,"state":"active","ping":69},{"user_id":90,"name":"Mor'du","steam_id":76561198274105878,"connected_time":1771000000000,"state":"active","ping":77},{"user_id":99,"name":"Butt Hurling","steam_id":76561198093229786,"connected_time":1089000000000,"state":"active","ping":68},{"user_id":91,"name":"Stinker_05","steam_id":76561198058320327,"connected_time":1770000000000,"state":"active","ping":88},{"user_id":102,"name":"Hasamnas","steam_id":76561199125038537,"connected_time":1052000000000,"state":"active","ping":55},{"user_id":109,"name":"jaMie","steam_id":76561198170148783,"connected_time":408000000000,"state":"active","ping":52},{"user_id":80,"name":"Bing Chilling","steam_id":76561198065376942,"connected_time":2927000000000,"state":"active","ping":60},{"user_id":110,"name":"flora","steam_id":76561197994492154,"connected_time":393000000000,"state":"active","ping":68},{"user_id":65,"name":"esheen","steam_id":76561198139376665,"connected_time":3435000000000,"state":"active","ping":61},{"user_id":66,"name":"cl","steam_id":76561199436640904,"connected_time":3432000000000,"state":"active","ping":68},{"user_id":74,"name":"StabbyKnife","steam_id":76561198094010004,"connected_time":3057000000000,"state":"active","ping":81},{"user_id":85,"name":"Joe Byron","steam_id":76561198044465070,"connected_time":2458000000000,"state":"active","ping":85},{"user_id":92,"name":"Kaek","steam_id":76561197960283484,"connected_time":1770000000000,"state":"active","ping":84}]},{"server_id":310,"name":"Uncletopia | Frankfurt | 5 | All Maps","name_short":"frk-5","host":"frk-1.de.uncletopia.com","port":27055,"enabled":true,"region":"eu","cc":"de","latitude":50.110924,"longitude":8.682127,"reserved":0,"last_update":"0001-01-01T00:00:00Z","name_a2s":"Uncletopia | Frankfurt | 5 | All Maps","protocol":17,"map":"pl_barnblitz","folder":"tf","game":"Team Fortress","app_id":440,"player_count":24,"max_players":24,"Bots":0,"server_type":"Dedicated","server_os":"Linux","password":true,"vac":true,"version":"7742253","steam_id":85568392924504277,"keywords":["nocrits","nodmgspread","payload","uncletopia"],"game_id":440,"stv_port":27056,"stv_name":"Uncletopia | Frankfurt | 5 | All Maps | STV","players":[{"user_id":517,"name":"Bob D","steam_id":76561198026375630,"connected_time":296000000000,"state":"active","ping":60},{"user_id":396,"name":"Lazulura","steam_id":76561198103569919,"connected_time":7837000000000,"state":"active","ping":91},{"user_id":511,"name":"Biscuits Jackson","steam_id":76561198024843489,"connected_time":614000000000,"state":"active","ping":62},{"user_id":514,"name":"Efeca","steam_id":76561198018923829,"connected_time":558000000000,"state":"active","ping":66},{"user_id":504,"name":"big gus","steam_id":76561198041660675,"connected_time":1163000000000,"state":"active","ping":75},{"user_id":471,"name":"Saihtama","steam_id":76561198067497192,"connected_time":3420000000000,"state":"active","ping":59},{"user_id":509,"name":"ÊÇ™","steam_id":76561198095879087,"connected_time":825000000000,"state":"active","ping":72},{"user_id":462,"name":"hellrunner","steam_id":76561198205309695,"connected_time":4336000000000,"state":"active","ping":77},{"user_id":515,"name":"Random1","steam_id":76561199116602799,"connected_time":543000000000,"state":"active","ping":62},{"user_id":499,"name":"Jedi doggo","steam_id":76561198360026202,"connected_time":1532000000000,"state":"active","ping":79},{"user_id":508,"name":"foo","steam_id":76561198042000263,"connected_time":899000000000,"state":"active","ping":66},{"user_id":485,"name":"Alxdusty","steam_id":76561199128401768,"connected_time":2563000000000,"state":"active","ping":86},{"user_id":513,"name":"Acheron","steam_id":76561198306593373,"connected_time":593000000000,"state":"active","ping":76},{"user_id":498,"name":"Superfudge","steam_id":76561198336342475,"connected_time":1598000000000,"state":"active","ping":68},{"user_id":512,"name":"leonardini.w #SaveTF2","steam_id":76561199097963071,"connected_time":610000000000,"state":"active","ping":81},{"user_id":516,"name":"i dont need those meds anyway","steam_id":76561198154714698,"connected_time":538000000000,"state":"active","ping":59},{"user_id":519,"name":"nobody","steam_id":76561198180637374,"connected_time":105000000000,"state":"active","ping":84},{"user_id":457,"name":"Cheekus Breekus","steam_id":76561198188310329,"connected_time":4508000000000,"state":"active","ping":93},{"user_id":496,"name":"rewrite","steam_id":76561198091267840,"connected_time":1720000000000,"state":"active","ping":69},{"user_id":488,"name":"Sunkerdink","steam_id":76561197996757446,"connected_time":2485000000000,"state":"active","ping":69},{"user_id":501,"name":"Grunf","steam_id":76561199006140585,"connected_time":1457000000000,"state":"active","ping":85},{"user_id":465,"name":"Tutel","steam_id":76561199375909993,"connected_time":4016000000000,"state":"active","ping":79},{"user_id":478,"name":"glyph","steam_id":76561197980736364,"connected_time":3238000000000,"state":"active","ping":77},{"user_id":507,"name":"zaleek69","steam_id":76561198058877595,"connected_time":950000000000,"state":"active","ping":58}]},{"server_id":311,"name":"Uncletopia | Frankfurt | 6 | All Maps","name_short":"frk-6","host":"frk-1.de.uncletopia.com","port":27065,"enabled":true,"region":"eu","cc":"de","latitude":50.110924,"longitude":8.682127,"reserved":0,"last_update":"0001-01-01T00:00:00Z","name_a2s":"Uncletopia | Frankfurt | 6 | All Maps","protocol":17,"map":"koth_suijin","folder":"tf","game":"Team Fortress","app_id":440,"player_count":24,"max_players":24,"Bots":0,"server_type":"Dedicated","server_os":"Linux","password":true,"vac":true,"version":"7742253","steam_id":85568392924504278,"keywords":["cp","nocrits","nodmgspread","uncletopia"],"game_id":440,"stv_port":27066,"stv_name":"Uncletopia | Frankfurt | 6 | All Maps | STV","players":[{"user_id":245,"name":"Spieller","steam_id":76561198057197847,"connected_time":643000000000,"state":"active","ping":73},{"user_id":246,"name":"Regan","steam_id":76561198100631086,"connected_time":634000000000,"state":"active","ping":78},{"user_id":251,"name":"BTD","steam_id":76561199046044993,"connected_time":174000000000,"state":"active","ping":60},{"user_id":241,"name":"Scuutte","steam_id":76561198105496293,"connected_time":918000000000,"state":"active","ping":80},{"user_id":248,"name":"Yony","steam_id":76561199070569941,"connected_time":616000000000,"state":"active","ping":59},{"user_id":229,"name":"PK Blizzard","steam_id":76561198039836567,"connected_time":1580000000000,"state":"active","ping":58},{"user_id":249,"name":"blindentity","steam_id":76561199240783683,"connected_time":573000000000,"state":"active","ping":183},{"user_id":239,"name":"Eep","steam_id":76561198356840051,"connected_time":934000000000,"state":"active","ping":78},{"user_id":253,"name":"Spooky, The Ooze","steam_id":76561198171257859,"connected_time":136000000000,"state":"active","ping":62},{"user_id":242,"name":"FiX_","steam_id":76561197979015714,"connected_time":849000000000,"state":"active","ping":61},{"user_id":214,"name":"Taipan66","steam_id":76561198154094423,"connected_time":2230000000000,"state":"active","ping":71},{"user_id":225,"name":"Chef Magpie","steam_id":76561198043926401,"connected_time":1903000000000,"state":"active","ping":106},{"user_id":159,"name":"AHKrzych","steam_id":76561198012688555,"connected_time":6519000000000,"state":"active","ping":87},{"user_id":230,"name":"John Fortress","steam_id":76561197993335867,"connected_time":1571000000000,"state":"active","ping":78},{"user_id":220,"name":"install gentoo","steam_id":76561198185257982,"connected_time":2045000000000,"state":"active","ping":84},{"user_id":247,"name":"–î—Ä–µ–≤–Ω–∏–π –ì—Ä–µ–∫","steam_id":76561198177095287,"connected_time":630000000000,"state":"active","ping":89},{"user_id":240,"name":"Sidewall Girts","steam_id":76561198092234302,"connected_time":933000000000,"state":"active","ping":71},{"user_id":234,"name":"Gtg!","steam_id":76561198170371186,"connected_time":1399000000000,"state":"active","ping":96},{"user_id":232,"name":"AiRBiscuiT","steam_id":76561198348655114,"connected_time":1535000000000,"state":"active","ping":52},{"user_id":152,"name":"Ducks","steam_id":76561198145643655,"connected_time":6809000000000,"state":"active","ping":83},{"user_id":205,"name":"Miloleopard (bad at TF2)","steam_id":76561199196616680,"connected_time":4575000000000,"state":"active","ping":63},{"user_id":237,"name":"Creative","steam_id":76561198835034247,"connected_time":1185000000000,"state":"active","ping":84},{"user_id":224,"name":"BilaL","steam_id":76561199043740497,"connected_time":1972000000000,"state":"active","ping":65},{"user_id":125,"name":".quickfast.","steam_id":76561199438900919,"connected_time":7884000000000,"state":"active","ping":68}]},{"server_id":23,"name":"Uncletopia | Frankfurt | 7 | Stopwatch Beta","name_short":"frk-7","host":"frk-1.de.uncletopia.com","port":27075,"enabled":true,"region":"eu","cc":"de","latitude":50.110924,"longitude":8.682127,"reserved":0,"last_update":"0001-01-01T00:00:00Z","name_a2s":"Uncletopia | Frankfurt | 7 | Stopwatch Beta","protocol":17,"map":"pl_badwater","folder":"tf","game":"Team Fortress","app_id":440,"player_count":0,"max_players":24,"Bots":0,"server_type":"Dedicated","server_os":"Linux","password":true,"vac":true,"version":"7742253","steam_id":85568392924742827,"keywords":["nocrits","nodmgspread","payload","uncletopia"],"game_id":440,"stv_port":27076,"stv_name":"Uncletopia | Frankfurt | 7 | Stopwatch Beta | STV","players":null},{"server_id":24,"name":"Uncletopia | Frankfurt | 8 | Community","name_short":"frk-8","host":"frk-1.de.uncletopia.com","port":27085,"enabled":true,"region":"eu","cc":"de","latitude":50.110924,"longitude":8.682127,"reserved":0,"last_update":"0001-01-01T00:00:00Z","name_a2s":"Uncletopia | Frankfurt | 8 | Community","protocol":17,"map":"workshop/koth_bagel_rc5.ugc2514036946","folder":"tf","game":"Team Fortress","app_id":440,"player_count":0,"max_players":24,"Bots":0,"server_type":"Dedicated","server_os":"Linux","password":true,"vac":true,"version":"7742253","steam_id":85568392924742828,"keywords":["cp","nocrits","nodmgspread","uncletopia"],"game_id":440,"stv_port":27086,"stv_name":"Uncletopia | Frankfurt | 8 | Community | STV","players":null},{"server_id":202,"name":"Uncletopia | Hong Kong | 1 | All Maps","name_short":"hgk-1","host":"hgk-1.hk.uncletopia.com","port":27015,"enabled":true,"region":"asia","cc":"hk","latitude":22.302711,"longitude":114.177216,"reserved":0,"last_update":"0001-01-01T00:00:00Z","name_a2s":"Uncletopia | Hong Kong | 1 | All Maps","protocol":17,"map":"cp_process_final","folder":"tf","game":"Team Fortress","app_id":440,"player_count":0,"max_players":24,"Bots":0,"server_type":"Dedicated","server_os":"Linux","password":true,"vac":true,"version":"7742253","steam_id":85568392924494504,"keywords":["cp","nocrits","nodmgspread","uncletopia"],"game_id":440,"stv_port":27016,"stv_name":"Uncletopia | Hong Kong | 1 | All Maps | STV","players":null},{"server_id":1,"name":"Uncletopia | Los Angeles | 1 | All Maps","name_short":"lax-1","host":"lax-1.us.uncletopia.com","port":27015,"enabled":true,"region":"us-west","cc":"us","latitude":33.94279,"longitude":-118.41004,"reserved":0,"last_update":"0001-01-01T00:00:00Z","name_a2s":"Uncletopia | Los Angeles | 1 | All Maps","protocol":17,"map":"koth_lakeside_final","folder":"tf","game":"Team Fortress","app_id":440,"player_count":0,"max_players":24,"Bots":0,"server_type":"Dedicated","server_os":"Linux","password":true,"vac":true,"version":"7742253","steam_id":85568392924469991,"keywords":["cp","nocrits","nodmgspread","uncletopia"],"game_id":440,"stv_port":27016,"stv_name":"Uncletopia | Los Angeles | 1 | All Maps | STV","players":null},{"server_id":112,"name":"Uncletopia | Los Angeles | 2 | All Maps","name_short":"lax-2","host":"lax-1.us.uncletopia.com","port":27025,"enabled":true,"region":"us-west","cc":"us","latitude":33.94279,"longitude":-118.41004,"reserved":0,"last_update":"0001-01-01T00:00:00Z","name_a2s":"Uncletopia | Los Angeles | 2 | All Maps","protocol":17,"map":"pl_barnblitz","folder":"tf","game":"Team Fortress","app_id":440,"player_count":2,"max_players":24,"Bots":0,"server_type":"Dedicated","server_os":"Linux","password":true,"vac":true,"version":"7742253","steam_id":85568392924469992,"keywords":["nocrits","nodmgspread","payload","uncletopia"],"game_id":440,"stv_port":27026,"stv_name":"Uncletopia | Los Angeles | 2 | All Maps | STV","players":[{"user_id":6,"name":"Chad the Sex Haver","steam_id":76561198058236528,"connected_time":390000000000,"state":"active","ping":57},{"user_id":7,"name":"Sad Sapling","steam_id":76561198075612150,"connected_time":358000000000,"state":"active","ping":41}]},{"server_id":324,"name":"Uncletopia | Los Angeles | 3 | All Maps","name_short":"lax-3","host":"lax-1.us.uncletopia.com","port":27035,"enabled":true,"region":"us-west","cc":"us","latitude":33.94279,"longitude":-118.41004,"reserved":0,"last_update":"0001-01-01T00:00:00Z","name_a2s":"Uncletopia | Los Angeles | 3 | All Maps","protocol":17,"map":"koth_lakeside_final","folder":"tf","game":"Team Fortress","app_id":440,"player_count":0,"max_players":24,"Bots":0,"server_type":"Dedicated","server_os":"Linux","password":true,"vac":true,"version":"7742253","steam_id":85568392924510198,"keywords":["cp","nocrits","nodmgspread","uncletopia"],"game_id":440,"stv_port":27036,"stv_name":"Uncletopia | Los Angeles | 3 | All Maps | STV","players":null},{"server_id":25,"name":"Uncletopia | Los Angeles | 4 | Stopwatch Beta","name_short":"lax-4","host":"lax-1.us.uncletopia.com","port":27045,"enabled":true,"region":"us-west","cc":"us","latitude":33.94279,"longitude":-118.41004,"reserved":0,"last_update":"0001-01-01T00:00:00Z","name_a2s":"Uncletopia | Los Angeles | 4 | Stopwatch Beta","protocol":17,"map":"pl_swiftwater_final1","folder":"tf","game":"Team Fortress","app_id":440,"player_count":0,"max_players":24,"Bots":0,"server_type":"Dedicated","server_os":"Linux","password":true,"vac":true,"version":"7742253","steam_id":85568392924510199,"keywords":["nocrits","nodmgspread","payload","uncletopia"],"game_id":440,"stv_port":27046,"stv_name":"Uncletopia | Los Angeles | 4 | Stopwatch Beta | STV","players":null},{"server_id":11,"name":"Uncletopia | London | 1 | All Maps","name_short":"lon-1","host":"lon-1.uk.uncletopia.com","port":27015,"enabled":true,"region":"eu","cc":"gb","latitude":51.509865,"longitude":-0.118092,"reserved":0,"last_update":"0001-01-01T00:00:00Z","name_a2s":"Uncletopia | London | 1 | All Maps","protocol":17,"map":"pl_badwater","folder":"tf","game":"Team Fortress","app_id":440,"player_count":24,"max_players":24,"Bots":0,"server_type":"Dedicated","server_os":"Linux","password":true,"vac":true,"version":"7742253","steam_id":85568392924367362,"keywords":["nocrits","nodmgspread","payload","uncletopia"],"game_id":440,"stv_port":27016,"stv_name":"Uncletopia | London | 1 | All Maps | STV","players":[{"user_id":575,"name":"Rudolph the Red Rocket","steam_id":76561198287810139,"connected_time":568000000000,"state":"active","ping":87},{"user_id":556,"name":"Dominus.","steam_id":76561199065917088,"connected_time":1309000000000,"state":"active","ping":63},{"user_id":564,"name":"Bia≈Çy","steam_id":76561197996016988,"connected_time":735000000000,"state":"active","ping":78},{"user_id":567,"name":"azzzertyy","steam_id":76561198083483187,"connected_time":712000000000,"state":"active","ping":53},{"user_id":561,"name":"eggslut","steam_id":76561198010752241,"connected_time":898000000000,"state":"active","ping":65},{"user_id":570,"name":"fraies","steam_id":76561198061865957,"connected_time":658000000000,"state":"active","ping":77},{"user_id":572,"name":"lofi hip hop beats","steam_id":76561198348048790,"connected_time":646000000000,"state":"active","ping":52},{"user_id":565,"name":"Coac","steam_id":76561198085265740,"connected_time":734000000000,"state":"active","ping":68},{"user_id":574,"name":"Miiukade","steam_id":76561198089157860,"connected_time":591000000000,"state":"active","ping":123},{"user_id":576,"name":"douglas","steam_id":76561198139303045,"connected_time":551000000000,"state":"active","ping":93},{"user_id":538,"name":"Zelmor","steam_id":76561197997708311,"connected_time":2988000000000,"state":"active","ping":52},{"user_id":544,"name":"scantron","steam_id":76561199103959197,"connected_time":2335000000000,"state":"active","ping":95},{"user_id":545,"name":"eba","steam_id":76561198309765812,"connected_time":2333000000000,"state":"active","ping":88},{"user_id":529,"name":"Remyie","steam_id":76561198131031404,"connected_time":3507000000000,"state":"active","ping":90},{"user_id":562,"name":"JOHN GAMING (based)","steam_id":76561199085822219,"connected_time":844000000000,"state":"active","ping":84},{"user_id":548,"name":"CooleCondom","steam_id":76561198106437203,"connected_time":2283000000000,"state":"active","ping":38},{"user_id":568,"name":"t.tv/FamilyGuyFunnyMoments277","steam_id":76561198416047580,"connected_time":707000000000,"state":"active","ping":145},{"user_id":573,"name":"Raxor","steam_id":76561198239927434,"connected_time":640000000000,"state":"active","ping":86},{"user_id":566,"name":"Prox","steam_id":76561198351490981,"connected_time":734000000000,"state":"active","ping":44},{"user_id":560,"name":"nudjura","steam_id":76561198281986139,"connected_time":1209000000000,"state":"active","ping":45},{"user_id":577,"name":"jorogumo","steam_id":76561198838277022,"connected_time":349000000000,"state":"active","ping":75},{"user_id":478,"name":"Demonstrate","steam_id":76561198198581079,"connected_time":7898000000000,"state":"active","ping":64},{"user_id":579,"name":"Ruralchain","steam_id":76561198803915402,"connected_time":28000000000,"state":"active","ping":81},{"user_id":559,"name":"Jakearooney","steam_id":76561198137205424,"connected_time":1279000000000,"state":"active","ping":64}]},{"server_id":114,"name":"Uncletopia | London | 2 | All Maps","name_short":"lon-2","host":"lon-1.uk.uncletopia.com","port":27025,"enabled":true,"region":"eu","cc":"gb","latitude":51.509865,"longitude":-0.118092,"reserved":0,"last_update":"0001-01-01T00:00:00Z","name_a2s":"Uncletopia | London | 2 | All Maps","protocol":17,"map":"pl_upward","folder":"tf","game":"Team Fortress","app_id":440,"player_count":24,"max_players":24,"Bots":0,"server_type":"Dedicated","server_os":"Linux","password":true,"vac":true,"version":"7742253","steam_id":85568392924470941,"keywords":["nocrits","nodmgspread","payload","uncletopia"],"game_id":440,"stv_port":27026,"stv_name":"Uncletopia | London | 2 | All Maps | STV","players":[{"user_id":734,"name":"sigma female","steam_id":76561198298576765,"connected_time":1152000000000,"state":"active","ping":63},{"user_id":710,"name":"tactical783","steam_id":76561199051688560,"connected_time":4089000000000,"state":"active","ping":63},{"user_id":742,"name":"jingleboob","steam_id":76561198097507847,"connected_time":171000000000,"state":"active","ping":77},{"user_id":728,"name":"donal rump","steam_id":76561198136239861,"connected_time":1907000000000,"state":"active","ping":43},{"user_id":721,"name":"tyra","steam_id":76561198067501872,"connected_time":2439000000000,"state":"active","ping":68},{"user_id":731,"name":"sgt_peper","steam_id":76561198029751443,"connected_time":1326000000000,"state":"active","ping":101},{"user_id":674,"name":"rat performance","steam_id":76561198065854668,"connected_time":6305000000000,"state":"active","ping":45},{"user_id":737,"name":"Stats","steam_id":76561198257248737,"connected_time":661000000000,"state":"active","ping":51},{"user_id":580,"name":"Psychicpie","steam_id":76561198126065206,"connected_time":10882000000000,"state":"active","ping":59},{"user_id":736,"name":"NiNY√É","steam_id":76561197995685294,"connected_time":827000000000,"state":"active","ping":45},{"user_id":727,"name":"Octoblue64","steam_id":76561198388997283,"connected_time":2004000000000,"state":"active","ping":40},{"user_id":719,"name":"teddy","steam_id":76561198007436837,"connected_time":2652000000000,"state":"active","ping":34},{"user_id":706,"name":"average f2p","steam_id":76561199136308055,"connected_time":4308000000000,"state":"active","ping":53},{"user_id":718,"name":"Penis Contortionist","steam_id":76561198073663784,"connected_time":2654000000000,"state":"active","ping":39},{"user_id":739,"name":"Pepegi","steam_id":76561198001230113,"connected_time":418000000000,"state":"active","ping":88},{"user_id":726,"name":"Cat_Hallucinations","steam_id":76561198194033163,"connected_time":2159000000000,"state":"active","ping":38},{"user_id":725,"name":"Eliminated","steam_id":76561199042470246,"connected_time":2225000000000,"state":"active","ping":69},{"user_id":732,"name":"Mauricio‚Ñ¢","steam_id":76561198058727934,"connected_time":1319000000000,"state":"active","ping":50},{"user_id":691,"name":"Jingleboob's Elf","steam_id":76561198067204908,"connected_time":5546000000000,"state":"active","ping":60},{"user_id":594,"name":"Kraftlos","steam_id":76561198074350350,"connected_time":10608000000000,"state":"active","ping":128},{"user_id":733,"name":"burial","steam_id":76561198009115060,"connected_time":1272000000000,"state":"active","ping":78},{"user_id":709,"name":"MaRo","steam_id":76561198992286676,"connected_time":4134000000000,"state":"active","ping":52},{"user_id":741,"name":"Lozzenge","steam_id":76561198072489508,"connected_time":177000000000,"state":"active","ping":172}]},{"server_id":320,"name":"Uncletopia | London | 3 | All Maps","name_short":"lon-3","host":"lon-1.uk.uncletopia.com","port":27035,"enabled":true,"region":"eu","cc":"gb","latitude":51.509865,"longitude":-0.118092,"reserved":0,"last_update":"0001-01-01T00:00:00Z","name_a2s":"Uncletopia | London | 3 | All Maps","protocol":17,"map":"pl_frontier_final","folder":"tf","game":"Team Fortress","app_id":440,"player_count":24,"max_players":24,"Bots":0,"server_type":"Dedicated","server_os":"Linux","password":true,"vac":true,"version":"7742253","steam_id":85568392924510192,"keywords":["nocrits","nodmgspread","payload","uncletopia"],"game_id":440,"stv_port":27036,"stv_name":"Uncletopia | London | 3 | All Maps | STV","players":[{"user_id":644,"name":"Jack Torrance","steam_id":76561198183856322,"connected_time":863000000000,"state":"active","ping":71},{"user_id":640,"name":"Boycie","steam_id":76561198179116027,"connected_time":1004000000000,"state":"active","ping":52},{"user_id":626,"name":"subway vergil","steam_id":76561199110064166,"connected_time":2441000000000,"state":"active","ping":54},{"user_id":570,"name":"Psyche","steam_id":76561198091662001,"connected_time":6631000000000,"state":"active","ping":53},{"user_id":648,"name":"garry","steam_id":76561198019078145,"connected_time":771000000000,"state":"active","ping":90},{"user_id":601,"name":"Carrot","steam_id":76561198119340863,"connected_time":5035000000000,"state":"active","ping":36},{"user_id":641,"name":"Kamikrazy","steam_id":76561198044254918,"connected_time":1003000000000,"state":"active","ping":55},{"user_id":606,"name":"Arturias","steam_id":76561198188720263,"connected_time":3941000000000,"state":"active","ping":45},{"user_id":622,"name":"Mario3ghj","steam_id":76561198069804561,"connected_time":2537000000000,"state":"active","ping":79},{"user_id":634,"name":"Fredo","steam_id":76561198202094888,"connected_time":1742000000000,"state":"active","ping":75},{"user_id":627,"name":"Welder","steam_id":76561198355300561,"connected_time":2434000000000,"state":"active","ping":70},{"user_id":599,"name":"miro","steam_id":76561198063233185,"connected_time":5048000000000,"state":"active","ping":59},{"user_id":642,"name":"Sun Tzu's Fun Zoo","steam_id":76561198051129831,"connected_time":890000000000,"state":"active","ping":42},{"user_id":600,"name":"fanthom","steam_id":76561198106409123,"connected_time":5038000000000,"state":"active","ping":61},{"user_id":613,"name":"S0LDaTo","steam_id":76561198269413360,"connected_time":3593000000000,"state":"active","ping":60},{"user_id":633,"name":"Vectillion","steam_id":76561198074292454,"connected_time":2116000000000,"state":"active","ping":64},{"user_id":617,"name":"Nickbro101","steam_id":76561198044271692,"connected_time":3504000000000,"state":"active","ping":48},{"user_id":652,"name":"Sparky","steam_id":76561198036754195,"connected_time":603000000000,"state":"active","ping":48},{"user_id":653,"name":"TirN","steam_id":76561198113262166,"connected_time":572000000000,"state":"active","ping":90},{"user_id":643,"name":"Batunga","steam_id":76561198174496709,"connected_time":890000000000,"state":"active","ping":67},{"user_id":619,"name":"It hurts when i pee","steam_id":76561198139404261,"connected_time":3288000000000,"state":"active","ping":45},{"user_id":654,"name":"Joel!","steam_id":76561198155422742,"connected_time":181000000000,"state":"active","ping":54},{"user_id":649,"name":"Accident","steam_id":76561198115160396,"connected_time":670000000000,"state":"active","ping":79},{"user_id":651,"name":"Billy Genie","steam_id":76561198061724014,"connected_time":647000000000,"state":"active","ping":41}]},{"server_id":321,"name":"Uncletopia | London | 4 | All Maps","name_short":"lon-4","host":"lon-1.uk.uncletopia.com","port":27045,"enabled":true,"region":"eu","cc":"gb","latitude":51.509865,"longitude":-0.118092,"reserved":0,"last_update":"0001-01-01T00:00:00Z","name_a2s":"Uncletopia | London | 4 | All Maps","protocol":17,"map":"pl_upward","folder":"tf","game":"Team Fortress","app_id":440,"player_count":25,"max_players":24,"Bots":0,"server_type":"Dedicated","server_os":"Linux","password":true,"vac":true,"version":"7742253","steam_id":85568392924510193,"keywords":["nocrits","nodmgspread","payload","uncletopia"],"game_id":440,"stv_port":27046,"stv_name":"Uncletopia | London | 4 | All Maps | STV","players":[{"user_id":267,"name":"tom","steam_id":76561198202442602,"connected_time":5390000000000,"state":"active","ping":79},{"user_id":343,"name":"Joel!","steam_id":76561198155422742,"connected_time":198000000000,"state":"connecting","ping":0},{"user_id":283,"name":"mordecai.nmc","steam_id":76561197997223851,"connected_time":4454000000000,"state":"active","ping":56},{"user_id":327,"name":"kbbq","steam_id":76561198346638308,"connected_time":1400000000000,"state":"active","ping":45},{"user_id":342,"name":"(1)Dr Ludwig","steam_id":76561198426522902,"connected_time":213000000000,"state":"active","ping":55},{"user_id":330,"name":"dafydd","steam_id":76561198052200325,"connected_time":1348000000000,"state":"active","ping":88},{"user_id":349,"name":"Kahvi","steam_id":76561198723244199,"connected_time":3000000000,"state":"spawning","ping":86},{"user_id":93,"name":"Foxyz","steam_id":76561198040642992,"connected_time":17505000000000,"state":"active","ping":102},{"user_id":332,"name":"Laurie","steam_id":76561198082951750,"connected_time":1249000000000,"state":"active","ping":44},{"user_id":341,"name":"ahhhhhhhhhh","steam_id":76561198271867664,"connected_time":218000000000,"state":"active","ping":52},{"user_id":186,"name":"Dr Sex","steam_id":76561198029044617,"connected_time":9716000000000,"state":"active","ping":51},{"user_id":272,"name":"GEP Gun","steam_id":76561197981821003,"connected_time":5212000000000,"state":"active","ping":57},{"user_id":308,"name":"PASTAMANIA!","steam_id":76561197967858558,"connected_time":2909000000000,"state":"active","ping":48},{"user_id":346,"name":"Shirogame","steam_id":76561198126154697,"connected_time":90000000000,"state":"active","ping":59},{"user_id":339,"name":"Michael Jordan","steam_id":76561198306393090,"connected_time":478000000000,"state":"active","ping":135},{"user_id":338,"name":"Blitz","steam_id":76561199046658659,"connected_time":817000000000,"state":"active","ping":91},{"user_id":264,"name":"ralph62x","steam_id":76561198865294231,"connected_time":5432000000000,"state":"active","ping":46},{"user_id":214,"name":"British Disapproval","steam_id":76561198001375260,"connected_time":8664000000000,"state":"active","ping":53},{"user_id":337,"name":"Teriyaki","steam_id":76561198075539799,"connected_time":1024000000000,"state":"active","ping":47},{"user_id":340,"name":"p!ke","steam_id":76561198416081952,"connected_time":240000000000,"state":"active","ping":62},{"user_id":344,"name":"BenteBent","steam_id":76561198297920637,"connected_time":170000000000,"state":"active","ping":76},{"user_id":314,"name":"LemonLeCitron","steam_id":76561198215545267,"connected_time":2389000000000,"state":"active","ping":78},{"user_id":317,"name":"Baklava Enjoyer","steam_id":76561198990679631,"connected_time":2296000000000,"state":"active","ping":78},{"user_id":321,"name":"Festive KoolMeester","steam_id":76561198105165847,"connected_time":2090000000000,"state":"active","ping":48},{"user_id":324,"name":"Sold","steam_id":76561198372172135,"connected_time":1915000000000,"state":"active","ping":74}]},{"server_id":21,"name":"Uncletopia | London | 5 | All Maps","name_short":"lon-5","host":"lon-1.uk.uncletopia.com","port":27055,"enabled":true,"region":"eu","cc":"gb","latitude":51.509865,"longitude":-0.118092,"reserved":0,"last_update":"0001-01-01T00:00:00Z","name_a2s":"Uncletopia | London | 5 | All Maps","protocol":17,"map":"pl_pier","folder":"tf","game":"Team Fortress","app_id":440,"player_count":25,"max_players":24,"Bots":0,"server_type":"Dedicated","server_os":"Linux","password":true,"vac":true,"version":"7742253","steam_id":85568392924742829,"keywords":["nocrits","nodmgspread","payload","uncletopia"],"game_id":440,"stv_port":27056,"stv_name":"Uncletopia | London | 5 | All Maps | STV","players":[{"user_id":152,"name":"Spurjoe","steam_id":76561198830112485,"connected_time":5090000000000,"state":"active","ping":78},{"user_id":252,"name":"NotNecessary","steam_id":76561199451938365,"connected_time":1000000000,"state":"spawning","ping":68},{"user_id":155,"name":"Nexosert","steam_id":76561198941142018,"connected_time":3884000000000,"state":"active","ping":64},{"user_id":200,"name":"G6 sherlock","steam_id":76561198802967796,"connected_time":1329000000000,"state":"active","ping":114},{"user_id":157,"name":"Jonas Destark","steam_id":76561198030327441,"connected_time":3469000000000,"state":"active","ping":57},{"user_id":158,"name":"snake9544","steam_id":76561198083076205,"connected_time":3462000000000,"state":"active","ping":83},{"user_id":159,"name":"Bouba 1er","steam_id":76561198050971038,"connected_time":3426000000000,"state":"active","ping":66},{"user_id":244,"name":"denji741games","steam_id":76561198067499762,"connected_time":182000000000,"state":"active","ping":75},{"user_id":204,"name":"ReDsinat0r","steam_id":76561198365973345,"connected_time":1135000000000,"state":"active","ping":74},{"user_id":205,"name":"donk","steam_id":76561198162676648,"connected_time":1108000000000,"state":"active","ping":76},{"user_id":167,"name":"weed fairy","steam_id":76561197998843096,"connected_time":3018000000000,"state":"active","ping":86},{"user_id":208,"name":"yourtruemedic","steam_id":76561198826881879,"connected_time":1087000000000,"state":"active","ping":82},{"user_id":207,"name":"ProMate","steam_id":76561198277138236,"connected_time":1097000000000,"state":"active","ping":78},{"user_id":209,"name":"Koda","steam_id":76561198142696299,"connected_time":1084000000000,"state":"active","ping":47},{"user_id":248,"name":"ScottMachine","steam_id":76561198813531432,"connected_time":167000000000,"state":"active","ping":65},{"user_id":174,"name":"Garden Freeman","steam_id":76561199073314677,"connected_time":2908000000000,"state":"active","ping":98},{"user_id":239,"name":"W","steam_id":76561198273623211,"connected_time":329000000000,"state":"active","ping":87},{"user_id":181,"name":"Smag","steam_id":76561198153675141,"connected_time":2602000000000,"state":"active","ping":45},{"user_id":187,"name":"YourDoom","steam_id":76561198080790857,"connected_time":2220000000000,"state":"active","ping":40},{"user_id":178,"name":"dr. coom","steam_id":76561198172193711,"connected_time":2794000000000,"state":"active","ping":41},{"user_id":215,"name":"Andy","steam_id":76561198046918834,"connected_time":1014000000000,"state":"active","ping":62},{"user_id":246,"name":"Hotgamerdad","steam_id":76561198085940613,"connected_time":174000000000,"state":"active","ping":56},{"user_id":184,"name":"MF Spiffylad","steam_id":76561197973698934,"connected_time":2436000000000,"state":"active","ping":89},{"user_id":185,"name":"Femboy Gaming","steam_id":76561198174108515,"connected_time":2318000000000,"state":"active","ping":48},{"user_id":249,"name":"nes","steam_id":76561198037938833,"connected_time":142000000000,"state":"active","ping":54}]},{"server_id":22,"name":"Uncletopia | London | 6 | All Maps","name_short":"lon-6","host":"lon-1.uk.uncletopia.com","port":27065,"enabled":true,"region":"eu","cc":"gb","latitude":51.509865,"longitude":-0.118092,"reserved":0,"last_update":"0001-01-01T00:00:00Z","name_a2s":"Uncletopia | London | 6 | All Maps","protocol":17,"map":"pl_badwater","folder":"tf","game":"Team Fortress","app_id":440,"player_count":0,"max_players":24,"Bots":0,"server_type":"Dedicated","server_os":"Linux","password":true,"vac":true,"version":"7742253","steam_id":85568392924742830,"keywords":["nocrits","nodmgspread","payload","uncletopia"],"game_id":440,"stv_port":27066,"stv_name":"Uncletopia | London | 6 | All Maps | STV","players":null},{"server_id":40,"name":"Uncletopia | London | 7 | No Payload","name_short":"lon-7","host":"lon-1.uk.uncletopia.com","port":27075,"enabled":true,"region":"eu","cc":"gb","latitude":51.509865,"longitude":-0.118092,"reserved":0,"last_update":"0001-01-01T00:00:00Z","name_a2s":"Uncletopia | London | 7 | No Payload","protocol":17,"map":"cp_freight_final1","folder":"tf","game":"Team Fortress","app_id":440,"player_count":10,"max_players":24,"Bots":0,"server_type":"Dedicated","server_os":"Linux","password":true,"vac":true,"version":"7742253","steam_id":85568392924964314,"keywords":["cp","nocrits","nodmgspread","uncletopia"],"game_id":440,"stv_port":27076,"stv_name":"Uncletopia | London | 7 | No Payload | STV","players":[{"user_id":84,"name":"CurseTail","steam_id":76561198318225811,"connected_time":1271000000000,"state":"active","ping":141},{"user_id":77,"name":"CamoKnight404","steam_id":76561199389368339,"connected_time":1351000000000,"state":"active","ping":112},{"user_id":85,"name":"Frank","steam_id":76561198086672774,"connected_time":657000000000,"state":"active","ping":36},{"user_id":86,"name":"DamienLC","steam_id":76561198882598019,"connected_time":530000000000,"state":"active","ping":66},{"user_id":88,"name":"Cosmo","steam_id":76561199218315330,"connected_time":495000000000,"state":"active","ping":157},{"user_id":89,"name":"Rumpiel","steam_id":76561198254303347,"connected_time":449000000000,"state":"active","ping":76},{"user_id":90,"name":"svepitos","steam_id":76561198287351235,"connected_time":443000000000,"state":"active","ping":57},{"user_id":91,"name":"Thebluetotodile","steam_id":76561198377832877,"connected_time":403000000000,"state":"active","ping":56},{"user_id":94,"name":"Squishy","steam_id":76561198124618876,"connected_time":71000000000,"state":"active","ping":106},{"user_id":93,"name":"Funky_Fish","steam_id":76561199061893308,"connected_time":259000000000,"state":"active","ping":90}]},{"server_id":41,"name":"Uncletopia | London | 8 | Community","name_short":"lon-8","host":"lon-1.uk.uncletopia.com","port":27085,"enabled":true,"region":"eu","cc":"gb","latitude":51.509865,"longitude":-0.118092,"reserved":0,"last_update":"0001-01-01T00:00:00Z","name_a2s":"Uncletopia | London | 8 | Community","protocol":17,"map":"workshop/koth_slaughter_rc1.ugc1712845210","folder":"tf","game":"Team Fortress","app_id":440,"player_count":2,"max_players":24,"Bots":0,"server_type":"Dedicated","server_os":"Linux","password":true,"vac":true,"version":"7742253","steam_id":85568392924964315,"keywords":["cp","nocrits","nodmgspread","uncletopia"],"game_id":440,"stv_port":27086,"stv_name":"Uncletopia | London | 8 | Community | STV","players":[{"user_id":27,"name":"treyfrew69","steam_id":76561199122259336,"connected_time":5359000000000,"state":"active","ping":97},{"user_id":29,"name":"forv","steam_id":76561198326667006,"connected_time":3161000000000,"state":"active","ping":74}]},{"server_id":300,"name":"Uncletopia | Montr√©al | 1 | All Maps","name_short":"mtl-1","host":"mtl-1.ca.uncletopia.com","port":27015,"enabled":true,"region":"us-east","cc":"ca","latitude":45.50889,"longitude":-73.56167,"reserved":0,"last_update":"0001-01-01T00:00:00Z","name_a2s":"Uncletopia | Montr√©al | 1 | All Maps","protocol":17,"map":"koth_viaduct","folder":"tf","game":"Team Fortress","app_id":440,"player_count":6,"max_players":24,"Bots":0,"server_type":"Dedicated","server_os":"Linux","password":true,"vac":true,"version":"7742253","steam_id":85568392924500087,"keywords":["cp","nocrits","nodmgspread","uncletopia"],"game_id":440,"stv_port":27016,"stv_name":"Uncletopia | Montr√©al | 1 | All Maps | STV","players":[{"user_id":7,"name":"larryyessir","steam_id":76561199466043117,"connected_time":3722000000000,"state":"active","ping":49},{"user_id":8,"name":"bobjeffywhy","steam_id":76561199372582873,"connected_time":3636000000000,"state":"active","ping":49},{"user_id":16,"name":"Doggy Girl Kikimora","steam_id":76561198097117564,"connected_time":1854000000000,"state":"active","ping":58},{"user_id":17,"name":"The Rat King","steam_id":76561198913754180,"connected_time":980000000000,"state":"active","ping":61},{"user_id":18,"name":"SawdusticPQ","steam_id":76561198815127418,"connected_time":255000000000,"state":"active","ping":157},{"user_id":19,"name":"The Cone","steam_id":76561198298281847,"connected_time":251000000000,"state":"active","ping":44}]},{"server_id":301,"name":"Uncletopia | Montr√©al | 2 | All Maps","name_short":"mtl-2","host":"mtl-1.ca.uncletopia.com","port":27025,"enabled":true,"region":"us-east","cc":"ca","latitude":45.50889,"longitude":-73.56167,"reserved":0,"last_update":"0001-01-01T00:00:00Z","name_a2s":"Uncletopia | Montr√©al | 2 | All Maps","protocol":17,"map":"koth_highpass","folder":"tf","game":"Team Fortress","app_id":440,"player_count":0,"max_players":24,"Bots":0,"server_type":"Dedicated","server_os":"Linux","password":true,"vac":true,"version":"7742253","steam_id":85568392924500088,"keywords":["cp","nocrits","nodmgspread","uncletopia"],"game_id":440,"stv_port":27026,"stv_name":"Uncletopia | Montr√©al | 2 | All Maps | STV","players":null},{"server_id":302,"name":"Uncletopia | Montr√©al | 3 | All Maps","name_short":"mtl-3","host":"mtl-1.ca.uncletopia.com","port":27035,"enabled":true,"region":"us-east","cc":"ca","latitude":45.50889,"longitude":-73.56167,"reserved":0,"last_update":"0001-01-01T00:00:00Z","name_a2s":"Uncletopia | Montr√©al | 3 | All Maps","protocol":17,"map":"koth_cascade","folder":"tf","game":"Team Fortress","app_id":440,"player_count":0,"max_players":24,"Bots":0,"server_type":"Dedicated","server_os":"Linux","password":true,"vac":true,"version":"7742253","steam_id":85568392924500089,"keywords":["cp","nocrits","nodmgspread","uncletopia"],"game_id":440,"stv_port":27036,"stv_name":"Uncletopia | Montr√©al | 3 | All Maps | STV","players":null},{"server_id":303,"name":"Uncletopia | Montr√©al | 4 | No Payload","name_short":"mtl-4","host":"mtl-1.ca.uncletopia.com","port":27045,"enabled":true,"region":"us-east","cc":"ca","latitude":45.50889,"longitude":-73.56167,"reserved":0,"last_update":"0001-01-01T00:00:00Z","name_a2s":"Uncletopia | Montr√©al | 4 | No Payload","protocol":17,"map":"cp_snakewater_final1","folder":"tf","game":"Team Fortress","app_id":440,"player_count":0,"max_players":24,"Bots":0,"server_type":"Dedicated","server_os":"Linux","password":true,"vac":true,"version":"7742253","steam_id":85568392924500090,"keywords":["cp","nocrits","nodmgspread","uncletopia"],"game_id":440,"stv_port":27046,"stv_name":"Uncletopia | Montr√©al | 4 | No Payload | STV","players":null},{"server_id":13,"name":"Uncletopia | New York City | 1 | All Maps","name_short":"nyc-1","host":"nyc-1.us.uncletopia.com","port":27015,"enabled":true,"region":"us-east","cc":"us","latitude":40.73061,"longitude":-73.93524,"reserved":0,"last_update":"0001-01-01T00:00:00Z","name_a2s":"Uncletopia | New York City | 1 | All Maps","protocol":17,"map":"pl_borneo","folder":"tf","game":"Team Fortress","app_id":440,"player_count":24,"max_players":24,"Bots":0,"server_type":"Dedicated","server_os":"Linux","password":true,"vac":true,"version":"7742253","steam_id":85568392924469993,"keywords":["nocrits","nodmgspread","payload","uncletopia"],"game_id":440,"stv_port":27016,"stv_name":"Uncletopia | New York City | 1 | All Maps | STV","players":[{"user_id":164,"name":"really hot sexy mom (real)","steam_id":76561198044696803,"connected_time":3591000000000,"state":"active","ping":51},{"user_id":211,"name":"Wilhelmktx","steam_id":76561198158102295,"connected_time":606000000000,"state":"active","ping":89},{"user_id":195,"name":"Goldoche","steam_id":76561197995065045,"connected_time":1982000000000,"state":"active","ping":66},{"user_id":214,"name":"ShinyOrion (She/Her)","steam_id":76561198408378321,"connected_time":348000000000,"state":"active","ping":51},{"user_id":216,"name":"Laelaps","steam_id":76561198100061416,"connected_time":338000000000,"state":"active","ping":49},{"user_id":215,"name":"Magik","steam_id":76561198200169706,"connected_time":345000000000,"state":"active","ping":41},{"user_id":217,"name":"Taffer","steam_id":76561198883964471,"connected_time":242000000000,"state":"active","ping":78},{"user_id":207,"name":"Chimpin723","steam_id":76561199388637537,"connected_time":951000000000,"state":"active","ping":42},{"user_id":175,"name":"Lesser Dog","steam_id":76561198119646014,"connected_time":2818000000000,"state":"active","ping":68},{"user_id":189,"name":"catboy phroliax","steam_id":76561198207075529,"connected_time":2229000000000,"state":"active","ping":83},{"user_id":219,"name":"DogSpoon","steam_id":76561198012485990,"connected_time":140000000000,"state":"active","ping":54},{"user_id":182,"name":"Pluto","steam_id":76561198012630802,"connected_time":2416000000000,"state":"active","ping":111},{"user_id":152,"name":"catgirl giantess in heat","steam_id":76561198439042583,"connected_time":4075000000000,"state":"active","ping":102},{"user_id":190,"name":"Sleepy Billy","steam_id":76561198083798918,"connected_time":2229000000000,"state":"active","ping":59},{"user_id":191,"name":"ShadowGam3r_1","steam_id":76561198311371667,"connected_time":2161000000000,"state":"active","ping":65},{"user_id":213,"name":"lwyr","steam_id":76561198007982579,"connected_time":403000000000,"state":"active","ping":33},{"user_id":130,"name":"moodi catgirl","steam_id":76561198124028045,"connected_time":6470000000000,"state":"active","ping":50},{"user_id":194,"name":"Lemmy","steam_id":76561199038870751,"connected_time":2071000000000,"state":"active","ping":126},{"user_id":146,"name":"Goon Event #3349 (5hrs 22mins)","steam_id":76561198062410522,"connected_time":4736000000000,"state":"active","ping":44},{"user_id":220,"name":"Yuzu","steam_id":76561198417913035,"connected_time":104000000000,"state":"active","ping":69},{"user_id":218,"name":"Nanu (Rizz Form)","steam_id":76561198319315770,"connected_time":221000000000,"state":"active","ping":45},{"user_id":168,"name":"peter griffin","steam_id":76561198079485096,"connected_time":3545000000000,"state":"active","ping":63},{"user_id":201,"name":"I don't blast air around here","steam_id":76561198039763676,"connected_time":1697000000000,"state":"active","ping":113},{"user_id":145,"name":"Airon","steam_id":76561197970481950,"connected_time":4815000000000,"state":"active","ping":148}]},{"server_id":14,"name":"Uncletopia | New York City | 2 | All Maps","name_short":"nyc-2","host":"nyc-1.us.uncletopia.com","port":27025,"enabled":true,"region":"us-east","cc":"us","latitude":40.73061,"longitude":-73.93524,"reserved":0,"last_update":"0001-01-01T00:00:00Z","name_a2s":"Uncletopia | New York City | 2 | All Maps","protocol":17,"map":"pl_barnblitz","folder":"tf","game":"Team Fortress","app_id":440,"player_count":22,"max_players":24,"Bots":0,"server_type":"Dedicated","server_os":"Linux","password":true,"vac":true,"version":"7742253","steam_id":85568392924469994,"keywords":["nocrits","nodmgspread","payload","uncletopia"],"game_id":440,"stv_port":27026,"stv_name":"Uncletopia | New York City | 2 | All Maps | STV","players":[{"user_id":291,"name":"Ronin Grinch","steam_id":76561198041439581,"connected_time":689000000000,"state":"active","ping":49},{"user_id":286,"name":"Buttery","steam_id":76561198086053311,"connected_time":1458000000000,"state":"active","ping":62},{"user_id":300,"name":"Penrose42","steam_id":76561198288577396,"connected_time":175000000000,"state":"active","ping":61},{"user_id":301,"name":"Mr. Bad deage","steam_id":76561198378716003,"connected_time":71000000000,"state":"active","ping":420},{"user_id":254,"name":"oogle boogle schnoog","steam_id":76561198337692867,"connected_time":3475000000000,"state":"active","ping":74},{"user_id":247,"name":"Hipp-Dip","steam_id":76561199027874633,"connected_time":4802000000000,"state":"active","ping":40},{"user_id":280,"name":"scrapheap","steam_id":76561198202407087,"connected_time":1867000000000,"state":"active","ping":69},{"user_id":298,"name":"True American Hero","steam_id":76561198025473302,"connected_time":352000000000,"state":"active","ping":81},{"user_id":248,"name":"Crim","steam_id":76561198063507222,"connected_time":4730000000000,"state":"active","ping":59},{"user_id":184,"name":"Clean Lines","steam_id":76561197960691518,"connected_time":9550000000000,"state":"active","ping":57},{"user_id":302,"name":"KingEgamer_03","steam_id":76561199283258364,"connected_time":44000000000,"state":"active","ping":76},{"user_id":250,"name":"KRATOS MESSI","steam_id":76561199074026132,"connected_time":4269000000000,"state":"active","ping":44},{"user_id":293,"name":"squaggies","steam_id":76561198041298544,"connected_time":663000000000,"state":"active","ping":95},{"user_id":295,"name":"NoBoreGaming","steam_id":76561198044244547,"connected_time":650000000000,"state":"active","ping":52},{"user_id":284,"name":"simplyhere141","steam_id":76561199204117948,"connected_time":1693000000000,"state":"active","ping":38},{"user_id":279,"name":"Lichy","steam_id":76561198310682841,"connected_time":1904000000000,"state":"active","ping":38},{"user_id":278,"name":"Stheno","steam_id":76561198063895996,"connected_time":1965000000000,"state":"active","ping":58},{"user_id":290,"name":"Rein","steam_id":76561198300340427,"connected_time":992000000000,"state":"active","ping":74},{"user_id":276,"name":"catgirl","steam_id":76561198020736672,"connected_time":2016000000000,"state":"active","ping":60},{"user_id":296,"name":"ToastyBish","steam_id":76561198185327309,"connected_time":590000000000,"state":"active","ping":35},{"user_id":275,"name":"SublunarFox","steam_id":76561198886387474,"connected_time":2198000000000,"state":"active","ping":42},{"user_id":198,"name":"Snake Handler","steam_id":76561198027198306,"connected_time":8775000000000,"state":"active","ping":75}]},{"server_id":15,"name":"Uncletopia | New York City | 3 | Stopwatch Beta","name_short":"nyc-3","host":"nyc-1.us.uncletopia.com","port":27035,"enabled":true,"region":"us-east","cc":"us","latitude":40.73061,"longitude":-73.93524,"reserved":0,"last_update":"0001-01-01T00:00:00Z","name_a2s":"Uncletopia | New York City | 3 | Stopwatch Beta","protocol":17,"map":"workshop/pl_vigil_rc9.ugc1266210012","folder":"tf","game":"Team Fortress","app_id":440,"player_count":0,"max_players":24,"Bots":0,"server_type":"Dedicated","server_os":"Linux","password":true,"vac":true,"version":"7742253","steam_id":85568392924742820,"keywords":["nocrits","nodmgspread","payload","uncletopia"],"game_id":440,"stv_port":27036,"stv_name":"Uncletopia | New York City | 3 | Stopwatch Beta | STV","players":null},{"server_id":16,"name":"Uncletopia | New York City | 4 | Community","name_short":"nyc-4","host":"nyc-1.us.uncletopia.com","port":27045,"enabled":true,"region":"us-east","cc":"us","latitude":40.73061,"longitude":-73.93524,"reserved":0,"last_update":"0001-01-01T00:00:00Z","name_a2s":"Uncletopia | New York City | 4 | Community","protocol":17,"map":"workshop/koth_synthetic_rc6a.ugc1549817316","folder":"tf","game":"Team Fortress","app_id":440,"player_count":0,"max_players":24,"Bots":0,"server_type":"Dedicated","server_os":"Linux","password":true,"vac":true,"version":"7742253","steam_id":85568392924742821,"keywords":["cp","nocrits","nodmgspread","uncletopia"],"game_id":440,"stv_port":27046,"stv_name":"Uncletopia | New York City | 4 | Community | STV","players":null},{"server_id":142,"name":"Uncletopia | S√£o Paulo | 1 | All Maps","name_short":"sao-1","host":"sao-1.br.uncletopia.com","port":27015,"enabled":true,"region":"sa","cc":"br","latitude":-23.533773,"longitude":-46.62529,"reserved":0,"last_update":"0001-01-01T00:00:00Z","name_a2s":"Uncletopia | S√£o Paulo | 1 | All Maps","protocol":17,"map":"koth_viaduct","folder":"tf","game":"Team Fortress","app_id":440,"player_count":0,"max_players":24,"Bots":0,"server_type":"Dedicated","server_os":"Linux","password":true,"vac":true,"version":"7742253","steam_id":85568392924469996,"keywords":["cp","nocrits","nodmgspread","uncletopia"],"game_id":440,"stv_port":27016,"stv_name":"Uncletopia | S√£o Paulo | 1 | All Maps | STV","players":null},{"server_id":143,"name":"Uncletopia | S√£o Paulo | 2 | All Maps","name_short":"sao-2","host":"sao-2.br.uncletopia.com","port":27015,"enabled":true,"region":"sa","cc":"br","latitude":-23.533773,"longitude":-46.62529,"reserved":0,"last_update":"0001-01-01T00:00:00Z","name_a2s":"Uncletopia | S√£o Paulo | 2 | All Maps","protocol":17,"map":"koth_viaduct","folder":"tf","game":"Team Fortress","app_id":440,"player_count":0,"max_players":24,"Bots":0,"server_type":"Dedicated","server_os":"Linux","password":true,"vac":true,"version":"7742253","steam_id":85568392924485349,"keywords":["cp","nocrits","nodmgspread","uncletopia"],"game_id":440,"stv_port":27016,"stv_name":"Uncletopia | S√£o Paulo | 2 | All Maps | STV","players":null},{"server_id":7,"name":"Uncletopia | Seattle | 1 | All Maps","name_short":"sea-1","host":"sea-1.us.uncletopia.com","port":27015,"enabled":true,"region":"us-west","cc":"us","latitude":47.608013,"longitude":-122.33517,"reserved":0,"last_update":"0001-01-01T00:00:00Z","name_a2s":"Uncletopia | Seattle | 1 | All Maps","protocol":17,"map":"pl_barnblitz","folder":"tf","game":"Team Fortress","app_id":440,"player_count":23,"max_players":24,"Bots":0,"server_type":"Dedicated","server_os":"Linux","password":true,"vac":true,"version":"7742253","steam_id":85568392924469997,"keywords":["nocrits","nodmgspread","payload","uncletopia"],"game_id":440,"stv_port":27016,"stv_name":"Uncletopia | Seattle | 1 | All Maps | STV","players":[{"user_id":279,"name":"xxdickcheneyxx","steam_id":76561199441156544,"connected_time":3904000000000,"state":"active","ping":50},{"user_id":267,"name":"AceSea","steam_id":76561198851176490,"connected_time":5727000000000,"state":"active","ping":50},{"user_id":239,"name":"ORANGE","steam_id":76561198000401769,"connected_time":7741000000000,"state":"active","ping":51},{"user_id":303,"name":"CassandraRC7 (She/her)","steam_id":76561198094123940,"connected_time":1807000000000,"state":"active","ping":115},{"user_id":316,"name":"Mignyanne :3","steam_id":76561198048754056,"connected_time":557000000000,"state":"active","ping":74},{"user_id":314,"name":"Ducks","steam_id":76561198130038345,"connected_time":816000000000,"state":"active","ping":66},{"user_id":318,"name":"Skabbety","steam_id":76561198168044257,"connected_time":316000000000,"state":"active","ping":41},{"user_id":301,"name":"resh","steam_id":76561198239598834,"connected_time":2201000000000,"state":"active","ping":130},{"user_id":322,"name":"ejschild745","steam_id":76561199013388867,"connected_time":217000000000,"state":"active","ping":70},{"user_id":309,"name":"TheoLynwood","steam_id":76561198079596878,"connected_time":1532000000000,"state":"active","ping":133},{"user_id":297,"name":"mega","steam_id":76561198089520959,"connected_time":2627000000000,"state":"active","ping":90},{"user_id":245,"name":"the deadliest pyroshark","steam_id":76561198374227766,"connected_time":7461000000000,"state":"active","ping":166},{"user_id":305,"name":"suspiciouslyBee","steam_id":76561198165933984,"connected_time":1600000000000,"state":"active","ping":49},{"user_id":304,"name":"HateIsOnSale","steam_id":76561199060968518,"connected_time":1608000000000,"state":"active","ping":122},{"user_id":307,"name":"Pants","steam_id":76561198328158923,"connected_time":1572000000000,"state":"active","ping":75},{"user_id":298,"name":"DefectiveWarhead","steam_id":76561198067746049,"connected_time":2616000000000,"state":"active","ping":56},{"user_id":321,"name":"dust","steam_id":76561198045218909,"connected_time":244000000000,"state":"active","ping":45},{"user_id":299,"name":"p9 thunderous prophet","steam_id":76561198131166135,"connected_time":2600000000000,"state":"active","ping":44},{"user_id":310,"name":"brainfryfrenchfry","steam_id":76561199438777809,"connected_time":1455000000000,"state":"active","ping":114},{"user_id":320,"name":"jungus","steam_id":76561198129862008,"connected_time":265000000000,"state":"active","ping":81},{"user_id":268,"name":"BobBallin","steam_id":76561198355299724,"connected_time":5677000000000,"state":"active","ping":63},{"user_id":319,"name":"plutonium isotope","steam_id":76561198319442494,"connected_time":292000000000,"state":"active","ping":92},{"user_id":244,"name":"Flourish (she/her)","steam_id":76561198087413354,"connected_time":7649000000000,"state":"active","ping":54}]},{"server_id":119,"name":"Uncletopia | Seattle | 2 | All Maps","name_short":"sea-2","host":"sea-1.us.uncletopia.com","port":27025,"enabled":true,"region":"us-west","cc":"us","latitude":47.608013,"longitude":-122.33517,"reserved":0,"last_update":"0001-01-01T00:00:00Z","name_a2s":"Uncletopia | Seattle | 2 | All Maps","protocol":17,"map":"ctf_2fort","folder":"tf","game":"Team Fortress","app_id":440,"player_count":22,"max_players":24,"Bots":0,"server_type":"Dedicated","server_os":"Linux","password":true,"vac":true,"version":"7742253","steam_id":85568392924469998,"keywords":["ctf","nocrits","nodmgspread","uncletopia"],"game_id":440,"stv_port":27026,"stv_name":"Uncletopia | Seattle | 2 | All Maps | STV","players":[{"user_id":4,"name":"gamingtime","steam_id":76561198430395004,"connected_time":5277000000000,"state":"active","ping":40},{"user_id":5,"name":"26-Oh Christmas Tree","steam_id":76561198964074985,"connected_time":5171000000000,"state":"active","ping":53},{"user_id":52,"name":"MonteJT","steam_id":76561198055409360,"connected_time":3142000000000,"state":"active","ping":68},{"user_id":13,"name":"big bang attack","steam_id":76561198886203540,"connected_time":4723000000000,"state":"active","ping":67},{"user_id":65,"name":"zoo-music girl","steam_id":76561198325306660,"connected_time":1355000000000,"state":"active","ping":49},{"user_id":87,"name":"Pariah","steam_id":76561198300479600,"connected_time":10000000000,"state":"spawning","ping":120},{"user_id":63,"name":"xxfhhzv556","steam_id":76561199129159512,"connected_time":1719000000000,"state":"active","ping":182},{"user_id":60,"name":"PopcornNinja101","steam_id":76561198330680181,"connected_time":2117000000000,"state":"active","ping":45},{"user_id":86,"name":"TheBrocklobster","steam_id":76561198039682984,"connected_time":42000000000,"state":"active","ping":89},{"user_id":16,"name":"Humbetymymeaty","steam_id":76561198435326008,"connected_time":4681000000000,"state":"active","ping":78},{"user_id":17,"name":"Lakue","steam_id":76561198047993241,"connected_time":4658000000000,"state":"active","ping":53},{"user_id":71,"name":"DeckofDragons","steam_id":76561198057398213,"connected_time":1284000000000,"state":"active","ping":74},{"user_id":84,"name":"LeviticusDB","steam_id":76561199079690162,"connected_time":192000000000,"state":"active","ping":57},{"user_id":64,"name":"Feel the bern","steam_id":76561198078824519,"connected_time":1687000000000,"state":"active","ping":105},{"user_id":72,"name":"Panzerschreck Bath Water","steam_id":76561198178133625,"connected_time":1280000000000,"state":"active","ping":61},{"user_id":70,"name":"Gaming123","steam_id":76561198801780168,"connected_time":1306000000000,"state":"active","ping":116},{"user_id":76,"name":"SomeGuyWhoLikesPotatoes","steam_id":76561198110276797,"connected_time":1057000000000,"state":"active","ping":49},{"user_id":77,"name":"happer","steam_id":76561198018252253,"connected_time":998000000000,"state":"active","ping":88},{"user_id":73,"name":"Shlime \u003c3","steam_id":76561199024322550,"connected_time":1263000000000,"state":"active","ping":86},{"user_id":30,"name":"_DrunkenGibberish_","steam_id":76561199123070071,"connected_time":4468000000000,"state":"active","ping":114},{"user_id":82,"name":"Greskrendtregk","steam_id":76561197969553142,"connected_time":317000000000,"state":"active","ping":51},{"user_id":75,"name":"I like cheese (real)","steam_id":76561198882837408,"connected_time":1139000000000,"state":"active","ping":73}]},{"server_id":406,"name":"Uncletopia | Seattle | 3 | Stopwatch Beta","name_short":"sea-3","host":"sea-1.us.uncletopia.com","port":27035,"enabled":true,"region":"us-west","cc":"us","latitude":47.608013,"longitude":-122.33517,"reserved":0,"last_update":"0001-01-01T00:00:00Z","name_a2s":"Uncletopia | Seattle | 3 | Stopwatch Beta","protocol":17,"map":"cp_granary","folder":"tf","game":"Team Fortress","app_id":440,"player_count":0,"max_players":24,"Bots":0,"server_type":"Dedicated","server_os":"Linux","password":true,"vac":true,"version":"7742253","steam_id":85568392924515217,"keywords":["cp","nocrits","nodmgspread","uncletopia"],"game_id":440,"stv_port":27036,"stv_name":"Uncletopia | Seattle | 3 | Stopwatch Beta | STV","players":null},{"server_id":17,"name":"Uncletopia | San Francisco | 1 | All Maps","name_short":"sfo-1","host":"sfo-1.us.uncletopia.com","port":27015,"enabled":true,"region":"us-west","cc":"us","latitude":37.77397,"longitude":-122.4313,"reserved":0,"last_update":"0001-01-01T00:00:00Z","name_a2s":"Uncletopia | San Francisco | 1 | All Maps","protocol":17,"map":"pl_snowycoast","folder":"tf","game":"Team Fortress","app_id":440,"player_count":0,"max_players":24,"Bots":0,"server_type":"Dedicated","server_os":"Linux","password":true,"vac":true,"version":"7742253","steam_id":85568392924469999,"keywords":["nocrits","nodmgspread","payload","uncletopia"],"game_id":440,"stv_port":27016,"stv_name":"Uncletopia | San Francisco | 1 | All Maps | STV","players":null},{"server_id":18,"name":"Uncletopia | San Francisco | 2 | All Maps","name_short":"sfo-2","host":"sfo-1.us.uncletopia.com","port":27025,"enabled":true,"region":"us-west","cc":"us","latitude":37.77397,"longitude":-122.4313,"reserved":0,"last_update":"0001-01-01T00:00:00Z","name_a2s":"Uncletopia | San Francisco | 2 | All Maps","protocol":17,"map":"cp_altitude","folder":"tf","game":"Team Fortress","app_id":440,"player_count":0,"max_players":24,"Bots":0,"server_type":"Dedicated","server_os":"Linux","password":true,"vac":true,"version":"7742253","steam_id":85568392924470000,"keywords":["cp","nocrits","nodmgspread","uncletopia"],"game_id":440,"stv_port":27026,"stv_name":"Uncletopia | San Francisco | 2 | All Maps | STV","players":null},{"server_id":19,"name":"Uncletopia | San Francisco | 3 | Stopwatch Beta","name_short":"sfo-3","host":"sfo-1.us.uncletopia.com","port":27035,"enabled":true,"region":"us-west","cc":"us","latitude":37.77397,"longitude":-122.4313,"reserved":0,"last_update":"0001-01-01T00:00:00Z","name_a2s":"Uncletopia | San Francisco | 3 | Stopwatch Beta","protocol":17,"map":"workshop/pl_vigil_rc9.ugc1266210012","folder":"tf","game":"Team Fortress","app_id":440,"player_count":0,"max_players":24,"Bots":0,"server_type":"Dedicated","server_os":"Linux","password":true,"vac":true,"version":"7742253","steam_id":85568392924742824,"keywords":["nocrits","nodmgspread","payload","uncletopia"],"game_id":440,"stv_port":27036,"stv_name":"Uncletopia | San Francisco | 3 | Stopwatch Beta | STV","players":null},{"server_id":20,"name":"Uncletopia | San Francisco | 4 | Community","name_short":"sfo-4","host":"sfo-1.us.uncletopia.com","port":27045,"enabled":true,"region":"us-west","cc":"us","latitude":37.77397,"longitude":-122.4313,"reserved":0,"last_update":"0001-01-01T00:00:00Z","name_a2s":"Uncletopia | San Francisco | 4 | Community","protocol":17,"map":"workshop/koth_ashville_final.ugc2130459942","folder":"tf","game":"Team Fortress","app_id":440,"player_count":0,"max_players":24,"Bots":0,"server_type":"Dedicated","server_os":"Linux","password":true,"vac":true,"version":"7742253","steam_id":85568392924742826,"keywords":["cp","nocrits","nodmgspread","uncletopia"],"game_id":440,"stv_port":27046,"stv_name":"Uncletopia | San Francisco | 4 | Community | STV","players":null},{"server_id":141,"name":"Uncletopia | Sydney | 1 | All Maps","name_short":"syd-1","host":"syd-1.au.uncletopia.com","port":27015,"enabled":true,"region":"au","cc":"au","latitude":-33.865143,"longitude":151.2099,"reserved":0,"last_update":"0001-01-01T00:00:00Z","name_a2s":"Uncletopia | Sydney | 1 | All Maps","protocol":17,"map":"koth_lakeside_final","folder":"tf","game":"Team Fortress","app_id":440,"player_count":0,"max_players":24,"Bots":0,"server_type":"Dedicated","server_os":"Linux","password":true,"vac":true,"version":"7742253","steam_id":85568392924470001,"keywords":["cp","nocrits","nodmgspread","uncletopia"],"game_id":440,"stv_port":27016,"stv_name":"Uncletopia | Sydney | 1 | All Maps | STV","players":null},{"server_id":123,"name":"Uncletopia | Sydney | 2 | All Maps","name_short":"syd-2","host":"syd-1.au.uncletopia.com","port":27025,"enabled":true,"region":"au","cc":"au","latitude":-33.865143,"longitude":151.2099,"reserved":0,"last_update":"0001-01-01T00:00:00Z","name_a2s":"Uncletopia | Sydney | 2 | All Maps","protocol":17,"map":"pl_badwater","folder":"tf","game":"Team Fortress","app_id":440,"player_count":0,"max_players":24,"Bots":0,"server_type":"Dedicated","server_os":"Linux","password":true,"vac":true,"version":"7742253","steam_id":85568392924470002,"keywords":["nocrits","nodmgspread","payload","uncletopia"],"game_id":440,"stv_port":27026,"stv_name":"Uncletopia | Sydney | 2 | All Maps | STV","players":null},{"server_id":395,"name":"Uncletopia | Sydney | 3 | All Maps","name_short":"syd-3","host":"syd-1.au.uncletopia.com","port":27035,"enabled":true,"region":"au","cc":"au","latitude":-33.865143,"longitude":151.2099,"reserved":0,"last_update":"0001-01-01T00:00:00Z","name_a2s":"Uncletopia | Sydney | 3 | All Maps","protocol":17,"map":"koth_viaduct","folder":"tf","game":"Team Fortress","app_id":440,"player_count":0,"max_players":24,"Bots":0,"server_type":"Dedicated","server_os":"Linux","password":true,"vac":true,"version":"7742253","steam_id":85568392925194467,"keywords":["cp","nocrits","nodmgspread","uncletopia"],"game_id":440,"stv_port":27036,"stv_name":"Uncletopia | Sydney | 3 | All Maps | STV","players":null},{"server_id":396,"name":"Uncletopia | Sydney | 4 | All Maps","name_short":"syd-4","host":"syd-1.au.uncletopia.com","port":27045,"enabled":true,"region":"au","cc":"au","latitude":-33.865143,"longitude":151.2099,"reserved":0,"last_update":"0001-01-01T00:00:00Z","name_a2s":"Uncletopia | Sydney | 4 | All Maps","protocol":17,"map":"pl_frontier_final","folder":"tf","game":"Team Fortress","app_id":440,"player_count":0,"max_players":24,"Bots":0,"server_type":"Dedicated","server_os":"Linux","password":true,"vac":true,"version":"7742253","steam_id":85568392925397958,"keywords":["nocrits","nodmgspread","payload","uncletopia"],"game_id":440,"stv_port":27046,"stv_name":"Uncletopia | Sydney | 4 | All Maps | STV","players":null},{"server_id":58,"name":"Uncletopia | Sydney | 5 | Stopwatch Beta","name_short":"syd-5","host":"syd-1.au.uncletopia.com","port":27055,"enabled":true,"region":"au","cc":"au","latitude":-33.865143,"longitude":151.2099,"reserved":0,"last_update":"0001-01-01T00:00:00Z","name_a2s":"Uncletopia | Sydney | 5 | Stopwatch Beta","protocol":17,"map":"cp_sunshine","folder":"tf","game":"Team Fortress","app_id":440,"player_count":0,"max_players":24,"Bots":0,"server_type":"Dedicated","server_os":"Linux","password":true,"vac":true,"version":"7742253","steam_id":85568392925397959,"keywords":["cp","nocrits","nodmgspread","uncletopia"],"game_id":440,"stv_port":27056,"stv_name":"Uncletopia | Sydney | 5 | Stopwatch Beta | STV","players":null},{"server_id":59,"name":"Uncletopia | Sydney | 6 | Community","name_short":"syd-6","host":"syd-1.au.uncletopia.com","port":27065,"enabled":true,"region":"au","cc":"au","latitude":-33.865143,"longitude":151.2099,"reserved":0,"last_update":"0001-01-01T00:00:00Z","name_a2s":"Uncletopia | Sydney | 6 | Community","protocol":17,"map":"cp_dustbowl","folder":"tf","game":"Team Fortress","app_id":440,"player_count":0,"max_players":24,"Bots":0,"server_type":"Dedicated","server_os":"Linux","password":true,"vac":true,"version":"7742253","steam_id":85568392925397960,"keywords":["cp","nocrits","nodmgspread","uncletopia"],"game_id":440,"stv_port":27066,"stv_name":"Uncletopia | Sydney | 6 | Community | STV","players":null},{"server_id":49,"name":"Uncletopia | Warsaw | 1 | All Maps","name_short":"waw-1","host":"waw-1.pl.uncletopia.com","port":27015,"enabled":true,"region":"eu","cc":"pl","latitude":52.2297,"longitude":21.017532,"reserved":0,"last_update":"0001-01-01T00:00:00Z","name_a2s":"","protocol":0,"map":"","folder":"","game":"","app_id":0,"player_count":0,"max_players":0,"Bots":0,"server_type":"","server_os":"","password":false,"vac":false,"version":"","steam_id":0,"keywords":null,"game_id":0,"stv_port":0,"stv_name":"","players":null},{"server_id":50,"name":"Uncletopia | Warsaw | 2 | All Maps","name_short":"waw-2","host":"waw-1.pl.uncletopia.com","port":27025,"enabled":true,"region":"eu","cc":"pl","latitude":52.2297,"longitude":21.017532,"reserved":0,"last_update":"0001-01-01T00:00:00Z","name_a2s":"Uncletopia | Warsaw | 2 | All Maps","protocol":17,"map":"koth_highpass","folder":"tf","game":"Team Fortress","app_id":440,"player_count":0,"max_players":24,"Bots":0,"server_type":"Dedicated","server_os":"Linux","password":true,"vac":true,"version":"7742253","steam_id":85568392925397851,"keywords":["cp","nocrits","nodmgspread","uncletopia"],"game_id":440,"stv_port":27026,"stv_name":"Uncletopia | Warsaw | 2 | All Maps | STV","players":null},{"server_id":51,"name":"Uncletopia | Warsaw | 3 | All Maps","name_short":"waw-3","host":"waw-1.pl.uncletopia.com","port":27035,"enabled":true,"region":"eu","cc":"pl","latitude":52.2297,"longitude":21.017532,"reserved":0,"last_update":"0001-01-01T00:00:00Z","name_a2s":"Uncletopia | Warsaw | 3 | All Maps","protocol":17,"map":"pl_snowycoast","folder":"tf","game":"Team Fortress","app_id":440,"player_count":4,"max_players":24,"Bots":0,"server_type":"Dedicated","server_os":"Linux","password":true,"vac":true,"version":"7742253","steam_id":85568392925397852,"keywords":["nocrits","nodmgspread","payload","uncletopia"],"game_id":440,"stv_port":27036,"stv_name":"Uncletopia | Warsaw | 3 | All Maps | STV","players":[{"user_id":15,"name":"–î—è–¥—è –ì–µ–π–º–µ—Ä","steam_id":76561198053440057,"connected_time":672000000000,"state":"active","ping":90},{"user_id":16,"name":"Eeshie","steam_id":76561198054816169,"connected_time":607000000000,"state":"active","ping":93},{"user_id":17,"name":"vertigo philosopher","steam_id":76561198034514694,"connected_time":565000000000,"state":"active","ping":115},{"user_id":18,"name":"Shimass","steam_id":76561198867546842,"connected_time":395000000000,"state":"active","ping":59}]},{"server_id":52,"name":"Uncletopia | Warsaw | 4 | All Maps","name_short":"waw-4","host":"waw-1.pl.uncletopia.com","port":27045,"enabled":true,"region":"eu","cc":"pl","latitude":52.2297,"longitude":21.017532,"reserved":0,"last_update":"0001-01-01T00:00:00Z","name_a2s":"Uncletopia | Warsaw | 4 | All Maps","protocol":17,"map":"koth_highpass","folder":"tf","game":"Team Fortress","app_id":440,"player_count":0,"max_players":24,"Bots":0,"server_type":"Dedicated","server_os":"Linux","password":true,"vac":true,"version":"7742253","steam_id":85568392925397853,"keywords":["cp","nocrits","nodmgspread","uncletopia"],"game_id":440,"stv_port":27046,"stv_name":"Uncletopia | Warsaw | 4 | All Maps | STV","players":null},{"server_id":53,"name":"Uncletopia | Warsaw | 5 | Stopwatch Beta","name_short":"waw-5","host":"waw-1.pl.uncletopia.com","port":27055,"enabled":true,"region":"eu","cc":"pl","latitude":52.2297,"longitude":21.017532,"reserved":0,"last_update":"0001-01-01T00:00:00Z","name_a2s":"Uncletopia | Warsaw | 5 | Stopwatch Beta","protocol":17,"map":"pl_swiftwater_final1","folder":"tf","game":"Team Fortress","app_id":440,"player_count":0,"max_players":24,"Bots":0,"server_type":"Dedicated","server_os":"Linux","password":true,"vac":true,"version":"7742253","steam_id":85568392925397854,"keywords":["nocrits","nodmgspread","payload","uncletopia"],"game_id":440,"stv_port":27056,"stv_name":"Uncletopia | Warsaw | 5 | Stopwatch Beta | STV","players":null},{"server_id":54,"name":"Uncletopia | Warsaw | 6 | Community","name_short":"waw-6","host":"waw-1.pl.uncletopia.com","port":27065,"enabled":true,"region":"eu","cc":"pl","latitude":52.2297,"longitude":21.017532,"reserved":0,"last_update":"0001-01-01T00:00:00Z","name_a2s":"Uncletopia | Warsaw | 6 | Community","protocol":17,"map":"workshop/koth_bagel_rc5.ugc2514036946","folder":"tf","game":"Team Fortress","app_id":440,"player_count":0,"max_players":24,"Bots":0,"server_type":"Dedicated","server_os":"Linux","password":true,"vac":true,"version":"7742253","steam_id":85568392925397856,"keywords":["cp","nocrits","nodmgspread","uncletopia"],"game_id":440,"stv_port":27066,"stv_name":"Uncletopia | Warsaw | 6 | Community | STV","players":null}]}