{"status":true,"message":"","result":[{"server_id":9,"name":"Uncletopia | Atlanta | 1 | All Maps","name_short":"atl-1","host":"atl-1.us.uncletopia.com","port":27015,"enabled":true,"region":"us-east","cc":"us","latitude":33.753746,"longitude":-84.38633,"reserved":0,"last_update":"0001-01-01T00:00:00Z","name_a2s":"Uncletopia | Atlanta | 1 | All Maps","protocol":17,"map":"pl_barnblitz","folder":"tf","game":"Team Fortress","app_id":440,"player_count":24,"max_players":24,"Bots":0,"server_type":"Dedicated","server_os":"Linux","password":true,"vac":true,"version":"7757534","steam_id":85568392924469982,"keywords":["nocrits","nodmgspread","payload","uncletopia"],"game_id":440,"stv_port":27016,"stv_name":"Uncletopia | Atlanta | 1 | All Maps | STV","players":[{"user_id":679,"name":"Fargo","steam_id":76561198044703931,"connected_time":977000000000,"state":"active","ping":83},{"user_id":655,"name":"Jake The Snake","steam_id":76561198047722285,"connected_time":3057000000000,"state":"active","ping":70},{"user_id":628,"name":"titaniumsupernova","steam_id":76561198311711930,"connected_time":6988000000000,"state":"active","ping":50},{"user_id":644,"name":"Albino Jellyfish","steam_id":76561198208561097,"connected_time":4456000000000,"state":"active","ping":63},{"user_id":656,"name":"Pokon","steam_id":76561198053113088,"connected_time":3054000000000,"state":"active","ping":45},{"user_id":680,"name":"Stronk","steam_id":76561198314043450,"connected_time":976000000000,"state":"active","ping":92},{"user_id":681,"name":"scott7540","steam_id":76561198065859171,"connected_time":907000000000,"state":"active","ping":66},{"user_id":682,"name":"cilo","steam_id":76561198046163502,"connected_time":900000000000,"state":"active","ping":72},{"user_id":631,"name":"rose","steam_id":76561198048882285,"connected_time":6786000000000,"state":"active","ping":60},{"user_id":700,"name":"frank","steam_id":76561198137777483,"connected_time":132000000000,"state":"active","ping":83},{"user_id":672,"name":"Coinclever","steam_id":76561198099972692,"connected_time":1433000000000,"state":"active","ping":69},{"user_id":683,"name":"mu","steam_id":76561197997530228,"connected_time":892000000000,"state":"active","ping":110},{"user_id":619,"name":"ATL1 | Psionic Box","steam_id":76561198151019322,"connected_time":8623000000000,"state":"active","ping":71},{"user_id":684,"name":"DjBallBag","steam_id":76561198118551080,"connected_time":888000000000,"state":"active","ping":85},{"user_id":572,"name":"DFR Le4n!!!","steam_id":76561198045522596,"connected_time":13758000000000,"state":"active","ping":69},{"user_id":699,"name":"Marv_L","steam_id":76561198035709541,"connected_time":299000000000,"state":"active","ping":113},{"user_id":698,"name":"ruchacz bosniakow974","steam_id":76561199084680369,"connected_time":436000000000,"state":"active","ping":165},{"user_id":687,"name":"Line","steam_id":76561198086222096,"connected_time":807000000000,"state":"active","ping":60},{"user_id":694,"name":"Chin","steam_id":76561198247426906,"connected_time":650000000000,"state":"active","ping":71},{"user_id":674,"name":"Jin","steam_id":76561198119873148,"connected_time":1349000000000,"state":"active","ping":65},{"user_id":689,"name":"victordead121","steam_id":76561199180843121,"connected_time":758000000000,"state":"active","ping":115},{"user_id":677,"name":"Epifiny","steam_id":76561198027958086,"connected_time":1094000000000,"state":"active","ping":76},{"user_id":691,"name":"Blaargonaut‚Ñ¢","steam_id":76561198044021542,"connected_time":719000000000,"state":"active","ping":97},{"user_id":695,"name":"Mage","steam_id":76561198285026879,"connected_time":635000000000,"state":"active","ping":82}]},{"server_id":104,"name":"Uncletopia | Atlanta | 2 | All Maps","name_short":"atl-2","host":"atl-1.us.uncletopia.com","port":27025,"enabled":true,"region":"us-east","cc":"us","latitude":33.753746,"longitude":-84.38633,"reserved":0,"last_update":"0001-01-01T00:00:00Z","name_a2s":"Uncletopia | Atlanta | 2 | All Maps","protocol":17,"map":"koth_viaduct","folder":"tf","game":"Team Fortress","app_id":440,"player_count":0,"max_players":24,"Bots":0,"server_type":"Dedicated","server_os":"Linux","password":true,"vac":true,"version":"7757534","steam_id":85568392924469983,"keywords":["cp","nocrits","nodmgspread","uncletopia"],"game_id":440,"stv_port":27026,"stv_name":"Uncletopia | Atlanta | 2 | All Maps | STV","players":null},{"server_id":400,"name":"Uncletopia | Atlanta | 3 | Community","name_short":"atl-3","host":"atl-1.us.uncletopia.com","port":27035,"enabled":true,"region":"us-east","cc":"us","latitude":33.753746,"longitude":-84.38633,"reserved":0,"last_update":"0001-01-01T00:00:00Z","name_a2s":"Uncletopia | Atlanta | 3 | Community","protocol":17,"map":"workshop/rd_asteroid_redux_b1.ugc2154902912","folder":"tf","game":"Team Fortress","app_id":440,"player_count":0,"max_players":24,"Bots":0,"server_type":"Dedicated","server_os":"Linux","password":true,"vac":true,"version":"7757534","steam_id":85568392924515187,"keywords":["beta","nocrits","nodmgspread","rd","uncletopia"],"game_id":440,"stv_port":27036,"stv_name":"Uncletopia | Atlanta | 3 | Community | STV","players":null},{"server_id":401,"name":"Uncletopia | Atlanta | 4 | No Payload","name_short":"atl-4","host":"atl-1.us.uncletopia.com","port":27045,"enabled":true,"region":"us-east","cc":"us","latitude":33.753746,"longitude":-84.38633,"reserved":0,"last_update":"0001-01-01T00:00:00Z","name_a2s":"","protocol":0,"map":"","folder":"","game":"","app_id":0,"player_count":0,"max_players":0,"Bots":0,"server_type":"","server_os":"","password":false,"vac":false,"version":"","steam_id":0,"keywords":null,"game_id":0,"stv_port":0,"stv_name":"","players":null},{"server_id":2,"name":"Uncletopia | Chicago | 1 | All Maps","name_short":"chi-1","host":"chi-1.us.uncletopia.com","port":27015,"enabled":true,"region":"us-central","cc":"us","latitude":41.881832,"longitude":-87.62318,"reserved":0,"last_update":"0001-01-01T00:00:00Z","name_a2s":"Uncletopia | Chicago | 1 | All Maps","protocol":17,"map":"cp_mountainlab","folder":"tf","game":"Team Fortress","app_id":440,"player_count":0,"max_players":24,"Bots":0,"server_type":"Dedicated","server_os":"Linux","password":true,"vac":true,"version":"7757534","steam_id":85568392924469984,"keywords":["cp","nocrits","nodmgspread","uncletopia"],"game_id":440,"stv_port":27016,"stv_name":"Uncletopia | Chicago | 1 | All Maps | STV","players":null},{"server_id":106,"name":"Uncletopia | Chicago | 2 | All Maps","name_short":"chi-2","host":"chi-1.us.uncletopia.com","port":27025,"enabled":true,"region":"us-central","cc":"us","latitude":41.881832,"longitude":-87.62318,"reserved":0,"last_update":"0001-01-01T00:00:00Z","name_a2s":"Uncletopia | Chicago | 2 | All Maps","protocol":17,"map":"cp_snakewater_final1","folder":"tf","game":"Team Fortress","app_id":440,"player_count":0,"max_players":24,"Bots":0,"server_type":"Dedicated","server_os":"Linux","password":true,"vac":true,"version":"7757534","steam_id":85568392924469985,"keywords":["cp","nocrits","nodmgspread","uncletopia"],"game_id":440,"stv_port":27026,"stv_name":"Uncletopia | Chicago | 2 | All Maps | STV","players":null},{"server_id":402,"name":"Uncletopia | Chicago | 3 | All Maps","name_short":"chi-3","host":"chi-1.us.uncletopia.com","port":27035,"enabled":true,"region":"us-central","cc":"us","latitude":41.881832,"longitude":-87.62318,"reserved":0,"last_update":"0001-01-01T00:00:00Z","name_a2s":"Uncletopia | Chicago | 3 | All Maps","protocol":17,"map":"koth_lakeside_final","folder":"tf","game":"Team Fortress","app_id":440,"player_count":3,"max_players":24,"Bots":0,"server_type":"Dedicated","server_os":"Linux","password":true,"vac":true,"version":"7757534","steam_id":85568392924515191,"keywords":["cp","nocrits","nodmgspread","uncletopia"],"game_id":440,"stv_port":27036,"stv_name":"Uncletopia | Chicago | 3 | All Maps | STV","players":[{"user_id":773,"name":"MuffinMan","steam_id":76561198272111654,"connected_time":710000000000,"state":"active","ping":97},{"user_id":774,"name":"lazy","steam_id":76561199191149784,"connected_time":660000000000,"state":"active","ping":95},{"user_id":777,"name":"Chancethefapper69","steam_id":76561198173086317,"connected_time":126000000000,"state":"active","ping":73}]},{"server_id":403,"name":"Uncletopia | Chicago | 4 | All Maps","name_short":"chi-4","host":"chi-1.us.uncletopia.com","port":27045,"enabled":true,"region":"us-central","cc":"us","latitude":41.881832,"longitude":-87.62318,"reserved":0,"last_update":"0001-01-01T00:00:00Z","name_a2s":"Uncletopia | Chicago | 4 | All Maps","protocol":17,"map":"pl_upward","folder":"tf","game":"Team Fortress","app_id":440,"player_count":24,"max_players":24,"Bots":0,"server_type":"Dedicated","server_os":"Linux","password":true,"vac":true,"version":"7757534","steam_id":85568392924515193,"keywords":["nocrits","nodmgspread","payload","uncletopia"],"game_id":440,"stv_port":27046,"stv_name":"Uncletopia | Chicago | 4 | All Maps | STV","players":[{"user_id":721,"name":"alN","steam_id":76561198329171346,"connected_time":7330000000000,"state":"active","ping":44},{"user_id":722,"name":"Underqualified Gunman","steam_id":76561198111061367,"connected_time":7298000000000,"state":"active","ping":60},{"user_id":798,"name":"BTS | Bumbler","steam_id":76561198048895038,"connected_time":747000000000,"state":"active","ping":79},{"user_id":768,"name":"HundchenTanque","steam_id":76561198122692754,"connected_time":3845000000000,"state":"active","ping":51},{"user_id":801,"name":"Willow_Night","steam_id":76561198811532166,"connected_time":646000000000,"state":"active","ping":59},{"user_id":779,"name":"griddy","steam_id":76561198881665250,"connected_time":2864000000000,"state":"active","ping":92},{"user_id":724,"name":"Kevster570","steam_id":76561198115803066,"connected_time":7154000000000,"state":"active","ping":100},{"user_id":802,"name":"Dextstuff2319","steam_id":76561198014936997,"connected_time":607000000000,"state":"active","ping":64},{"user_id":731,"name":"Orenji","steam_id":76561199229204857,"connected_time":6824000000000,"state":"active","ping":134},{"user_id":751,"name":"Lore","steam_id":76561198098407538,"connected_time":5180000000000,"state":"active","ping":45},{"user_id":774,"name":"Waylen","steam_id":76561198945724920,"connected_time":3267000000000,"state":"active","ping":81},{"user_id":803,"name":".Cassius.","steam_id":76561199181383832,"connected_time":603000000000,"state":"active","ping":60},{"user_id":792,"name":"roast pig with apple in mouth","steam_id":76561198051353647,"connected_time":1588000000000,"state":"active","ping":63},{"user_id":807,"name":"Jimmy Johns Stupid Sandwich","steam_id":76561198143443816,"connected_time":241000000000,"state":"active","ping":111},{"user_id":773,"name":"toilethumor","steam_id":76561197962028780,"connected_time":3583000000000,"state":"active","ping":63},{"user_id":799,"name":"BTS | Kalaner","steam_id":76561198041088708,"connected_time":677000000000,"state":"active","ping":47},{"user_id":800,"name":"Queen Frau the Round","steam_id":76561197999942134,"connected_time":675000000000,"state":"active","ping":45},{"user_id":804,"name":"AbuzzCactus","steam_id":76561198078391197,"connected_time":574000000000,"state":"active","ping":97},{"user_id":720,"name":"Bryguy","steam_id":76561198092096120,"connected_time":7444000000000,"state":"active","ping":45},{"user_id":789,"name":"Sabaman55","steam_id":76561198212267979,"connected_time":2326000000000,"state":"active","ping":63},{"user_id":805,"name":"WhiteRabbit","steam_id":76561198027579538,"connected_time":557000000000,"state":"active","ping":70},{"user_id":808,"name":"Neltron","steam_id":76561199383809027,"connected_time":210000000000,"state":"active","ping":71},{"user_id":794,"name":"Kng","steam_id":76561198993248203,"connected_time":1292000000000,"state":"active","ping":86},{"user_id":797,"name":"Anime_Ori","steam_id":76561198082715890,"connected_time":791000000000,"state":"active","ping":61}]},{"server_id":36,"name":"Uncletopia | Chicago | 5 | All Maps","name_short":"chi-5","host":"chi-2.us.uncletopia.com","port":27015,"enabled":true,"region":"us-central","cc":"us","latitude":41.881832,"longitude":-87.62318,"reserved":0,"last_update":"0001-01-01T00:00:00Z","name_a2s":"Uncletopia | Chicago | 5 | All Maps","protocol":17,"map":"pl_upward","folder":"tf","game":"Team Fortress","app_id":440,"player_count":23,"max_players":24,"Bots":0,"server_type":"Dedicated","server_os":"Linux","password":true,"vac":true,"version":"7757534","steam_id":85568392924866362,"keywords":["nocrits","nodmgspread","payload","uncletopia"],"game_id":440,"stv_port":27016,"stv_name":"Uncletopia | Chicago | 5 | All Maps | STV","players":[{"user_id":477,"name":"RectalExam","steam_id":76561197970502312,"connected_time":6035000000000,"state":"active","ping":81},{"user_id":527,"name":"Tough Puffin","steam_id":76561198024011010,"connected_time":1217000000000,"state":"active","ping":70},{"user_id":514,"name":"Need a femboy","steam_id":76561198283507975,"connected_time":2092000000000,"state":"active","ping":103},{"user_id":515,"name":"King (Who's on a budget)","steam_id":76561199086357213,"connected_time":2035000000000,"state":"active","ping":82},{"user_id":483,"name":"_hooded_","steam_id":76561198023595873,"connected_time":5905000000000,"state":"active","ping":82},{"user_id":516,"name":"RURU","steam_id":76561198039758987,"connected_time":2008000000000,"state":"active","ping":103},{"user_id":519,"name":"F_L Vision Spire","steam_id":76561198095923905,"connected_time":1701000000000,"state":"active","ping":48},{"user_id":463,"name":"L'Jarius Sneed","steam_id":76561198059575962,"connected_time":6792000000000,"state":"active","ping":48},{"user_id":520,"name":"thundah!","steam_id":76561199159928133,"connected_time":1669000000000,"state":"active","ping":62},{"user_id":530,"name":"Walter White","steam_id":76561198875469297,"connected_time":565000000000,"state":"active","ping":62},{"user_id":475,"name":"Training Arc","steam_id":76561198038832034,"connected_time":6194000000000,"state":"active","ping":98},{"user_id":532,"name":"GuyGoom","steam_id":76561198254522178,"connected_time":485000000000,"state":"active","ping":56},{"user_id":533,"name":"Scary Jerry","steam_id":76561198942753105,"connected_time":422000000000,"state":"active","ping":95},{"user_id":521,"name":"F_L Nighthawk","steam_id":76561198081945810,"connected_time":1596000000000,"state":"active","ping":88},{"user_id":528,"name":"Mack","steam_id":76561198025365706,"connected_time":893000000000,"state":"active","ping":70},{"user_id":529,"name":"10cc","steam_id":76561198052009876,"connected_time":833000000000,"state":"active","ping":167},{"user_id":524,"name":"owled`XIII","steam_id":76561198143180203,"connected_time":1422000000000,"state":"active","ping":152},{"user_id":503,"name":"sqgly","steam_id":76561198105508955,"connected_time":3077000000000,"state":"active","ping":48},{"user_id":511,"name":"Kushkatt","steam_id":76561198058397659,"connected_time":2710000000000,"state":"active","ping":74},{"user_id":525,"name":"Saucy Boy","steam_id":76561198178332031,"connected_time":1389000000000,"state":"active","ping":70},{"user_id":506,"name":"Howard Hamlin","steam_id":76561198308883028,"connected_time":2971000000000,"state":"active","ping":110},{"user_id":534,"name":"MR MODE","steam_id":76561198046775352,"connected_time":348000000000,"state":"active","ping":91},{"user_id":526,"name":"Lavender","steam_id":76561198142770666,"connected_time":1362000000000,"state":"active","ping":57}]},{"server_id":37,"name":"Uncletopia | Chicago | 6 | All Maps","name_short":"chi-6","host":"chi-2.us.uncletopia.com","port":27025,"enabled":true,"region":"us-central","cc":"us","latitude":41.881832,"longitude":-87.62318,"reserved":0,"last_update":"0001-01-01T00:00:00Z","name_a2s":"Uncletopia | Chicago | 6 | All Maps","protocol":17,"map":"cp_sunshine","folder":"tf","game":"Team Fortress","app_id":440,"player_count":7,"max_players":24,"Bots":0,"server_type":"Dedicated","server_os":"Linux","password":true,"vac":true,"version":"7757534","steam_id":85568392924866363,"keywords":["cp","nocrits","nodmgspread","uncletopia"],"game_id":440,"stv_port":27026,"stv_name":"Uncletopia | Chicago | 6 | All Maps | STV","players":[{"user_id":636,"name":"chill","steam_id":76561198982840251,"connected_time":141000000000,"state":"active","ping":68},{"user_id":553,"name":"ror!","steam_id":76561198021227843,"connected_time":8765000000000,"state":"active","ping":53},{"user_id":568,"name":"chef_hatchet","steam_id":76561198154906329,"connected_time":7367000000000,"state":"active","ping":46},{"user_id":627,"name":"he munch","steam_id":76561198339644583,"connected_time":1548000000000,"state":"active","ping":42},{"user_id":632,"name":"Toxic Medic Main (he/they)","steam_id":76561198009314845,"connected_time":792000000000,"state":"active","ping":101},{"user_id":634,"name":"Âë™„Çè„ÇåÂÖé","steam_id":76561198067610427,"connected_time":436000000000,"state":"active","ping":75},{"user_id":630,"name":"4+1MyriadFuturesCosMo@BousouFC","steam_id":76561198181929019,"connected_time":922000000000,"state":"active","ping":48}]},{"server_id":38,"name":"Uncletopia | Chicago | 7 | Stopwatch Beta","name_short":"chi-7","host":"chi-2.us.uncletopia.com","port":27035,"enabled":true,"region":"us-central","cc":"us","latitude":41.881832,"longitude":-87.62318,"reserved":0,"last_update":"0001-01-01T00:00:00Z","name_a2s":"Uncletopia | Chicago | 7 | Stopwatch Beta","protocol":17,"map":"workshop/koth_product_final.ugc454272353","folder":"tf","game":"Team Fortress","app_id":440,"player_count":0,"max_players":24,"Bots":0,"server_type":"Dedicated","server_os":"Linux","password":true,"vac":true,"version":"7757534","steam_id":85568392924866364,"keywords":["cp","nocrits","nodmgspread","uncletopia"],"game_id":440,"stv_port":27036,"stv_name":"Uncletopia | Chicago | 7 | Stopwatch Beta | STV","players":null},{"server_id":39,"name":"Uncletopia | Chicago | 8 | Community","name_short":"chi-8","host":"chi-2.us.uncletopia.com","port":27045,"enabled":true,"region":"us-central","cc":"us","latitude":41.881832,"longitude":-87.62318,"reserved":0,"last_update":"0001-01-01T00:00:00Z","name_a2s":"Uncletopia | Chicago | 8 | Community","protocol":17,"map":"workshop/cp_overgrown_rc7b.ugc503939302","folder":"tf","game":"Team Fortress","app_id":440,"player_count":0,"max_players":24,"Bots":0,"server_type":"Dedicated","server_os":"Linux","password":true,"vac":true,"version":"7757534","steam_id":85568392924866365,"keywords":["cp","nocrits","nodmgspread","uncletopia"],"game_id":440,"stv_port":27046,"stv_name":"Uncletopia | Chicago | 8 | Community | STV","players":null},{"server_id":8,"name":"Uncletopia | Dallas | 1 | All Maps","name_short":"dal-1","host":"dal-1.us.uncletopia.com","port":27015,"enabled":true,"region":"us-central","cc":"us","latitude":32.779167,"longitude":-96.80889,"reserved":0,"last_update":"0001-01-01T00:00:00Z","name_a2s":"Uncletopia | Dallas | 1 | All Maps","protocol":17,"map":"cp_dustbowl","folder":"tf","game":"Team Fortress","app_id":440,"player_count":0,"max_players":24,"Bots":0,"server_type":"Dedicated","server_os":"Linux","password":true,"vac":true,"version":"7757534","steam_id":85568392924469986,"keywords":["cp","nocrits","nodmgspread","uncletopia"],"game_id":440,"stv_port":27016,"stv_name":"Uncletopia | Dallas | 1 | All Maps | STV","players":null},{"server_id":108,"name":"Uncletopia | Dallas | 2 | All Maps","name_short":"dal-2","host":"dal-1.us.uncletopia.com","port":27025,"enabled":true,"region":"us-central","cc":"us","latitude":32.779167,"longitude":-96.80889,"reserved":0,"last_update":"0001-01-01T00:00:00Z","name_a2s":"Uncletopia | Dallas | 2 | All Maps","protocol":17,"map":"pl_pier","folder":"tf","game":"Team Fortress","app_id":440,"player_count":0,"max_players":24,"Bots":0,"server_type":"Dedicated","server_os":"Linux","password":true,"vac":true,"version":"7757534","steam_id":85568392924469988,"keywords":["nocrits","nodmgspread","payload","uncletopia"],"game_id":440,"stv_port":27026,"stv_name":"Uncletopia | Dallas | 2 | All Maps | STV","players":null},{"server_id":5,"name":"Uncletopia | Frankfurt | 1 | All Maps","name_short":"frk-1","host":"frk-1.de.uncletopia.com","port":27015,"enabled":true,"region":"eu","cc":"de","latitude":50.110924,"longitude":8.682127,"reserved":0,"last_update":"0001-01-01T00:00:00Z","name_a2s":"Uncletopia | Frankfurt | 1 | All Maps","protocol":17,"map":"pl_snowycoast","folder":"tf","game":"Team Fortress","app_id":440,"player_count":2,"max_players":24,"Bots":0,"server_type":"Dedicated","server_os":"Linux","password":true,"vac":true,"version":"7757534","steam_id":85568392924469989,"keywords":["nocrits","nodmgspread","payload","uncletopia"],"game_id":440,"stv_port":27016,"stv_name":"Uncletopia | Frankfurt | 1 | All Maps | STV","players":[{"user_id":5,"name":"Frog","steam_id":76561198043981067,"connected_time":435000000000,"state":"active","ping":70},{"user_id":6,"name":"ja","steam_id":76561199228540618,"connected_time":248000000000,"state":"active","ping":74}]},{"server_id":110,"name":"Uncletopia | Frankfurt | 2 | All Maps","name_short":"frk-2","host":"frk-1.de.uncletopia.com","port":27025,"enabled":true,"region":"eu","cc":"de","latitude":50.110924,"longitude":8.682127,"reserved":0,"last_update":"0001-01-01T00:00:00Z","name_a2s":"Uncletopia | Frankfurt | 2 | All Maps","protocol":17,"map":"cp_snakewater_final1","folder":"tf","game":"Team Fortress","app_id":440,"player_count":0,"max_players":24,"Bots":0,"server_type":"Dedicated","server_os":"Linux","password":true,"vac":true,"version":"7757534","steam_id":85568392924469990,"keywords":["cp","nocrits","nodmgspread","uncletopia"],"game_id":440,"stv_port":27026,"stv_name":"Uncletopia | Frankfurt | 2 | All Maps | STV","players":null},{"server_id":308,"name":"Uncletopia | Frankfurt | 3 | All Maps","name_short":"frk-3","host":"frk-1.de.uncletopia.com","port":27035,"enabled":true,"region":"eu","cc":"de","latitude":50.110924,"longitude":8.682127,"reserved":0,"last_update":"0001-01-01T00:00:00Z","name_a2s":"Uncletopia | Frankfurt | 3 | All Maps","protocol":17,"map":"pl_swiftwater_final1","folder":"tf","game":"Team Fortress","app_id":440,"player_count":0,"max_players":24,"Bots":0,"server_type":"Dedicated","server_os":"Linux","password":true,"vac":true,"version":"7757534","steam_id":85568392924504274,"keywords":["nocrits","nodmgspread","payload","uncletopia"],"game_id":440,"stv_port":27036,"stv_name":"Uncletopia | Frankfurt | 3 | All Maps | STV","players":null},{"server_id":309,"name":"Uncletopia | Frankfurt | 4 | All Maps","name_short":"frk-4","host":"frk-1.de.uncletopia.com","port":27045,"enabled":true,"region":"eu","cc":"de","latitude":50.110924,"longitude":8.682127,"reserved":0,"last_update":"0001-01-01T00:00:00Z","name_a2s":"Uncletopia | Frankfurt | 4 | All Maps","protocol":17,"map":"koth_viaduct","folder":"tf","game":"Team Fortress","app_id":440,"player_count":0,"max_players":24,"Bots":0,"server_type":"Dedicated","server_os":"Linux","password":true,"vac":true,"version":"7757534","steam_id":85568392924504275,"keywords":["cp","nocrits","nodmgspread","uncletopia"],"game_id":440,"stv_port":27046,"stv_name":"Uncletopia | Frankfurt | 4 | All Maps | STV","players":null},{"server_id":310,"name":"Uncletopia | Frankfurt | 5 | All Maps","name_short":"frk-5","host":"frk-1.de.uncletopia.com","port":27055,"enabled":true,"region":"eu","cc":"de","latitude":50.110924,"longitude":8.682127,"reserved":0,"last_update":"0001-01-01T00:00:00Z","name_a2s":"Uncletopia | Frankfurt | 5 | All Maps","protocol":17,"map":"koth_lakeside_final","folder":"tf","game":"Team Fortress","app_id":440,"player_count":0,"max_players":24,"Bots":0,"server_type":"Dedicated","server_os":"Linux","password":true,"vac":true,"version":"7757534","steam_id":85568392924504277,"keywords":["cp","nocrits","nodmgspread","uncletopia"],"game_id":440,"stv_port":27056,"stv_name":"Uncletopia | Frankfurt | 5 | All Maps | STV","players":null},{"server_id":311,"name":"Uncletopia | Frankfurt | 6 | All Maps","name_short":"frk-6","host":"frk-1.de.uncletopia.com","port":27065,"enabled":true,"region":"eu","cc":"de","latitude":50.110924,"longitude":8.682127,"reserved":0,"last_update":"0001-01-01T00:00:00Z","name_a2s":"Uncletopia | Frankfurt | 6 | All Maps","protocol":17,"map":"pl_frontier_final","folder":"tf","game":"Team Fortress","app_id":440,"player_count":0,"max_players":24,"Bots":0,"server_type":"Dedicated","server_os":"Linux","password":true,"vac":true,"version":"7757534","steam_id":85568392924504278,"keywords":["nocrits","nodmgspread","payload","uncletopia"],"game_id":440,"stv_port":27066,"stv_name":"Uncletopia | Frankfurt | 6 | All Maps | STV","players":null},{"server_id":23,"name":"Uncletopia | Frankfurt | 7 | Stopwatch Beta","name_short":"frk-7","host":"frk-1.de.uncletopia.com","port":27075,"enabled":true,"region":"eu","cc":"de","latitude":50.110924,"longitude":8.682127,"reserved":0,"last_update":"0001-01-01T00:00:00Z","name_a2s":"Uncletopia | Frankfurt | 7 | Stopwatch Beta","protocol":17,"map":"koth_lakeside_final","folder":"tf","game":"Team Fortress","app_id":440,"player_count":0,"max_players":24,"Bots":0,"server_type":"Dedicated","server_os":"Linux","password":true,"vac":true,"version":"7757534","steam_id":85568392924742827,"keywords":["cp","nocrits","nodmgspread","uncletopia"],"game_id":440,"stv_port":27076,"stv_name":"Uncletopia | Frankfurt | 7 | Stopwatch Beta | STV","players":null},{"server_id":24,"name":"Uncletopia | Frankfurt | 8 | Community","name_short":"frk-8","host":"frk-1.de.uncletopia.com","port":27085,"enabled":true,"region":"eu","cc":"de","latitude":50.110924,"longitude":8.682127,"reserved":0,"last_update":"0001-01-01T00:00:00Z","name_a2s":"Uncletopia | Frankfurt | 8 | Community","protocol":17,"map":"koth_lakeside_final","folder":"tf","game":"Team Fortress","app_id":440,"player_count":0,"max_players":24,"Bots":0,"server_type":"Dedicated","server_os":"Linux","password":true,"vac":true,"version":"7757534","steam_id":85568392924742828,"keywords":["cp","nocrits","nodmgspread","uncletopia"],"game_id":440,"stv_port":27086,"stv_name":"Uncletopia | Frankfurt | 8 | Community | STV","players":null},{"server_id":202,"name":"Uncletopia | Hong Kong | 1 | All Maps","name_short":"hgk-1","host":"hgk-1.hk.uncletopia.com","port":27015,"enabled":true,"region":"asia","cc":"hk","latitude":22.302711,"longitude":114.177216,"reserved":0,"last_update":"0001-01-01T00:00:00Z","name_a2s":"Uncletopia | Hong Kong | 1 | All Maps","protocol":17,"map":"koth_nucleus","folder":"tf","game":"Team Fortress","app_id":440,"player_count":21,"max_players":24,"Bots":0,"server_type":"Dedicated","server_os":"Linux","password":true,"vac":true,"version":"7757534","steam_id":85568392924494504,"keywords":["cp","nocrits","nodmgspread","uncletopia"],"game_id":440,"stv_port":27016,"stv_name":"Uncletopia | Hong Kong | 1 | All Maps | STV","players":[{"user_id":57,"name":"LEGS","steam_id":76561199111623890,"connected_time":10960000000000,"state":"active","ping":90},{"user_id":106,"name":"Male Detected!","steam_id":76561199082459598,"connected_time":5636000000000,"state":"active","ping":81},{"user_id":141,"name":"s4(nazuna)","steam_id":76561198173486463,"connected_time":1755000000000,"state":"active","ping":47},{"user_id":153,"name":"Madgoat01","steam_id":76561198438429996,"connected_time":893000000000,"state":"active","ping":90},{"user_id":145,"name":"vintage","steam_id":76561198230213828,"connected_time":1486000000000,"state":"active","ping":122},{"user_id":151,"name":"wombatrat","steam_id":76561199375834537,"connected_time":1027000000000,"state":"active","ping":77},{"user_id":137,"name":"Mystery cheese üßÄ","steam_id":76561198304002409,"connected_time":1904000000000,"state":"active","ping":81},{"user_id":90,"name":"elite anarchest","steam_id":76561198411982822,"connected_time":7518000000000,"state":"active","ping":71},{"user_id":140,"name":"üß°486üß°","steam_id":76561198954326760,"connected_time":1762000000000,"state":"active","ping":104},{"user_id":119,"name":"bam","steam_id":76561198418964176,"connected_time":4402000000000,"state":"active","ping":114},{"user_id":152,"name":"„Åó„ÇÅÈØñÔºü","steam_id":76561198189991001,"connected_time":1023000000000,"state":"active","ping":90},{"user_id":156,"name":"Sover blw.tf","steam_id":76561198136347837,"connected_time":663000000000,"state":"active","ping":87},{"user_id":143,"name":"ASDF1234","steam_id":76561198057026351,"connected_time":1567000000000,"state":"active","ping":87},{"user_id":157,"name":"…îu·ó°A …ü∆®u·íê","steam_id":76561199031283970,"connected_time":646000000000,"state":"active","ping":91},{"user_id":104,"name":"silverhouse7","steam_id":76561198349634906,"connected_time":5669000000000,"state":"active","ping":92},{"user_id":160,"name":"Ïø†ÌÇ§","steam_id":76561197997220367,"connected_time":423000000000,"state":"active","ping":51},{"user_id":163,"name":"Eugene the WISE","steam_id":76561198303608523,"connected_time":68000000000,"state":"active","ping":110},{"user_id":112,"name":"Â∏ï","steam_id":76561198439343999,"connected_time":4907000000000,"state":"active","ping":136},{"user_id":159,"name":"Leap","steam_id":76561198071156589,"connected_time":555000000000,"state":"active","ping":84},{"user_id":150,"name":"Topaz","steam_id":76561198097350308,"connected_time":1069000000000,"state":"active","ping":86},{"user_id":49,"name":"im_0ff","steam_id":76561198339346695,"connected_time":11816000000000,"state":"active","ping":128}]},{"server_id":1,"name":"Uncletopia | Los Angeles | 1 | All Maps","name_short":"lax-1","host":"lax-1.us.uncletopia.com","port":27015,"enabled":true,"region":"us-west","cc":"us","latitude":33.94279,"longitude":-118.41004,"reserved":0,"last_update":"0001-01-01T00:00:00Z","name_a2s":"Uncletopia | Los Angeles | 1 | All Maps","protocol":17,"map":"cp_process_final","folder":"tf","game":"Team Fortress","app_id":440,"player_count":0,"max_players":24,"Bots":0,"server_type":"Dedicated","server_os":"Linux","password":true,"vac":true,"version":"7757534","steam_id":85568392924469991,"keywords":["cp","nocrits","nodmgspread","uncletopia"],"game_id":440,"stv_port":27016,"stv_name":"Uncletopia | Los Angeles | 1 | All Maps | STV","players":null},{"server_id":112,"name":"Uncletopia | Los Angeles | 2 | All Maps","name_short":"lax-2","host":"lax-1.us.uncletopia.com","port":27025,"enabled":true,"region":"us-west","cc":"us","latitude":33.94279,"longitude":-118.41004,"reserved":0,"last_update":"0001-01-01T00:00:00Z","name_a2s":"Uncletopia | Los Angeles | 2 | All Maps","protocol":17,"map":"pl_frontier_final","folder":"tf","game":"Team Fortress","app_id":440,"player_count":24,"max_players":24,"Bots":0,"server_type":"Dedicated","server_os":"Linux","password":true,"vac":true,"version":"7757534","steam_id":85568392924469992,"keywords":["nocrits","nodmgspread","payload","uncletopia"],"game_id":440,"stv_port":27026,"stv_name":"Uncletopia | Los Angeles | 2 | All Maps | STV","players":[{"user_id":376,"name":"The Highwayman","steam_id":76561198319940972,"connected_time":1326000000000,"state":"active","ping":54},{"user_id":367,"name":"Young Brendan Fraser","steam_id":76561198036728212,"connected_time":2157000000000,"state":"active","ping":45},{"user_id":384,"name":"Boo! Boo I Say!","steam_id":76561198272427405,"connected_time":426000000000,"state":"active","ping":115},{"user_id":368,"name":"Caius Cosades","steam_id":76561198029708094,"connected_time":2117000000000,"state":"active","ping":57},{"user_id":337,"name":"blazen","steam_id":76561198921007863,"connected_time":3796000000000,"state":"active","ping":76},{"user_id":327,"name":"BuncusBeffer","steam_id":76561198285936616,"connected_time":4936000000000,"state":"active","ping":73},{"user_id":374,"name":"kermitcreeper(ZAZA)","steam_id":76561199222829972,"connected_time":1363000000000,"state":"active","ping":99},{"user_id":344,"name":"Star","steam_id":76561198150115757,"connected_time":3425000000000,"state":"active","ping":69},{"user_id":370,"name":"thumbofmurder","steam_id":76561198934670210,"connected_time":2097000000000,"state":"active","ping":60},{"user_id":383,"name":"Dry","steam_id":76561198124135416,"connected_time":507000000000,"state":"active","ping":112},{"user_id":364,"name":"SleezeBaggerMcSwagger","steam_id":76561198397836238,"connected_time":2326000000000,"state":"active","ping":56},{"user_id":385,"name":"Antzen","steam_id":76561198041343470,"connected_time":420000000000,"state":"active","ping":56},{"user_id":388,"name":"YellowShade","steam_id":76561198200828527,"connected_time":146000000000,"state":"active","ping":87},{"user_id":381,"name":"Sonicx9876","steam_id":76561198101470299,"connected_time":724000000000,"state":"active","ping":73},{"user_id":386,"name":"Lo-Pan","steam_id":76561198085670133,"connected_time":399000000000,"state":"active","ping":87},{"user_id":356,"name":"sweaterfan","steam_id":76561199389567214,"connected_time":2912000000000,"state":"active","ping":98},{"user_id":387,"name":"Quindeli","steam_id":76561198082765254,"connected_time":194000000000,"state":"active","ping":101},{"user_id":237,"name":"Turtimos","steam_id":76561198093519137,"connected_time":12551000000000,"state":"active","ping":69},{"user_id":377,"name":"oil","steam_id":76561198099980149,"connected_time":1174000000000,"state":"active","ping":49},{"user_id":379,"name":"wacksuit","steam_id":76561198866668208,"connected_time":1076000000000,"state":"active","ping":48},{"user_id":389,"name":"ebic","steam_id":76561198882446769,"connected_time":108000000000,"state":"active","ping":90},{"user_id":298,"name":"LX-24","steam_id":76561198016168993,"connected_time":6669000000000,"state":"active","ping":85},{"user_id":382,"name":"you've been deuced on!","steam_id":76561198236028020,"connected_time":673000000000,"state":"active","ping":130},{"user_id":380,"name":"iris","steam_id":76561198059748059,"connected_time":1052000000000,"state":"active","ping":70}]},{"server_id":324,"name":"Uncletopia | Los Angeles | 3 | All Maps","name_short":"lax-3","host":"lax-1.us.uncletopia.com","port":27035,"enabled":true,"region":"us-west","cc":"us","latitude":33.94279,"longitude":-118.41004,"reserved":0,"last_update":"0001-01-01T00:00:00Z","name_a2s":"Uncletopia | Los Angeles | 3 | All Maps","protocol":17,"map":"pl_upward","folder":"tf","game":"Team Fortress","app_id":440,"player_count":22,"max_players":24,"Bots":0,"server_type":"Dedicated","server_os":"Linux","password":true,"vac":true,"version":"7757534","steam_id":85568392924510198,"keywords":["nocrits","nodmgspread","payload","uncletopia"],"game_id":440,"stv_port":27036,"stv_name":"Uncletopia | Los Angeles | 3 | All Maps | STV","players":[{"user_id":191,"name":"bsian","steam_id":76561198112191977,"connected_time":5722000000000,"state":"active","ping":55},{"user_id":204,"name":"pho","steam_id":76561199034472374,"connected_time":3475000000000,"state":"active","ping":56},{"user_id":197,"name":"noelle","steam_id":76561198842577534,"connected_time":4265000000000,"state":"active","ping":97},{"user_id":198,"name":"Archibald","steam_id":76561198093615321,"connected_time":3869000000000,"state":"active","ping":47},{"user_id":229,"name":"Kurtle","steam_id":76561199099898602,"connected_time":1647000000000,"state":"active","ping":69},{"user_id":217,"name":"Triggolo Jones","steam_id":76561198034069260,"connected_time":2751000000000,"state":"active","ping":86},{"user_id":201,"name":"Sox","steam_id":76561198074490494,"connected_time":3846000000000,"state":"active","ping":66},{"user_id":223,"name":"Handsome Pete","steam_id":76561198003224229,"connected_time":1996000000000,"state":"active","ping":115},{"user_id":202,"name":"Xi Jinping BodyPillow","steam_id":76561198864599452,"connected_time":3817000000000,"state":"active","ping":112},{"user_id":203,"name":"Taco+Taco=Burrito","steam_id":76561198063128663,"connected_time":3648000000000,"state":"active","ping":38},{"user_id":213,"name":"BL√òRG","steam_id":76561198036126673,"connected_time":2806000000000,"state":"active","ping":88},{"user_id":228,"name":"ttv/californjoe","steam_id":76561197965047795,"connected_time":1664000000000,"state":"active","ping":55},{"user_id":225,"name":"CLEAN COAL","steam_id":76561198019079798,"connected_time":1965000000000,"state":"active","ping":114},{"user_id":209,"name":"Thequirka","steam_id":76561198968058652,"connected_time":2990000000000,"state":"active","ping":67},{"user_id":231,"name":"grob","steam_id":76561198396723990,"connected_time":1606000000000,"state":"active","ping":46},{"user_id":211,"name":"Phoenix","steam_id":76561199465534945,"connected_time":2896000000000,"state":"active","ping":75},{"user_id":232,"name":"Gay MFin Snake","steam_id":76561198113865433,"connected_time":1595000000000,"state":"active","ping":64},{"user_id":233,"name":"Patrick \"Sex Offender\" Star","steam_id":76561198056638070,"connected_time":1400000000000,"state":"active","ping":71},{"user_id":216,"name":"Sheriff Monkey","steam_id":76561198053556583,"connected_time":2784000000000,"state":"active","ping":119},{"user_id":218,"name":"boof","steam_id":76561198053901968,"connected_time":2740000000000,"state":"active","ping":87},{"user_id":227,"name":"sheep gf \u003c3","steam_id":76561198068189558,"connected_time":1822000000000,"state":"active","ping":59},{"user_id":220,"name":"ChillinSquare","steam_id":76561198023745593,"connected_time":2719000000000,"state":"active","ping":45}]},{"server_id":25,"name":"Uncletopia | Los Angeles | 4 | Stopwatch Beta","name_short":"lax-4","host":"lax-1.us.uncletopia.com","port":27045,"enabled":true,"region":"us-west","cc":"us","latitude":33.94279,"longitude":-118.41004,"reserved":0,"last_update":"0001-01-01T00:00:00Z","name_a2s":"Uncletopia | Los Angeles | 4 | Stopwatch Beta","protocol":17,"map":"pl_swiftwater_final1","folder":"tf","game":"Team Fortress","app_id":440,"player_count":0,"max_players":24,"Bots":0,"server_type":"Dedicated","server_os":"Linux","password":true,"vac":true,"version":"7757534","steam_id":85568392924510199,"keywords":["nocrits","nodmgspread","payload","uncletopia"],"game_id":440,"stv_port":27046,"stv_name":"Uncletopia | Los Angeles | 4 | Stopwatch Beta | STV","players":null},{"server_id":11,"name":"Uncletopia | London | 1 | All Maps","name_short":"lon-1","host":"lon-1.uk.uncletopia.com","port":27015,"enabled":true,"region":"eu","cc":"gb","latitude":51.509865,"longitude":-0.118092,"reserved":0,"last_update":"0001-01-01T00:00:00Z","name_a2s":"Uncletopia | London | 1 | All Maps","protocol":17,"map":"cp_dustbowl","folder":"tf","game":"Team Fortress","app_id":440,"player_count":24,"max_players":24,"Bots":0,"server_type":"Dedicated","server_os":"Linux","password":true,"vac":true,"version":"7757534","steam_id":85568392924367362,"keywords":["cp","nocrits","nodmgspread","uncletopia"],"game_id":440,"stv_port":27016,"stv_name":"Uncletopia | London | 1 | All Maps | STV","players":[{"user_id":136,"name":"2","steam_id":76561199149307190,"connected_time":778000000000,"state":"active","ping":89},{"user_id":122,"name":"Flint","steam_id":76561197995920776,"connected_time":1809000000000,"state":"active","ping":51},{"user_id":128,"name":"imthegerman","steam_id":76561198053401077,"connected_time":1348000000000,"state":"active","ping":116},{"user_id":118,"name":"Jeppe","steam_id":76561198036055494,"connected_time":2214000000000,"state":"active","ping":61},{"user_id":130,"name":"peruna","steam_id":76561198000721196,"connected_time":1138000000000,"state":"active","ping":74},{"user_id":142,"name":"Vitamin Weee","steam_id":76561199183937747,"connected_time":396000000000,"state":"active","ping":97},{"user_id":115,"name":"Labia in Fishnets","steam_id":76561198061382104,"connected_time":2299000000000,"state":"active","ping":59},{"user_id":94,"name":"Anlaki Koszmarek","steam_id":76561198074581818,"connected_time":4627000000000,"state":"active","ping":76},{"user_id":54,"name":"Farao Ramses II","steam_id":76561198078722712,"connected_time":7590000000000,"state":"active","ping":44},{"user_id":82,"name":"no1-","steam_id":76561198067524060,"connected_time":5664000000000,"state":"active","ping":74},{"user_id":138,"name":"–∂–∏–≥–∞–Ω","steam_id":76561199274382953,"connected_time":556000000000,"state":"active","ping":150},{"user_id":84,"name":"Hleno","steam_id":76561198060442619,"connected_time":5620000000000,"state":"active","ping":59},{"user_id":64,"name":"Helon","steam_id":76561198050761682,"connected_time":6766000000000,"state":"active","ping":60},{"user_id":140,"name":"leave it","steam_id":76561198444036574,"connected_time":483000000000,"state":"active","ping":54},{"user_id":120,"name":"MatarArg","steam_id":76561198280246498,"connected_time":1932000000000,"state":"active","ping":112},{"user_id":92,"name":"Corpus Christi","steam_id":76561198417999443,"connected_time":5040000000000,"state":"active","ping":105},{"user_id":127,"name":"Chimpanzee Gaming","steam_id":76561199121842872,"connected_time":1538000000000,"state":"active","ping":62},{"user_id":126,"name":"-Boomer-","steam_id":76561197970798571,"connected_time":1551000000000,"state":"active","ping":74},{"user_id":93,"name":"killbind irl","steam_id":76561198180637374,"connected_time":4653000000000,"state":"active","ping":92},{"user_id":143,"name":"I am piss man","steam_id":76561198039209685,"connected_time":134000000000,"state":"active","ping":56},{"user_id":137,"name":"ayadam","steam_id":76561198161515769,"connected_time":588000000000,"state":"active","ping":114},{"user_id":139,"name":"quentu-","steam_id":76561198087457220,"connected_time":553000000000,"state":"active","ping":65},{"user_id":104,"name":"DarkFady","steam_id":76561198179099523,"connected_time":3001000000000,"state":"active","ping":104},{"user_id":135,"name":"pepper","steam_id":76561198059782462,"connected_time":810000000000,"state":"active","ping":60}]},{"server_id":114,"name":"Uncletopia | London | 2 | All Maps","name_short":"lon-2","host":"lon-1.uk.uncletopia.com","port":27025,"enabled":true,"region":"eu","cc":"gb","latitude":51.509865,"longitude":-0.118092,"reserved":0,"last_update":"0001-01-01T00:00:00Z","name_a2s":"Uncletopia | London | 2 | All Maps","protocol":17,"map":"koth_viaduct","folder":"tf","game":"Team Fortress","app_id":440,"player_count":8,"max_players":24,"Bots":0,"server_type":"Dedicated","server_os":"Linux","password":true,"vac":true,"version":"7757534","steam_id":85568392924470941,"keywords":["cp","nocrits","nodmgspread","uncletopia"],"game_id":440,"stv_port":27026,"stv_name":"Uncletopia | London | 2 | All Maps | STV","players":[{"user_id":10,"name":"Caliban","steam_id":76561197999696839,"connected_time":808000000000,"state":"active","ping":131},{"user_id":4,"name":"BRAINDEAD","steam_id":76561198302580988,"connected_time":1899000000000,"state":"active","ping":91},{"user_id":8,"name":"senior pomidor","steam_id":76561198123659806,"connected_time":1054000000000,"state":"active","ping":95},{"user_id":11,"name":"Pes Patron","steam_id":76561199004923871,"connected_time":459000000000,"state":"active","ping":102},{"user_id":13,"name":"Heavy","steam_id":76561198419169297,"connected_time":408000000000,"state":"active","ping":73},{"user_id":15,"name":"Tx_madmash","steam_id":76561198924656512,"connected_time":264000000000,"state":"active","ping":75},{"user_id":16,"name":"Deshio","steam_id":76561198211863275,"connected_time":182000000000,"state":"active","ping":73},{"user_id":17,"name":"Loyde","steam_id":76561198029919524,"connected_time":103000000000,"state":"active","ping":92}]},{"server_id":320,"name":"Uncletopia | London | 3 | All Maps","name_short":"lon-3","host":"lon-1.uk.uncletopia.com","port":27035,"enabled":true,"region":"eu","cc":"gb","latitude":51.509865,"longitude":-0.118092,"reserved":0,"last_update":"0001-01-01T00:00:00Z","name_a2s":"Uncletopia | London | 3 | All Maps","protocol":17,"map":"cp_dustbowl","folder":"tf","game":"Team Fortress","app_id":440,"player_count":0,"max_players":24,"Bots":0,"server_type":"Dedicated","server_os":"Linux","password":true,"vac":true,"version":"7757534","steam_id":85568392924510192,"keywords":["cp","nocrits","nodmgspread","uncletopia"],"game_id":440,"stv_port":27036,"stv_name":"Uncletopia | London | 3 | All Maps | STV","players":null},{"server_id":321,"name":"Uncletopia | London | 4 | All Maps","name_short":"lon-4","host":"lon-1.uk.uncletopia.com","port":27045,"enabled":true,"region":"eu","cc":"gb","latitude":51.509865,"longitude":-0.118092,"reserved":0,"last_update":"0001-01-01T00:00:00Z","name_a2s":"Uncletopia | London | 4 | All Maps","protocol":17,"map":"cp_dustbowl","folder":"tf","game":"Team Fortress","app_id":440,"player_count":0,"max_players":24,"Bots":0,"server_type":"Dedicated","server_os":"Linux","password":true,"vac":true,"version":"7757534","steam_id":85568392924510193,"keywords":["cp","nocrits","nodmgspread","uncletopia"],"game_id":440,"stv_port":27046,"stv_name":"Uncletopia | London | 4 | All Maps | STV","players":null},{"server_id":21,"name":"Uncletopia | London | 5 | All Maps","name_short":"lon-5","host":"lon-1.uk.uncletopia.com","port":27055,"enabled":true,"region":"eu","cc":"gb","latitude":51.509865,"longitude":-0.118092,"reserved":0,"last_update":"0001-01-01T00:00:00Z","name_a2s":"Uncletopia | London | 5 | All Maps","protocol":17,"map":"cp_altitude","folder":"tf","game":"Team Fortress","app_id":440,"player_count":0,"max_players":24,"Bots":0,"server_type":"Dedicated","server_os":"Linux","password":true,"vac":true,"version":"7757534","steam_id":85568392924742829,"keywords":["cp","nocrits","nodmgspread","uncletopia"],"game_id":440,"stv_port":27056,"stv_name":"Uncletopia | London | 5 | All Maps | STV","players":null},{"server_id":22,"name":"Uncletopia | London | 6 | All Maps","name_short":"lon-6","host":"lon-1.uk.uncletopia.com","port":27065,"enabled":true,"region":"eu","cc":"gb","latitude":51.509865,"longitude":-0.118092,"reserved":0,"last_update":"0001-01-01T00:00:00Z","name_a2s":"Uncletopia | London | 6 | All Maps","protocol":17,"map":"cp_mountainlab","folder":"tf","game":"Team Fortress","app_id":440,"player_count":0,"max_players":24,"Bots":0,"server_type":"Dedicated","server_os":"Linux","password":true,"vac":true,"version":"7757534","steam_id":85568392924742830,"keywords":["cp","nocrits","nodmgspread","uncletopia"],"game_id":440,"stv_port":27066,"stv_name":"Uncletopia | London | 6 | All Maps | STV","players":null},{"server_id":40,"name":"Uncletopia | London | 7 | No Payload","name_short":"lon-7","host":"lon-1.uk.uncletopia.com","port":27075,"enabled":true,"region":"eu","cc":"gb","latitude":51.509865,"longitude":-0.118092,"reserved":0,"last_update":"0001-01-01T00:00:00Z","name_a2s":"Uncletopia | London | 7 | No Payload","protocol":17,"map":"cp_junction_final","folder":"tf","game":"Team Fortress","app_id":440,"player_count":0,"max_players":24,"Bots":0,"server_type":"Dedicated","server_os":"Linux","password":true,"vac":true,"version":"7757534","steam_id":85568392924964314,"keywords":["cp","nocrits","nodmgspread","uncletopia"],"game_id":440,"stv_port":27076,"stv_name":"Uncletopia | London | 7 | No Payload | STV","players":null},{"server_id":41,"name":"Uncletopia | London | 8 | Community","name_short":"lon-8","host":"lon-1.uk.uncletopia.com","port":27085,"enabled":true,"region":"eu","cc":"gb","latitude":51.509865,"longitude":-0.118092,"reserved":0,"last_update":"0001-01-01T00:00:00Z","name_a2s":"Uncletopia | London | 8 | Community","protocol":17,"map":"pl_barnblitz","folder":"tf","game":"Team Fortress","app_id":440,"player_count":0,"max_players":24,"Bots":0,"server_type":"Dedicated","server_os":"Linux","password":true,"vac":true,"version":"7757534","steam_id":85568392924964315,"keywords":["nocrits","nodmgspread","payload","uncletopia"],"game_id":440,"stv_port":27086,"stv_name":"Uncletopia | London | 8 | Community | STV","players":null},{"server_id":300,"name":"Uncletopia | Montr√©al | 1 | All Maps","name_short":"mtl-1","host":"mtl-1.ca.uncletopia.com","port":27015,"enabled":true,"region":"us-east","cc":"ca","latitude":45.50889,"longitude":-73.56167,"reserved":0,"last_update":"0001-01-01T00:00:00Z","name_a2s":"Uncletopia | Montr√©al | 1 | All Maps","protocol":17,"map":"koth_cascade","folder":"tf","game":"Team Fortress","app_id":440,"player_count":0,"max_players":24,"Bots":0,"server_type":"Dedicated","server_os":"Linux","password":true,"vac":true,"version":"7757534","steam_id":85568392924500087,"keywords":["cp","nocrits","nodmgspread","uncletopia"],"game_id":440,"stv_port":27016,"stv_name":"Uncletopia | Montr√©al | 1 | All Maps | STV","players":null},{"server_id":301,"name":"Uncletopia | Montr√©al | 2 | All Maps","name_short":"mtl-2","host":"mtl-1.ca.uncletopia.com","port":27025,"enabled":true,"region":"us-east","cc":"ca","latitude":45.50889,"longitude":-73.56167,"reserved":0,"last_update":"0001-01-01T00:00:00Z","name_a2s":"Uncletopia | Montr√©al | 2 | All Maps","protocol":17,"map":"cp_egypt_final","folder":"tf","game":"Team Fortress","app_id":440,"player_count":0,"max_players":24,"Bots":0,"server_type":"Dedicated","server_os":"Linux","password":true,"vac":true,"version":"7757534","steam_id":85568392924500088,"keywords":["cp","nocrits","nodmgspread","uncletopia"],"game_id":440,"stv_port":27026,"stv_name":"Uncletopia | Montr√©al | 2 | All Maps | STV","players":null},{"server_id":302,"name":"Uncletopia | Montr√©al | 3 | All Maps","name_short":"mtl-3","host":"mtl-1.ca.uncletopia.com","port":27035,"enabled":true,"region":"us-east","cc":"ca","latitude":45.50889,"longitude":-73.56167,"reserved":0,"last_update":"0001-01-01T00:00:00Z","name_a2s":"Uncletopia | Montr√©al | 3 | All Maps","protocol":17,"map":"cp_snakewater_final1","folder":"tf","game":"Team Fortress","app_id":440,"player_count":0,"max_players":24,"Bots":0,"server_type":"Dedicated","server_os":"Linux","password":true,"vac":true,"version":"7757534","steam_id":85568392924500089,"keywords":["cp","nocrits","nodmgspread","uncletopia"],"game_id":440,"stv_port":27036,"stv_name":"Uncletopia | Montr√©al | 3 | All Maps | STV","players":null},{"server_id":303,"name":"Uncletopia | Montr√©al | 4 | No Payload","name_short":"mtl-4","host":"mtl-1.ca.uncletopia.com","port":27045,"enabled":true,"region":"us-east","cc":"ca","latitude":45.50889,"longitude":-73.56167,"reserved":0,"last_update":"0001-01-01T00:00:00Z","name_a2s":"Uncletopia | Montr√©al | 4 | No Payload","protocol":17,"map":"cp_snakewater_final1","folder":"tf","game":"Team Fortress","app_id":440,"player_count":0,"max_players":24,"Bots":0,"server_type":"Dedicated","server_os":"Linux","password":true,"vac":true,"version":"7757534","steam_id":85568392924500090,"keywords":["cp","nocrits","nodmgspread","uncletopia"],"game_id":440,"stv_port":27046,"stv_name":"Uncletopia | Montr√©al | 4 | No Payload | STV","players":null},{"server_id":13,"name":"Uncletopia | New York City | 1 | All Maps","name_short":"nyc-1","host":"nyc-1.us.uncletopia.com","port":27015,"enabled":true,"region":"us-east","cc":"us","latitude":40.73061,"longitude":-73.93524,"reserved":0,"last_update":"0001-01-01T00:00:00Z","name_a2s":"Uncletopia | New York City | 1 | All Maps","protocol":17,"map":"koth_cascade","folder":"tf","game":"Team Fortress","app_id":440,"player_count":0,"max_players":24,"Bots":0,"server_type":"Dedicated","server_os":"Linux","password":true,"vac":true,"version":"7757534","steam_id":85568392924469993,"keywords":["cp","nocrits","nodmgspread","uncletopia"],"game_id":440,"stv_port":27016,"stv_name":"Uncletopia | New York City | 1 | All Maps | STV","players":null},{"server_id":14,"name":"Uncletopia | New York City | 2 | All Maps","name_short":"nyc-2","host":"nyc-1.us.uncletopia.com","port":27025,"enabled":true,"region":"us-east","cc":"us","latitude":40.73061,"longitude":-73.93524,"reserved":0,"last_update":"0001-01-01T00:00:00Z","name_a2s":"Uncletopia | New York City | 2 | All Maps","protocol":17,"map":"koth_viaduct","folder":"tf","game":"Team Fortress","app_id":440,"player_count":0,"max_players":24,"Bots":0,"server_type":"Dedicated","server_os":"Linux","password":true,"vac":true,"version":"7757534","steam_id":85568392924469994,"keywords":["cp","nocrits","nodmgspread","uncletopia"],"game_id":440,"stv_port":27026,"stv_name":"Uncletopia | New York City | 2 | All Maps | STV","players":null},{"server_id":15,"name":"Uncletopia | New York City | 3 | Stopwatch Beta","name_short":"nyc-3","host":"nyc-1.us.uncletopia.com","port":27035,"enabled":true,"region":"us-east","cc":"us","latitude":40.73061,"longitude":-73.93524,"reserved":0,"last_update":"0001-01-01T00:00:00Z","name_a2s":"Uncletopia | New York City | 3 | Stopwatch Beta","protocol":17,"map":"pl_upward","folder":"tf","game":"Team Fortress","app_id":440,"player_count":0,"max_players":24,"Bots":0,"server_type":"Dedicated","server_os":"Linux","password":true,"vac":true,"version":"7757534","steam_id":85568392924742820,"keywords":["nocrits","nodmgspread","payload","uncletopia"],"game_id":440,"stv_port":27036,"stv_name":"Uncletopia | New York City | 3 | Stopwatch Beta | STV","players":null},{"server_id":16,"name":"Uncletopia | New York City | 4 | Community","name_short":"nyc-4","host":"nyc-1.us.uncletopia.com","port":27045,"enabled":true,"region":"us-east","cc":"us","latitude":40.73061,"longitude":-73.93524,"reserved":0,"last_update":"0001-01-01T00:00:00Z","name_a2s":"Uncletopia | New York City | 4 | Community","protocol":17,"map":"workshop/koth_slaughter_rc1.ugc1712845210","folder":"tf","game":"Team Fortress","app_id":440,"player_count":0,"max_players":24,"Bots":0,"server_type":"Dedicated","server_os":"Linux","password":true,"vac":true,"version":"7757534","steam_id":85568392924742821,"keywords":["cp","nocrits","nodmgspread","uncletopia"],"game_id":440,"stv_port":27046,"stv_name":"Uncletopia | New York City | 4 | Community | STV","players":null},{"server_id":142,"name":"Uncletopia | S√£o Paulo | 1 | All Maps","name_short":"sao-1","host":"sao-1.br.uncletopia.com","port":27015,"enabled":true,"region":"sa","cc":"br","latitude":-23.533773,"longitude":-46.62529,"reserved":0,"last_update":"0001-01-01T00:00:00Z","name_a2s":"Uncletopia | S√£o Paulo | 1 | All Maps","protocol":17,"map":"koth_cascade","folder":"tf","game":"Team Fortress","app_id":440,"player_count":0,"max_players":24,"Bots":0,"server_type":"Dedicated","server_os":"Linux","password":true,"vac":true,"version":"7757534","steam_id":85568392924469996,"keywords":["cp","nocrits","nodmgspread","uncletopia"],"game_id":440,"stv_port":27016,"stv_name":"Uncletopia | S√£o Paulo | 1 | All Maps | STV","players":null},{"server_id":143,"name":"Uncletopia | S√£o Paulo | 2 | All Maps","name_short":"sao-2","host":"sao-2.br.uncletopia.com","port":27015,"enabled":true,"region":"sa","cc":"br","latitude":-23.533773,"longitude":-46.62529,"reserved":0,"last_update":"0001-01-01T00:00:00Z","name_a2s":"Uncletopia | S√£o Paulo | 2 | All Maps","protocol":17,"map":"pl_pier","folder":"tf","game":"Team Fortress","app_id":440,"player_count":0,"max_players":24,"Bots":0,"server_type":"Dedicated","server_os":"Linux","password":true,"vac":true,"version":"7757534","steam_id":85568392924485349,"keywords":["nocrits","nodmgspread","payload","uncletopia"],"game_id":440,"stv_port":27016,"stv_name":"Uncletopia | S√£o Paulo | 2 | All Maps | STV","players":null},{"server_id":7,"name":"Uncletopia | Seattle | 1 | All Maps","name_short":"sea-1","host":"sea-1.us.uncletopia.com","port":27015,"enabled":true,"region":"us-west","cc":"us","latitude":47.608013,"longitude":-122.33517,"reserved":0,"last_update":"0001-01-01T00:00:00Z","name_a2s":"Uncletopia | Seattle | 1 | All Maps","protocol":17,"map":"koth_harvest_final","folder":"tf","game":"Team Fortress","app_id":440,"player_count":24,"max_players":24,"Bots":0,"server_type":"Dedicated","server_os":"Linux","password":true,"vac":true,"version":"7757534","steam_id":85568392924469997,"keywords":["cp","nocrits","nodmgspread","uncletopia"],"game_id":440,"stv_port":27016,"stv_name":"Uncletopia | Seattle | 1 | All Maps | STV","players":[{"user_id":927,"name":"Ninja_Moogle","steam_id":76561198167646553,"connected_time":1624000000000,"state":"active","ping":70},{"user_id":909,"name":"[TrC] Dackstrus","steam_id":76561197973518509,"connected_time":2789000000000,"state":"active","ping":59},{"user_id":938,"name":"Glue","steam_id":76561198047931749,"connected_time":1103000000000,"state":"active","ping":71},{"user_id":959,"name":"zaza addict","steam_id":76561198202982780,"connected_time":576000000000,"state":"active","ping":124},{"user_id":939,"name":"Jones","steam_id":76561198046037216,"connected_time":1071000000000,"state":"active","ping":75},{"user_id":910,"name":"[TrC] Nosy","steam_id":76561197978859310,"connected_time":2742000000000,"state":"active","ping":58},{"user_id":961,"name":"costa","steam_id":76561198881144114,"connected_time":231000000000,"state":"active","ping":45},{"user_id":963,"name":"beep beep","steam_id":76561198149443710,"connected_time":9000000000,"state":"spawning","ping":89},{"user_id":940,"name":"Harry Baldini","steam_id":76561198800715684,"connected_time":1051000000000,"state":"active","ping":50},{"user_id":897,"name":"Mr defrost","steam_id":76561198322125657,"connected_time":4134000000000,"state":"active","ping":61},{"user_id":946,"name":"Checkered Scones","steam_id":76561198162786894,"connected_time":1001000000000,"state":"active","ping":74},{"user_id":943,"name":"carl","steam_id":76561198081315265,"connected_time":1026000000000,"state":"active","ping":61},{"user_id":957,"name":"Gugo","steam_id":76561198069744310,"connected_time":805000000000,"state":"active","ping":57},{"user_id":956,"name":"The Piss-Meister","steam_id":76561198359287842,"connected_time":866000000000,"state":"active","ping":146},{"user_id":955,"name":"dub","steam_id":76561198043679350,"connected_time":877000000000,"state":"active","ping":45},{"user_id":958,"name":"chrome 2008 (she/they)","steam_id":76561198321277216,"connected_time":767000000000,"state":"active","ping":72},{"user_id":948,"name":"supersabir","steam_id":76561198303055397,"connected_time":993000000000,"state":"active","ping":178},{"user_id":951,"name":"|2nd-AD| AttackPelican ‡πëÔ≠•","steam_id":76561198353278175,"connected_time":936000000000,"state":"active","ping":127},{"user_id":933,"name":"Tanuki in your attic.","steam_id":76561198027487285,"connected_time":1401000000000,"state":"active","ping":112},{"user_id":877,"name":"Puskinti","steam_id":76561198032120688,"connected_time":4456000000000,"state":"active","ping":66},{"user_id":934,"name":"gorlab","steam_id":76561198025089694,"connected_time":1376000000000,"state":"active","ping":60},{"user_id":914,"name":"Banjo","steam_id":76561198004652853,"connected_time":2624000000000,"state":"active","ping":45},{"user_id":929,"name":"pinglefingle","steam_id":76561198216580197,"connected_time":1563000000000,"state":"active","ping":117},{"user_id":960,"name":"domino","steam_id":76561198066114874,"connected_time":437000000000,"state":"active","ping":46}]},{"server_id":119,"name":"Uncletopia | Seattle | 2 | All Maps","name_short":"sea-2","host":"sea-1.us.uncletopia.com","port":27025,"enabled":true,"region":"us-west","cc":"us","latitude":47.608013,"longitude":-122.33517,"reserved":0,"last_update":"0001-01-01T00:00:00Z","name_a2s":"Uncletopia | Seattle | 2 | All Maps","protocol":17,"map":"koth_viaduct","folder":"tf","game":"Team Fortress","app_id":440,"player_count":9,"max_players":24,"Bots":0,"server_type":"Dedicated","server_os":"Linux","password":true,"vac":true,"version":"7757534","steam_id":85568392924469998,"keywords":["cp","nocrits","nodmgspread","uncletopia"],"game_id":440,"stv_port":27026,"stv_name":"Uncletopia | Seattle | 2 | All Maps | STV","players":[{"user_id":677,"name":"chichobar123","steam_id":76561199068669066,"connected_time":1269000000000,"state":"active","ping":234},{"user_id":682,"name":"cofferhead","steam_id":76561199191108449,"connected_time":735000000000,"state":"active","ping":77},{"user_id":679,"name":"weird opponent","steam_id":76561199199843311,"connected_time":905000000000,"state":"active","ping":46},{"user_id":685,"name":"Tvevan","steam_id":76561199062329990,"connected_time":316000000000,"state":"active","ping":230},{"user_id":671,"name":"The Lacking Clown","steam_id":76561199304865016,"connected_time":2463000000000,"state":"active","ping":93},{"user_id":681,"name":"AlmightyFjord","steam_id":76561198023463470,"connected_time":759000000000,"state":"active","ping":53},{"user_id":686,"name":"happy camper","steam_id":76561198209813328,"connected_time":144000000000,"state":"active","ping":80},{"user_id":688,"name":"Galalendon","steam_id":76561198055771198,"connected_time":50000000000,"state":"active","ping":60},{"user_id":687,"name":"Ketamine","steam_id":76561198274507956,"connected_time":109000000000,"state":"active","ping":55}]},{"server_id":406,"name":"Uncletopia | Seattle | 3 | Stopwatch Beta","name_short":"sea-3","host":"sea-1.us.uncletopia.com","port":27035,"enabled":true,"region":"us-west","cc":"us","latitude":47.608013,"longitude":-122.33517,"reserved":0,"last_update":"0001-01-01T00:00:00Z","name_a2s":"Uncletopia | Seattle | 3 | Stopwatch Beta","protocol":17,"map":"workshop/koth_ashville_final.ugc2130459942","folder":"tf","game":"Team Fortress","app_id":440,"player_count":0,"max_players":24,"Bots":0,"server_type":"Dedicated","server_os":"Linux","password":true,"vac":true,"version":"7757534","steam_id":85568392924515217,"keywords":["cp","nocrits","nodmgspread","uncletopia"],"game_id":440,"stv_port":27036,"stv_name":"Uncletopia | Seattle | 3 | Stopwatch Beta | STV","players":null},{"server_id":17,"name":"Uncletopia | San Francisco | 1 | All Maps","name_short":"sfo-1","host":"sfo-1.us.uncletopia.com","port":27015,"enabled":true,"region":"us-west","cc":"us","latitude":37.77397,"longitude":-122.4313,"reserved":0,"last_update":"0001-01-01T00:00:00Z","name_a2s":"Uncletopia | San Francisco | 1 | All Maps","protocol":17,"map":"pl_pier","folder":"tf","game":"Team Fortress","app_id":440,"player_count":24,"max_players":24,"Bots":0,"server_type":"Dedicated","server_os":"Linux","password":true,"vac":true,"version":"7757534","steam_id":85568392924469999,"keywords":["nocrits","nodmgspread","payload","uncletopia"],"game_id":440,"stv_port":27016,"stv_name":"Uncletopia | San Francisco | 1 | All Maps | STV","players":[{"user_id":916,"name":"going beastmode","steam_id":76561198105374054,"connected_time":250000000000,"state":"active","ping":75},{"user_id":911,"name":"veldt","steam_id":76561198056135308,"connected_time":332000000000,"state":"active","ping":93},{"user_id":898,"name":"Keyboardbreaker","steam_id":76561198372836132,"connected_time":1940000000000,"state":"active","ping":55},{"user_id":913,"name":"RabidSoda","steam_id":76561198115416316,"connected_time":311000000000,"state":"active","ping":87},{"user_id":842,"name":"Sentry","steam_id":76561198042795636,"connected_time":6467000000000,"state":"active","ping":117},{"user_id":878,"name":"Assassin","steam_id":76561198321410235,"connected_time":3344000000000,"state":"active","ping":49},{"user_id":919,"name":"Karen","steam_id":76561198309442440,"connected_time":197000000000,"state":"active","ping":86},{"user_id":860,"name":"Mub","steam_id":76561198356426602,"connected_time":5683000000000,"state":"active","ping":51},{"user_id":905,"name":"Gay Cake","steam_id":76561198004388831,"connected_time":1105000000000,"state":"active","ping":116},{"user_id":909,"name":"fa√ßade","steam_id":76561199157009256,"connected_time":799000000000,"state":"active","ping":42},{"user_id":840,"name":"[SSRB] Thangerunn","steam_id":76561198052369275,"connected_time":6510000000000,"state":"active","ping":121},{"user_id":903,"name":"Grandpa Baozhai","steam_id":76561198086667725,"connected_time":1283000000000,"state":"active","ping":77},{"user_id":912,"name":"Ice Tray","steam_id":76561198156184504,"connected_time":316000000000,"state":"active","ping":120},{"user_id":883,"name":"Lambchop","steam_id":76561198043900363,"connected_time":3071000000000,"state":"active","ping":60},{"user_id":914,"name":"s0ulful","steam_id":76561198109721532,"connected_time":287000000000,"state":"active","ping":103},{"user_id":886,"name":"Yosh","steam_id":76561198027078899,"connected_time":2928000000000,"state":"active","ping":100},{"user_id":920,"name":"iphone 7 plus","steam_id":76561198335836405,"connected_time":23000000000,"state":"active","ping":85},{"user_id":900,"name":"Yume","steam_id":76561198018060136,"connected_time":1527000000000,"state":"active","ping":90},{"user_id":783,"name":"BurryFalls","steam_id":76561199122289629,"connected_time":12034000000000,"state":"active","ping":93},{"user_id":891,"name":"SanitysEdge","steam_id":76561198130732813,"connected_time":2593000000000,"state":"active","ping":51},{"user_id":918,"name":"-ThiccMarcos","steam_id":76561198277151165,"connected_time":239000000000,"state":"active","ping":86},{"user_id":895,"name":"keysopendoors","steam_id":76561198175858151,"connected_time":2487000000000,"state":"active","ping":69},{"user_id":908,"name":"vareh","steam_id":76561197993190926,"connected_time":1019000000000,"state":"active","ping":79},{"user_id":904,"name":"Grim","steam_id":76561198158911860,"connected_time":1275000000000,"state":"active","ping":79}]},{"server_id":18,"name":"Uncletopia | San Francisco | 2 | All Maps","name_short":"sfo-2","host":"sfo-1.us.uncletopia.com","port":27025,"enabled":true,"region":"us-west","cc":"us","latitude":37.77397,"longitude":-122.4313,"reserved":0,"last_update":"0001-01-01T00:00:00Z","name_a2s":"Uncletopia | San Francisco | 2 | All Maps","protocol":17,"map":"koth_highpass","folder":"tf","game":"Team Fortress","app_id":440,"player_count":21,"max_players":24,"Bots":0,"server_type":"Dedicated","server_os":"Linux","password":true,"vac":true,"version":"7757534","steam_id":85568392924470000,"keywords":["cp","nocrits","nodmgspread","uncletopia"],"game_id":440,"stv_port":27026,"stv_name":"Uncletopia | San Francisco | 2 | All Maps | STV","players":[{"user_id":342,"name":"Also UbeR","steam_id":76561198166926843,"connected_time":2566000000000,"state":"active","ping":61},{"user_id":384,"name":"help me","steam_id":76561198844273999,"connected_time":12000000000,"state":"spawning","ping":60},{"user_id":359,"name":"Moon","steam_id":76561198068280311,"connected_time":1963000000000,"state":"active","ping":135},{"user_id":375,"name":"Zeubiess","steam_id":76561198074392917,"connected_time":661000000000,"state":"active","ping":79},{"user_id":369,"name":"Spooky","steam_id":76561198030817605,"connected_time":1492000000000,"state":"active","ping":45},{"user_id":383,"name":"Halfcourt Yeet","steam_id":76561197997025876,"connected_time":96000000000,"state":"active","ping":46},{"user_id":337,"name":"bonk schnoffer","steam_id":76561198301598124,"connected_time":3664000000000,"state":"active","ping":80},{"user_id":340,"name":"Pascal","steam_id":76561198902657591,"connected_time":2893000000000,"state":"active","ping":103},{"user_id":382,"name":"The IT Guy","steam_id":76561198071790583,"connected_time":148000000000,"state":"active","ping":91},{"user_id":360,"name":"Sakura Zensen","steam_id":76561198166052204,"connected_time":1961000000000,"state":"active","ping":134},{"user_id":349,"name":"Fajita Master","steam_id":76561198329150962,"connected_time":2162000000000,"state":"active","ping":96},{"user_id":317,"name":"KnightOfGames","steam_id":76561198080460659,"connected_time":4560000000000,"state":"active","ping":92},{"user_id":380,"name":"amagicowl","steam_id":76561199060487814,"connected_time":366000000000,"state":"active","ping":66},{"user_id":315,"name":"reverie","steam_id":76561198168158637,"connected_time":4966000000000,"state":"active","ping":64},{"user_id":318,"name":"God's Drunkest Driver","steam_id":76561198418288939,"connected_time":4488000000000,"state":"active","ping":57},{"user_id":324,"name":"twin","steam_id":76561198055626638,"connected_time":4209000000000,"state":"active","ping":139},{"user_id":325,"name":"big car","steam_id":76561198067082350,"connected_time":4157000000000,"state":"active","ping":55},{"user_id":381,"name":"akira","steam_id":76561198088665810,"connected_time":325000000000,"state":"active","ping":55},{"user_id":327,"name":"Aquacycle","steam_id":76561198119399190,"connected_time":4126000000000,"state":"active","ping":91},{"user_id":365,"name":"SneekiCheekiQbone","steam_id":76561198045077980,"connected_time":1781000000000,"state":"active","ping":52},{"user_id":377,"name":"TomosconesYT","steam_id":76561198813586588,"connected_time":612000000000,"state":"active","ping":59}]},{"server_id":19,"name":"Uncletopia | San Francisco | 3 | Stopwatch Beta","name_short":"sfo-3","host":"sfo-1.us.uncletopia.com","port":27035,"enabled":true,"region":"us-west","cc":"us","latitude":37.77397,"longitude":-122.4313,"reserved":0,"last_update":"0001-01-01T00:00:00Z","name_a2s":"Uncletopia | San Francisco | 3 | Stopwatch Beta","protocol":17,"map":"workshop/koth_clearcut_b15.ugc2107050255","folder":"tf","game":"Team Fortress","app_id":440,"player_count":0,"max_players":24,"Bots":0,"server_type":"Dedicated","server_os":"Linux","password":true,"vac":true,"version":"7757534","steam_id":85568392924742824,"keywords":["cp","nocrits","nodmgspread","uncletopia"],"game_id":440,"stv_port":27036,"stv_name":"Uncletopia | San Francisco | 3 | Stopwatch Beta | STV","players":null},{"server_id":20,"name":"Uncletopia | San Francisco | 4 | Community","name_short":"sfo-4","host":"sfo-1.us.uncletopia.com","port":27045,"enabled":true,"region":"us-west","cc":"us","latitude":37.77397,"longitude":-122.4313,"reserved":0,"last_update":"0001-01-01T00:00:00Z","name_a2s":"Uncletopia | San Francisco | 4 | Community","protocol":17,"map":"workshop/koth_product_final.ugc454272353","folder":"tf","game":"Team Fortress","app_id":440,"player_count":0,"max_players":24,"Bots":0,"server_type":"Dedicated","server_os":"Linux","password":true,"vac":true,"version":"7757534","steam_id":85568392924742826,"keywords":["cp","nocrits","nodmgspread","uncletopia"],"game_id":440,"stv_port":27046,"stv_name":"Uncletopia | San Francisco | 4 | Community | STV","players":null},{"server_id":141,"name":"Uncletopia | Sydney | 1 | All Maps","name_short":"syd-1","host":"syd-1.au.uncletopia.com","port":27015,"enabled":true,"region":"au","cc":"au","latitude":-33.865143,"longitude":151.2099,"reserved":0,"last_update":"0001-01-01T00:00:00Z","name_a2s":"Uncletopia | Sydney | 1 | All Maps","protocol":17,"map":"cp_process_final","folder":"tf","game":"Team Fortress","app_id":440,"player_count":5,"max_players":24,"Bots":0,"server_type":"Dedicated","server_os":"Linux","password":true,"vac":true,"version":"7757534","steam_id":85568392924470001,"keywords":["cp","nocrits","nodmgspread","uncletopia"],"game_id":440,"stv_port":27016,"stv_name":"Uncletopia | Sydney | 1 | All Maps | STV","players":[{"user_id":378,"name":"Del Davis","steam_id":76561199365669004,"connected_time":405000000000,"state":"active","ping":55},{"user_id":374,"name":"MayoMan","steam_id":76561199140828165,"connected_time":1292000000000,"state":"active","ping":48},{"user_id":375,"name":"itsjustmarvin77","steam_id":76561199375656301,"connected_time":1225000000000,"state":"active","ping":75},{"user_id":382,"name":"[MORB] manglemonster","steam_id":76561198155233607,"connected_time":167000000000,"state":"active","ping":55},{"user_id":383,"name":"Rocky","steam_id":76561199195385481,"connected_time":136000000000,"state":"active","ping":69}]},{"server_id":123,"name":"Uncletopia | Sydney | 2 | All Maps","name_short":"syd-2","host":"syd-1.au.uncletopia.com","port":27025,"enabled":true,"region":"au","cc":"au","latitude":-33.865143,"longitude":151.2099,"reserved":0,"last_update":"0001-01-01T00:00:00Z","name_a2s":"Uncletopia | Sydney | 2 | All Maps","protocol":17,"map":"pl_borneo","folder":"tf","game":"Team Fortress","app_id":440,"player_count":24,"max_players":24,"Bots":0,"server_type":"Dedicated","server_os":"Linux","password":true,"vac":true,"version":"7757534","steam_id":85568392924470002,"keywords":["nocrits","nodmgspread","payload","uncletopia"],"game_id":440,"stv_port":27026,"stv_name":"Uncletopia | Sydney | 2 | All Maps | STV","players":[{"user_id":156,"name":"juusha","steam_id":76561198911542330,"connected_time":1293000000000,"state":"active","ping":70},{"user_id":148,"name":"[FTW] RonnieD'","steam_id":76561197993957267,"connected_time":2291000000000,"state":"active","ping":50},{"user_id":157,"name":"Dimond_bird","steam_id":76561199129051643,"connected_time":1286000000000,"state":"active","ping":53},{"user_id":96,"name":"femboy with wrong pronouns","steam_id":76561199214747043,"connected_time":3993000000000,"state":"active","ping":49},{"user_id":168,"name":"4-Star Yelp Review","steam_id":76561197995258180,"connected_time":240000000000,"state":"active","ping":52},{"user_id":91,"name":"Jodelk√∂nig Franzl Lang","steam_id":76561198007667830,"connected_time":4373000000000,"state":"active","ping":52},{"user_id":158,"name":"Pickled Cow","steam_id":76561198292517991,"connected_time":1284000000000,"state":"active","ping":44},{"user_id":170,"name":"sweet","steam_id":76561198075311236,"connected_time":174000000000,"state":"active","ping":53},{"user_id":149,"name":"Enchanted Cat","steam_id":76561198866538028,"connected_time":2041000000000,"state":"active","ping":89},{"user_id":152,"name":"Atner","steam_id":76561198442934454,"connected_time":1419000000000,"state":"active","ping":89},{"user_id":159,"name":"seiran","steam_id":76561198880907232,"connected_time":1239000000000,"state":"active","ping":90},{"user_id":99,"name":"chemeliouss","steam_id":76561199048396830,"connected_time":3862000000000,"state":"active","ping":70},{"user_id":73,"name":"the normoaner","steam_id":76561198082423230,"connected_time":5650000000000,"state":"active","ping":79},{"user_id":160,"name":"MrMuffin16","steam_id":76561198257303774,"connected_time":1151000000000,"state":"active","ping":65},{"user_id":146,"name":"Sentry Gun (EpicGuy4227)","steam_id":76561198094132328,"connected_time":2448000000000,"state":"active","ping":54},{"user_id":161,"name":"biff","steam_id":76561198069603865,"connected_time":1139000000000,"state":"active","ping":57},{"user_id":67,"name":"CypressFluff (She/Her)","steam_id":76561198174667818,"connected_time":7019000000000,"state":"active","ping":59},{"user_id":165,"name":"electro599","steam_id":76561198058148858,"connected_time":932000000000,"state":"active","ping":59},{"user_id":151,"name":"alex","steam_id":76561198053382248,"connected_time":1831000000000,"state":"active","ping":45},{"user_id":88,"name":"Dupiter","steam_id":76561198108820767,"connected_time":4759000000000,"state":"active","ping":52},{"user_id":167,"name":"Not A F2P","steam_id":76561198376756608,"connected_time":645000000000,"state":"active","ping":61},{"user_id":166,"name":"Matt","steam_id":76561198006791420,"connected_time":724000000000,"state":"active","ping":100},{"user_id":164,"name":"soupy","steam_id":76561198073734936,"connected_time":966000000000,"state":"active","ping":84},{"user_id":155,"name":"saudi ambassador messi","steam_id":76561198031293430,"connected_time":1307000000000,"state":"active","ping":87}]},{"server_id":395,"name":"Uncletopia | Sydney | 3 | All Maps","name_short":"syd-3","host":"syd-1.au.uncletopia.com","port":27035,"enabled":true,"region":"au","cc":"au","latitude":-33.865143,"longitude":151.2099,"reserved":0,"last_update":"0001-01-01T00:00:00Z","name_a2s":"Uncletopia | Sydney | 3 | All Maps","protocol":17,"map":"pl_snowycoast","folder":"tf","game":"Team Fortress","app_id":440,"player_count":0,"max_players":24,"Bots":0,"server_type":"Dedicated","server_os":"Linux","password":true,"vac":true,"version":"7757534","steam_id":85568392925194467,"keywords":["nocrits","nodmgspread","payload","uncletopia"],"game_id":440,"stv_port":27036,"stv_name":"Uncletopia | Sydney | 3 | All Maps | STV","players":null},{"server_id":396,"name":"Uncletopia | Sydney | 4 | All Maps","name_short":"syd-4","host":"syd-1.au.uncletopia.com","port":27045,"enabled":true,"region":"au","cc":"au","latitude":-33.865143,"longitude":151.2099,"reserved":0,"last_update":"0001-01-01T00:00:00Z","name_a2s":"Uncletopia | Sydney | 4 | All Maps","protocol":17,"map":"koth_highpass","folder":"tf","game":"Team Fortress","app_id":440,"player_count":1,"max_players":24,"Bots":0,"server_type":"Dedicated","server_os":"Linux","password":true,"vac":true,"version":"7757534","steam_id":85568392925397958,"keywords":["cp","nocrits","nodmgspread","uncletopia"],"game_id":440,"stv_port":27046,"stv_name":"Uncletopia | Sydney | 4 | All Maps | STV","players":[{"user_id":5,"name":"Men Are Cute","steam_id":76561198286658696,"connected_time":31000000000,"state":"spawning","ping":44}]},{"server_id":58,"name":"Uncletopia | Sydney | 5 | Stopwatch Beta","name_short":"syd-5","host":"syd-1.au.uncletopia.com","port":27055,"enabled":true,"region":"au","cc":"au","latitude":-33.865143,"longitude":151.2099,"reserved":0,"last_update":"0001-01-01T00:00:00Z","name_a2s":"Uncletopia | Sydney | 5 | Stopwatch Beta","protocol":17,"map":"workshop/pl_badwater_pro_v12.ugc2142942074","folder":"tf","game":"Team Fortress","app_id":440,"player_count":0,"max_players":24,"Bots":0,"server_type":"Dedicated","server_os":"Linux","password":true,"vac":true,"version":"7757534","steam_id":85568392925397959,"keywords":["nocrits","nodmgspread","payload","uncletopia"],"game_id":440,"stv_port":27056,"stv_name":"Uncletopia | Sydney | 5 | Stopwatch Beta | STV","players":null},{"server_id":59,"name":"Uncletopia | Sydney | 6 | Community","name_short":"syd-6","host":"syd-1.au.uncletopia.com","port":27065,"enabled":true,"region":"au","cc":"au","latitude":-33.865143,"longitude":151.2099,"reserved":0,"last_update":"0001-01-01T00:00:00Z","name_a2s":"Uncletopia | Sydney | 6 | Community","protocol":17,"map":"cp_snakewater_final1","folder":"tf","game":"Team Fortress","app_id":440,"player_count":0,"max_players":24,"Bots":0,"server_type":"Dedicated","server_os":"Linux","password":true,"vac":true,"version":"7757534","steam_id":85568392925397960,"keywords":["cp","nocrits","nodmgspread","uncletopia"],"game_id":440,"stv_port":27066,"stv_name":"Uncletopia | Sydney | 6 | Community | STV","players":null},{"server_id":49,"name":"Uncletopia | Warsaw | 1 | All Maps","name_short":"waw-1","host":"waw-1.pl.uncletopia.com","port":27015,"enabled":true,"region":"eu","cc":"pl","latitude":52.2297,"longitude":21.017532,"reserved":0,"last_update":"0001-01-01T00:00:00Z","name_a2s":"","protocol":0,"map":"","folder":"","game":"","app_id":0,"player_count":0,"max_players":0,"Bots":0,"server_type":"","server_os":"","password":false,"vac":false,"version":"","steam_id":0,"keywords":null,"game_id":0,"stv_port":0,"stv_name":"","players":null},{"server_id":50,"name":"Uncletopia | Warsaw | 2 | All Maps","name_short":"waw-2","host":"waw-1.pl.uncletopia.com","port":27025,"enabled":true,"region":"eu","cc":"pl","latitude":52.2297,"longitude":21.017532,"reserved":0,"last_update":"0001-01-01T00:00:00Z","name_a2s":"Uncletopia | Warsaw | 2 | All Maps","protocol":17,"map":"koth_viaduct","folder":"tf","game":"Team Fortress","app_id":440,"player_count":0,"max_players":24,"Bots":0,"server_type":"Dedicated","server_os":"Linux","password":true,"vac":true,"version":"7757534","steam_id":85568392925397851,"keywords":["cp","nocrits","nodmgspread","uncletopia"],"game_id":440,"stv_port":27026,"stv_name":"Uncletopia | Warsaw | 2 | All Maps | STV","players":null},{"server_id":51,"name":"Uncletopia | Warsaw | 3 | All Maps","name_short":"waw-3","host":"waw-1.pl.uncletopia.com","port":27035,"enabled":true,"region":"eu","cc":"pl","latitude":52.2297,"longitude":21.017532,"reserved":0,"last_update":"0001-01-01T00:00:00Z","name_a2s":"Uncletopia | Warsaw | 3 | All Maps","protocol":17,"map":"pl_badwater","folder":"tf","game":"Team Fortress","app_id":440,"player_count":0,"max_players":24,"Bots":0,"server_type":"Dedicated","server_os":"Linux","password":true,"vac":true,"version":"7757534","steam_id":85568392925397852,"keywords":["nocrits","nodmgspread","payload","uncletopia"],"game_id":440,"stv_port":27036,"stv_name":"Uncletopia | Warsaw | 3 | All Maps | STV","players":null},{"server_id":52,"name":"Uncletopia | Warsaw | 4 | All Maps","name_short":"waw-4","host":"waw-1.pl.uncletopia.com","port":27045,"enabled":true,"region":"eu","cc":"pl","latitude":52.2297,"longitude":21.017532,"reserved":0,"last_update":"0001-01-01T00:00:00Z","name_a2s":"Uncletopia | Warsaw | 4 | All Maps","protocol":17,"map":"koth_lakeside_final","folder":"tf","game":"Team Fortress","app_id":440,"player_count":0,"max_players":24,"Bots":0,"server_type":"Dedicated","server_os":"Linux","password":true,"vac":true,"version":"7757534","steam_id":85568392925397853,"keywords":["cp","nocrits","nodmgspread","uncletopia"],"game_id":440,"stv_port":27046,"stv_name":"Uncletopia | Warsaw | 4 | All Maps | STV","players":null},{"server_id":53,"name":"Uncletopia | Warsaw | 5 | Stopwatch Beta","name_short":"waw-5","host":"waw-1.pl.uncletopia.com","port":27055,"enabled":true,"region":"eu","cc":"pl","latitude":52.2297,"longitude":21.017532,"reserved":0,"last_update":"0001-01-01T00:00:00Z","name_a2s":"Uncletopia | Warsaw | 5 | Stopwatch Beta","protocol":17,"map":"pl_borneo","folder":"tf","game":"Team Fortress","app_id":440,"player_count":0,"max_players":24,"Bots":0,"server_type":"Dedicated","server_os":"Linux","password":true,"vac":true,"version":"7757534","steam_id":85568392925397854,"keywords":["nocrits","nodmgspread","payload","uncletopia"],"game_id":440,"stv_port":27056,"stv_name":"Uncletopia | Warsaw | 5 | Stopwatch Beta | STV","players":null},{"server_id":54,"name":"Uncletopia | Warsaw | 6 | Community","name_short":"waw-6","host":"waw-1.pl.uncletopia.com","port":27065,"enabled":true,"region":"eu","cc":"pl","latitude":52.2297,"longitude":21.017532,"reserved":0,"last_update":"0001-01-01T00:00:00Z","name_a2s":"Uncletopia | Warsaw | 6 | Community","protocol":17,"map":"koth_lakeside_final","folder":"tf","game":"Team Fortress","app_id":440,"player_count":0,"max_players":24,"Bots":0,"server_type":"Dedicated","server_os":"Linux","password":true,"vac":true,"version":"7757534","steam_id":85568392925397856,"keywords":["cp","nocrits","nodmgspread","uncletopia"],"game_id":440,"stv_port":27066,"stv_name":"Uncletopia | Warsaw | 6 | Community | STV","players":null}]}