{"status":true,"message":"","result":[{"server_id":2,"name":"Uncletopia | Chicago | 1 | All Maps","name_short":"chi-1","host":"chi-1.us.uncletopia.com","port":27015,"enabled":true,"region":"us-central","cc":"us","latitude":41.881832,"longitude":-87.62318,"reserved":0,"last_update":"0001-01-01T00:00:00Z","name_a2s":"Uncletopia | Chicago | 1 | All Maps","protocol":17,"map":"cp_snakewater_final1","folder":"tf","game":"Team Fortress","app_id":440,"player_count":24,"max_players":24,"Bots":0,"server_type":"Dedicated","server_os":"Linux","password":true,"vac":true,"version":"7961495","steam_id":85568392924469984,"keywords":["cp","nocrits","nodmgspread","uncletopia"],"game_id":440,"stv_port":27016,"stv_name":"Uncletopia | Chicago | 1 | All Maps | STV","players":[{"user_id":80,"name":"you keep smelling the syrup","steam_id":76561198142756572,"connected_time":2767000000000,"state":"active","ping":60},{"user_id":132,"name":"The Land Admiral","steam_id":76561198159356609,"connected_time":38000000000,"state":"active","ping":69},{"user_id":116,"name":"AppleTruffle","steam_id":76561198031299571,"connected_time":1271000000000,"state":"active","ping":60},{"user_id":131,"name":"turd ferguson","steam_id":76561198071620782,"connected_time":83000000000,"state":"active","ping":86},{"user_id":120,"name":"Jackie_Lope","steam_id":76561198048297412,"connected_time":838000000000,"state":"active","ping":57},{"user_id":61,"name":"blob","steam_id":76561198122375328,"connected_time":5115000000000,"state":"active","ping":60},{"user_id":117,"name":"Kyle H. McCloud","steam_id":76561198025050432,"connected_time":1130000000000,"state":"active","ping":82},{"user_id":86,"name":"big steve","steam_id":76561199037050183,"connected_time":2631000000000,"state":"active","ping":103},{"user_id":102,"name":"Peppino Spaghetti","steam_id":76561198097968551,"connected_time":1883000000000,"state":"active","ping":71},{"user_id":123,"name":"Infinity","steam_id":76561199134919099,"connected_time":771000000000,"state":"active","ping":70},{"user_id":106,"name":"JoeFalco","steam_id":76561198064005012,"connected_time":1752000000000,"state":"active","ping":82},{"user_id":89,"name":"Ceolric","steam_id":76561198003955789,"connected_time":2543000000000,"state":"active","ping":56},{"user_id":100,"name":"Sigiferd","steam_id":76561198148788110,"connected_time":2102000000000,"state":"active","ping":119},{"user_id":121,"name":"Mr. Durian","steam_id":76561198093813212,"connected_time":808000000000,"state":"active","ping":75},{"user_id":104,"name":"D.E.O","steam_id":76561198096992957,"connected_time":1868000000000,"state":"active","ping":124},{"user_id":112,"name":"gary","steam_id":76561198140226890,"connected_time":1580000000000,"state":"active","ping":65},{"user_id":113,"name":"Willem Dafoe","steam_id":76561198037453253,"connected_time":1500000000000,"state":"active","ping":59},{"user_id":114,"name":"saddlegoose","steam_id":76561198066521617,"connected_time":1490000000000,"state":"active","ping":65},{"user_id":92,"name":"non_ai","steam_id":76561198270951938,"connected_time":2475000000000,"state":"active","ping":60},{"user_id":127,"name":"The new day","steam_id":76561198855144603,"connected_time":720000000000,"state":"active","ping":59},{"user_id":130,"name":"Milkmur","steam_id":76561198210043821,"connected_time":336000000000,"state":"active","ping":68},{"user_id":129,"name":"Awoostin","steam_id":76561198046130018,"connected_time":559000000000,"state":"active","ping":83},{"user_id":98,"name":"rabscootle","steam_id":76561198045619076,"connected_time":2310000000000,"state":"active","ping":88},{"user_id":97,"name":"Mythius","steam_id":76561198401392472,"connected_time":2397000000000,"state":"active","ping":73}]},{"server_id":106,"name":"Uncletopia | Chicago | 2 | All Maps","name_short":"chi-2","host":"chi-1.us.uncletopia.com","port":27025,"enabled":true,"region":"us-central","cc":"us","latitude":41.881832,"longitude":-87.62318,"reserved":0,"last_update":"0001-01-01T00:00:00Z","name_a2s":"Uncletopia | Chicago | 2 | All Maps","protocol":17,"map":"pl_upward","folder":"tf","game":"Team Fortress","app_id":440,"player_count":24,"max_players":24,"Bots":0,"server_type":"Dedicated","server_os":"Linux","password":true,"vac":true,"version":"7961495","steam_id":85568392924469985,"keywords":["nocrits","nodmgspread","payload","uncletopia"],"game_id":440,"stv_port":27026,"stv_name":"Uncletopia | Chicago | 2 | All Maps | STV","players":[{"user_id":202,"name":"TheKyleB","steam_id":76561198202515104,"connected_time":416000000000,"state":"active","ping":45},{"user_id":203,"name":"o o o o o o o o o","steam_id":76561197993757506,"connected_time":356000000000,"state":"active","ping":116},{"user_id":150,"name":"Gibs Degrossi","steam_id":76561198066152609,"connected_time":4346000000000,"state":"active","ping":53},{"user_id":7,"name":"SexySpectacles","steam_id":76561198211449103,"connected_time":12984000000000,"state":"active","ping":62},{"user_id":204,"name":"Wan Shi Tong","steam_id":76561198076441225,"connected_time":283000000000,"state":"active","ping":63},{"user_id":108,"name":"Rornir","steam_id":76561198081829615,"connected_time":7518000000000,"state":"active","ping":40},{"user_id":198,"name":"Boot Scootin Boogie","steam_id":76561198059171120,"connected_time":1019000000000,"state":"active","ping":69},{"user_id":189,"name":"AT‚ú™MIC","steam_id":76561198100385184,"connected_time":1601000000000,"state":"active","ping":102},{"user_id":205,"name":"BirBinGo","steam_id":76561198356529600,"connected_time":217000000000,"state":"active","ping":72},{"user_id":192,"name":"roto","steam_id":76561198138735860,"connected_time":1377000000000,"state":"active","ping":70},{"user_id":201,"name":"InchMan","steam_id":76561198272658825,"connected_time":613000000000,"state":"active","ping":85},{"user_id":175,"name":"Lightatex","steam_id":76561199068097196,"connected_time":2719000000000,"state":"active","ping":57},{"user_id":177,"name":"volta","steam_id":76561199214283884,"connected_time":2448000000000,"state":"active","ping":100},{"user_id":182,"name":"tristessa","steam_id":76561198160335315,"connected_time":1861000000000,"state":"active","ping":43},{"user_id":173,"name":"Morgster (It's Morgin' Time)","steam_id":76561198131697761,"connected_time":2830000000000,"state":"active","ping":91},{"user_id":128,"name":"Capn. Wing Ding","steam_id":76561198076068424,"connected_time":6135000000000,"state":"active","ping":77},{"user_id":152,"name":"room temp IQ","steam_id":76561198018724712,"connected_time":4139000000000,"state":"active","ping":64},{"user_id":195,"name":"AimB√ºtter","steam_id":76561198060108739,"connected_time":1122000000000,"state":"active","ping":91},{"user_id":61,"name":"some tree","steam_id":76561198166093346,"connected_time":10008000000000,"state":"active","ping":62},{"user_id":188,"name":"‰Ω†Â•Ω","steam_id":76561198873043242,"connected_time":1677000000000,"state":"active","ping":139},{"user_id":181,"name":"TheSnipersHat","steam_id":76561198057684066,"connected_time":1863000000000,"state":"active","ping":54},{"user_id":199,"name":"FamousAmos44","steam_id":76561197972253250,"connected_time":700000000000,"state":"active","ping":65},{"user_id":196,"name":"Bingus","steam_id":76561198095721743,"connected_time":1104000000000,"state":"active","ping":55},{"user_id":207,"name":"kel_is_more_supreme","steam_id":76561199231664178,"connected_time":164000000000,"state":"active","ping":87}]},{"server_id":402,"name":"Uncletopia | Chicago | 3 | All Maps","name_short":"chi-3","host":"chi-1.us.uncletopia.com","port":27035,"enabled":true,"region":"us-central","cc":"us","latitude":41.881832,"longitude":-87.62318,"reserved":0,"last_update":"0001-01-01T00:00:00Z","name_a2s":"Uncletopia | Chicago | 3 | All Maps","protocol":17,"map":"cp_altitude","folder":"tf","game":"Team Fortress","app_id":440,"player_count":9,"max_players":24,"Bots":0,"server_type":"Dedicated","server_os":"Linux","password":true,"vac":true,"version":"7961495","steam_id":85568392924515191,"keywords":["cp","nocrits","nodmgspread","uncletopia"],"game_id":440,"stv_port":27036,"stv_name":"Uncletopia | Chicago | 3 | All Maps | STV","players":[{"user_id":20,"name":"ultimate piggy","steam_id":76561198801456129,"connected_time":801000000000,"state":"active","ping":67},{"user_id":16,"name":"magickxanadu","steam_id":76561199117360103,"connected_time":2011000000000,"state":"active","ping":83},{"user_id":11,"name":"AdorableMew","steam_id":76561198186706405,"connected_time":2479000000000,"state":"active","ping":61},{"user_id":32,"name":"Celery","steam_id":76561198019941718,"connected_time":5000000000,"state":"spawning","ping":67},{"user_id":23,"name":"Rappitor","steam_id":76561198105613110,"connected_time":553000000000,"state":"active","ping":50},{"user_id":13,"name":"Slimeboy Enthusiast","steam_id":76561199200969139,"connected_time":2389000000000,"state":"active","ping":94},{"user_id":25,"name":"oxycodone","steam_id":76561198188722751,"connected_time":476000000000,"state":"active","ping":92},{"user_id":27,"name":"C Papi","steam_id":76561198027779564,"connected_time":420000000000,"state":"active","ping":48},{"user_id":29,"name":"toad","steam_id":76561198313364985,"connected_time":387000000000,"state":"active","ping":69}]},{"server_id":403,"name":"Uncletopia | Chicago | 4 | All Maps","name_short":"chi-4","host":"chi-1.us.uncletopia.com","port":27045,"enabled":true,"region":"us-central","cc":"us","latitude":41.881832,"longitude":-87.62318,"reserved":0,"last_update":"0001-01-01T00:00:00Z","name_a2s":"Uncletopia | Chicago | 4 | All Maps","protocol":17,"map":"pl_pier","folder":"tf","game":"Team Fortress","app_id":440,"player_count":24,"max_players":24,"Bots":0,"server_type":"Dedicated","server_os":"Linux","password":true,"vac":true,"version":"7961495","steam_id":85568392924515193,"keywords":["nocrits","nodmgspread","payload","uncletopia"],"game_id":440,"stv_port":27046,"stv_name":"Uncletopia | Chicago | 4 | All Maps | STV","players":[{"user_id":345,"name":"Over5core","steam_id":76561198029668732,"connected_time":45000000000,"state":"spawning","ping":98},{"user_id":309,"name":"Major Woody","steam_id":76561198835541533,"connected_time":1990000000000,"state":"active","ping":60},{"user_id":319,"name":"Green‚Ñ¢","steam_id":76561198136522734,"connected_time":1330000000000,"state":"active","ping":60},{"user_id":327,"name":"Frigus","steam_id":76561198408533295,"connected_time":564000000000,"state":"active","ping":97},{"user_id":231,"name":"_(:–∑)‚à†)_","steam_id":76561198007464245,"connected_time":6204000000000,"state":"active","ping":75},{"user_id":260,"name":"Fred II (2011)","steam_id":76561199240694966,"connected_time":5126000000000,"state":"active","ping":72},{"user_id":344,"name":"Raniel Dicciardo","steam_id":76561198053859538,"connected_time":64000000000,"state":"spawning","ping":71},{"user_id":339,"name":"basilberry","steam_id":76561198145275937,"connected_time":274000000000,"state":"active","ping":89},{"user_id":324,"name":"Jennifer Aniston's Nipples","steam_id":76561198086107548,"connected_time":1031000000000,"state":"active","ping":61},{"user_id":312,"name":"Smooth, Refreshing Bleach‚Ñ¢","steam_id":76561197981060504,"connected_time":1979000000000,"state":"active","ping":45},{"user_id":332,"name":"INVEST IN SKYNET::get rich","steam_id":76561198144436132,"connected_time":474000000000,"state":"active","ping":77},{"user_id":340,"name":"cppie","steam_id":76561198418564403,"connected_time":251000000000,"state":"active","ping":67},{"user_id":320,"name":"Ezakt","steam_id":76561199099132304,"connected_time":1286000000000,"state":"active","ping":72},{"user_id":338,"name":"HyperCam","steam_id":76561198837825810,"connected_time":318000000000,"state":"active","ping":68},{"user_id":244,"name":"hum","steam_id":76561198085457599,"connected_time":5616000000000,"state":"active","ping":78},{"user_id":334,"name":"dak","steam_id":76561198076596506,"connected_time":423000000000,"state":"active","ping":67},{"user_id":335,"name":"Quakedad","steam_id":76561198055811307,"connected_time":405000000000,"state":"active","ping":116},{"user_id":325,"name":"Zen56","steam_id":76561198074554894,"connected_time":1002000000000,"state":"active","ping":87},{"user_id":276,"name":"EmptyM1nd","steam_id":76561198054390505,"connected_time":3194000000000,"state":"active","ping":59},{"user_id":336,"name":"Freedy","steam_id":76561199115274103,"connected_time":362000000000,"state":"active","ping":105},{"user_id":343,"name":"B·µ¢g B‚Çí‚Çõ‚Çõ","steam_id":76561198090271815,"connected_time":158000000000,"state":"active","ping":123},{"user_id":300,"name":"taksss","steam_id":76561198995422051,"connected_time":2324000000000,"state":"active","ping":88},{"user_id":341,"name":"tasty","steam_id":76561198083839061,"connected_time":234000000000,"state":"active","ping":48},{"user_id":342,"name":"Yatchi.","steam_id":76561198878073232,"connected_time":210000000000,"state":"active","ping":95}]},{"server_id":36,"name":"Uncletopia | Chicago | 5 | All Maps","name_short":"chi-5","host":"chi-2.us.uncletopia.com","port":27015,"enabled":true,"region":"us-central","cc":"us","latitude":41.881832,"longitude":-87.62318,"reserved":0,"last_update":"0001-01-01T00:00:00Z","name_a2s":"Uncletopia | Chicago | 5 | All Maps","protocol":17,"map":"pl_pier","folder":"tf","game":"Team Fortress","app_id":440,"player_count":0,"max_players":24,"Bots":0,"server_type":"Dedicated","server_os":"Linux","password":true,"vac":true,"version":"7961495","steam_id":85568392924866362,"keywords":["nocrits","nodmgspread","payload","uncletopia"],"game_id":440,"stv_port":27016,"stv_name":"Uncletopia | Chicago | 5 | All Maps | STV","players":null},{"server_id":37,"name":"Uncletopia | Chicago | 6 | All Maps","name_short":"chi-6","host":"chi-2.us.uncletopia.com","port":27025,"enabled":true,"region":"us-central","cc":"us","latitude":41.881832,"longitude":-87.62318,"reserved":0,"last_update":"0001-01-01T00:00:00Z","name_a2s":"Uncletopia | Chicago | 6 | All Maps","protocol":17,"map":"pl_badwater","folder":"tf","game":"Team Fortress","app_id":440,"player_count":25,"max_players":24,"Bots":0,"server_type":"Dedicated","server_os":"Linux","password":true,"vac":true,"version":"7961495","steam_id":85568392924866363,"keywords":["nocrits","nodmgspread","payload","uncletopia"],"game_id":440,"stv_port":27026,"stv_name":"Uncletopia | Chicago | 6 | All Maps | STV","players":[{"user_id":100,"name":"orange porridge","steam_id":76561198044102244,"connected_time":742000000000,"state":"active","ping":63},{"user_id":73,"name":"RazeMania","steam_id":76561199016669751,"connected_time":2105000000000,"state":"active","ping":100},{"user_id":96,"name":"Ates164","steam_id":76561199123074978,"connected_time":904000000000,"state":"active","ping":149},{"user_id":78,"name":"otto","steam_id":76561199052914688,"connected_time":1810000000000,"state":"active","ping":77},{"user_id":97,"name":"YoursTruely","steam_id":76561198072129131,"connected_time":898000000000,"state":"active","ping":77},{"user_id":83,"name":"UnReLinked","steam_id":76561199366044663,"connected_time":1468000000000,"state":"active","ping":112},{"user_id":103,"name":"pirate pete","steam_id":76561198151048590,"connected_time":356000000000,"state":"active","ping":65},{"user_id":79,"name":"frank","steam_id":76561198137777483,"connected_time":1808000000000,"state":"active","ping":63},{"user_id":104,"name":"lynt","steam_id":76561198988333976,"connected_time":293000000000,"state":"active","ping":59},{"user_id":105,"name":"Jared","steam_id":76561198132598549,"connected_time":113000000000,"state":"active","ping":83},{"user_id":71,"name":"HOTA","steam_id":76561199002778841,"connected_time":2126000000000,"state":"active","ping":74},{"user_id":94,"name":"The Enigmatic Dolphin","steam_id":76561197991390953,"connected_time":966000000000,"state":"active","ping":69},{"user_id":85,"name":"Unlock The Shock (She/They)","steam_id":76561198823616667,"connected_time":1403000000000,"state":"active","ping":78},{"user_id":86,"name":"Lexabyte","steam_id":76561198065032237,"connected_time":1377000000000,"state":"active","ping":71},{"user_id":106,"name":"clavin_","steam_id":76561198046398447,"connected_time":101000000000,"state":"active","ping":59},{"user_id":107,"name":"fasty","steam_id":76561199243229769,"connected_time":98000000000,"state":"active","ping":45},{"user_id":108,"name":"Ghostmeal","steam_id":76561198042380299,"connected_time":54000000000,"state":"active","ping":73},{"user_id":89,"name":"the lizard that monitors","steam_id":76561198092135570,"connected_time":1186000000000,"state":"active","ping":59},{"user_id":90,"name":"The Elder Hobo","steam_id":76561198039357659,"connected_time":1172000000000,"state":"active","ping":51},{"user_id":95,"name":"AffinityNode","steam_id":76561198179676246,"connected_time":950000000000,"state":"active","ping":86},{"user_id":98,"name":"IanFishooks","steam_id":76561199403427527,"connected_time":897000000000,"state":"active","ping":77},{"user_id":102,"name":"Butters495","steam_id":76561197998689042,"connected_time":543000000000,"state":"active","ping":77},{"user_id":109,"name":"Sad Sapling","steam_id":76561198075612150,"connected_time":46000000000,"state":"active","ping":110},{"user_id":99,"name":"lu","steam_id":76561198080731872,"connected_time":789000000000,"state":"active","ping":70},{"user_id":110,"name":"polyatomic subterfuge","steam_id":76561198050192689,"connected_time":14000000000,"state":"spawning","ping":104}]},{"server_id":38,"name":"Uncletopia | Chicago | 7 | Stopwatch Beta","name_short":"chi-7","host":"chi-2.us.uncletopia.com","port":27035,"enabled":true,"region":"us-central","cc":"us","latitude":41.881832,"longitude":-87.62318,"reserved":0,"last_update":"0001-01-01T00:00:00Z","name_a2s":"Uncletopia | Chicago | 7 | Stopwatch Beta","protocol":17,"map":"koth_lakeside_final","folder":"tf","game":"Team Fortress","app_id":440,"player_count":0,"max_players":24,"Bots":0,"server_type":"Dedicated","server_os":"Linux","password":true,"vac":true,"version":"7961495","steam_id":85568392924866364,"keywords":["cp","nocrits","nodmgspread","uncletopia"],"game_id":440,"stv_port":27036,"stv_name":"Uncletopia | Chicago | 7 | Stopwatch Beta | STV","players":null},{"server_id":39,"name":"Uncletopia | Chicago | 8 | Community","name_short":"chi-8","host":"chi-2.us.uncletopia.com","port":27045,"enabled":true,"region":"us-central","cc":"us","latitude":41.881832,"longitude":-87.62318,"reserved":0,"last_update":"0001-01-01T00:00:00Z","name_a2s":"Uncletopia | Chicago | 8 | Community","protocol":17,"map":"workshop/cp_villa_b19.ugc2113052569","folder":"tf","game":"Team Fortress","app_id":440,"player_count":4,"max_players":24,"Bots":0,"server_type":"Dedicated","server_os":"Linux","password":true,"vac":true,"version":"7961495","steam_id":85568392924866365,"keywords":["cp","nocrits","nodmgspread","uncletopia"],"game_id":440,"stv_port":27046,"stv_name":"Uncletopia | Chicago | 8 | Community | STV","players":[{"user_id":54,"name":"semillams cuenta","steam_id":76561199223089296,"connected_time":48000000000,"state":"spawning","ping":460},{"user_id":51,"name":"ButterScotch","steam_id":76561199389314894,"connected_time":650000000000,"state":"active","ping":72},{"user_id":47,"name":"Extinct","steam_id":76561199013696367,"connected_time":1747000000000,"state":"active","ping":64},{"user_id":38,"name":"Asik-Asik_J0ss","steam_id":76561199180030841,"connected_time":3161000000000,"state":"active","ping":302}]},{"server_id":8,"name":"Uncletopia | Dallas | 1 | All Maps","name_short":"dal-1","host":"dal-1.us.uncletopia.com","port":27015,"enabled":true,"region":"us-central","cc":"us","latitude":32.779167,"longitude":-96.80889,"reserved":0,"last_update":"0001-01-01T00:00:00Z","name_a2s":"Uncletopia | Dallas | 1 | All Maps","protocol":17,"map":"cp_snakewater_final1","folder":"tf","game":"Team Fortress","app_id":440,"player_count":0,"max_players":24,"Bots":0,"server_type":"Dedicated","server_os":"Linux","password":true,"vac":true,"version":"7961495","steam_id":85568392924469986,"keywords":["cp","nocrits","nodmgspread","uncletopia"],"game_id":440,"stv_port":27016,"stv_name":"Uncletopia | Dallas | 1 | All Maps | STV","players":null},{"server_id":108,"name":"Uncletopia | Dallas | 2 | All Maps","name_short":"dal-2","host":"dal-1.us.uncletopia.com","port":27025,"enabled":true,"region":"us-central","cc":"us","latitude":32.779167,"longitude":-96.80889,"reserved":0,"last_update":"0001-01-01T00:00:00Z","name_a2s":"Uncletopia | Dallas | 2 | All Maps","protocol":17,"map":"pl_badwater","folder":"tf","game":"Team Fortress","app_id":440,"player_count":24,"max_players":24,"Bots":0,"server_type":"Dedicated","server_os":"Linux","password":true,"vac":true,"version":"7961495","steam_id":85568392924469988,"keywords":["nocrits","nodmgspread","payload","uncletopia"],"game_id":440,"stv_port":27026,"stv_name":"Uncletopia | Dallas | 2 | All Maps | STV","players":[{"user_id":241,"name":"DapperToff","steam_id":76561198131354533,"connected_time":1717000000000,"state":"active","ping":173},{"user_id":270,"name":"Queen Frau the Round","steam_id":76561197999942134,"connected_time":612000000000,"state":"active","ping":64},{"user_id":231,"name":"airballer","steam_id":76561198165899125,"connected_time":2557000000000,"state":"active","ping":92},{"user_id":240,"name":"Cheena","steam_id":76561198078701192,"connected_time":1780000000000,"state":"active","ping":99},{"user_id":186,"name":"jer","steam_id":76561198148235230,"connected_time":6090000000000,"state":"active","ping":76},{"user_id":248,"name":"peep! qki","steam_id":76561198056198168,"connected_time":1326000000000,"state":"active","ping":45},{"user_id":282,"name":"Obama","steam_id":76561198194065283,"connected_time":39000000000,"state":"active","ping":76},{"user_id":267,"name":"bulbasaur890","steam_id":76561198093443639,"connected_time":773000000000,"state":"active","ping":54},{"user_id":268,"name":"Suburban Wolf Dad","steam_id":76561198069234954,"connected_time":698000000000,"state":"active","ping":66},{"user_id":246,"name":"DMM","steam_id":76561198065426171,"connected_time":1368000000000,"state":"active","ping":58},{"user_id":236,"name":"brooke","steam_id":76561198081750143,"connected_time":2026000000000,"state":"active","ping":58},{"user_id":249,"name":"Chlamydia Jones","steam_id":76561198068701043,"connected_time":1301000000000,"state":"active","ping":77},{"user_id":281,"name":"Phosu","steam_id":76561198180162801,"connected_time":155000000000,"state":"active","ping":71},{"user_id":277,"name":"davvyy","steam_id":76561198047498094,"connected_time":502000000000,"state":"active","ping":76},{"user_id":252,"name":"josh","steam_id":76561198077902438,"connected_time":1220000000000,"state":"active","ping":75},{"user_id":272,"name":"help! emibgu","steam_id":76561198155872356,"connected_time":576000000000,"state":"active","ping":75},{"user_id":279,"name":"RectahlProlapse","steam_id":76561199044655605,"connected_time":387000000000,"state":"active","ping":101},{"user_id":274,"name":"joshua hotz","steam_id":76561198045622778,"connected_time":554000000000,"state":"active","ping":53},{"user_id":260,"name":"JayRawgTV","steam_id":76561198044402840,"connected_time":1121000000000,"state":"active","ping":47},{"user_id":254,"name":"Pika","steam_id":76561198068063436,"connected_time":1212000000000,"state":"active","ping":57},{"user_id":275,"name":"TATARA","steam_id":76561199098759517,"connected_time":552000000000,"state":"active","ping":117},{"user_id":265,"name":"s a d b o y s","steam_id":76561198037481669,"connected_time":823000000000,"state":"active","ping":85},{"user_id":280,"name":"artichoke","steam_id":76561198980994364,"connected_time":356000000000,"state":"active","ping":105},{"user_id":258,"name":"flwrgrl","steam_id":76561198815644949,"connected_time":1182000000000,"state":"active","ping":60}]},{"server_id":5,"name":"Uncletopia | Frankfurt | 1 | All Maps","name_short":"frk-1","host":"frk-1.de.uncletopia.com","port":27015,"enabled":true,"region":"eu","cc":"de","latitude":50.110924,"longitude":8.682127,"reserved":0,"last_update":"0001-01-01T00:00:00Z","name_a2s":"Uncletopia | Frankfurt | 1 | All Maps","protocol":17,"map":"pl_pier","folder":"tf","game":"Team Fortress","app_id":440,"player_count":24,"max_players":24,"Bots":0,"server_type":"Dedicated","server_os":"Linux","password":true,"vac":true,"version":"7961495","steam_id":85568392924469989,"keywords":["nocrits","nodmgspread","payload","uncletopia"],"game_id":440,"stv_port":27016,"stv_name":"Uncletopia | Frankfurt | 1 | All Maps | STV","players":[{"user_id":372,"name":"breeeh","steam_id":76561198263260743,"connected_time":3073000000000,"state":"active","ping":94},{"user_id":410,"name":"viniatic","steam_id":76561199182846823,"connected_time":768000000000,"state":"active","ping":67},{"user_id":400,"name":"crispy Robespierre","steam_id":76561198072881845,"connected_time":1351000000000,"state":"active","ping":60},{"user_id":411,"name":"‚ôÇ Animan ‚ôÇ Studios ‚ôÇ","steam_id":76561198308302932,"connected_time":734000000000,"state":"active","ping":101},{"user_id":396,"name":"Oriuke","steam_id":76561197992166123,"connected_time":1500000000000,"state":"active","ping":60},{"user_id":415,"name":"Drix","steam_id":76561198056810212,"connected_time":45000000000,"state":"active","ping":64},{"user_id":382,"name":"john fortress","steam_id":76561198013237629,"connected_time":1984000000000,"state":"active","ping":107},{"user_id":395,"name":"üÉî Katarina","steam_id":76561198065652251,"connected_time":1558000000000,"state":"active","ping":42},{"user_id":379,"name":"JGV","steam_id":76561198094654971,"connected_time":2128000000000,"state":"active","ping":84},{"user_id":353,"name":"mohemmedmokhter2005","steam_id":76561199197650506,"connected_time":4161000000000,"state":"active","ping":100},{"user_id":408,"name":"Streaker","steam_id":76561198859213547,"connected_time":1001000000000,"state":"active","ping":121},{"user_id":399,"name":"Elsuedi","steam_id":76561198074722832,"connected_time":1373000000000,"state":"active","ping":52},{"user_id":413,"name":"The Funny Cat-Heaby","steam_id":76561198439978112,"connected_time":528000000000,"state":"active","ping":119},{"user_id":404,"name":"mercenarypit","steam_id":76561198161935108,"connected_time":1303000000000,"state":"active","ping":51},{"user_id":359,"name":"Puppy","steam_id":76561198284766141,"connected_time":3930000000000,"state":"active","ping":48},{"user_id":360,"name":"Bayoyo","steam_id":76561199069591774,"connected_time":3900000000000,"state":"active","ping":61},{"user_id":406,"name":"Rigby","steam_id":76561198021552128,"connected_time":1127000000000,"state":"active","ping":102},{"user_id":393,"name":"Wife left me for a Romanian","steam_id":76561198992352692,"connected_time":1685000000000,"state":"active","ping":76},{"user_id":398,"name":"Serton‚ôù","steam_id":76561198011061126,"connected_time":1492000000000,"state":"active","ping":87},{"user_id":414,"name":"Urfangonultasadana","steam_id":76561199389286151,"connected_time":495000000000,"state":"active","ping":98},{"user_id":385,"name":"The Punch","steam_id":76561198212488780,"connected_time":1928000000000,"state":"active","ping":61},{"user_id":394,"name":"sHIFTINGvORTEX","steam_id":76561198231648332,"connected_time":1680000000000,"state":"active","ping":75},{"user_id":366,"name":"Doombringer","steam_id":76561198041583294,"connected_time":3674000000000,"state":"active","ping":120},{"user_id":388,"name":"Sunchouse","steam_id":76561198453479806,"connected_time":1841000000000,"state":"active","ping":79}]},{"server_id":110,"name":"Uncletopia | Frankfurt | 2 | All Maps","name_short":"frk-2","host":"frk-1.de.uncletopia.com","port":27025,"enabled":true,"region":"eu","cc":"de","latitude":50.110924,"longitude":8.682127,"reserved":0,"last_update":"0001-01-01T00:00:00Z","name_a2s":"Uncletopia | Frankfurt | 2 | All Maps","protocol":17,"map":"pl_badwater","folder":"tf","game":"Team Fortress","app_id":440,"player_count":24,"max_players":24,"Bots":0,"server_type":"Dedicated","server_os":"Linux","password":true,"vac":true,"version":"7961495","steam_id":85568392924469990,"keywords":["nocrits","nodmgspread","payload","uncletopia"],"game_id":440,"stv_port":27026,"stv_name":"Uncletopia | Frankfurt | 2 | All Maps | STV","players":[{"user_id":517,"name":"no mom im not taking meds","steam_id":76561198411598430,"connected_time":1157000000000,"state":"active","ping":60},{"user_id":518,"name":"mook","steam_id":76561198175543442,"connected_time":1128000000000,"state":"active","ping":66},{"user_id":519,"name":"Gooner","steam_id":76561198087035309,"connected_time":1081000000000,"state":"active","ping":60},{"user_id":520,"name":"Ptahotep","steam_id":76561198008708645,"connected_time":1029000000000,"state":"active","ping":54},{"user_id":475,"name":"Nekramite","steam_id":76561198166617261,"connected_time":5371000000000,"state":"active","ping":60},{"user_id":496,"name":"cat","steam_id":76561198832231975,"connected_time":4250000000000,"state":"active","ping":81},{"user_id":521,"name":"noot","steam_id":76561198148074472,"connected_time":987000000000,"state":"active","ping":36},{"user_id":535,"name":"TJ1212","steam_id":76561199013575313,"connected_time":343000000000,"state":"active","ping":64},{"user_id":526,"name":"kiaan","steam_id":76561198060819695,"connected_time":945000000000,"state":"active","ping":147},{"user_id":504,"name":"madijo","steam_id":76561198012617400,"connected_time":3174000000000,"state":"active","ping":50},{"user_id":522,"name":"Germanium_Ge","steam_id":76561198130561775,"connected_time":983000000000,"state":"active","ping":54},{"user_id":523,"name":"Puss in Boots","steam_id":76561198211599767,"connected_time":981000000000,"state":"active","ping":62},{"user_id":524,"name":"murderwow","steam_id":76561198024566944,"connected_time":973000000000,"state":"active","ping":93},{"user_id":491,"name":"Kekeke","steam_id":76561198063672270,"connected_time":4502000000000,"state":"active","ping":94},{"user_id":509,"name":"VampiuS","steam_id":76561197998827007,"connected_time":2671000000000,"state":"active","ping":54},{"user_id":506,"name":"Fales","steam_id":76561198126124929,"connected_time":3005000000000,"state":"active","ping":73},{"user_id":536,"name":"ImABush","steam_id":76561198304471896,"connected_time":90000000000,"state":"active","ping":47},{"user_id":537,"name":"Plow cheese","steam_id":76561198142478067,"connected_time":41000000000,"state":"active","ping":80},{"user_id":539,"name":"Who's laughing?","steam_id":76561198013961148,"connected_time":21000000000,"state":"active","ping":107},{"user_id":513,"name":"SchwanzusLongus","steam_id":76561198112599986,"connected_time":1767000000000,"state":"active","ping":44},{"user_id":448,"name":"‚ù§Speedbump‚ù§","steam_id":76561198388690313,"connected_time":6592000000000,"state":"active","ping":61},{"user_id":514,"name":"spy among us","steam_id":76561198392537090,"connected_time":1735000000000,"state":"active","ping":60},{"user_id":502,"name":"0xDEADBEEF","steam_id":76561199075416111,"connected_time":3566000000000,"state":"active","ping":91},{"user_id":532,"name":":3","steam_id":76561198147277460,"connected_time":842000000000,"state":"active","ping":59}]},{"server_id":308,"name":"Uncletopia | Frankfurt | 3 | All Maps","name_short":"frk-3","host":"frk-1.de.uncletopia.com","port":27035,"enabled":true,"region":"eu","cc":"de","latitude":50.110924,"longitude":8.682127,"reserved":0,"last_update":"0001-01-01T00:00:00Z","name_a2s":"Uncletopia | Frankfurt | 3 | All Maps","protocol":17,"map":"pl_barnblitz","folder":"tf","game":"Team Fortress","app_id":440,"player_count":13,"max_players":24,"Bots":0,"server_type":"Dedicated","server_os":"Linux","password":true,"vac":true,"version":"7961495","steam_id":85568392924504274,"keywords":["nocrits","nodmgspread","payload","uncletopia"],"game_id":440,"stv_port":27036,"stv_name":"Uncletopia | Frankfurt | 3 | All Maps | STV","players":[{"user_id":237,"name":"strigoi2","steam_id":76561198351880994,"connected_time":556000000000,"state":"active","ping":96},{"user_id":135,"name":"Lichowsky","steam_id":76561198139802454,"connected_time":8430000000000,"state":"active","ping":66},{"user_id":244,"name":"Lud","steam_id":76561198439376123,"connected_time":163000000000,"state":"active","ping":92},{"user_id":238,"name":"stefanbejenari","steam_id":76561199466718294,"connected_time":529000000000,"state":"active","ping":73},{"user_id":226,"name":"Goldenapple710","steam_id":76561198338239453,"connected_time":2420000000000,"state":"active","ping":89},{"user_id":239,"name":"presidentialAIDS","steam_id":76561199257284077,"connected_time":402000000000,"state":"active","ping":146},{"user_id":232,"name":"Party in the wall house","steam_id":76561199002798794,"connected_time":1421000000000,"state":"active","ping":77},{"user_id":242,"name":"Ixsus\u003c3","steam_id":76561198094756869,"connected_time":301000000000,"state":"active","ping":47},{"user_id":245,"name":"mesŒª","steam_id":76561198324582918,"connected_time":33000000000,"state":"active","ping":93},{"user_id":243,"name":"123","steam_id":76561198971646385,"connected_time":267000000000,"state":"active","ping":74},{"user_id":246,"name":"aisu","steam_id":76561198043768507,"connected_time":28000000000,"state":"active","ping":176},{"user_id":247,"name":"kingjulian200","steam_id":76561198879197555,"connected_time":9000000000,"state":"spawning","ping":59},{"user_id":248,"name":"ScaryTree","steam_id":76561199384362833,"connected_time":8000000000,"state":"spawning","ping":103}]},{"server_id":309,"name":"Uncletopia | Frankfurt | 4 | All Maps","name_short":"frk-4","host":"frk-1.de.uncletopia.com","port":27045,"enabled":true,"region":"eu","cc":"de","latitude":50.110924,"longitude":8.682127,"reserved":0,"last_update":"0001-01-01T00:00:00Z","name_a2s":"Uncletopia | Frankfurt | 4 | All Maps","protocol":17,"map":"pl_borneo","folder":"tf","game":"Team Fortress","app_id":440,"player_count":24,"max_players":24,"Bots":0,"server_type":"Dedicated","server_os":"Linux","password":true,"vac":true,"version":"7961495","steam_id":85568392924504275,"keywords":["nocrits","nodmgspread","payload","uncletopia"],"game_id":440,"stv_port":27046,"stv_name":"Uncletopia | Frankfurt | 4 | All Maps | STV","players":[{"user_id":94,"name":"Pigeon","steam_id":76561199109713313,"connected_time":35000000000,"state":"active","ping":179},{"user_id":38,"name":"The Knight","steam_id":76561198055320626,"connected_time":2257000000000,"state":"active","ping":92},{"user_id":74,"name":"Bird On Your Window","steam_id":76561198081933130,"connected_time":589000000000,"state":"active","ping":72},{"user_id":76,"name":"Sch","steam_id":76561198071341689,"connected_time":541000000000,"state":"active","ping":53},{"user_id":95,"name":"Chicken hunter","steam_id":76561198359966356,"connected_time":21000000000,"state":"active","ping":141},{"user_id":21,"name":"Anonymous47007","steam_id":76561199005211417,"connected_time":3247000000000,"state":"active","ping":71},{"user_id":84,"name":"MK-Ultra Violence","steam_id":76561198081328238,"connected_time":323000000000,"state":"active","ping":80},{"user_id":67,"name":"hedon/","steam_id":76561198249832770,"connected_time":914000000000,"state":"active","ping":59},{"user_id":71,"name":"yatsuta","steam_id":76561198130968941,"connected_time":710000000000,"state":"active","ping":81},{"user_id":86,"name":"∆Éu…ê ásn…Ø","steam_id":76561198235739036,"connected_time":282000000000,"state":"active","ping":74},{"user_id":80,"name":"Ai_Spankzie","steam_id":76561198040964036,"connected_time":467000000000,"state":"active","ping":62},{"user_id":72,"name":"realness","steam_id":76561199129226935,"connected_time":661000000000,"state":"active","ping":101},{"user_id":87,"name":"jimq","steam_id":76561198394653715,"connected_time":265000000000,"state":"active","ping":65},{"user_id":88,"name":"Wir suchen dich!","steam_id":76561198307613521,"connected_time":259000000000,"state":"active","ping":48},{"user_id":82,"name":"ArikMor","steam_id":76561199124472513,"connected_time":395000000000,"state":"active","ping":127},{"user_id":89,"name":"WojStaGra","steam_id":76561198157277370,"connected_time":257000000000,"state":"active","ping":91},{"user_id":36,"name":"Tengen","steam_id":76561199356990346,"connected_time":2386000000000,"state":"active","ping":111},{"user_id":93,"name":"ScampSixteen","steam_id":76561198021771000,"connected_time":71000000000,"state":"active","ping":68},{"user_id":81,"name":"Dog ?","steam_id":76561198347020945,"connected_time":460000000000,"state":"active","ping":84},{"user_id":96,"name":"Sarahtonin","steam_id":76561197992144115,"connected_time":16000000000,"state":"active","ping":66},{"user_id":77,"name":"joachym","steam_id":76561198428579761,"connected_time":537000000000,"state":"active","ping":66},{"user_id":49,"name":"konstlang","steam_id":76561198083980412,"connected_time":1736000000000,"state":"active","ping":78},{"user_id":50,"name":"dogot","steam_id":76561198880890519,"connected_time":1725000000000,"state":"active","ping":75},{"user_id":64,"name":"killerdiam","steam_id":76561198806422317,"connected_time":1074000000000,"state":"active","ping":60}]},{"server_id":310,"name":"Uncletopia | Frankfurt | 5 | All Maps","name_short":"frk-5","host":"frk-1.de.uncletopia.com","port":27055,"enabled":true,"region":"eu","cc":"de","latitude":50.110924,"longitude":8.682127,"reserved":0,"last_update":"0001-01-01T00:00:00Z","name_a2s":"Uncletopia | Frankfurt | 5 | All Maps","protocol":17,"map":"pl_swiftwater_final1","folder":"tf","game":"Team Fortress","app_id":440,"player_count":24,"max_players":24,"Bots":0,"server_type":"Dedicated","server_os":"Linux","password":true,"vac":true,"version":"7961495","steam_id":85568392924504277,"keywords":["nocrits","nodmgspread","payload","uncletopia"],"game_id":440,"stv_port":27056,"stv_name":"Uncletopia | Frankfurt | 5 | All Maps | STV","players":[{"user_id":294,"name":"I sell exotic parrots","steam_id":76561199192434258,"connected_time":926000000000,"state":"active","ping":78},{"user_id":295,"name":"KnugenIV","steam_id":76561198127091993,"connected_time":915000000000,"state":"active","ping":57},{"user_id":270,"name":"Your Lovely Medic","steam_id":76561198039326848,"connected_time":1421000000000,"state":"active","ping":63},{"user_id":297,"name":"Sandvich","steam_id":76561199079493666,"connected_time":492000000000,"state":"active","ping":88},{"user_id":242,"name":"TomNoSocks","steam_id":76561198114071046,"connected_time":3328000000000,"state":"active","ping":76},{"user_id":298,"name":"Michael","steam_id":76561198003146906,"connected_time":483000000000,"state":"active","ping":60},{"user_id":311,"name":"Gorzel","steam_id":76561198828273330,"connected_time":169000000000,"state":"active","ping":73},{"user_id":288,"name":"1914","steam_id":76561198257383813,"connected_time":1102000000000,"state":"active","ping":45},{"user_id":231,"name":"night.s","steam_id":76561198326287823,"connected_time":3610000000000,"state":"active","ping":79},{"user_id":299,"name":"Jusuf","steam_id":76561199084809092,"connected_time":460000000000,"state":"active","ping":109},{"user_id":237,"name":"‚ôÇ Dungeon Master ‚ôÇ","steam_id":76561198106441033,"connected_time":3476000000000,"state":"active","ping":96},{"user_id":253,"name":"neJ","steam_id":76561198003397488,"connected_time":2273000000000,"state":"active","ping":72},{"user_id":309,"name":"Glenn Quagmire","steam_id":76561199348527880,"connected_time":188000000000,"state":"active","ping":83},{"user_id":212,"name":"Wardruna96","steam_id":76561199057083828,"connected_time":4378000000000,"state":"active","ping":78},{"user_id":296,"name":"Madmoose96","steam_id":76561198081888486,"connected_time":598000000000,"state":"active","ping":72},{"user_id":300,"name":"Zedespook","steam_id":76561198265479349,"connected_time":445000000000,"state":"active","ping":57},{"user_id":301,"name":"Cederberg","steam_id":76561198130558463,"connected_time":436000000000,"state":"active","ping":64},{"user_id":239,"name":"sareena","steam_id":76561198810194062,"connected_time":3451000000000,"state":"active","ping":75},{"user_id":312,"name":"Door","steam_id":76561198111462976,"connected_time":162000000000,"state":"active","ping":71},{"user_id":313,"name":"Eqxd","steam_id":76561199055592635,"connected_time":30000000000,"state":"active","ping":85},{"user_id":303,"name":"[T]aKer","steam_id":76561198001778013,"connected_time":398000000000,"state":"active","ping":54},{"user_id":305,"name":"vipRLH","steam_id":76561198103030238,"connected_time":364000000000,"state":"active","ping":57},{"user_id":286,"name":"filo","steam_id":76561198103633797,"connected_time":1133000000000,"state":"active","ping":81},{"user_id":257,"name":"hipster_doofus","steam_id":76561197970902697,"connected_time":1774000000000,"state":"active","ping":70}]},{"server_id":311,"name":"Uncletopia | Frankfurt | 6 | All Maps","name_short":"frk-6","host":"frk-1.de.uncletopia.com","port":27065,"enabled":true,"region":"eu","cc":"de","latitude":50.110924,"longitude":8.682127,"reserved":0,"last_update":"0001-01-01T00:00:00Z","name_a2s":"Uncletopia | Frankfurt | 6 | All Maps","protocol":17,"map":"pl_snowycoast","folder":"tf","game":"Team Fortress","app_id":440,"player_count":24,"max_players":24,"Bots":0,"server_type":"Dedicated","server_os":"Linux","password":true,"vac":true,"version":"7961495","steam_id":85568392924504278,"keywords":["nocrits","nodmgspread","payload","uncletopia"],"game_id":440,"stv_port":27066,"stv_name":"Uncletopia | Frankfurt | 6 | All Maps | STV","players":[{"user_id":280,"name":"rusai megsta smegma","steam_id":76561198332529555,"connected_time":3363000000000,"state":"active","ping":79},{"user_id":332,"name":"fifrok","steam_id":76561198799267621,"connected_time":634000000000,"state":"active","ping":68},{"user_id":333,"name":"philipibba1","steam_id":76561199470534991,"connected_time":621000000000,"state":"active","ping":88},{"user_id":288,"name":"vadim_kotler","steam_id":76561199016634369,"connected_time":2714000000000,"state":"active","ping":103},{"user_id":293,"name":"Mr.Schnittlauch","steam_id":76561198295868113,"connected_time":2358000000000,"state":"active","ping":47},{"user_id":310,"name":"Dora","steam_id":76561198072207649,"connected_time":1615000000000,"state":"active","ping":66},{"user_id":331,"name":"jerf(pls make me woman)","steam_id":76561199213901239,"connected_time":680000000000,"state":"active","ping":61},{"user_id":244,"name":"LurkingPancake","steam_id":76561199488567082,"connected_time":4076000000000,"state":"active","ping":76},{"user_id":314,"name":"Memper","steam_id":76561198066700614,"connected_time":1499000000000,"state":"active","ping":73},{"user_id":334,"name":"Aeglos","steam_id":76561198248698294,"connected_time":605000000000,"state":"active","ping":76},{"user_id":317,"name":"Xyronix","steam_id":76561198077158201,"connected_time":1452000000000,"state":"active","ping":45},{"user_id":341,"name":"soop509","steam_id":76561199151012387,"connected_time":99000000000,"state":"active","ping":355},{"user_id":340,"name":"[Paul]Brotdose666","steam_id":76561198001521478,"connected_time":336000000000,"state":"active","ping":72},{"user_id":336,"name":"Super Amazing Hotdog Batman!:3","steam_id":76561198074168360,"connected_time":595000000000,"state":"active","ping":66},{"user_id":337,"name":"shh... tiny carrots r sleeping","steam_id":76561198069649097,"connected_time":580000000000,"state":"active","ping":73},{"user_id":196,"name":"tea girl","steam_id":76561198068054530,"connected_time":6504000000000,"state":"active","ping":73},{"user_id":338,"name":"cult","steam_id":76561198188647690,"connected_time":577000000000,"state":"active","ping":70},{"user_id":339,"name":"mozhem pavtarixm","steam_id":76561198035116876,"connected_time":575000000000,"state":"active","ping":78},{"user_id":306,"name":"After8","steam_id":76561198090750865,"connected_time":1822000000000,"state":"active","ping":70},{"user_id":326,"name":"cuddle","steam_id":76561198805181599,"connected_time":1024000000000,"state":"active","ping":67},{"user_id":329,"name":"Flamy?","steam_id":76561198024332838,"connected_time":818000000000,"state":"active","ping":80},{"user_id":328,"name":"Buddy","steam_id":76561198050185582,"connected_time":935000000000,"state":"active","ping":68},{"user_id":321,"name":"Box of Cox","steam_id":76561198075035494,"connected_time":1274000000000,"state":"active","ping":51},{"user_id":330,"name":"_Starlight_","steam_id":76561197993885738,"connected_time":806000000000,"state":"active","ping":75}]},{"server_id":23,"name":"Uncletopia | Frankfurt | 7 | Stopwatch Beta","name_short":"frk-7","host":"frk-1.de.uncletopia.com","port":27075,"enabled":true,"region":"eu","cc":"de","latitude":50.110924,"longitude":8.682127,"reserved":0,"last_update":"0001-01-01T00:00:00Z","name_a2s":"Uncletopia | Frankfurt | 7 | Stopwatch Beta","protocol":17,"map":"koth_cascade","folder":"tf","game":"Team Fortress","app_id":440,"player_count":0,"max_players":24,"Bots":0,"server_type":"Dedicated","server_os":"Linux","password":true,"vac":true,"version":"7961495","steam_id":85568392924742827,"keywords":["cp","nocrits","nodmgspread","uncletopia"],"game_id":440,"stv_port":27076,"stv_name":"Uncletopia | Frankfurt | 7 | Stopwatch Beta | STV","players":null},{"server_id":24,"name":"Uncletopia | Frankfurt | 8 | Community","name_short":"frk-8","host":"frk-1.de.uncletopia.com","port":27085,"enabled":true,"region":"eu","cc":"de","latitude":50.110924,"longitude":8.682127,"reserved":0,"last_update":"0001-01-01T00:00:00Z","name_a2s":"Uncletopia | Frankfurt | 8 | Community","protocol":17,"map":"workshop/koth_bagel_rc6.ugc2514036946","folder":"tf","game":"Team Fortress","app_id":440,"player_count":0,"max_players":24,"Bots":0,"server_type":"Dedicated","server_os":"Linux","password":true,"vac":true,"version":"7961495","steam_id":85568392924742828,"keywords":["cp","nocrits","nodmgspread","uncletopia"],"game_id":440,"stv_port":27086,"stv_name":"Uncletopia | Frankfurt | 8 | Community | STV","players":null},{"server_id":202,"name":"Uncletopia | Hong Kong | 1 | All Maps","name_short":"hgk-1","host":"hgk-1.hk.uncletopia.com","port":27015,"enabled":true,"region":"asia","cc":"hk","latitude":22.302711,"longitude":114.177216,"reserved":0,"last_update":"0001-01-01T00:00:00Z","name_a2s":"Uncletopia | Hong Kong | 1 | All Maps","protocol":17,"map":"pl_upward","folder":"tf","game":"Team Fortress","app_id":440,"player_count":0,"max_players":24,"Bots":0,"server_type":"Dedicated","server_os":"Linux","password":true,"vac":true,"version":"7961495","steam_id":85568392924494504,"keywords":["nocrits","nodmgspread","payload","uncletopia"],"game_id":440,"stv_port":27016,"stv_name":"Uncletopia | Hong Kong | 1 | All Maps | STV","players":null},{"server_id":1,"name":"Uncletopia | Los Angeles | 1 | All Maps","name_short":"lax-1","host":"lax-1.us.uncletopia.com","port":27015,"enabled":true,"region":"us-west","cc":"us","latitude":33.94279,"longitude":-118.41004,"reserved":0,"last_update":"0001-01-01T00:00:00Z","name_a2s":"Uncletopia | Los Angeles | 1 | All Maps","protocol":17,"map":"cp_powerhouse","folder":"tf","game":"Team Fortress","app_id":440,"player_count":24,"max_players":24,"Bots":0,"server_type":"Dedicated","server_os":"Linux","password":true,"vac":true,"version":"7961495","steam_id":85568392924469991,"keywords":["cp","nocrits","nodmgspread","uncletopia"],"game_id":440,"stv_port":27016,"stv_name":"Uncletopia | Los Angeles | 1 | All Maps | STV","players":[{"user_id":52,"name":"sunflowerofwar","steam_id":76561198940058271,"connected_time":538000000000,"state":"spawning","ping":65},{"user_id":43,"name":"Temujin","steam_id":76561198030936583,"connected_time":1153000000000,"state":"spawning","ping":98},{"user_id":8,"name":"Leaf","steam_id":76561198880728513,"connected_time":4071000000000,"state":"spawning","ping":85},{"user_id":53,"name":"Tali Simp Supreme","steam_id":76561198069639184,"connected_time":517000000000,"state":"spawning","ping":62},{"user_id":54,"name":"Robin Suarez","steam_id":76561198014698593,"connected_time":482000000000,"state":"spawning","ping":230},{"user_id":20,"name":"Clam","steam_id":76561198288570962,"connected_time":1899000000000,"state":"active","ping":160},{"user_id":44,"name":"miguelrodriguez2013","steam_id":76561198269253587,"connected_time":1107000000000,"state":"spawning","ping":64},{"user_id":14,"name":"‡∂û","steam_id":76561199187895660,"connected_time":2928000000000,"state":"spawning","ping":52},{"user_id":21,"name":"Jazpy","steam_id":76561198036872545,"connected_time":1891000000000,"state":"active","ping":76},{"user_id":22,"name":"Chalky","steam_id":76561199224370873,"connected_time":1838000000000,"state":"active","ping":158},{"user_id":57,"name":"Dougtherouge","steam_id":76561198211300573,"connected_time":93000000000,"state":"spawning","ping":122},{"user_id":24,"name":"spurious george","steam_id":76561198043558709,"connected_time":1775000000000,"state":"spawning","ping":268},{"user_id":45,"name":"Hordey","steam_id":76561198010064714,"connected_time":1105000000000,"state":"spawning","ping":77},{"user_id":38,"name":"Justinio","steam_id":76561199012167657,"connected_time":1247000000000,"state":"spawning","ping":55},{"user_id":27,"name":"Ockulus","steam_id":76561199069638460,"connected_time":1528000000000,"state":"spawning","ping":63},{"user_id":28,"name":"Elemental","steam_id":76561198255331873,"connected_time":1514000000000,"state":"spawning","ping":65},{"user_id":29,"name":"havarti gaming","steam_id":76561198069895678,"connected_time":1512000000000,"state":"active","ping":214},{"user_id":56,"name":"DuhDaddyD","steam_id":76561198950033870,"connected_time":163000000000,"state":"active","ping":447},{"user_id":40,"name":"The Hoagie Hero","steam_id":76561198057569298,"connected_time":1189000000000,"state":"spawning","ping":108},{"user_id":55,"name":"De Monki","steam_id":76561198964210411,"connected_time":478000000000,"state":"active","ping":140},{"user_id":58,"name":"raduski","steam_id":76561198795699119,"connected_time":13000000000,"state":"spawning","ping":88},{"user_id":41,"name":"Master Cannoli","steam_id":76561198272327518,"connected_time":1183000000000,"state":"connecting","ping":288},{"user_id":50,"name":"Spud","steam_id":76561198878000618,"connected_time":849000000000,"state":"spawning","ping":50},{"user_id":51,"name":"Color Drop","steam_id":76561198066651473,"connected_time":844000000000,"state":"spawning","ping":23}]},{"server_id":112,"name":"Uncletopia | Los Angeles | 2 | All Maps","name_short":"lax-2","host":"lax-1.us.uncletopia.com","port":27025,"enabled":true,"region":"us-west","cc":"us","latitude":33.94279,"longitude":-118.41004,"reserved":0,"last_update":"0001-01-01T00:00:00Z","name_a2s":"Uncletopia | Los Angeles | 2 | All Maps","protocol":17,"map":"pl_swiftwater_final1","folder":"tf","game":"Team Fortress","app_id":440,"player_count":0,"max_players":24,"Bots":0,"server_type":"Dedicated","server_os":"Linux","password":true,"vac":true,"version":"7961495","steam_id":85568392924469992,"keywords":["nocrits","nodmgspread","payload","uncletopia"],"game_id":440,"stv_port":27026,"stv_name":"Uncletopia | Los Angeles | 2 | All Maps | STV","players":null},{"server_id":324,"name":"Uncletopia | Los Angeles | 3 | All Maps","name_short":"lax-3","host":"lax-1.us.uncletopia.com","port":27035,"enabled":true,"region":"us-west","cc":"us","latitude":33.94279,"longitude":-118.41004,"reserved":0,"last_update":"0001-01-01T00:00:00Z","name_a2s":"Uncletopia | Los Angeles | 3 | All Maps","protocol":17,"map":"koth_lakeside_final","folder":"tf","game":"Team Fortress","app_id":440,"player_count":0,"max_players":24,"Bots":0,"server_type":"Dedicated","server_os":"Linux","password":true,"vac":true,"version":"7961495","steam_id":85568392924510198,"keywords":["cp","nocrits","nodmgspread","uncletopia"],"game_id":440,"stv_port":27036,"stv_name":"Uncletopia | Los Angeles | 3 | All Maps | STV","players":null},{"server_id":25,"name":"Uncletopia | Los Angeles | 4 | Stopwatch Beta","name_short":"lax-4","host":"lax-1.us.uncletopia.com","port":27045,"enabled":true,"region":"us-west","cc":"us","latitude":33.94279,"longitude":-118.41004,"reserved":0,"last_update":"0001-01-01T00:00:00Z","name_a2s":"Uncletopia | Los Angeles | 4 | Stopwatch Beta","protocol":17,"map":"pl_frontier_final","folder":"tf","game":"Team Fortress","app_id":440,"player_count":0,"max_players":24,"Bots":0,"server_type":"Dedicated","server_os":"Linux","password":true,"vac":true,"version":"7961495","steam_id":85568392924510199,"keywords":["nocrits","nodmgspread","payload","uncletopia"],"game_id":440,"stv_port":27046,"stv_name":"Uncletopia | Los Angeles | 4 | Stopwatch Beta | STV","players":null},{"server_id":11,"name":"Uncletopia | London | 1 | All Maps","name_short":"lon-1","host":"lon-1.uk.uncletopia.com","port":27015,"enabled":true,"region":"eu","cc":"gb","latitude":51.509865,"longitude":-0.118092,"reserved":0,"last_update":"0001-01-01T00:00:00Z","name_a2s":"Uncletopia | London | 1 | All Maps","protocol":17,"map":"pl_badwater","folder":"tf","game":"Team Fortress","app_id":440,"player_count":24,"max_players":24,"Bots":0,"server_type":"Dedicated","server_os":"Linux","password":true,"vac":true,"version":"7961495","steam_id":85568392924367362,"keywords":["nocrits","nodmgspread","payload","uncletopia"],"game_id":440,"stv_port":27016,"stv_name":"Uncletopia | London | 1 | All Maps | STV","players":[{"user_id":636,"name":"Sgt. Hellbot","steam_id":76561198002839795,"connected_time":30000000000,"state":"active","ping":84},{"user_id":629,"name":"killer of noob, winner of game","steam_id":76561198190583242,"connected_time":405000000000,"state":"active","ping":84},{"user_id":615,"name":"stinkyjerry","steam_id":76561198087544525,"connected_time":1998000000000,"state":"active","ping":168},{"user_id":630,"name":"Lyra","steam_id":76561198043601838,"connected_time":373000000000,"state":"active","ping":71},{"user_id":626,"name":"Croy","steam_id":76561197972552579,"connected_time":430000000000,"state":"active","ping":45},{"user_id":631,"name":"RLCrazyCat3","steam_id":76561197983757878,"connected_time":348000000000,"state":"active","ping":65},{"user_id":628,"name":"Lartsa","steam_id":76561198275690230,"connected_time":425000000000,"state":"active","ping":118},{"user_id":611,"name":"Grumble","steam_id":76561198053880090,"connected_time":2296000000000,"state":"active","ping":80},{"user_id":573,"name":"sunny","steam_id":76561198194849578,"connected_time":3912000000000,"state":"active","ping":59},{"user_id":622,"name":"Doggo225","steam_id":76561198166707002,"connected_time":1198000000000,"state":"active","ping":30},{"user_id":578,"name":"meshogamer","steam_id":76561199481679252,"connected_time":3731000000000,"state":"active","ping":112},{"user_id":604,"name":"Dr. Tommy","steam_id":76561198970762992,"connected_time":2477000000000,"state":"active","ping":85},{"user_id":574,"name":"GrammyGrammyGram","steam_id":76561199158347565,"connected_time":3898000000000,"state":"active","ping":37},{"user_id":591,"name":"O B S E R V E R","steam_id":76561198397143311,"connected_time":3094000000000,"state":"active","ping":67},{"user_id":587,"name":"Saucci","steam_id":76561198093495637,"connected_time":3447000000000,"state":"active","ping":82},{"user_id":618,"name":"The GREAT Papyrus","steam_id":76561199205631497,"connected_time":1719000000000,"state":"active","ping":111},{"user_id":633,"name":"sub class?","steam_id":76561199184873889,"connected_time":230000000000,"state":"active","ping":51},{"user_id":582,"name":"Jimmi Amareno","steam_id":76561198327750625,"connected_time":3699000000000,"state":"active","ping":29},{"user_id":620,"name":"MagPootis","steam_id":76561198157065778,"connected_time":1326000000000,"state":"active","ping":69},{"user_id":545,"name":"Dogfighter","steam_id":76561198798793898,"connected_time":5926000000000,"state":"active","ping":64},{"user_id":599,"name":"FlameTheGame","steam_id":76561198841108519,"connected_time":2796000000000,"state":"active","ping":104},{"user_id":559,"name":"Ark-e","steam_id":76561198261870909,"connected_time":4542000000000,"state":"active","ping":59},{"user_id":588,"name":"Plep","steam_id":76561198840259819,"connected_time":3167000000000,"state":"active","ping":58},{"user_id":624,"name":"Lewylow","steam_id":76561198005425686,"connected_time":1090000000000,"state":"active","ping":56}]},{"server_id":114,"name":"Uncletopia | London | 2 | All Maps","name_short":"lon-2","host":"lon-1.uk.uncletopia.com","port":27025,"enabled":true,"region":"eu","cc":"gb","latitude":51.509865,"longitude":-0.118092,"reserved":0,"last_update":"0001-01-01T00:00:00Z","name_a2s":"Uncletopia | London | 2 | All Maps","protocol":17,"map":"cp_process_final","folder":"tf","game":"Team Fortress","app_id":440,"player_count":24,"max_players":24,"Bots":0,"server_type":"Dedicated","server_os":"Linux","password":true,"vac":true,"version":"7961495","steam_id":85568392924470941,"keywords":["cp","nocrits","nodmgspread","uncletopia"],"game_id":440,"stv_port":27026,"stv_name":"Uncletopia | London | 2 | All Maps | STV","players":[{"user_id":147,"name":"peruna","steam_id":76561198000721196,"connected_time":1708000000000,"state":"active","ping":76},{"user_id":98,"name":"ACur","steam_id":76561198880488491,"connected_time":5428000000000,"state":"active","ping":57},{"user_id":149,"name":"Saucy Jack","steam_id":76561198894525288,"connected_time":1507000000000,"state":"active","ping":44},{"user_id":103,"name":"finbar","steam_id":76561198056812396,"connected_time":5363000000000,"state":"active","ping":79},{"user_id":156,"name":"Pineappleman","steam_id":76561199074651648,"connected_time":686000000000,"state":"active","ping":46},{"user_id":154,"name":"marvs","steam_id":76561198851777617,"connected_time":828000000000,"state":"active","ping":66},{"user_id":152,"name":"Ê¨†Á®éÂì•","steam_id":76561199118856462,"connected_time":1171000000000,"state":"active","ping":46},{"user_id":111,"name":"Omyskull","steam_id":76561198131711758,"connected_time":5156000000000,"state":"active","ping":64},{"user_id":161,"name":"Falco","steam_id":76561199061187430,"connected_time":412000000000,"state":"active","ping":52},{"user_id":112,"name":"m909","steam_id":76561198279621400,"connected_time":5156000000000,"state":"active","ping":98},{"user_id":158,"name":"Lyell","steam_id":76561198350329389,"connected_time":657000000000,"state":"active","ping":76},{"user_id":155,"name":"Fori","steam_id":76561198377310820,"connected_time":783000000000,"state":"active","ping":32},{"user_id":160,"name":"Gibusmain„Äè","steam_id":76561198219173932,"connected_time":429000000000,"state":"active","ping":101},{"user_id":145,"name":"kluri","steam_id":76561198084518962,"connected_time":1956000000000,"state":"active","ping":75},{"user_id":148,"name":"The Empire Ant","steam_id":76561198082466790,"connected_time":1696000000000,"state":"active","ping":62},{"user_id":123,"name":"Vel0city","steam_id":76561198049687798,"connected_time":4611000000000,"state":"active","ping":46},{"user_id":130,"name":"Olaf Gasbrigi","steam_id":76561198000618491,"connected_time":3535000000000,"state":"active","ping":69},{"user_id":159,"name":"Frc09_legend","steam_id":76561199230381841,"connected_time":499000000000,"state":"active","ping":58},{"user_id":162,"name":"trampampoline","steam_id":76561198121286517,"connected_time":366000000000,"state":"active","ping":32},{"user_id":137,"name":"Wuffington","steam_id":76561198033762881,"connected_time":2804000000000,"state":"active","ping":49},{"user_id":114,"name":"CharVarPiracy","steam_id":76561198841600694,"connected_time":5147000000000,"state":"active","ping":64},{"user_id":129,"name":"mister clusterfuck","steam_id":76561198531978435,"connected_time":3678000000000,"state":"active","ping":63},{"user_id":138,"name":"Flying Squirrel","steam_id":76561198005202791,"connected_time":2795000000000,"state":"active","ping":76},{"user_id":142,"name":"Tywhip","steam_id":76561199207545191,"connected_time":2726000000000,"state":"active","ping":56}]},{"server_id":320,"name":"Uncletopia | London | 3 | All Maps","name_short":"lon-3","host":"lon-1.uk.uncletopia.com","port":27035,"enabled":true,"region":"eu","cc":"gb","latitude":51.509865,"longitude":-0.118092,"reserved":0,"last_update":"0001-01-01T00:00:00Z","name_a2s":"Uncletopia | London | 3 | All Maps","protocol":17,"map":"koth_cascade","folder":"tf","game":"Team Fortress","app_id":440,"player_count":0,"max_players":24,"Bots":0,"server_type":"Dedicated","server_os":"Linux","password":true,"vac":true,"version":"7961495","steam_id":85568392924510192,"keywords":["cp","nocrits","nodmgspread","uncletopia"],"game_id":440,"stv_port":27036,"stv_name":"Uncletopia | London | 3 | All Maps | STV","players":null},{"server_id":321,"name":"Uncletopia | London | 4 | All Maps","name_short":"lon-4","host":"lon-1.uk.uncletopia.com","port":27045,"enabled":true,"region":"eu","cc":"gb","latitude":51.509865,"longitude":-0.118092,"reserved":0,"last_update":"0001-01-01T00:00:00Z","name_a2s":"Uncletopia | London | 4 | All Maps","protocol":17,"map":"pl_badwater","folder":"tf","game":"Team Fortress","app_id":440,"player_count":24,"max_players":24,"Bots":0,"server_type":"Dedicated","server_os":"Linux","password":true,"vac":true,"version":"7961495","steam_id":85568392924510193,"keywords":["nocrits","nodmgspread","payload","uncletopia"],"game_id":440,"stv_port":27046,"stv_name":"Uncletopia | London | 4 | All Maps | STV","players":[{"user_id":344,"name":"Talent","steam_id":76561198153880354,"connected_time":846000000000,"state":"active","ping":54},{"user_id":342,"name":"sinderquiler","steam_id":76561198047953481,"connected_time":870000000000,"state":"active","ping":76},{"user_id":309,"name":"DeterminedXD[HUN]","steam_id":76561199469006453,"connected_time":1919000000000,"state":"active","ping":97},{"user_id":287,"name":"Duck","steam_id":76561198158242888,"connected_time":2702000000000,"state":"active","ping":38},{"user_id":360,"name":"Jara.","steam_id":76561197992207165,"connected_time":220000000000,"state":"active","ping":101},{"user_id":314,"name":"Luuk","steam_id":76561198088266026,"connected_time":1644000000000,"state":"active","ping":44},{"user_id":281,"name":"jawA","steam_id":76561198070341774,"connected_time":3123000000000,"state":"active","ping":89},{"user_id":353,"name":"etc","steam_id":76561197998394797,"connected_time":453000000000,"state":"active","ping":47},{"user_id":343,"name":"yuta","steam_id":76561198077922992,"connected_time":866000000000,"state":"active","ping":35},{"user_id":339,"name":"TheNerdman","steam_id":76561198097576111,"connected_time":914000000000,"state":"active","ping":65},{"user_id":324,"name":"Naeso","steam_id":76561198068602498,"connected_time":1255000000000,"state":"active","ping":44},{"user_id":363,"name":"cister0","steam_id":76561198130195469,"connected_time":140000000000,"state":"active","ping":83},{"user_id":364,"name":"7-Zip","steam_id":76561198099726966,"connected_time":92000000000,"state":"active","ping":111},{"user_id":362,"name":"ackermann","steam_id":76561199129801006,"connected_time":194000000000,"state":"active","ping":59},{"user_id":351,"name":"Boki","steam_id":76561198044553351,"connected_time":532000000000,"state":"active","ping":74},{"user_id":361,"name":"Mallkiri","steam_id":76561198055914926,"connected_time":215000000000,"state":"active","ping":134},{"user_id":303,"name":"I Wanna Die :D","steam_id":76561198362116755,"connected_time":2174000000000,"state":"active","ping":172},{"user_id":304,"name":"Suspicious Cabin","steam_id":76561198083261198,"connected_time":2150000000000,"state":"active","ping":41},{"user_id":349,"name":"Braquemart le Barbare","steam_id":76561198799097492,"connected_time":816000000000,"state":"active","ping":46},{"user_id":320,"name":"A Red Brick","steam_id":76561198317522580,"connected_time":1398000000000,"state":"active","ping":100},{"user_id":325,"name":"Wolframen","steam_id":76561198074103958,"connected_time":1251000000000,"state":"active","ping":69},{"user_id":354,"name":"generic alias","steam_id":76561198271607226,"connected_time":426000000000,"state":"active","ping":85},{"user_id":359,"name":"tpiedzia","steam_id":76561198996682343,"connected_time":327000000000,"state":"active","ping":87},{"user_id":328,"name":"ROX","steam_id":76561198272289320,"connected_time":1193000000000,"state":"active","ping":59}]},{"server_id":21,"name":"Uncletopia | London | 5 | All Maps","name_short":"lon-5","host":"lon-1.uk.uncletopia.com","port":27055,"enabled":true,"region":"eu","cc":"gb","latitude":51.509865,"longitude":-0.118092,"reserved":0,"last_update":"0001-01-01T00:00:00Z","name_a2s":"Uncletopia | London | 5 | All Maps","protocol":17,"map":"koth_nucleus","folder":"tf","game":"Team Fortress","app_id":440,"player_count":3,"max_players":24,"Bots":0,"server_type":"Dedicated","server_os":"Linux","password":true,"vac":true,"version":"7961495","steam_id":85568392924742829,"keywords":["cp","nocrits","nodmgspread","uncletopia"],"game_id":440,"stv_port":27056,"stv_name":"Uncletopia | London | 5 | All Maps | STV","players":[{"user_id":110,"name":"Son Goku","steam_id":76561199383437138,"connected_time":137000000000,"state":"active","ping":120},{"user_id":111,"name":"Undefined Behaviour","steam_id":76561198069518492,"connected_time":115000000000,"state":"active","ping":88},{"user_id":112,"name":"Roachy","steam_id":76561198004508448,"connected_time":11000000000,"state":"spawning","ping":42}]},{"server_id":22,"name":"Uncletopia | London | 6 | All Maps","name_short":"lon-6","host":"lon-1.uk.uncletopia.com","port":27065,"enabled":true,"region":"eu","cc":"gb","latitude":51.509865,"longitude":-0.118092,"reserved":0,"last_update":"0001-01-01T00:00:00Z","name_a2s":"Uncletopia | London | 6 | All Maps","protocol":17,"map":"koth_harvest_final","folder":"tf","game":"Team Fortress","app_id":440,"player_count":0,"max_players":24,"Bots":0,"server_type":"Dedicated","server_os":"Linux","password":true,"vac":true,"version":"7961495","steam_id":85568392924742830,"keywords":["cp","nocrits","nodmgspread","uncletopia"],"game_id":440,"stv_port":27066,"stv_name":"Uncletopia | London | 6 | All Maps | STV","players":null},{"server_id":40,"name":"Uncletopia | London | 7 | No Payload","name_short":"lon-7","host":"lon-1.uk.uncletopia.com","port":27075,"enabled":true,"region":"eu","cc":"gb","latitude":51.509865,"longitude":-0.118092,"reserved":0,"last_update":"0001-01-01T00:00:00Z","name_a2s":"Uncletopia | London | 7 | No Payload","protocol":17,"map":"cp_junction_final","folder":"tf","game":"Team Fortress","app_id":440,"player_count":0,"max_players":24,"Bots":0,"server_type":"Dedicated","server_os":"Linux","password":true,"vac":true,"version":"7961495","steam_id":85568392924964314,"keywords":["cp","nocrits","nodmgspread","uncletopia"],"game_id":440,"stv_port":27076,"stv_name":"Uncletopia | London | 7 | No Payload | STV","players":null},{"server_id":41,"name":"Uncletopia | London | 8 | Community","name_short":"lon-8","host":"lon-1.uk.uncletopia.com","port":27085,"enabled":true,"region":"eu","cc":"gb","latitude":51.509865,"longitude":-0.118092,"reserved":0,"last_update":"0001-01-01T00:00:00Z","name_a2s":"Uncletopia | London | 8 | Community","protocol":17,"map":"workshop/pl_cashworks_final1.ugc2904065412","folder":"tf","game":"Team Fortress","app_id":440,"player_count":23,"max_players":24,"Bots":0,"server_type":"Dedicated","server_os":"Linux","password":true,"vac":true,"version":"7961495","steam_id":85568392924964315,"keywords":["nocrits","nodmgspread","payload","uncletopia"],"game_id":440,"stv_port":27086,"stv_name":"Uncletopia | London | 8 | Community | STV","players":[{"user_id":152,"name":"ultra lox","steam_id":76561199427318825,"connected_time":4330000000000,"state":"active","ping":174},{"user_id":195,"name":"Petight","steam_id":76561197999438798,"connected_time":720000000000,"state":"active","ping":30},{"user_id":167,"name":"Igneel","steam_id":76561198108492627,"connected_time":2916000000000,"state":"active","ping":56},{"user_id":199,"name":"Fargoth","steam_id":76561198044618640,"connected_time":682000000000,"state":"active","ping":67},{"user_id":168,"name":"Twingo","steam_id":76561198207042812,"connected_time":2895000000000,"state":"active","ping":81},{"user_id":189,"name":"Day 13","steam_id":76561198024438352,"connected_time":1140000000000,"state":"active","ping":44},{"user_id":165,"name":"Mono","steam_id":76561198114569493,"connected_time":3067000000000,"state":"active","ping":39},{"user_id":188,"name":"A Table","steam_id":76561198130963095,"connected_time":1245000000000,"state":"active","ping":71},{"user_id":170,"name":"TSx* Osa__PL","steam_id":76561198027016799,"connected_time":2587000000000,"state":"active","ping":78},{"user_id":202,"name":"Profesorius Kalƒódauskas","steam_id":76561198078263504,"connected_time":218000000000,"state":"active","ping":64},{"user_id":187,"name":"Eggcracker","steam_id":76561199274850641,"connected_time":1329000000000,"state":"active","ping":81},{"user_id":193,"name":"Lukas","steam_id":76561198009118452,"connected_time":1047000000000,"state":"active","ping":70},{"user_id":184,"name":"Jouppi","steam_id":76561198063725468,"connected_time":1992000000000,"state":"active","ping":96},{"user_id":174,"name":"TSx* Naxer","steam_id":76561198011986779,"connected_time":2441000000000,"state":"active","ping":75},{"user_id":175,"name":"TSx* EmperoT","steam_id":76561198018656942,"connected_time":2433000000000,"state":"active","ping":93},{"user_id":176,"name":"my team=animals","steam_id":76561198242526708,"connected_time":2320000000000,"state":"active","ping":62},{"user_id":127,"name":"Bonzothegreat24","steam_id":76561198031220372,"connected_time":5608000000000,"state":"active","ping":56},{"user_id":128,"name":"Hamlord101","steam_id":76561198360264140,"connected_time":5595000000000,"state":"active","ping":109},{"user_id":177,"name":"blonde furry femboy","steam_id":76561198273361428,"connected_time":2320000000000,"state":"active","ping":87},{"user_id":185,"name":"Barak93","steam_id":76561198044585705,"connected_time":1957000000000,"state":"active","ping":61},{"user_id":201,"name":"lord-carlos","steam_id":76561198025150761,"connected_time":496000000000,"state":"active","ping":64},{"user_id":181,"name":"Holden","steam_id":76561198037252505,"connected_time":2132000000000,"state":"active","ping":105},{"user_id":182,"name":"TSx* Dante","steam_id":76561198139309331,"connected_time":2111000000000,"state":"active","ping":68}]},{"server_id":300,"name":"Uncletopia | Montr√©al | 1 | All Maps","name_short":"mtl-1","host":"mtl-1.ca.uncletopia.com","port":27015,"enabled":true,"region":"us-east","cc":"ca","latitude":45.50889,"longitude":-73.56167,"reserved":0,"last_update":"0001-01-01T00:00:00Z","name_a2s":"Uncletopia | Montr√©al | 1 | All Maps","protocol":17,"map":"koth_cascade","folder":"tf","game":"Team Fortress","app_id":440,"player_count":0,"max_players":24,"Bots":0,"server_type":"Dedicated","server_os":"Linux","password":true,"vac":true,"version":"7961495","steam_id":85568392924500087,"keywords":["cp","nocrits","nodmgspread","uncletopia"],"game_id":440,"stv_port":27016,"stv_name":"Uncletopia | Montr√©al | 1 | All Maps | STV","players":null},{"server_id":301,"name":"Uncletopia | Montr√©al | 2 | All Maps","name_short":"mtl-2","host":"mtl-1.ca.uncletopia.com","port":27025,"enabled":true,"region":"us-east","cc":"ca","latitude":45.50889,"longitude":-73.56167,"reserved":0,"last_update":"0001-01-01T00:00:00Z","name_a2s":"Uncletopia | Montr√©al | 2 | All Maps","protocol":17,"map":"pl_frontier_final","folder":"tf","game":"Team Fortress","app_id":440,"player_count":0,"max_players":24,"Bots":0,"server_type":"Dedicated","server_os":"Linux","password":true,"vac":true,"version":"7961495","steam_id":85568392924500088,"keywords":["nocrits","nodmgspread","payload","uncletopia"],"game_id":440,"stv_port":27026,"stv_name":"Uncletopia | Montr√©al | 2 | All Maps | STV","players":null},{"server_id":302,"name":"Uncletopia | Montr√©al | 3 | All Maps","name_short":"mtl-3","host":"mtl-1.ca.uncletopia.com","port":27035,"enabled":true,"region":"us-east","cc":"ca","latitude":45.50889,"longitude":-73.56167,"reserved":0,"last_update":"0001-01-01T00:00:00Z","name_a2s":"Uncletopia | Montr√©al | 3 | All Maps","protocol":17,"map":"pl_snowycoast","folder":"tf","game":"Team Fortress","app_id":440,"player_count":0,"max_players":24,"Bots":0,"server_type":"Dedicated","server_os":"Linux","password":true,"vac":true,"version":"7961495","steam_id":85568392924500089,"keywords":["nocrits","nodmgspread","payload","uncletopia"],"game_id":440,"stv_port":27036,"stv_name":"Uncletopia | Montr√©al | 3 | All Maps | STV","players":null},{"server_id":303,"name":"Uncletopia | Montr√©al | 4 | No Payload","name_short":"mtl-4","host":"mtl-1.ca.uncletopia.com","port":27045,"enabled":true,"region":"us-east","cc":"ca","latitude":45.50889,"longitude":-73.56167,"reserved":0,"last_update":"0001-01-01T00:00:00Z","name_a2s":"Uncletopia | Montr√©al | 4 | No Payload","protocol":17,"map":"cp_mountainlab","folder":"tf","game":"Team Fortress","app_id":440,"player_count":0,"max_players":24,"Bots":0,"server_type":"Dedicated","server_os":"Linux","password":true,"vac":true,"version":"7961495","steam_id":85568392924500090,"keywords":["cp","nocrits","nodmgspread","uncletopia"],"game_id":440,"stv_port":27046,"stv_name":"Uncletopia | Montr√©al | 4 | No Payload | STV","players":null},{"server_id":13,"name":"Uncletopia | New York City | 1 | All Maps","name_short":"nyc-1","host":"nyc-1.us.uncletopia.com","port":27015,"enabled":true,"region":"us-east","cc":"us","latitude":40.73061,"longitude":-73.93524,"reserved":0,"last_update":"0001-01-01T00:00:00Z","name_a2s":"Uncletopia | New York City | 1 | All Maps","protocol":17,"map":"koth_lakeside_final","folder":"tf","game":"Team Fortress","app_id":440,"player_count":0,"max_players":24,"Bots":0,"server_type":"Dedicated","server_os":"Linux","password":true,"vac":true,"version":"7961495","steam_id":85568392924469993,"keywords":["cp","nocrits","nodmgspread","uncletopia"],"game_id":440,"stv_port":27016,"stv_name":"Uncletopia | New York City | 1 | All Maps | STV","players":null},{"server_id":14,"name":"Uncletopia | New York City | 2 | All Maps","name_short":"nyc-2","host":"nyc-1.us.uncletopia.com","port":27025,"enabled":true,"region":"us-east","cc":"us","latitude":40.73061,"longitude":-73.93524,"reserved":0,"last_update":"0001-01-01T00:00:00Z","name_a2s":"Uncletopia | New York City | 2 | All Maps","protocol":17,"map":"pl_upward","folder":"tf","game":"Team Fortress","app_id":440,"player_count":24,"max_players":24,"Bots":0,"server_type":"Dedicated","server_os":"Linux","password":true,"vac":true,"version":"7961495","steam_id":85568392924469994,"keywords":["nocrits","nodmgspread","payload","uncletopia"],"game_id":440,"stv_port":27026,"stv_name":"Uncletopia | New York City | 2 | All Maps | STV","players":[{"user_id":205,"name":"Bother","steam_id":76561198336750909,"connected_time":1702000000000,"state":"active","ping":46},{"user_id":189,"name":"StormyBoyo","steam_id":76561198273482774,"connected_time":2857000000000,"state":"active","ping":72},{"user_id":209,"name":"CF-TF2","steam_id":76561198145893044,"connected_time":1087000000000,"state":"active","ping":64},{"user_id":190,"name":"·ìÄ‚Ä∏·ìÇ","steam_id":76561198046055673,"connected_time":2799000000000,"state":"active","ping":59},{"user_id":186,"name":"tooth","steam_id":76561197986437643,"connected_time":3375000000000,"state":"active","ping":45},{"user_id":217,"name":"get scrongled, idiot","steam_id":76561198115874625,"connected_time":293000000000,"state":"active","ping":97},{"user_id":214,"name":"Ashman0116","steam_id":76561198367986558,"connected_time":650000000000,"state":"active","ping":108},{"user_id":194,"name":"El Bondin","steam_id":76561198820792434,"connected_time":2593000000000,"state":"active","ping":97},{"user_id":208,"name":"Capn' Crunk","steam_id":76561198848399887,"connected_time":1353000000000,"state":"active","ping":36},{"user_id":192,"name":"Norman","steam_id":76561198154715990,"connected_time":2709000000000,"state":"active","ping":101},{"user_id":215,"name":"MjrMovnTARGET","steam_id":76561199125908849,"connected_time":577000000000,"state":"active","ping":57},{"user_id":119,"name":"Al Cabone","steam_id":76561198956823243,"connected_time":6916000000000,"state":"active","ping":60},{"user_id":193,"name":"Ask Nicely For Heals","steam_id":76561198138478907,"connected_time":2662000000000,"state":"active","ping":72},{"user_id":197,"name":"ThatGamingKiwi","steam_id":76561199170522237,"connected_time":2387000000000,"state":"active","ping":72},{"user_id":203,"name":"Koishi","steam_id":76561198054541054,"connected_time":2193000000000,"state":"active","ping":46},{"user_id":153,"name":"Booty Bang Jr's","steam_id":76561198977575910,"connected_time":6021000000000,"state":"active","ping":44},{"user_id":218,"name":"booty jiggae","steam_id":76561198089026129,"connected_time":215000000000,"state":"active","ping":41},{"user_id":104,"name":"INFINITE HYPERDEATH","steam_id":76561198388271181,"connected_time":9087000000000,"state":"active","ping":76},{"user_id":219,"name":"Âç©‰∏®‰πô‰πôÂçÇ‚Ñó","steam_id":76561198127445422,"connected_time":177000000000,"state":"active","ping":44},{"user_id":200,"name":"The Dreamer","steam_id":76561198047638312,"connected_time":2325000000000,"state":"active","ping":70},{"user_id":201,"name":"Voodo133","steam_id":76561198042670351,"connected_time":2306000000000,"state":"active","ping":78},{"user_id":166,"name":"HeavyMettleDick","steam_id":76561198001925087,"connected_time":4825000000000,"state":"active","ping":80},{"user_id":216,"name":"amazingzeal","steam_id":76561198135955352,"connected_time":437000000000,"state":"active","ping":49},{"user_id":167,"name":"Artgrendadier","steam_id":76561198063305359,"connected_time":4825000000000,"state":"active","ping":61}]},{"server_id":15,"name":"Uncletopia | New York City | 3 | Stopwatch Beta","name_short":"nyc-3","host":"nyc-1.us.uncletopia.com","port":27035,"enabled":true,"region":"us-east","cc":"us","latitude":40.73061,"longitude":-73.93524,"reserved":0,"last_update":"0001-01-01T00:00:00Z","name_a2s":"Uncletopia | New York City | 3 | Stopwatch Beta","protocol":17,"map":"koth_lakeside_final","folder":"tf","game":"Team Fortress","app_id":440,"player_count":0,"max_players":24,"Bots":0,"server_type":"Dedicated","server_os":"Linux","password":true,"vac":true,"version":"7961495","steam_id":85568392924742820,"keywords":["cp","nocrits","nodmgspread","uncletopia"],"game_id":440,"stv_port":27036,"stv_name":"Uncletopia | New York City | 3 | Stopwatch Beta | STV","players":null},{"server_id":16,"name":"Uncletopia | New York City | 4 | Community","name_short":"nyc-4","host":"nyc-1.us.uncletopia.com","port":27045,"enabled":true,"region":"us-east","cc":"us","latitude":40.73061,"longitude":-73.93524,"reserved":0,"last_update":"0001-01-01T00:00:00Z","name_a2s":"Uncletopia | New York City | 4 | Community","protocol":17,"map":"pl_frontier_final","folder":"tf","game":"Team Fortress","app_id":440,"player_count":0,"max_players":24,"Bots":0,"server_type":"Dedicated","server_os":"Linux","password":true,"vac":true,"version":"7961495","steam_id":85568392924742821,"keywords":["nocrits","nodmgspread","payload","uncletopia"],"game_id":440,"stv_port":27046,"stv_name":"Uncletopia | New York City | 4 | Community | STV","players":null},{"server_id":142,"name":"Uncletopia | S√£o Paulo | 1 | All Maps","name_short":"sao-1","host":"sao-1.br.uncletopia.com","port":27015,"enabled":true,"region":"sa","cc":"br","latitude":-23.533773,"longitude":-46.62529,"reserved":0,"last_update":"0001-01-01T00:00:00Z","name_a2s":"Uncletopia | S√£o Paulo | 1 | All Maps","protocol":17,"map":"koth_highpass","folder":"tf","game":"Team Fortress","app_id":440,"player_count":0,"max_players":24,"Bots":0,"server_type":"Dedicated","server_os":"Linux","password":true,"vac":true,"version":"7961495","steam_id":85568392924469996,"keywords":["cp","nocrits","nodmgspread","uncletopia"],"game_id":440,"stv_port":27016,"stv_name":"Uncletopia | S√£o Paulo | 1 | All Maps | STV","players":null},{"server_id":143,"name":"Uncletopia | S√£o Paulo | 2 | All Maps","name_short":"sao-2","host":"sao-2.br.uncletopia.com","port":27015,"enabled":true,"region":"sa","cc":"br","latitude":-23.533773,"longitude":-46.62529,"reserved":0,"last_update":"0001-01-01T00:00:00Z","name_a2s":"Uncletopia | S√£o Paulo | 2 | All Maps","protocol":17,"map":"koth_cascade","folder":"tf","game":"Team Fortress","app_id":440,"player_count":0,"max_players":24,"Bots":0,"server_type":"Dedicated","server_os":"Linux","password":true,"vac":true,"version":"7961495","steam_id":85568392924485349,"keywords":["cp","nocrits","nodmgspread","uncletopia"],"game_id":440,"stv_port":27016,"stv_name":"Uncletopia | S√£o Paulo | 2 | All Maps | STV","players":null},{"server_id":7,"name":"Uncletopia | Seattle | 1 | All Maps","name_short":"sea-1","host":"sea-1.us.uncletopia.com","port":27015,"enabled":true,"region":"us-west","cc":"us","latitude":47.608013,"longitude":-122.33517,"reserved":0,"last_update":"0001-01-01T00:00:00Z","name_a2s":"Uncletopia | Seattle | 1 | All Maps","protocol":17,"map":"pl_badwater","folder":"tf","game":"Team Fortress","app_id":440,"player_count":4,"max_players":24,"Bots":0,"server_type":"Dedicated","server_os":"Linux","password":true,"vac":true,"version":"7961495","steam_id":85568392924469997,"keywords":["nocrits","nodmgspread","payload","uncletopia"],"game_id":440,"stv_port":27016,"stv_name":"Uncletopia | Seattle | 1 | All Maps | STV","players":[{"user_id":26,"name":"dust | she/it","steam_id":76561198045218909,"connected_time":338000000000,"state":"active","ping":32},{"user_id":27,"name":"Mr. DeLarge","steam_id":76561198336820066,"connected_time":251000000000,"state":"active","ping":57},{"user_id":28,"name":"O","steam_id":76561198450073779,"connected_time":220000000000,"state":"active","ping":43},{"user_id":29,"name":"litcherally in vents","steam_id":76561199169558959,"connected_time":137000000000,"state":"active","ping":39}]},{"server_id":119,"name":"Uncletopia | Seattle | 2 | All Maps","name_short":"sea-2","host":"sea-1.us.uncletopia.com","port":27025,"enabled":true,"region":"us-west","cc":"us","latitude":47.608013,"longitude":-122.33517,"reserved":0,"last_update":"0001-01-01T00:00:00Z","name_a2s":"Uncletopia | Seattle | 2 | All Maps","protocol":17,"map":"koth_highpass","folder":"tf","game":"Team Fortress","app_id":440,"player_count":0,"max_players":24,"Bots":0,"server_type":"Dedicated","server_os":"Linux","password":true,"vac":true,"version":"7961495","steam_id":85568392924469998,"keywords":["cp","nocrits","nodmgspread","uncletopia"],"game_id":440,"stv_port":27026,"stv_name":"Uncletopia | Seattle | 2 | All Maps | STV","players":null},{"server_id":406,"name":"Uncletopia | Seattle | 3 | Stopwatch Beta","name_short":"sea-3","host":"sea-1.us.uncletopia.com","port":27035,"enabled":true,"region":"us-west","cc":"us","latitude":47.608013,"longitude":-122.33517,"reserved":0,"last_update":"0001-01-01T00:00:00Z","name_a2s":"Uncletopia | Seattle | 3 | Stopwatch Beta","protocol":17,"map":"cp_mountainlab","folder":"tf","game":"Team Fortress","app_id":440,"player_count":0,"max_players":24,"Bots":0,"server_type":"Dedicated","server_os":"Linux","password":true,"vac":true,"version":"7961495","steam_id":85568392924515217,"keywords":["cp","nocrits","nodmgspread","uncletopia"],"game_id":440,"stv_port":27036,"stv_name":"Uncletopia | Seattle | 3 | Stopwatch Beta | STV","players":null},{"server_id":17,"name":"Uncletopia | San Francisco | 1 | All Maps","name_short":"sfo-1","host":"sfo-1.us.uncletopia.com","port":27015,"enabled":true,"region":"us-west","cc":"us","latitude":37.77397,"longitude":-122.4313,"reserved":0,"last_update":"0001-01-01T00:00:00Z","name_a2s":"Uncletopia | San Francisco | 1 | All Maps","protocol":17,"map":"pl_frontier_final","folder":"tf","game":"Team Fortress","app_id":440,"player_count":0,"max_players":24,"Bots":0,"server_type":"Dedicated","server_os":"Linux","password":true,"vac":true,"version":"7932396","steam_id":85568392924469999,"keywords":["nocrits","nodmgspread","payload","uncletopia"],"game_id":440,"stv_port":27016,"stv_name":"Uncletopia | San Francisco | 1 | All Maps | STV","players":null},{"server_id":18,"name":"Uncletopia | San Francisco | 2 | All Maps","name_short":"sfo-2","host":"sfo-1.us.uncletopia.com","port":27025,"enabled":true,"region":"us-west","cc":"us","latitude":37.77397,"longitude":-122.4313,"reserved":0,"last_update":"0001-01-01T00:00:00Z","name_a2s":"Uncletopia | San Francisco | 2 | All Maps","protocol":17,"map":"cp_snakewater_final1","folder":"tf","game":"Team Fortress","app_id":440,"player_count":0,"max_players":24,"Bots":0,"server_type":"Dedicated","server_os":"Linux","password":true,"vac":true,"version":"7932396","steam_id":85568392924470000,"keywords":["cp","nocrits","nodmgspread","uncletopia"],"game_id":440,"stv_port":27026,"stv_name":"Uncletopia | San Francisco | 2 | All Maps | STV","players":null},{"server_id":19,"name":"Uncletopia | San Francisco | 3 | Stopwatch Beta","name_short":"sfo-3","host":"sfo-1.us.uncletopia.com","port":27035,"enabled":true,"region":"us-west","cc":"us","latitude":37.77397,"longitude":-122.4313,"reserved":0,"last_update":"0001-01-01T00:00:00Z","name_a2s":"Uncletopia | San Francisco | 3 | Stopwatch Beta","protocol":17,"map":"koth_lakeside_final","folder":"tf","game":"Team Fortress","app_id":440,"player_count":0,"max_players":24,"Bots":0,"server_type":"Dedicated","server_os":"Linux","password":true,"vac":true,"version":"7932396","steam_id":85568392924742824,"keywords":["cp","nocrits","nodmgspread","uncletopia"],"game_id":440,"stv_port":27036,"stv_name":"Uncletopia | San Francisco | 3 | Stopwatch Beta | STV","players":null},{"server_id":20,"name":"Uncletopia | San Francisco | 4 | Community","name_short":"sfo-4","host":"sfo-1.us.uncletopia.com","port":27045,"enabled":true,"region":"us-west","cc":"us","latitude":37.77397,"longitude":-122.4313,"reserved":0,"last_update":"0001-01-01T00:00:00Z","name_a2s":"Uncletopia | San Francisco | 4 | Community","protocol":17,"map":"pl_borneo","folder":"tf","game":"Team Fortress","app_id":440,"player_count":0,"max_players":24,"Bots":0,"server_type":"Dedicated","server_os":"Linux","password":true,"vac":true,"version":"7932396","steam_id":85568392924742826,"keywords":["nocrits","nodmgspread","payload","uncletopia"],"game_id":440,"stv_port":27046,"stv_name":"Uncletopia | San Francisco | 4 | Community | STV","players":null},{"server_id":141,"name":"Uncletopia | Sydney | 1 | All Maps","name_short":"syd-1","host":"syd-1.au.uncletopia.com","port":27015,"enabled":true,"region":"au","cc":"au","latitude":-33.865143,"longitude":151.2099,"reserved":0,"last_update":"0001-01-01T00:00:00Z","name_a2s":"Uncletopia | Sydney | 1 | All Maps","protocol":17,"map":"cp_dustbowl","folder":"tf","game":"Team Fortress","app_id":440,"player_count":0,"max_players":24,"Bots":0,"server_type":"Dedicated","server_os":"Linux","password":true,"vac":true,"version":"7961495","steam_id":85568392924470001,"keywords":["cp","nocrits","nodmgspread","uncletopia"],"game_id":440,"stv_port":27016,"stv_name":"Uncletopia | Sydney | 1 | All Maps | STV","players":null},{"server_id":123,"name":"Uncletopia | Sydney | 2 | All Maps","name_short":"syd-2","host":"syd-1.au.uncletopia.com","port":27025,"enabled":true,"region":"au","cc":"au","latitude":-33.865143,"longitude":151.2099,"reserved":0,"last_update":"0001-01-01T00:00:00Z","name_a2s":"Uncletopia | Sydney | 2 | All Maps","protocol":17,"map":"koth_highpass","folder":"tf","game":"Team Fortress","app_id":440,"player_count":0,"max_players":24,"Bots":0,"server_type":"Dedicated","server_os":"Linux","password":true,"vac":true,"version":"7961495","steam_id":85568392924470002,"keywords":["cp","nocrits","nodmgspread","uncletopia"],"game_id":440,"stv_port":27026,"stv_name":"Uncletopia | Sydney | 2 | All Maps | STV","players":null},{"server_id":395,"name":"Uncletopia | Sydney | 3 | All Maps","name_short":"syd-3","host":"syd-1.au.uncletopia.com","port":27035,"enabled":true,"region":"au","cc":"au","latitude":-33.865143,"longitude":151.2099,"reserved":0,"last_update":"0001-01-01T00:00:00Z","name_a2s":"Uncletopia | Sydney | 3 | All Maps","protocol":17,"map":"koth_harvest_final","folder":"tf","game":"Team Fortress","app_id":440,"player_count":3,"max_players":24,"Bots":0,"server_type":"Dedicated","server_os":"Linux","password":true,"vac":true,"version":"7961495","steam_id":85568392925194467,"keywords":["cp","nocrits","nodmgspread","uncletopia"],"game_id":440,"stv_port":27036,"stv_name":"Uncletopia | Sydney | 3 | All Maps | STV","players":[{"user_id":102,"name":"NotKomori","steam_id":76561198845165975,"connected_time":3252000000000,"state":"active","ping":306},{"user_id":103,"name":"Raiden00","steam_id":76561197994078111,"connected_time":3197000000000,"state":"active","ping":131},{"user_id":104,"name":"TheInfiniteK","steam_id":76561198353173330,"connected_time":2969000000000,"state":"active","ping":97}]},{"server_id":396,"name":"Uncletopia | Sydney | 4 | All Maps","name_short":"syd-4","host":"syd-1.au.uncletopia.com","port":27045,"enabled":true,"region":"au","cc":"au","latitude":-33.865143,"longitude":151.2099,"reserved":0,"last_update":"0001-01-01T00:00:00Z","name_a2s":"Uncletopia | Sydney | 4 | All Maps","protocol":17,"map":"koth_cascade","folder":"tf","game":"Team Fortress","app_id":440,"player_count":0,"max_players":24,"Bots":0,"server_type":"Dedicated","server_os":"Linux","password":true,"vac":true,"version":"7961495","steam_id":85568392925397958,"keywords":["cp","nocrits","nodmgspread","uncletopia"],"game_id":440,"stv_port":27046,"stv_name":"Uncletopia | Sydney | 4 | All Maps | STV","players":null},{"server_id":58,"name":"Uncletopia | Sydney | 5 | Stopwatch Beta","name_short":"syd-5","host":"syd-1.au.uncletopia.com","port":27055,"enabled":true,"region":"au","cc":"au","latitude":-33.865143,"longitude":151.2099,"reserved":0,"last_update":"0001-01-01T00:00:00Z","name_a2s":"Uncletopia | Sydney | 5 | Stopwatch Beta","protocol":17,"map":"koth_viaduct","folder":"tf","game":"Team Fortress","app_id":440,"player_count":0,"max_players":24,"Bots":0,"server_type":"Dedicated","server_os":"Linux","password":true,"vac":true,"version":"7961495","steam_id":85568392925397959,"keywords":["cp","nocrits","nodmgspread","uncletopia"],"game_id":440,"stv_port":27056,"stv_name":"Uncletopia | Sydney | 5 | Stopwatch Beta | STV","players":null},{"server_id":59,"name":"Uncletopia | Sydney | 6 | Community","name_short":"syd-6","host":"syd-1.au.uncletopia.com","port":27065,"enabled":true,"region":"au","cc":"au","latitude":-33.865143,"longitude":151.2099,"reserved":0,"last_update":"0001-01-01T00:00:00Z","name_a2s":"Uncletopia | Sydney | 6 | Community","protocol":17,"map":"workshop/cp_indulge.ugc528106646","folder":"tf","game":"Team Fortress","app_id":440,"player_count":0,"max_players":24,"Bots":0,"server_type":"Dedicated","server_os":"Linux","password":true,"vac":true,"version":"7961495","steam_id":85568392925397960,"keywords":["cp","nocrits","nodmgspread","uncletopia"],"game_id":440,"stv_port":27066,"stv_name":"Uncletopia | Sydney | 6 | Community | STV","players":null},{"server_id":49,"name":"Uncletopia | Warsaw | 1 | All Maps","name_short":"waw-1","host":"waw-1.pl.uncletopia.com","port":27015,"enabled":true,"region":"eu","cc":"pl","latitude":52.2297,"longitude":21.017532,"reserved":0,"last_update":"0001-01-01T00:00:00Z","name_a2s":"","protocol":0,"map":"","folder":"","game":"","app_id":0,"player_count":0,"max_players":0,"Bots":0,"server_type":"","server_os":"","password":false,"vac":false,"version":"","steam_id":0,"keywords":null,"game_id":0,"stv_port":0,"stv_name":"","players":null},{"server_id":50,"name":"Uncletopia | Warsaw | 2 | All Maps","name_short":"waw-2","host":"waw-1.pl.uncletopia.com","port":27025,"enabled":true,"region":"eu","cc":"pl","latitude":52.2297,"longitude":21.017532,"reserved":0,"last_update":"0001-01-01T00:00:00Z","name_a2s":"Uncletopia | Warsaw | 2 | All Maps","protocol":17,"map":"cp_sunshine","folder":"tf","game":"Team Fortress","app_id":440,"player_count":0,"max_players":24,"Bots":0,"server_type":"Dedicated","server_os":"Linux","password":true,"vac":true,"version":"7961495","steam_id":85568392925397851,"keywords":["cp","nocrits","nodmgspread","uncletopia"],"game_id":440,"stv_port":27026,"stv_name":"Uncletopia | Warsaw | 2 | All Maps | STV","players":null},{"server_id":51,"name":"Uncletopia | Warsaw | 3 | All Maps","name_short":"waw-3","host":"waw-1.pl.uncletopia.com","port":27035,"enabled":true,"region":"eu","cc":"pl","latitude":52.2297,"longitude":21.017532,"reserved":0,"last_update":"0001-01-01T00:00:00Z","name_a2s":"Uncletopia | Warsaw | 3 | All Maps","protocol":17,"map":"cp_mountainlab","folder":"tf","game":"Team Fortress","app_id":440,"player_count":4,"max_players":24,"Bots":0,"server_type":"Dedicated","server_os":"Linux","password":true,"vac":true,"version":"7961495","steam_id":85568392925397852,"keywords":["cp","nocrits","nodmgspread","uncletopia"],"game_id":440,"stv_port":27036,"stv_name":"Uncletopia | Warsaw | 3 | All Maps | STV","players":[{"user_id":9,"name":"Dr. pootis","steam_id":76561198803421654,"connected_time":1323000000000,"state":"active","ping":78},{"user_id":10,"name":"SerMazay","steam_id":76561197988943954,"connected_time":1313000000000,"state":"active","ping":54},{"user_id":11,"name":"‚ô• D4C (LEMON)‚ô•","steam_id":76561198016132644,"connected_time":1250000000000,"state":"active","ping":75},{"user_id":13,"name":"Invalid_pro_gaming_2014","steam_id":76561199110140856,"connected_time":621000000000,"state":"active","ping":82}]},{"server_id":52,"name":"Uncletopia | Warsaw | 4 | All Maps","name_short":"waw-4","host":"waw-1.pl.uncletopia.com","port":27045,"enabled":true,"region":"eu","cc":"pl","latitude":52.2297,"longitude":21.017532,"reserved":0,"last_update":"0001-01-01T00:00:00Z","name_a2s":"Uncletopia | Warsaw | 4 | All Maps","protocol":17,"map":"koth_lakeside_final","folder":"tf","game":"Team Fortress","app_id":440,"player_count":0,"max_players":24,"Bots":0,"server_type":"Dedicated","server_os":"Linux","password":true,"vac":true,"version":"7961495","steam_id":85568392925397853,"keywords":["cp","nocrits","nodmgspread","uncletopia"],"game_id":440,"stv_port":27046,"stv_name":"Uncletopia | Warsaw | 4 | All Maps | STV","players":null},{"server_id":53,"name":"Uncletopia | Warsaw | 5 | Stopwatch Beta","name_short":"waw-5","host":"waw-1.pl.uncletopia.com","port":27055,"enabled":true,"region":"eu","cc":"pl","latitude":52.2297,"longitude":21.017532,"reserved":0,"last_update":"0001-01-01T00:00:00Z","name_a2s":"Uncletopia | Warsaw | 5 | Stopwatch Beta","protocol":17,"map":"workshop/pl_summercoast_rc8e.ugc1761528829","folder":"tf","game":"Team Fortress","app_id":440,"player_count":0,"max_players":24,"Bots":0,"server_type":"Dedicated","server_os":"Linux","password":true,"vac":true,"version":"7961495","steam_id":85568392925397854,"keywords":["nocrits","nodmgspread","payload","uncletopia"],"game_id":440,"stv_port":27056,"stv_name":"Uncletopia | Warsaw | 5 | Stopwatch Beta | STV","players":null},{"server_id":54,"name":"Uncletopia | Warsaw | 6 | Community","name_short":"waw-6","host":"waw-1.pl.uncletopia.com","port":27065,"enabled":true,"region":"eu","cc":"pl","latitude":52.2297,"longitude":21.017532,"reserved":0,"last_update":"0001-01-01T00:00:00Z","name_a2s":"Uncletopia | Warsaw | 6 | Community","protocol":17,"map":"workshop/pl_boundary_final1.ugc456799153","folder":"tf","game":"Team Fortress","app_id":440,"player_count":0,"max_players":24,"Bots":0,"server_type":"Dedicated","server_os":"Linux","password":true,"vac":true,"version":"7961495","steam_id":85568392925397856,"keywords":["nocrits","nodmgspread","payload","uncletopia"],"game_id":440,"stv_port":27066,"stv_name":"Uncletopia | Warsaw | 6 | Community | STV","players":null}]}