{"status":true,"message":"","result":[{"server_id":9,"name":"Uncletopia | Atlanta | 1 | All Maps","name_short":"atl-1","host":"atl-1.us.uncletopia.com","port":27015,"enabled":true,"region":"us-east","cc":"us","latitude":33.753746,"longitude":-84.38633,"reserved":0,"last_update":"0001-01-01T00:00:00Z","name_a2s":"Uncletopia | Atlanta | 1 | All Maps","protocol":17,"map":"pl_badwater","folder":"tf","game":"Team Fortress","app_id":440,"player_count":23,"max_players":24,"Bots":0,"server_type":"Dedicated","server_os":"Linux","password":true,"vac":true,"version":"7757534","steam_id":85568392924469982,"keywords":["nocrits","nodmgspread","payload","uncletopia"],"game_id":440,"stv_port":27016,"stv_name":"Uncletopia | Atlanta | 1 | All Maps | STV","players":[{"user_id":672,"name":"Dr. drippenstein","steam_id":76561198209380493,"connected_time":7064000000000,"state":"active","ping":61},{"user_id":724,"name":"ATL1 | Psionic Box","steam_id":76561198151019322,"connected_time":1022000000000,"state":"active","ping":60},{"user_id":725,"name":"toilethumor","steam_id":76561197962028780,"connected_time":1008000000000,"state":"active","ping":60},{"user_id":702,"name":"Cecilian","steam_id":76561198092582478,"connected_time":2837000000000,"state":"active","ping":65},{"user_id":728,"name":"Whoops!","steam_id":76561198151315898,"connected_time":954000000000,"state":"active","ping":80},{"user_id":684,"name":"‚ô•Bunny‚ô•Slut‚ô•","steam_id":76561198206376851,"connected_time":4857000000000,"state":"active","ping":108},{"user_id":729,"name":"Pika","steam_id":76561198068063436,"connected_time":914000000000,"state":"active","ping":71},{"user_id":733,"name":"Just PYE","steam_id":76561199439622967,"connected_time":197000000000,"state":"active","ping":76},{"user_id":666,"name":"Moonglass Kaiju","steam_id":76561198043431819,"connected_time":7375000000000,"state":"active","ping":70},{"user_id":735,"name":"onsen episode","steam_id":76561197979960008,"connected_time":156000000000,"state":"active","ping":76},{"user_id":721,"name":"KBoneski ‚ô°","steam_id":76561198307409065,"connected_time":1942000000000,"state":"active","ping":97},{"user_id":736,"name":"Jeffman","steam_id":76561198165402070,"connected_time":135000000000,"state":"active","ping":59},{"user_id":722,"name":"ATL 1 | Save your wifi","steam_id":76561198286147372,"connected_time":1676000000000,"state":"active","ping":55},{"user_id":731,"name":"Biscuits","steam_id":76561198278677660,"connected_time":208000000000,"state":"active","ping":118},{"user_id":737,"name":"Hentai Lord","steam_id":76561199030449654,"connected_time":128000000000,"state":"active","ping":74},{"user_id":708,"name":"careuwuy","steam_id":76561198077321435,"connected_time":2176000000000,"state":"active","ping":60},{"user_id":686,"name":"Sm0ky","steam_id":76561198418262145,"connected_time":4855000000000,"state":"active","ping":107},{"user_id":642,"name":"Nox(She/They)","steam_id":76561198141950842,"connected_time":10209000000000,"state":"active","ping":47},{"user_id":697,"name":"xX_HimboSwallower_Xx","steam_id":76561198016029965,"connected_time":3968000000000,"state":"active","ping":71},{"user_id":682,"name":"Intro Bonito","steam_id":76561198119478838,"connected_time":4890000000000,"state":"active","ping":48},{"user_id":694,"name":"Albino Jellyfish","steam_id":76561198208561097,"connected_time":4014000000000,"state":"active","ping":69},{"user_id":679,"name":"it was an accident pls unmute","steam_id":76561198079416036,"connected_time":5029000000000,"state":"active","ping":75},{"user_id":732,"name":"Ashes!","steam_id":76561197998475441,"connected_time":208000000000,"state":"active","ping":79}]},{"server_id":104,"name":"Uncletopia | Atlanta | 2 | All Maps","name_short":"atl-2","host":"atl-1.us.uncletopia.com","port":27025,"enabled":true,"region":"us-east","cc":"us","latitude":33.753746,"longitude":-84.38633,"reserved":0,"last_update":"0001-01-01T00:00:00Z","name_a2s":"Uncletopia | Atlanta | 2 | All Maps","protocol":17,"map":"koth_highpass","folder":"tf","game":"Team Fortress","app_id":440,"player_count":18,"max_players":24,"Bots":0,"server_type":"Dedicated","server_os":"Linux","password":true,"vac":true,"version":"7757534","steam_id":85568392924469983,"keywords":["cp","nocrits","nodmgspread","uncletopia"],"game_id":440,"stv_port":27026,"stv_name":"Uncletopia | Atlanta | 2 | All Maps | STV","players":[{"user_id":551,"name":"Jammer","steam_id":76561198435691014,"connected_time":38000000000,"state":"active","ping":57},{"user_id":541,"name":"interviewer","steam_id":76561198438090554,"connected_time":1740000000000,"state":"active","ping":80},{"user_id":524,"name":"BeefChuck MuscleFuck","steam_id":76561198023361567,"connected_time":3718000000000,"state":"active","ping":64},{"user_id":534,"name":"‚ú™Biter","steam_id":76561198319405280,"connected_time":1842000000000,"state":"active","ping":70},{"user_id":548,"name":"Sauce Boss","steam_id":76561198000156997,"connected_time":187000000000,"state":"active","ping":61},{"user_id":547,"name":"Amadeus","steam_id":76561198160047173,"connected_time":274000000000,"state":"active","ping":106},{"user_id":525,"name":"dukeworth","steam_id":76561198064948141,"connected_time":3705000000000,"state":"active","ping":45},{"user_id":544,"name":"Just_Bad","steam_id":76561198145153093,"connected_time":626000000000,"state":"active","ping":38},{"user_id":535,"name":"Simply Mystic","steam_id":76561198055495647,"connected_time":1838000000000,"state":"active","ping":75},{"user_id":498,"name":"Wang of Wall St","steam_id":76561198047460598,"connected_time":5766000000000,"state":"active","ping":74},{"user_id":536,"name":"Professor Shaggy","steam_id":76561198276926724,"connected_time":1817000000000,"state":"active","ping":31},{"user_id":513,"name":"Dededoo","steam_id":76561198279033471,"connected_time":4738000000000,"state":"active","ping":86},{"user_id":549,"name":"cheers2x","steam_id":76561198366299848,"connected_time":94000000000,"state":"active","ping":50},{"user_id":550,"name":"reanimated ground beef","steam_id":76561198354882287,"connected_time":72000000000,"state":"active","ping":106},{"user_id":543,"name":"Aniz","steam_id":76561199226665024,"connected_time":1564000000000,"state":"active","ping":191},{"user_id":552,"name":"Steve Burns","steam_id":76561198069968316,"connected_time":15000000000,"state":"active","ping":100},{"user_id":509,"name":"Big Time Bobby","steam_id":76561198935266162,"connected_time":5081000000000,"state":"active","ping":57},{"user_id":540,"name":"Duckywinner","steam_id":76561198254828139,"connected_time":1788000000000,"state":"active","ping":57}]},{"server_id":400,"name":"Uncletopia | Atlanta | 3 | Community","name_short":"atl-3","host":"atl-1.us.uncletopia.com","port":27035,"enabled":true,"region":"us-east","cc":"us","latitude":33.753746,"longitude":-84.38633,"reserved":0,"last_update":"0001-01-01T00:00:00Z","name_a2s":"Uncletopia | Atlanta | 3 | Community","protocol":17,"map":"workshop/cp_sulfur_rc2.ugc619869471","folder":"tf","game":"Team Fortress","app_id":440,"player_count":0,"max_players":24,"Bots":0,"server_type":"Dedicated","server_os":"Linux","password":true,"vac":true,"version":"7757534","steam_id":85568392924515187,"keywords":["cp","nocrits","nodmgspread","uncletopia"],"game_id":440,"stv_port":27036,"stv_name":"Uncletopia | Atlanta | 3 | Community | STV","players":null},{"server_id":401,"name":"Uncletopia | Atlanta | 4 | No Payload","name_short":"atl-4","host":"atl-1.us.uncletopia.com","port":27045,"enabled":true,"region":"us-east","cc":"us","latitude":33.753746,"longitude":-84.38633,"reserved":0,"last_update":"0001-01-01T00:00:00Z","name_a2s":"","protocol":0,"map":"","folder":"","game":"","app_id":0,"player_count":0,"max_players":0,"Bots":0,"server_type":"","server_os":"","password":false,"vac":false,"version":"","steam_id":0,"keywords":null,"game_id":0,"stv_port":0,"stv_name":"","players":null},{"server_id":2,"name":"Uncletopia | Chicago | 1 | All Maps","name_short":"chi-1","host":"chi-1.us.uncletopia.com","port":27015,"enabled":true,"region":"us-central","cc":"us","latitude":41.881832,"longitude":-87.62318,"reserved":0,"last_update":"0001-01-01T00:00:00Z","name_a2s":"Uncletopia | Chicago | 1 | All Maps","protocol":17,"map":"pl_snowycoast","folder":"tf","game":"Team Fortress","app_id":440,"player_count":24,"max_players":24,"Bots":0,"server_type":"Dedicated","server_os":"Linux","password":true,"vac":true,"version":"7757534","steam_id":85568392924469984,"keywords":["nocrits","nodmgspread","payload","uncletopia"],"game_id":440,"stv_port":27016,"stv_name":"Uncletopia | Chicago | 1 | All Maps | STV","players":[{"user_id":788,"name":"gromit","steam_id":76561198037746805,"connected_time":598000000000,"state":"active","ping":70},{"user_id":777,"name":"Franz","steam_id":76561198183662078,"connected_time":1868000000000,"state":"active","ping":74},{"user_id":800,"name":"Glad","steam_id":76561199388372220,"connected_time":352000000000,"state":"active","ping":69},{"user_id":772,"name":"The Law","steam_id":76561198080974454,"connected_time":3313000000000,"state":"active","ping":68},{"user_id":784,"name":"Spike","steam_id":76561198141356571,"connected_time":909000000000,"state":"active","ping":57},{"user_id":789,"name":"skilaruh","steam_id":76561198413172611,"connected_time":535000000000,"state":"active","ping":59},{"user_id":805,"name":"Elizabeth truss","steam_id":76561198058250979,"connected_time":301000000000,"state":"active","ping":70},{"user_id":793,"name":"It's Shrimple; We Fry the Rice","steam_id":76561198024540614,"connected_time":457000000000,"state":"active","ping":58},{"user_id":764,"name":"Snoogs","steam_id":76561198444880931,"connected_time":3581000000000,"state":"active","ping":64},{"user_id":787,"name":"Maxxycat","steam_id":76561198194062681,"connected_time":622000000000,"state":"active","ping":59},{"user_id":779,"name":"Liquid Oxycodone","steam_id":76561198154162664,"connected_time":1570000000000,"state":"active","ping":81},{"user_id":796,"name":"floofy","steam_id":76561198389769098,"connected_time":405000000000,"state":"active","ping":77},{"user_id":790,"name":"poobis","steam_id":76561198121275014,"connected_time":520000000000,"state":"active","ping":80},{"user_id":797,"name":"lancer","steam_id":76561199124468228,"connected_time":404000000000,"state":"active","ping":72},{"user_id":773,"name":"Stanv","steam_id":76561198259530604,"connected_time":3288000000000,"state":"active","ping":51},{"user_id":792,"name":"stigma (Battle Medic)","steam_id":76561197960315263,"connected_time":507000000000,"state":"active","ping":74},{"user_id":781,"name":"SpinetinglingToast","steam_id":76561198099470670,"connected_time":1514000000000,"state":"active","ping":70},{"user_id":794,"name":"UndercookedToast","steam_id":76561198215845493,"connected_time":445000000000,"state":"active","ping":71},{"user_id":801,"name":"FOOL","steam_id":76561198370866973,"connected_time":350000000000,"state":"active","ping":121},{"user_id":795,"name":"Dzhoshua","steam_id":76561198071915251,"connected_time":444000000000,"state":"active","ping":68},{"user_id":802,"name":"Coup de Grass","steam_id":76561198011643226,"connected_time":346000000000,"state":"active","ping":75},{"user_id":803,"name":"Danger Days by MCR","steam_id":76561199107068627,"connected_time":339000000000,"state":"active","ping":56},{"user_id":804,"name":"23‚Ñ¢","steam_id":76561198314951185,"connected_time":324000000000,"state":"active","ping":104},{"user_id":782,"name":"Oopsie Daisy ‚ùã","steam_id":76561198042144492,"connected_time":1514000000000,"state":"active","ping":79}]},{"server_id":106,"name":"Uncletopia | Chicago | 2 | All Maps","name_short":"chi-2","host":"chi-1.us.uncletopia.com","port":27025,"enabled":true,"region":"us-central","cc":"us","latitude":41.881832,"longitude":-87.62318,"reserved":0,"last_update":"0001-01-01T00:00:00Z","name_a2s":"Uncletopia | Chicago | 2 | All Maps","protocol":17,"map":"pl_badwater","folder":"tf","game":"Team Fortress","app_id":440,"player_count":24,"max_players":24,"Bots":0,"server_type":"Dedicated","server_os":"Linux","password":true,"vac":true,"version":"7757534","steam_id":85568392924469985,"keywords":["nocrits","nodmgspread","payload","uncletopia"],"game_id":440,"stv_port":27026,"stv_name":"Uncletopia | Chicago | 2 | All Maps | STV","players":[{"user_id":654,"name":"i eat pallet","steam_id":76561198101378377,"connected_time":15240000000000,"state":"active","ping":76},{"user_id":847,"name":"gabagool","steam_id":76561198012131766,"connected_time":875000000000,"state":"active","ping":50},{"user_id":848,"name":"Baby gaming","steam_id":76561198867319323,"connected_time":835000000000,"state":"active","ping":57},{"user_id":840,"name":"StonedGiant","steam_id":76561197984386932,"connected_time":2057000000000,"state":"active","ping":57},{"user_id":716,"name":"I Came","steam_id":76561198082938358,"connected_time":11308000000000,"state":"active","ping":58},{"user_id":845,"name":"girlpeen supreme","steam_id":76561198031242903,"connected_time":1157000000000,"state":"active","ping":65},{"user_id":837,"name":"Also Known As Assteeth","steam_id":76561198049837377,"connected_time":2065000000000,"state":"active","ping":46},{"user_id":827,"name":"deepmeta","steam_id":76561199053600691,"connected_time":2909000000000,"state":"active","ping":64},{"user_id":760,"name":"dog","steam_id":76561198263873491,"connected_time":8338000000000,"state":"active","ping":35},{"user_id":734,"name":"consider shucking","steam_id":76561198042682297,"connected_time":10213000000000,"state":"active","ping":54},{"user_id":853,"name":"Baka!‚ë®‚ë®‚ë®‚ë®","steam_id":76561198152948254,"connected_time":409000000000,"state":"active","ping":70},{"user_id":844,"name":"HideOnTate","steam_id":76561198209880837,"connected_time":1826000000000,"state":"active","ping":79},{"user_id":849,"name":"Poppet","steam_id":76561198012301951,"connected_time":661000000000,"state":"active","ping":54},{"user_id":843,"name":"bee","steam_id":76561198025553902,"connected_time":1932000000000,"state":"active","ping":45},{"user_id":783,"name":"Rymank","steam_id":76561198051497372,"connected_time":7081000000000,"state":"active","ping":70},{"user_id":825,"name":"RedSock","steam_id":76561198161243404,"connected_time":3260000000000,"state":"active","ping":40},{"user_id":841,"name":"iluvtoust","steam_id":76561198869269207,"connected_time":2056000000000,"state":"active","ping":71},{"user_id":771,"name":"Thirty-Two Double-Yoos","steam_id":76561198068231069,"connected_time":7563000000000,"state":"active","ping":88},{"user_id":804,"name":"cakepunk","steam_id":76561198041528364,"connected_time":5266000000000,"state":"active","ping":90},{"user_id":800,"name":"so low my halo","steam_id":76561198034141393,"connected_time":5468000000000,"state":"active","ping":75},{"user_id":852,"name":"shibaba bababool","steam_id":76561197972601902,"connected_time":444000000000,"state":"active","ping":90},{"user_id":854,"name":"kramer","steam_id":76561198117761965,"connected_time":409000000000,"state":"active","ping":70},{"user_id":801,"name":"Thundermonkey (SMOKE)","steam_id":76561198017631728,"connected_time":5405000000000,"state":"active","ping":65},{"user_id":829,"name":"st","steam_id":76561198173047169,"connected_time":2909000000000,"state":"active","ping":55}]},{"server_id":402,"name":"Uncletopia | Chicago | 3 | All Maps","name_short":"chi-3","host":"chi-1.us.uncletopia.com","port":27035,"enabled":true,"region":"us-central","cc":"us","latitude":41.881832,"longitude":-87.62318,"reserved":0,"last_update":"0001-01-01T00:00:00Z","name_a2s":"Uncletopia | Chicago | 3 | All Maps","protocol":17,"map":"cp_altitude","folder":"tf","game":"Team Fortress","app_id":440,"player_count":24,"max_players":24,"Bots":0,"server_type":"Dedicated","server_os":"Linux","password":true,"vac":true,"version":"7757534","steam_id":85568392924515191,"keywords":["cp","nocrits","nodmgspread","uncletopia"],"game_id":440,"stv_port":27036,"stv_name":"Uncletopia | Chicago | 3 | All Maps | STV","players":[{"user_id":443,"name":"Rain","steam_id":76561198022607401,"connected_time":3767000000000,"state":"active","ping":73},{"user_id":466,"name":"Hey","steam_id":76561198447517893,"connected_time":1493000000000,"state":"active","ping":75},{"user_id":483,"name":"john trevolta","steam_id":76561197998867160,"connected_time":412000000000,"state":"active","ping":76},{"user_id":459,"name":"quint","steam_id":76561198046797995,"connected_time":2096000000000,"state":"active","ping":58},{"user_id":455,"name":"Money Laundering Llama","steam_id":76561198167616620,"connected_time":2829000000000,"state":"active","ping":84},{"user_id":468,"name":"noah","steam_id":76561198173310157,"connected_time":1217000000000,"state":"active","ping":60},{"user_id":434,"name":"Poyo Boyo","steam_id":76561198010201227,"connected_time":4428000000000,"state":"active","ping":81},{"user_id":481,"name":"Buswolley","steam_id":76561197995205571,"connected_time":518000000000,"state":"active","ping":92},{"user_id":321,"name":"roast pig with apple in mouth","steam_id":76561198051353647,"connected_time":12523000000000,"state":"active","ping":60},{"user_id":484,"name":"Cantaloaf","steam_id":76561198222164132,"connected_time":377000000000,"state":"active","ping":101},{"user_id":478,"name":"MoonWolf","steam_id":76561198095735033,"connected_time":723000000000,"state":"active","ping":79},{"user_id":485,"name":"uhooter","steam_id":76561198007829078,"connected_time":372000000000,"state":"active","ping":46},{"user_id":427,"name":"Mary Poppins","steam_id":76561199040141750,"connected_time":5238000000000,"state":"active","ping":138},{"user_id":449,"name":"Harold of the Rocks","steam_id":76561198055891429,"connected_time":3064000000000,"state":"active","ping":57},{"user_id":482,"name":"DonJam√≥n","steam_id":76561198319090131,"connected_time":446000000000,"state":"active","ping":74},{"user_id":489,"name":"GreekGoat_Coffee","steam_id":76561198129331088,"connected_time":318000000000,"state":"active","ping":46},{"user_id":477,"name":"Registeel","steam_id":76561198068516556,"connected_time":852000000000,"state":"active","ping":103},{"user_id":438,"name":"Flowers","steam_id":76561198031669899,"connected_time":3819000000000,"state":"active","ping":84},{"user_id":470,"name":"Blitz3k","steam_id":76561198055758741,"connected_time":1072000000000,"state":"active","ping":59},{"user_id":428,"name":"BugferBrains","steam_id":76561198963206238,"connected_time":5217000000000,"state":"active","ping":86},{"user_id":487,"name":"dicksnip","steam_id":76561198356515396,"connected_time":360000000000,"state":"active","ping":76},{"user_id":476,"name":"Regice","steam_id":76561198049860998,"connected_time":871000000000,"state":"active","ping":75},{"user_id":479,"name":"LNRPdeadshot","steam_id":76561199160013540,"connected_time":639000000000,"state":"active","ping":93},{"user_id":441,"name":"AJTarcza","steam_id":76561198070800190,"connected_time":3790000000000,"state":"active","ping":86}]},{"server_id":403,"name":"Uncletopia | Chicago | 4 | All Maps","name_short":"chi-4","host":"chi-1.us.uncletopia.com","port":27045,"enabled":true,"region":"us-central","cc":"us","latitude":41.881832,"longitude":-87.62318,"reserved":0,"last_update":"0001-01-01T00:00:00Z","name_a2s":"Uncletopia | Chicago | 4 | All Maps","protocol":17,"map":"cp_dustbowl","folder":"tf","game":"Team Fortress","app_id":440,"player_count":21,"max_players":24,"Bots":0,"server_type":"Dedicated","server_os":"Linux","password":true,"vac":true,"version":"7757534","steam_id":85568392924515193,"keywords":["cp","nocrits","nodmgspread","uncletopia"],"game_id":440,"stv_port":27046,"stv_name":"Uncletopia | Chicago | 4 | All Maps | STV","players":[{"user_id":235,"name":"babo","steam_id":76561198055512395,"connected_time":42000000000,"state":"active","ping":74},{"user_id":196,"name":"Angry Crab","steam_id":76561198055350230,"connected_time":2674000000000,"state":"active","ping":65},{"user_id":202,"name":"shake","steam_id":76561199064204750,"connected_time":2129000000000,"state":"active","ping":79},{"user_id":204,"name":"eish","steam_id":76561198089463603,"connected_time":2007000000000,"state":"active","ping":133},{"user_id":227,"name":"Large Man","steam_id":76561198880396651,"connected_time":1010000000000,"state":"active","ping":75},{"user_id":222,"name":"DAN DONGUS","steam_id":76561198374045865,"connected_time":1375000000000,"state":"active","ping":31},{"user_id":236,"name":"Soupman_Official","steam_id":76561198314308732,"connected_time":40000000000,"state":"active","ping":26},{"user_id":225,"name":"snuppy","steam_id":76561199157666657,"connected_time":1234000000000,"state":"active","ping":66},{"user_id":188,"name":"[SAW] Lost Darkrai","steam_id":76561198021034873,"connected_time":3981000000000,"state":"active","ping":70},{"user_id":167,"name":"C Papi","steam_id":76561198027779564,"connected_time":5535000000000,"state":"active","ping":53},{"user_id":207,"name":"coxen","steam_id":76561198095125557,"connected_time":1972000000000,"state":"active","ping":58},{"user_id":208,"name":"Sophie","steam_id":76561198170408057,"connected_time":1967000000000,"state":"active","ping":74},{"user_id":213,"name":"nomad","steam_id":76561197998740399,"connected_time":1880000000000,"state":"active","ping":65},{"user_id":197,"name":"Kirino Toesucka","steam_id":76561198056684863,"connected_time":2664000000000,"state":"active","ping":70},{"user_id":228,"name":"spartanman284","steam_id":76561198952947651,"connected_time":932000000000,"state":"active","ping":105},{"user_id":229,"name":"achoo","steam_id":76561198009091066,"connected_time":926000000000,"state":"active","ping":89},{"user_id":232,"name":"Iron","steam_id":76561198247918478,"connected_time":682000000000,"state":"active","ping":57},{"user_id":223,"name":"Zanartan","steam_id":76561198050528902,"connected_time":1366000000000,"state":"active","ping":175},{"user_id":231,"name":"WitchyPorcupine","steam_id":76561198271676310,"connected_time":852000000000,"state":"active","ping":91},{"user_id":218,"name":"DavidBowiesPackage","steam_id":76561198148729253,"connected_time":1804000000000,"state":"active","ping":79},{"user_id":117,"name":"NovaSc6ut","steam_id":76561198277163301,"connected_time":10365000000000,"state":"active","ping":72}]},{"server_id":36,"name":"Uncletopia | Chicago | 5 | All Maps","name_short":"chi-5","host":"chi-2.us.uncletopia.com","port":27015,"enabled":true,"region":"us-central","cc":"us","latitude":41.881832,"longitude":-87.62318,"reserved":0,"last_update":"0001-01-01T00:00:00Z","name_a2s":"Uncletopia | Chicago | 5 | All Maps","protocol":17,"map":"pl_badwater","folder":"tf","game":"Team Fortress","app_id":440,"player_count":24,"max_players":24,"Bots":0,"server_type":"Dedicated","server_os":"Linux","password":true,"vac":true,"version":"7757534","steam_id":85568392924866362,"keywords":["nocrits","nodmgspread","payload","uncletopia"],"game_id":440,"stv_port":27016,"stv_name":"Uncletopia | Chicago | 5 | All Maps | STV","players":[{"user_id":312,"name":"bkiller","steam_id":76561198029265697,"connected_time":273000000000,"state":"active","ping":69},{"user_id":264,"name":"JustFuxedUp","steam_id":76561198096989110,"connected_time":2281000000000,"state":"active","ping":73},{"user_id":313,"name":"ultralisk52","steam_id":76561198051666604,"connected_time":252000000000,"state":"active","ping":64},{"user_id":314,"name":"welp","steam_id":76561199378725225,"connected_time":190000000000,"state":"active","ping":107},{"user_id":245,"name":"Aeonspassed","steam_id":76561198014016451,"connected_time":5380000000000,"state":"active","ping":50},{"user_id":315,"name":"derpins","steam_id":76561198125261443,"connected_time":181000000000,"state":"active","ping":110},{"user_id":310,"name":"Boznyan","steam_id":76561198129164016,"connected_time":414000000000,"state":"active","ping":58},{"user_id":268,"name":"whats an egg","steam_id":76561198991039398,"connected_time":2244000000000,"state":"active","ping":69},{"user_id":323,"name":"Shorts","steam_id":76561198025009692,"connected_time":40000000000,"state":"spawning","ping":60},{"user_id":317,"name":"Notafraid90","steam_id":76561198104072542,"connected_time":166000000000,"state":"active","ping":73},{"user_id":324,"name":"skippa","steam_id":76561198125377620,"connected_time":15000000000,"state":"active","ping":89},{"user_id":239,"name":"e","steam_id":76561198030291655,"connected_time":5927000000000,"state":"active","ping":46},{"user_id":319,"name":"shit butt","steam_id":76561198051069071,"connected_time":144000000000,"state":"active","ping":97},{"user_id":320,"name":"Double Tapp","steam_id":76561197993847700,"connected_time":99000000000,"state":"active","ping":107},{"user_id":321,"name":"kevin supermarket","steam_id":76561198058287022,"connected_time":66000000000,"state":"active","ping":66},{"user_id":307,"name":"Retrace","steam_id":76561198080620966,"connected_time":523000000000,"state":"active","ping":78},{"user_id":309,"name":"chug jug","steam_id":76561198155631250,"connected_time":459000000000,"state":"active","ping":63},{"user_id":322,"name":"nic","steam_id":76561198030654668,"connected_time":60000000000,"state":"active","ping":73},{"user_id":325,"name":"Erideth","steam_id":76561199092997610,"connected_time":13000000000,"state":"active","ping":114},{"user_id":274,"name":"Dr Smeggman","steam_id":76561197966614845,"connected_time":2131000000000,"state":"active","ping":132},{"user_id":326,"name":"Resh420","steam_id":76561198066619792,"connected_time":11000000000,"state":"active","ping":69},{"user_id":255,"name":"Luke","steam_id":76561198072441047,"connected_time":4296000000000,"state":"active","ping":107},{"user_id":240,"name":"fnewland","steam_id":76561197986051713,"connected_time":5907000000000,"state":"active","ping":70},{"user_id":327,"name":"Bearbean323","steam_id":76561199442443058,"connected_time":5000000000,"state":"spawning","ping":71}]},{"server_id":37,"name":"Uncletopia | Chicago | 6 | All Maps","name_short":"chi-6","host":"chi-2.us.uncletopia.com","port":27025,"enabled":true,"region":"us-central","cc":"us","latitude":41.881832,"longitude":-87.62318,"reserved":0,"last_update":"0001-01-01T00:00:00Z","name_a2s":"Uncletopia | Chicago | 6 | All Maps","protocol":17,"map":"cp_dustbowl","folder":"tf","game":"Team Fortress","app_id":440,"player_count":24,"max_players":24,"Bots":0,"server_type":"Dedicated","server_os":"Linux","password":true,"vac":true,"version":"7757534","steam_id":85568392924866363,"keywords":["cp","nocrits","nodmgspread","uncletopia"],"game_id":440,"stv_port":27026,"stv_name":"Uncletopia | Chicago | 6 | All Maps | STV","players":[{"user_id":271,"name":"Dynamo","steam_id":76561198105537445,"connected_time":4408000000000,"state":"active","ping":60},{"user_id":320,"name":"Cats in 3D","steam_id":76561198048051416,"connected_time":2188000000000,"state":"active","ping":65},{"user_id":317,"name":"Dr. Robotniks Mean Bean Machine","steam_id":76561198047980627,"connected_time":2557000000000,"state":"active","ping":54},{"user_id":334,"name":"a crystal lizard","steam_id":76561197997661928,"connected_time":1103000000000,"state":"active","ping":75},{"user_id":300,"name":"the.land.of.avalon","steam_id":76561198245431668,"connected_time":3548000000000,"state":"active","ping":57},{"user_id":328,"name":"silly little feller","steam_id":76561198041975003,"connected_time":1344000000000,"state":"active","ping":75},{"user_id":336,"name":"Juri Han","steam_id":76561198041678517,"connected_time":1020000000000,"state":"active","ping":104},{"user_id":338,"name":"Dr. Pleasant","steam_id":76561198111945101,"connected_time":631000000000,"state":"active","ping":78},{"user_id":331,"name":"Wizard Raccoon","steam_id":76561198072562591,"connected_time":1301000000000,"state":"active","ping":85},{"user_id":339,"name":"Brotherrr","steam_id":76561198118077886,"connected_time":515000000000,"state":"active","ping":156},{"user_id":283,"name":"Joshua Monster","steam_id":76561198136873827,"connected_time":4135000000000,"state":"active","ping":87},{"user_id":261,"name":"_hooded_","steam_id":76561198023595873,"connected_time":5196000000000,"state":"active","ping":72},{"user_id":311,"name":"Chuck Finley","steam_id":76561198027411284,"connected_time":2890000000000,"state":"active","ping":86},{"user_id":245,"name":"Jup Jup","steam_id":76561197969455713,"connected_time":6686000000000,"state":"active","ping":62},{"user_id":244,"name":"Air OK","steam_id":76561198030694455,"connected_time":6694000000000,"state":"active","ping":57},{"user_id":340,"name":"Burger","steam_id":76561198124642383,"connected_time":340000000000,"state":"active","ping":60},{"user_id":322,"name":"Grandpa Baozhai","steam_id":76561198086667725,"connected_time":2105000000000,"state":"active","ping":106},{"user_id":312,"name":"Z√∏lch","steam_id":76561198021885661,"connected_time":2861000000000,"state":"active","ping":60},{"user_id":297,"name":"GuyGoom","steam_id":76561198254522178,"connected_time":3595000000000,"state":"active","ping":59},{"user_id":265,"name":"The Worm","steam_id":76561198016350229,"connected_time":4628000000000,"state":"active","ping":58},{"user_id":332,"name":"Alice in Rubberland","steam_id":76561198087328346,"connected_time":1222000000000,"state":"active","ping":45},{"user_id":316,"name":"hashmap","steam_id":76561198043794014,"connected_time":2610000000000,"state":"active","ping":49},{"user_id":314,"name":"`o2","steam_id":76561197992030936,"connected_time":2831000000000,"state":"active","ping":66},{"user_id":335,"name":"Ciggy Stardust","steam_id":76561198061770842,"connected_time":1102000000000,"state":"active","ping":85}]},{"server_id":38,"name":"Uncletopia | Chicago | 7 | Stopwatch Beta","name_short":"chi-7","host":"chi-2.us.uncletopia.com","port":27035,"enabled":true,"region":"us-central","cc":"us","latitude":41.881832,"longitude":-87.62318,"reserved":0,"last_update":"0001-01-01T00:00:00Z","name_a2s":"Uncletopia | Chicago | 7 | Stopwatch Beta","protocol":17,"map":"workshop/koth_ramjam_rc1.ugc459778887","folder":"tf","game":"Team Fortress","app_id":440,"player_count":0,"max_players":24,"Bots":0,"server_type":"Dedicated","server_os":"Linux","password":true,"vac":true,"version":"7757534","steam_id":85568392924866364,"keywords":["cp","nocrits","nodmgspread","uncletopia"],"game_id":440,"stv_port":27036,"stv_name":"Uncletopia | Chicago | 7 | Stopwatch Beta | STV","players":null},{"server_id":39,"name":"Uncletopia | Chicago | 8 | Community","name_short":"chi-8","host":"chi-2.us.uncletopia.com","port":27045,"enabled":true,"region":"us-central","cc":"us","latitude":41.881832,"longitude":-87.62318,"reserved":0,"last_update":"0001-01-01T00:00:00Z","name_a2s":"Uncletopia | Chicago | 8 | Community","protocol":17,"map":"workshop/cp_glacier_rc6.ugc2905735376","folder":"tf","game":"Team Fortress","app_id":440,"player_count":22,"max_players":24,"Bots":0,"server_type":"Dedicated","server_os":"Linux","password":true,"vac":true,"version":"7757534","steam_id":85568392924866365,"keywords":["cp","nocrits","nodmgspread","uncletopia"],"game_id":440,"stv_port":27046,"stv_name":"Uncletopia | Chicago | 8 | Community | STV","players":[{"user_id":287,"name":"bunceian","steam_id":76561198975662918,"connected_time":1551000000000,"state":"active","ping":107},{"user_id":292,"name":"Jellojiggler","steam_id":76561198094320477,"connected_time":1287000000000,"state":"active","ping":71},{"user_id":224,"name":"I GOT LAID AT SHEN YUN 2023","steam_id":76561198844003641,"connected_time":6412000000000,"state":"active","ping":113},{"user_id":286,"name":"Bryguy","steam_id":76561198092096120,"connected_time":1724000000000,"state":"active","ping":44},{"user_id":298,"name":"Mr. Dick‚Ñ¢","steam_id":76561198047309044,"connected_time":1118000000000,"state":"active","ping":60},{"user_id":302,"name":"Petrivus","steam_id":76561198202152453,"connected_time":826000000000,"state":"active","ping":114},{"user_id":309,"name":"Pim","steam_id":76561198046050375,"connected_time":291000000000,"state":"active","ping":111},{"user_id":301,"name":"Potato","steam_id":76561198115677693,"connected_time":933000000000,"state":"active","ping":59},{"user_id":222,"name":"DeckofDragons","steam_id":76561198057398213,"connected_time":6586000000000,"state":"active","ping":80},{"user_id":297,"name":"Kit kyat","steam_id":76561198235786296,"connected_time":1173000000000,"state":"active","ping":62},{"user_id":300,"name":"Chaffy2125","steam_id":76561198232839260,"connected_time":1058000000000,"state":"active","ping":190},{"user_id":293,"name":"pandoRA","steam_id":76561198075490385,"connected_time":1285000000000,"state":"active","ping":100},{"user_id":172,"name":"The Pencil Cunts","steam_id":76561198272606252,"connected_time":9984000000000,"state":"active","ping":62},{"user_id":303,"name":"cow","steam_id":76561198198453117,"connected_time":713000000000,"state":"active","ping":75},{"user_id":295,"name":"Le0901","steam_id":76561198372891244,"connected_time":1180000000000,"state":"active","ping":59},{"user_id":279,"name":"hightower npc","steam_id":76561198097588802,"connected_time":2334000000000,"state":"active","ping":45},{"user_id":272,"name":"Nick the melon","steam_id":76561198798907871,"connected_time":2536000000000,"state":"active","ping":118},{"user_id":296,"name":"antoine.fontaine14000","steam_id":76561199480938563,"connected_time":1180000000000,"state":"active","ping":134},{"user_id":299,"name":"laszlo","steam_id":76561198141198352,"connected_time":1098000000000,"state":"active","ping":45},{"user_id":306,"name":"Retro Phoenix","steam_id":76561198077176271,"connected_time":515000000000,"state":"active","ping":61},{"user_id":267,"name":"ZigZag","steam_id":76561198261037986,"connected_time":2685000000000,"state":"active","ping":74},{"user_id":276,"name":"Side egg? Unnecessary.","steam_id":76561198091172158,"connected_time":2447000000000,"state":"active","ping":45}]},{"server_id":8,"name":"Uncletopia | Dallas | 1 | All Maps","name_short":"dal-1","host":"dal-1.us.uncletopia.com","port":27015,"enabled":true,"region":"us-central","cc":"us","latitude":32.779167,"longitude":-96.80889,"reserved":0,"last_update":"0001-01-01T00:00:00Z","name_a2s":"Uncletopia | Dallas | 1 | All Maps","protocol":17,"map":"pl_frontier_final","folder":"tf","game":"Team Fortress","app_id":440,"player_count":24,"max_players":24,"Bots":0,"server_type":"Dedicated","server_os":"Linux","password":true,"vac":true,"version":"7757534","steam_id":85568392924469986,"keywords":["nocrits","nodmgspread","payload","uncletopia"],"game_id":440,"stv_port":27016,"stv_name":"Uncletopia | Dallas | 1 | All Maps | STV","players":[{"user_id":816,"name":"plink","steam_id":76561198057829889,"connected_time":638000000000,"state":"active","ping":74},{"user_id":813,"name":"THEDINKY","steam_id":76561198190077399,"connected_time":797000000000,"state":"active","ping":89},{"user_id":817,"name":"êê†teamlined","steam_id":76561198025668265,"connected_time":617000000000,"state":"active","ping":178},{"user_id":791,"name":"Ultimate WWE Loli Super Slam!","steam_id":76561198009950045,"connected_time":2804000000000,"state":"active","ping":84},{"user_id":763,"name":"Apollo","steam_id":76561198162364702,"connected_time":5252000000000,"state":"active","ping":91},{"user_id":779,"name":"moist priest","steam_id":76561198066823778,"connected_time":3275000000000,"state":"active","ping":108},{"user_id":734,"name":"iaPK","steam_id":76561198056618642,"connected_time":6164000000000,"state":"active","ping":50},{"user_id":748,"name":"ARGON OttoDogX","steam_id":76561198042007578,"connected_time":5817000000000,"state":"active","ping":68},{"user_id":783,"name":"ragnarok","steam_id":76561198273579889,"connected_time":3247000000000,"state":"active","ping":95},{"user_id":814,"name":"Gilded_Warrior","steam_id":76561199055082197,"connected_time":792000000000,"state":"active","ping":98},{"user_id":772,"name":"ARGON Soulidity","steam_id":76561198429603550,"connected_time":3928000000000,"state":"active","ping":83},{"user_id":818,"name":"mac_cheese","steam_id":76561198071334162,"connected_time":615000000000,"state":"active","ping":105},{"user_id":820,"name":"phonkk","steam_id":76561198039019472,"connected_time":417000000000,"state":"active","ping":68},{"user_id":787,"name":"Mono","steam_id":76561198108284925,"connected_time":3159000000000,"state":"active","ping":97},{"user_id":797,"name":"An honest handgunner","steam_id":76561198288458595,"connected_time":2398000000000,"state":"active","ping":81},{"user_id":821,"name":"30-50 feral hogs","steam_id":76561198067088425,"connected_time":325000000000,"state":"active","ping":120},{"user_id":819,"name":"sam","steam_id":76561198217362968,"connected_time":488000000000,"state":"active","ping":90},{"user_id":770,"name":"lew","steam_id":76561198088682495,"connected_time":4818000000000,"state":"active","ping":132},{"user_id":774,"name":"*_*","steam_id":76561198937717599,"connected_time":3889000000000,"state":"active","ping":46},{"user_id":785,"name":"younggflylyfe","steam_id":76561199477357832,"connected_time":3220000000000,"state":"active","ping":41},{"user_id":790,"name":"Dylan","steam_id":76561198265522923,"connected_time":3127000000000,"state":"active","ping":50},{"user_id":801,"name":"Von Seiso","steam_id":76561198164525905,"connected_time":2116000000000,"state":"active","ping":147},{"user_id":648,"name":"brock","steam_id":76561199015537819,"connected_time":11350000000000,"state":"active","ping":58},{"user_id":811,"name":"ARGON soweli","steam_id":76561198044363630,"connected_time":1122000000000,"state":"active","ping":84}]},{"server_id":108,"name":"Uncletopia | Dallas | 2 | All Maps","name_short":"dal-2","host":"dal-1.us.uncletopia.com","port":27025,"enabled":true,"region":"us-central","cc":"us","latitude":32.779167,"longitude":-96.80889,"reserved":0,"last_update":"0001-01-01T00:00:00Z","name_a2s":"Uncletopia | Dallas | 2 | All Maps","protocol":17,"map":"cp_metalworks","folder":"tf","game":"Team Fortress","app_id":440,"player_count":24,"max_players":24,"Bots":0,"server_type":"Dedicated","server_os":"Linux","password":true,"vac":true,"version":"7757534","steam_id":85568392924469988,"keywords":["cp","nocrits","nodmgspread","uncletopia"],"game_id":440,"stv_port":27026,"stv_name":"Uncletopia | Dallas | 2 | All Maps | STV","players":[{"user_id":367,"name":"ArnoldGamingÔæ†Ÿ¥","steam_id":76561198040140247,"connected_time":858000000000,"state":"active","ping":98},{"user_id":370,"name":"Lip crust","steam_id":76561198880094093,"connected_time":657000000000,"state":"active","ping":69},{"user_id":313,"name":"Zing","steam_id":76561198097160898,"connected_time":4647000000000,"state":"active","ping":101},{"user_id":263,"name":"Ata","steam_id":76561198349085545,"connected_time":10137000000000,"state":"active","ping":89},{"user_id":329,"name":"Noble Sax","steam_id":76561198183283495,"connected_time":2790000000000,"state":"active","ping":62},{"user_id":351,"name":"trainmarine -bt","steam_id":76561198341784551,"connected_time":2076000000000,"state":"active","ping":60},{"user_id":360,"name":"go go go","steam_id":76561198351377143,"connected_time":1220000000000,"state":"active","ping":89},{"user_id":361,"name":"DRUNK_MONKEE_69","steam_id":76561198259576815,"connected_time":998000000000,"state":"active","ping":73},{"user_id":373,"name":"xZackAttack27x","steam_id":76561198035446639,"connected_time":242000000000,"state":"active","ping":35},{"user_id":354,"name":"Legit_Jaxer","steam_id":76561198172234053,"connected_time":1774000000000,"state":"active","ping":105},{"user_id":356,"name":"Not A Rapper","steam_id":76561198077523537,"connected_time":1627000000000,"state":"active","ping":93},{"user_id":374,"name":"The Nyangineer","steam_id":76561198400058665,"connected_time":90000000000,"state":"active","ping":98},{"user_id":364,"name":"{FITH}‚Ñ¢ Halcyon","steam_id":76561198049132808,"connected_time":880000000000,"state":"active","ping":91},{"user_id":375,"name":"MachineOfMachinesOfMachinesOf$\u0026","steam_id":76561198258143103,"connected_time":52000000000,"state":"active","ping":50},{"user_id":358,"name":"vic vinegar","steam_id":76561198071775268,"connected_time":1263000000000,"state":"active","ping":80},{"user_id":376,"name":"Jasmine Rice","steam_id":76561198163163590,"connected_time":33000000000,"state":"active","ping":61},{"user_id":362,"name":"BOOM2xCLAT","steam_id":76561198057868006,"connected_time":911000000000,"state":"active","ping":73},{"user_id":363,"name":"Checkered Scones","steam_id":76561198162786894,"connected_time":886000000000,"state":"active","ping":88},{"user_id":357,"name":"Etomb","steam_id":76561198210017208,"connected_time":1601000000000,"state":"active","ping":78},{"user_id":366,"name":"big moist reference","steam_id":76561198397662124,"connected_time":866000000000,"state":"active","ping":66},{"user_id":326,"name":"Miss Pauling Gaming","steam_id":76561198078479083,"connected_time":2811000000000,"state":"active","ping":60},{"user_id":372,"name":"Ms. Pipe Bomb","steam_id":76561198069308362,"connected_time":313000000000,"state":"active","ping":81},{"user_id":322,"name":"krakowski","steam_id":76561198119536224,"connected_time":3588000000000,"state":"active","ping":75},{"user_id":327,"name":"trks","steam_id":76561198233984300,"connected_time":2810000000000,"state":"active","ping":75}]},{"server_id":5,"name":"Uncletopia | Frankfurt | 1 | All Maps","name_short":"frk-1","host":"frk-1.de.uncletopia.com","port":27015,"enabled":true,"region":"eu","cc":"de","latitude":50.110924,"longitude":8.682127,"reserved":0,"last_update":"0001-01-01T00:00:00Z","name_a2s":"Uncletopia | Frankfurt | 1 | All Maps","protocol":17,"map":"cp_altitude","folder":"tf","game":"Team Fortress","app_id":440,"player_count":0,"max_players":24,"Bots":0,"server_type":"Dedicated","server_os":"Linux","password":true,"vac":true,"version":"7757534","steam_id":85568392924469989,"keywords":["cp","nocrits","nodmgspread","uncletopia"],"game_id":440,"stv_port":27016,"stv_name":"Uncletopia | Frankfurt | 1 | All Maps | STV","players":null},{"server_id":110,"name":"Uncletopia | Frankfurt | 2 | All Maps","name_short":"frk-2","host":"frk-1.de.uncletopia.com","port":27025,"enabled":true,"region":"eu","cc":"de","latitude":50.110924,"longitude":8.682127,"reserved":0,"last_update":"0001-01-01T00:00:00Z","name_a2s":"Uncletopia | Frankfurt | 2 | All Maps","protocol":17,"map":"cp_snakewater_final1","folder":"tf","game":"Team Fortress","app_id":440,"player_count":1,"max_players":24,"Bots":0,"server_type":"Dedicated","server_os":"Linux","password":true,"vac":true,"version":"7757534","steam_id":85568392924469990,"keywords":["cp","nocrits","nodmgspread","uncletopia"],"game_id":440,"stv_port":27026,"stv_name":"Uncletopia | Frankfurt | 2 | All Maps | STV","players":[{"user_id":780,"name":"Dim","steam_id":76561198141549249,"connected_time":435000000000,"state":"active","ping":138}]},{"server_id":308,"name":"Uncletopia | Frankfurt | 3 | All Maps","name_short":"frk-3","host":"frk-1.de.uncletopia.com","port":27035,"enabled":true,"region":"eu","cc":"de","latitude":50.110924,"longitude":8.682127,"reserved":0,"last_update":"0001-01-01T00:00:00Z","name_a2s":"Uncletopia | Frankfurt | 3 | All Maps","protocol":17,"map":"cp_process_final","folder":"tf","game":"Team Fortress","app_id":440,"player_count":0,"max_players":24,"Bots":0,"server_type":"Dedicated","server_os":"Linux","password":true,"vac":true,"version":"7757534","steam_id":85568392924504274,"keywords":["cp","nocrits","nodmgspread","uncletopia"],"game_id":440,"stv_port":27036,"stv_name":"Uncletopia | Frankfurt | 3 | All Maps | STV","players":null},{"server_id":309,"name":"Uncletopia | Frankfurt | 4 | All Maps","name_short":"frk-4","host":"frk-1.de.uncletopia.com","port":27045,"enabled":true,"region":"eu","cc":"de","latitude":50.110924,"longitude":8.682127,"reserved":0,"last_update":"0001-01-01T00:00:00Z","name_a2s":"Uncletopia | Frankfurt | 4 | All Maps","protocol":17,"map":"pl_swiftwater_final1","folder":"tf","game":"Team Fortress","app_id":440,"player_count":6,"max_players":24,"Bots":0,"server_type":"Dedicated","server_os":"Linux","password":true,"vac":true,"version":"7757534","steam_id":85568392924504275,"keywords":["nocrits","nodmgspread","payload","uncletopia"],"game_id":440,"stv_port":27046,"stv_name":"Uncletopia | Frankfurt | 4 | All Maps | STV","players":[{"user_id":650,"name":"ja","steam_id":76561199228540618,"connected_time":1736000000000,"state":"active","ping":79},{"user_id":625,"name":"duplicated","steam_id":76561198344952248,"connected_time":3718000000000,"state":"active","ping":65},{"user_id":654,"name":"–Ø—Å–æ—Å –£–±–∏–±—É","steam_id":76561198291861707,"connected_time":1009000000000,"state":"active","ping":131},{"user_id":655,"name":"‚ô°  Klutz  ‚ô°","steam_id":76561198066341494,"connected_time":594000000000,"state":"active","ping":81},{"user_id":657,"name":"dorak","steam_id":76561198818037965,"connected_time":277000000000,"state":"active","ping":104},{"user_id":638,"name":"b r o o g ?","steam_id":76561198280834819,"connected_time":3005000000000,"state":"active","ping":45}]},{"server_id":310,"name":"Uncletopia | Frankfurt | 5 | All Maps","name_short":"frk-5","host":"frk-1.de.uncletopia.com","port":27055,"enabled":true,"region":"eu","cc":"de","latitude":50.110924,"longitude":8.682127,"reserved":0,"last_update":"0001-01-01T00:00:00Z","name_a2s":"Uncletopia | Frankfurt | 5 | All Maps","protocol":17,"map":"koth_viaduct","folder":"tf","game":"Team Fortress","app_id":440,"player_count":0,"max_players":24,"Bots":0,"server_type":"Dedicated","server_os":"Linux","password":true,"vac":true,"version":"7757534","steam_id":85568392924504277,"keywords":["cp","nocrits","nodmgspread","uncletopia"],"game_id":440,"stv_port":27056,"stv_name":"Uncletopia | Frankfurt | 5 | All Maps | STV","players":null},{"server_id":311,"name":"Uncletopia | Frankfurt | 6 | All Maps","name_short":"frk-6","host":"frk-1.de.uncletopia.com","port":27065,"enabled":true,"region":"eu","cc":"de","latitude":50.110924,"longitude":8.682127,"reserved":0,"last_update":"0001-01-01T00:00:00Z","name_a2s":"Uncletopia | Frankfurt | 6 | All Maps","protocol":17,"map":"koth_viaduct","folder":"tf","game":"Team Fortress","app_id":440,"player_count":0,"max_players":24,"Bots":0,"server_type":"Dedicated","server_os":"Linux","password":true,"vac":true,"version":"7757534","steam_id":85568392924504278,"keywords":["cp","nocrits","nodmgspread","uncletopia"],"game_id":440,"stv_port":27066,"stv_name":"Uncletopia | Frankfurt | 6 | All Maps | STV","players":null},{"server_id":23,"name":"Uncletopia | Frankfurt | 7 | Stopwatch Beta","name_short":"frk-7","host":"frk-1.de.uncletopia.com","port":27075,"enabled":true,"region":"eu","cc":"de","latitude":50.110924,"longitude":8.682127,"reserved":0,"last_update":"0001-01-01T00:00:00Z","name_a2s":"Uncletopia | Frankfurt | 7 | Stopwatch Beta","protocol":17,"map":"workshop/koth_ramjam_rc1.ugc459778887","folder":"tf","game":"Team Fortress","app_id":440,"player_count":0,"max_players":24,"Bots":0,"server_type":"Dedicated","server_os":"Linux","password":true,"vac":true,"version":"7757534","steam_id":85568392924742827,"keywords":["cp","nocrits","nodmgspread","uncletopia"],"game_id":440,"stv_port":27076,"stv_name":"Uncletopia | Frankfurt | 7 | Stopwatch Beta | STV","players":null},{"server_id":24,"name":"Uncletopia | Frankfurt | 8 | Community","name_short":"frk-8","host":"frk-1.de.uncletopia.com","port":27085,"enabled":true,"region":"eu","cc":"de","latitude":50.110924,"longitude":8.682127,"reserved":0,"last_update":"0001-01-01T00:00:00Z","name_a2s":"Uncletopia | Frankfurt | 8 | Community","protocol":17,"map":"workshop/koth_bagel_rc6.ugc2514036946","folder":"tf","game":"Team Fortress","app_id":440,"player_count":0,"max_players":24,"Bots":0,"server_type":"Dedicated","server_os":"Linux","password":true,"vac":true,"version":"7757534","steam_id":85568392924742828,"keywords":["cp","nocrits","nodmgspread","uncletopia"],"game_id":440,"stv_port":27086,"stv_name":"Uncletopia | Frankfurt | 8 | Community | STV","players":null},{"server_id":202,"name":"Uncletopia | Hong Kong | 1 | All Maps","name_short":"hgk-1","host":"hgk-1.hk.uncletopia.com","port":27015,"enabled":true,"region":"asia","cc":"hk","latitude":22.302711,"longitude":114.177216,"reserved":0,"last_update":"0001-01-01T00:00:00Z","name_a2s":"Uncletopia | Hong Kong | 1 | All Maps","protocol":17,"map":"pl_pier","folder":"tf","game":"Team Fortress","app_id":440,"player_count":0,"max_players":24,"Bots":0,"server_type":"Dedicated","server_os":"Linux","password":true,"vac":true,"version":"7757534","steam_id":85568392924494504,"keywords":["nocrits","nodmgspread","payload","uncletopia"],"game_id":440,"stv_port":27016,"stv_name":"Uncletopia | Hong Kong | 1 | All Maps | STV","players":null},{"server_id":1,"name":"Uncletopia | Los Angeles | 1 | All Maps","name_short":"lax-1","host":"lax-1.us.uncletopia.com","port":27015,"enabled":true,"region":"us-west","cc":"us","latitude":33.94279,"longitude":-118.41004,"reserved":0,"last_update":"0001-01-01T00:00:00Z","name_a2s":"Uncletopia | Los Angeles | 1 | All Maps","protocol":17,"map":"pl_upward","folder":"tf","game":"Team Fortress","app_id":440,"player_count":23,"max_players":24,"Bots":0,"server_type":"Dedicated","server_os":"Linux","password":true,"vac":true,"version":"7757534","steam_id":85568392924469991,"keywords":["nocrits","nodmgspread","payload","uncletopia"],"game_id":440,"stv_port":27016,"stv_name":"Uncletopia | Los Angeles | 1 | All Maps | STV","players":[{"user_id":182,"name":"Vintage TV","steam_id":76561198800334545,"connected_time":3093000000000,"state":"active","ping":37},{"user_id":209,"name":"Zerg_Man","steam_id":76561199060404359,"connected_time":1095000000000,"state":"active","ping":104},{"user_id":198,"name":"touka","steam_id":76561198171521806,"connected_time":1536000000000,"state":"active","ping":83},{"user_id":228,"name":"bengineer","steam_id":76561198171912174,"connected_time":42000000000,"state":"active","ping":83},{"user_id":201,"name":"A pack of feral hogs","steam_id":76561198374279594,"connected_time":1477000000000,"state":"active","ping":58},{"user_id":180,"name":"Potatobreeder","steam_id":76561199077867000,"connected_time":3142000000000,"state":"active","ping":100},{"user_id":192,"name":"skips","steam_id":76561198105075752,"connected_time":2337000000000,"state":"active","ping":62},{"user_id":216,"name":"Clown Boy","steam_id":76561198068279245,"connected_time":809000000000,"state":"active","ping":87},{"user_id":224,"name":"d4ngerd4n","steam_id":76561198043758735,"connected_time":357000000000,"state":"active","ping":58},{"user_id":227,"name":"27 blends","steam_id":76561197997100185,"connected_time":137000000000,"state":"active","ping":58},{"user_id":181,"name":"Rumpus Fugly","steam_id":76561198095118127,"connected_time":3100000000000,"state":"active","ping":90},{"user_id":218,"name":"squid","steam_id":76561198070236972,"connected_time":701000000000,"state":"active","ping":60},{"user_id":195,"name":"Mud","steam_id":76561198356426602,"connected_time":1568000000000,"state":"active","ping":40},{"user_id":214,"name":"charley","steam_id":76561198828238339,"connected_time":923000000000,"state":"active","ping":78},{"user_id":229,"name":"i cry .","steam_id":76561199193020423,"connected_time":21000000000,"state":"active","ping":56},{"user_id":196,"name":"Nolan","steam_id":76561198169648081,"connected_time":1561000000000,"state":"active","ping":95},{"user_id":212,"name":"chadsnakeisthis","steam_id":76561199010277133,"connected_time":1035000000000,"state":"active","ping":72},{"user_id":220,"name":"doughboy","steam_id":76561198219012928,"connected_time":548000000000,"state":"active","ping":45},{"user_id":217,"name":"The Horny","steam_id":76561198863639459,"connected_time":808000000000,"state":"active","ping":103},{"user_id":226,"name":"Sexy Julian","steam_id":76561198024596083,"connected_time":268000000000,"state":"active","ping":83},{"user_id":204,"name":"EleventhGoose","steam_id":76561198912390211,"connected_time":1460000000000,"state":"active","ping":58},{"user_id":222,"name":"paxtonjdrew","steam_id":76561199443375088,"connected_time":517000000000,"state":"active","ping":91},{"user_id":207,"name":"Power Jake","steam_id":76561198051510260,"connected_time":1423000000000,"state":"active","ping":61}]},{"server_id":112,"name":"Uncletopia | Los Angeles | 2 | All Maps","name_short":"lax-2","host":"lax-1.us.uncletopia.com","port":27025,"enabled":true,"region":"us-west","cc":"us","latitude":33.94279,"longitude":-118.41004,"reserved":0,"last_update":"0001-01-01T00:00:00Z","name_a2s":"Uncletopia | Los Angeles | 2 | All Maps","protocol":17,"map":"cp_steel","folder":"tf","game":"Team Fortress","app_id":440,"player_count":22,"max_players":24,"Bots":0,"server_type":"Dedicated","server_os":"Linux","password":true,"vac":true,"version":"7757534","steam_id":85568392924469992,"keywords":["cp","nocrits","nodmgspread","uncletopia"],"game_id":440,"stv_port":27026,"stv_name":"Uncletopia | Los Angeles | 2 | All Maps | STV","players":[{"user_id":375,"name":"azureglxy","steam_id":76561198861388315,"connected_time":2800000000000,"state":"active","ping":46},{"user_id":410,"name":"Nobody","steam_id":76561199352089107,"connected_time":171000000000,"state":"active","ping":38},{"user_id":324,"name":"i wish i were a bird","steam_id":76561199224976982,"connected_time":6888000000000,"state":"active","ping":96},{"user_id":395,"name":"vioxynteris","steam_id":76561198161428666,"connected_time":1031000000000,"state":"active","ping":43},{"user_id":393,"name":"The Horselords and Animal Gods","steam_id":76561197975094050,"connected_time":1245000000000,"state":"active","ping":55},{"user_id":399,"name":"bobletoob","steam_id":76561199184464900,"connected_time":817000000000,"state":"active","ping":55},{"user_id":407,"name":"Paper Clipp","steam_id":76561199065796296,"connected_time":221000000000,"state":"active","ping":60},{"user_id":408,"name":"Zogovro","steam_id":76561199163618880,"connected_time":212000000000,"state":"active","ping":56},{"user_id":392,"name":"Danimals Crush Cup","steam_id":76561198013078854,"connected_time":1379000000000,"state":"active","ping":59},{"user_id":409,"name":"everytime we touch nightcore","steam_id":76561198049258493,"connected_time":182000000000,"state":"active","ping":77},{"user_id":351,"name":"Firedust19","steam_id":76561198153238631,"connected_time":4347000000000,"state":"active","ping":65},{"user_id":381,"name":"‚Ä∫ Pikmeir","steam_id":76561198027373503,"connected_time":2447000000000,"state":"active","ping":49},{"user_id":415,"name":"yo mama","steam_id":76561198384866172,"connected_time":40000000000,"state":"active","ping":60},{"user_id":382,"name":"Ekuseebia","steam_id":76561198037504112,"connected_time":2389000000000,"state":"active","ping":77},{"user_id":402,"name":"ForAPessimistImPrettyOptimistic","steam_id":76561198170128009,"connected_time":695000000000,"state":"active","ping":67},{"user_id":412,"name":"bash","steam_id":76561199161649534,"connected_time":164000000000,"state":"active","ping":67},{"user_id":413,"name":"stinkmaster666demon","steam_id":76561198073914311,"connected_time":156000000000,"state":"active","ping":43},{"user_id":414,"name":"BeamBounty","steam_id":76561198129318157,"connected_time":123000000000,"state":"active","ping":103},{"user_id":339,"name":"Natalie (she/her)","steam_id":76561198048848289,"connected_time":5479000000000,"state":"active","ping":57},{"user_id":377,"name":"Skinny Pete","steam_id":76561198801608576,"connected_time":2761000000000,"state":"active","ping":82},{"user_id":404,"name":"LeBron James Ferraro","steam_id":76561197995200743,"connected_time":383000000000,"state":"active","ping":35},{"user_id":386,"name":"bigman1","steam_id":76561198050225055,"connected_time":2225000000000,"state":"active","ping":49}]},{"server_id":324,"name":"Uncletopia | Los Angeles | 3 | All Maps","name_short":"lax-3","host":"lax-1.us.uncletopia.com","port":27035,"enabled":true,"region":"us-west","cc":"us","latitude":33.94279,"longitude":-118.41004,"reserved":0,"last_update":"0001-01-01T00:00:00Z","name_a2s":"Uncletopia | Los Angeles | 3 | All Maps","protocol":17,"map":"pl_borneo","folder":"tf","game":"Team Fortress","app_id":440,"player_count":24,"max_players":24,"Bots":0,"server_type":"Dedicated","server_os":"Linux","password":true,"vac":true,"version":"7757534","steam_id":85568392924510198,"keywords":["nocrits","nodmgspread","payload","uncletopia"],"game_id":440,"stv_port":27036,"stv_name":"Uncletopia | Los Angeles | 3 | All Maps | STV","players":[{"user_id":61,"name":"Donkski","steam_id":76561198406895347,"connected_time":9898000000000,"state":"active","ping":86},{"user_id":159,"name":"Jovi Boy","steam_id":76561198046605691,"connected_time":2244000000000,"state":"active","ping":61},{"user_id":161,"name":"MonkeyNobody","steam_id":76561199451266605,"connected_time":2215000000000,"state":"active","ping":54},{"user_id":190,"name":"Spruce","steam_id":76561198081684676,"connected_time":373000000000,"state":"active","ping":101},{"user_id":177,"name":"Tanman653","steam_id":76561199046653301,"connected_time":1491000000000,"state":"active","ping":69},{"user_id":158,"name":"Agent Q","steam_id":76561198830829003,"connected_time":2254000000000,"state":"active","ping":62},{"user_id":143,"name":"Altruisticailuridae","steam_id":76561198335295596,"connected_time":3489000000000,"state":"active","ping":56},{"user_id":178,"name":"Erick","steam_id":76561198176406475,"connected_time":1475000000000,"state":"active","ping":93},{"user_id":191,"name":"Termed1124","steam_id":76561198873995670,"connected_time":138000000000,"state":"active","ping":57},{"user_id":187,"name":"delight","steam_id":76561197980280272,"connected_time":587000000000,"state":"active","ping":70},{"user_id":186,"name":"Sky (‚åê‚ñ†_‚ñ†)","steam_id":76561198104953731,"connected_time":631000000000,"state":"active","ping":75},{"user_id":172,"name":"makeshift_burrito","steam_id":76561198042510825,"connected_time":1697000000000,"state":"active","ping":67},{"user_id":133,"name":"TDR","steam_id":76561198093243434,"connected_time":4699000000000,"state":"active","ping":112},{"user_id":182,"name":"Gentle Opp 3","steam_id":76561198150406851,"connected_time":1056000000000,"state":"active","ping":58},{"user_id":184,"name":"Pump","steam_id":76561198085846167,"connected_time":646000000000,"state":"active","ping":66},{"user_id":183,"name":"Ballin'!","steam_id":76561198998042673,"connected_time":1039000000000,"state":"active","ping":45},{"user_id":164,"name":"oil","steam_id":76561198099980149,"connected_time":2123000000000,"state":"active","ping":65},{"user_id":179,"name":"FriskyDemon","steam_id":76561198043684646,"connected_time":1440000000000,"state":"active","ping":69},{"user_id":185,"name":"Dr. B Busta","steam_id":76561198206387303,"connected_time":638000000000,"state":"active","ping":39},{"user_id":155,"name":"nathanxbox2","steam_id":76561198046874088,"connected_time":2635000000000,"state":"active","ping":51},{"user_id":188,"name":"Egox","steam_id":76561198204876551,"connected_time":480000000000,"state":"active","ping":62},{"user_id":180,"name":"Kasporov","steam_id":76561198196466046,"connected_time":1427000000000,"state":"active","ping":53},{"user_id":176,"name":"Mister Fister","steam_id":76561199059653595,"connected_time":1542000000000,"state":"active","ping":71},{"user_id":189,"name":"I THINK COOLSVILLE SUCKS","steam_id":76561198066855998,"connected_time":433000000000,"state":"active","ping":74}]},{"server_id":25,"name":"Uncletopia | Los Angeles | 4 | Stopwatch Beta","name_short":"lax-4","host":"lax-1.us.uncletopia.com","port":27045,"enabled":true,"region":"us-west","cc":"us","latitude":33.94279,"longitude":-118.41004,"reserved":0,"last_update":"0001-01-01T00:00:00Z","name_a2s":"Uncletopia | Los Angeles | 4 | Stopwatch Beta","protocol":17,"map":"workshop/pl_barnblitz_pro7.ugc582280235","folder":"tf","game":"Team Fortress","app_id":440,"player_count":0,"max_players":24,"Bots":0,"server_type":"Dedicated","server_os":"Linux","password":true,"vac":true,"version":"7757534","steam_id":85568392924510199,"keywords":["nocrits","nodmgspread","payload","uncletopia"],"game_id":440,"stv_port":27046,"stv_name":"Uncletopia | Los Angeles | 4 | Stopwatch Beta | STV","players":null},{"server_id":11,"name":"Uncletopia | London | 1 | All Maps","name_short":"lon-1","host":"lon-1.uk.uncletopia.com","port":27015,"enabled":true,"region":"eu","cc":"gb","latitude":51.509865,"longitude":-0.118092,"reserved":0,"last_update":"0001-01-01T00:00:00Z","name_a2s":"Uncletopia | London | 1 | All Maps","protocol":17,"map":"koth_viaduct","folder":"tf","game":"Team Fortress","app_id":440,"player_count":0,"max_players":24,"Bots":0,"server_type":"Dedicated","server_os":"Linux","password":true,"vac":true,"version":"7757534","steam_id":85568392924367362,"keywords":["cp","nocrits","nodmgspread","uncletopia"],"game_id":440,"stv_port":27016,"stv_name":"Uncletopia | London | 1 | All Maps | STV","players":null},{"server_id":114,"name":"Uncletopia | London | 2 | All Maps","name_short":"lon-2","host":"lon-1.uk.uncletopia.com","port":27025,"enabled":true,"region":"eu","cc":"gb","latitude":51.509865,"longitude":-0.118092,"reserved":0,"last_update":"0001-01-01T00:00:00Z","name_a2s":"Uncletopia | London | 2 | All Maps","protocol":17,"map":"koth_cascade","folder":"tf","game":"Team Fortress","app_id":440,"player_count":0,"max_players":24,"Bots":0,"server_type":"Dedicated","server_os":"Linux","password":true,"vac":true,"version":"7757534","steam_id":85568392924470941,"keywords":["cp","nocrits","nodmgspread","uncletopia"],"game_id":440,"stv_port":27026,"stv_name":"Uncletopia | London | 2 | All Maps | STV","players":null},{"server_id":320,"name":"Uncletopia | London | 3 | All Maps","name_short":"lon-3","host":"lon-1.uk.uncletopia.com","port":27035,"enabled":true,"region":"eu","cc":"gb","latitude":51.509865,"longitude":-0.118092,"reserved":0,"last_update":"0001-01-01T00:00:00Z","name_a2s":"Uncletopia | London | 3 | All Maps","protocol":17,"map":"pl_borneo","folder":"tf","game":"Team Fortress","app_id":440,"player_count":0,"max_players":24,"Bots":0,"server_type":"Dedicated","server_os":"Linux","password":true,"vac":true,"version":"7757534","steam_id":85568392924510192,"keywords":["nocrits","nodmgspread","payload","uncletopia"],"game_id":440,"stv_port":27036,"stv_name":"Uncletopia | London | 3 | All Maps | STV","players":null},{"server_id":321,"name":"Uncletopia | London | 4 | All Maps","name_short":"lon-4","host":"lon-1.uk.uncletopia.com","port":27045,"enabled":true,"region":"eu","cc":"gb","latitude":51.509865,"longitude":-0.118092,"reserved":0,"last_update":"0001-01-01T00:00:00Z","name_a2s":"Uncletopia | London | 4 | All Maps","protocol":17,"map":"pl_snowycoast","folder":"tf","game":"Team Fortress","app_id":440,"player_count":0,"max_players":24,"Bots":0,"server_type":"Dedicated","server_os":"Linux","password":true,"vac":true,"version":"7757534","steam_id":85568392924510193,"keywords":["nocrits","nodmgspread","payload","uncletopia"],"game_id":440,"stv_port":27046,"stv_name":"Uncletopia | London | 4 | All Maps | STV","players":null},{"server_id":21,"name":"Uncletopia | London | 5 | All Maps","name_short":"lon-5","host":"lon-1.uk.uncletopia.com","port":27055,"enabled":true,"region":"eu","cc":"gb","latitude":51.509865,"longitude":-0.118092,"reserved":0,"last_update":"0001-01-01T00:00:00Z","name_a2s":"Uncletopia | London | 5 | All Maps","protocol":17,"map":"pl_upward","folder":"tf","game":"Team Fortress","app_id":440,"player_count":0,"max_players":24,"Bots":0,"server_type":"Dedicated","server_os":"Linux","password":true,"vac":true,"version":"7757534","steam_id":85568392924742829,"keywords":["nocrits","nodmgspread","payload","uncletopia"],"game_id":440,"stv_port":27056,"stv_name":"Uncletopia | London | 5 | All Maps | STV","players":null},{"server_id":22,"name":"Uncletopia | London | 6 | All Maps","name_short":"lon-6","host":"lon-1.uk.uncletopia.com","port":27065,"enabled":true,"region":"eu","cc":"gb","latitude":51.509865,"longitude":-0.118092,"reserved":0,"last_update":"0001-01-01T00:00:00Z","name_a2s":"Uncletopia | London | 6 | All Maps","protocol":17,"map":"koth_lakeside_final","folder":"tf","game":"Team Fortress","app_id":440,"player_count":0,"max_players":24,"Bots":0,"server_type":"Dedicated","server_os":"Linux","password":true,"vac":true,"version":"7757534","steam_id":85568392924742830,"keywords":["cp","nocrits","nodmgspread","uncletopia"],"game_id":440,"stv_port":27066,"stv_name":"Uncletopia | London | 6 | All Maps | STV","players":null},{"server_id":40,"name":"Uncletopia | London | 7 | No Payload","name_short":"lon-7","host":"lon-1.uk.uncletopia.com","port":27075,"enabled":true,"region":"eu","cc":"gb","latitude":51.509865,"longitude":-0.118092,"reserved":0,"last_update":"0001-01-01T00:00:00Z","name_a2s":"Uncletopia | London | 7 | No Payload","protocol":17,"map":"cp_steel","folder":"tf","game":"Team Fortress","app_id":440,"player_count":0,"max_players":24,"Bots":0,"server_type":"Dedicated","server_os":"Linux","password":true,"vac":true,"version":"7757534","steam_id":85568392924964314,"keywords":["cp","nocrits","nodmgspread","uncletopia"],"game_id":440,"stv_port":27076,"stv_name":"Uncletopia | London | 7 | No Payload | STV","players":null},{"server_id":41,"name":"Uncletopia | London | 8 | Community","name_short":"lon-8","host":"lon-1.uk.uncletopia.com","port":27085,"enabled":true,"region":"eu","cc":"gb","latitude":51.509865,"longitude":-0.118092,"reserved":0,"last_update":"0001-01-01T00:00:00Z","name_a2s":"Uncletopia | London | 8 | Community","protocol":17,"map":"workshop/pl_vigil_rc9.ugc1266210012","folder":"tf","game":"Team Fortress","app_id":440,"player_count":0,"max_players":24,"Bots":0,"server_type":"Dedicated","server_os":"Linux","password":true,"vac":true,"version":"7757534","steam_id":85568392924964315,"keywords":["nocrits","nodmgspread","payload","uncletopia"],"game_id":440,"stv_port":27086,"stv_name":"Uncletopia | London | 8 | Community | STV","players":null},{"server_id":300,"name":"Uncletopia | Montr√©al | 1 | All Maps","name_short":"mtl-1","host":"mtl-1.ca.uncletopia.com","port":27015,"enabled":true,"region":"us-east","cc":"ca","latitude":45.50889,"longitude":-73.56167,"reserved":0,"last_update":"0001-01-01T00:00:00Z","name_a2s":"Uncletopia | Montr√©al | 1 | All Maps","protocol":17,"map":"cp_dustbowl","folder":"tf","game":"Team Fortress","app_id":440,"player_count":0,"max_players":24,"Bots":0,"server_type":"Dedicated","server_os":"Linux","password":true,"vac":true,"version":"7757534","steam_id":85568392924500087,"keywords":["cp","nocrits","nodmgspread","uncletopia"],"game_id":440,"stv_port":27016,"stv_name":"Uncletopia | Montr√©al | 1 | All Maps | STV","players":null},{"server_id":301,"name":"Uncletopia | Montr√©al | 2 | All Maps","name_short":"mtl-2","host":"mtl-1.ca.uncletopia.com","port":27025,"enabled":true,"region":"us-east","cc":"ca","latitude":45.50889,"longitude":-73.56167,"reserved":0,"last_update":"0001-01-01T00:00:00Z","name_a2s":"Uncletopia | Montr√©al | 2 | All Maps","protocol":17,"map":"cp_process_final","folder":"tf","game":"Team Fortress","app_id":440,"player_count":0,"max_players":24,"Bots":0,"server_type":"Dedicated","server_os":"Linux","password":true,"vac":true,"version":"7757534","steam_id":85568392924500088,"keywords":["cp","nocrits","nodmgspread","uncletopia"],"game_id":440,"stv_port":27026,"stv_name":"Uncletopia | Montr√©al | 2 | All Maps | STV","players":null},{"server_id":302,"name":"Uncletopia | Montr√©al | 3 | All Maps","name_short":"mtl-3","host":"mtl-1.ca.uncletopia.com","port":27035,"enabled":true,"region":"us-east","cc":"ca","latitude":45.50889,"longitude":-73.56167,"reserved":0,"last_update":"0001-01-01T00:00:00Z","name_a2s":"Uncletopia | Montr√©al | 3 | All Maps","protocol":17,"map":"pl_borneo","folder":"tf","game":"Team Fortress","app_id":440,"player_count":0,"max_players":24,"Bots":0,"server_type":"Dedicated","server_os":"Linux","password":true,"vac":true,"version":"7757534","steam_id":85568392924500089,"keywords":["nocrits","nodmgspread","payload","uncletopia"],"game_id":440,"stv_port":27036,"stv_name":"Uncletopia | Montr√©al | 3 | All Maps | STV","players":null},{"server_id":303,"name":"Uncletopia | Montr√©al | 4 | No Payload","name_short":"mtl-4","host":"mtl-1.ca.uncletopia.com","port":27045,"enabled":true,"region":"us-east","cc":"ca","latitude":45.50889,"longitude":-73.56167,"reserved":0,"last_update":"0001-01-01T00:00:00Z","name_a2s":"Uncletopia | Montr√©al | 4 | No Payload","protocol":17,"map":"koth_harvest_final","folder":"tf","game":"Team Fortress","app_id":440,"player_count":0,"max_players":24,"Bots":0,"server_type":"Dedicated","server_os":"Linux","password":true,"vac":true,"version":"7757534","steam_id":85568392924500090,"keywords":["cp","nocrits","nodmgspread","uncletopia"],"game_id":440,"stv_port":27046,"stv_name":"Uncletopia | Montr√©al | 4 | No Payload | STV","players":null},{"server_id":13,"name":"Uncletopia | New York City | 1 | All Maps","name_short":"nyc-1","host":"nyc-1.us.uncletopia.com","port":27015,"enabled":true,"region":"us-east","cc":"us","latitude":40.73061,"longitude":-73.93524,"reserved":0,"last_update":"0001-01-01T00:00:00Z","name_a2s":"Uncletopia | New York City | 1 | All Maps","protocol":17,"map":"pl_borneo","folder":"tf","game":"Team Fortress","app_id":440,"player_count":24,"max_players":24,"Bots":0,"server_type":"Dedicated","server_os":"Linux","password":true,"vac":true,"version":"7757534","steam_id":85568392924469993,"keywords":["nocrits","nodmgspread","payload","uncletopia"],"game_id":440,"stv_port":27016,"stv_name":"Uncletopia | New York City | 1 | All Maps | STV","players":[{"user_id":510,"name":"Mochi","steam_id":76561199151314140,"connected_time":17961000000000,"state":"active","ping":36},{"user_id":727,"name":"Thunderous","steam_id":76561198192752793,"connected_time":1226000000000,"state":"active","ping":55},{"user_id":722,"name":"lwyr","steam_id":76561198007982579,"connected_time":1807000000000,"state":"active","ping":42},{"user_id":714,"name":"Joj≈ç","steam_id":76561198864691307,"connected_time":2645000000000,"state":"active","ping":68},{"user_id":721,"name":"Lily","steam_id":76561198348941784,"connected_time":1965000000000,"state":"active","ping":91},{"user_id":737,"name":"soy consumer","steam_id":76561198047168548,"connected_time":277000000000,"state":"active","ping":108},{"user_id":739,"name":"Rudy","steam_id":76561198013456828,"connected_time":261000000000,"state":"active","ping":44},{"user_id":659,"name":"Mario","steam_id":76561198321794277,"connected_time":6656000000000,"state":"active","ping":71},{"user_id":740,"name":"PhatBoi","steam_id":76561198055859578,"connected_time":233000000000,"state":"active","ping":96},{"user_id":741,"name":"Brendan","steam_id":76561197983851728,"connected_time":200000000000,"state":"active","ping":45},{"user_id":705,"name":"Sully","steam_id":76561198055418425,"connected_time":3556000000000,"state":"active","ping":64},{"user_id":668,"name":"Periculosum PhD in Funny","steam_id":76561198123370914,"connected_time":5478000000000,"state":"active","ping":92},{"user_id":745,"name":"1=2","steam_id":76561198027238792,"connected_time":101000000000,"state":"active","ping":107},{"user_id":724,"name":"pastas","steam_id":76561198154774351,"connected_time":1734000000000,"state":"active","ping":60},{"user_id":734,"name":"Impresio","steam_id":76561198129127347,"connected_time":583000000000,"state":"active","ping":82},{"user_id":743,"name":"reaperthatsucksatgames","steam_id":76561199402897576,"connected_time":162000000000,"state":"active","ping":106},{"user_id":690,"name":"BasicPeaches","steam_id":76561198190890150,"connected_time":4190000000000,"state":"active","ping":60},{"user_id":720,"name":"Hugh can prevent Florist Friars","steam_id":76561198124311404,"connected_time":1985000000000,"state":"active","ping":76},{"user_id":746,"name":"SomeRandomCat","steam_id":76561199107044061,"connected_time":97000000000,"state":"active","ping":76},{"user_id":716,"name":"ECCO","steam_id":76561198002821513,"connected_time":2572000000000,"state":"active","ping":72},{"user_id":699,"name":"Joyous Jenny","steam_id":76561198127998866,"connected_time":3696000000000,"state":"active","ping":54},{"user_id":747,"name":"skag","steam_id":76561198016157051,"connected_time":61000000000,"state":"active","ping":76},{"user_id":748,"name":"Lore","steam_id":76561198098407538,"connected_time":57000000000,"state":"active","ping":61},{"user_id":749,"name":"Gerald Jay Sussman","steam_id":76561198114515026,"connected_time":53000000000,"state":"active","ping":45}]},{"server_id":14,"name":"Uncletopia | New York City | 2 | All Maps","name_short":"nyc-2","host":"nyc-1.us.uncletopia.com","port":27025,"enabled":true,"region":"us-east","cc":"us","latitude":40.73061,"longitude":-73.93524,"reserved":0,"last_update":"0001-01-01T00:00:00Z","name_a2s":"Uncletopia | New York City | 2 | All Maps","protocol":17,"map":"pl_thundermountain","folder":"tf","game":"Team Fortress","app_id":440,"player_count":24,"max_players":24,"Bots":0,"server_type":"Dedicated","server_os":"Linux","password":true,"vac":true,"version":"7757534","steam_id":85568392924469994,"keywords":["nocrits","nodmgspread","payload","uncletopia"],"game_id":440,"stv_port":27026,"stv_name":"Uncletopia | New York City | 2 | All Maps | STV","players":[{"user_id":414,"name":"Bip","steam_id":76561199022962204,"connected_time":4110000000000,"state":"active","ping":84},{"user_id":464,"name":"LDM","steam_id":76561198843313898,"connected_time":255000000000,"state":"active","ping":54},{"user_id":452,"name":"Rangerthegamer","steam_id":76561198167465991,"connected_time":2823000000000,"state":"active","ping":55},{"user_id":416,"name":"CivilWarMike","steam_id":76561198141188839,"connected_time":4097000000000,"state":"active","ping":76},{"user_id":361,"name":"Ferguson","steam_id":76561198121349387,"connected_time":9880000000000,"state":"active","ping":84},{"user_id":417,"name":"Amy Roxwell","steam_id":76561198303391830,"connected_time":4095000000000,"state":"active","ping":125},{"user_id":449,"name":"steggy","steam_id":76561198000564263,"connected_time":2944000000000,"state":"active","ping":75},{"user_id":415,"name":"averagesoldiermain","steam_id":76561198158447466,"connected_time":4108000000000,"state":"active","ping":89},{"user_id":459,"name":"Horrizan","steam_id":76561197965028480,"connected_time":741000000000,"state":"active","ping":87},{"user_id":455,"name":"Father Cocoa","steam_id":76561199023002514,"connected_time":2197000000000,"state":"active","ping":87},{"user_id":445,"name":"Sir Quacksalot","steam_id":76561198048942777,"connected_time":3019000000000,"state":"active","ping":95},{"user_id":460,"name":"Duncan Idaho","steam_id":76561197988963861,"connected_time":732000000000,"state":"active","ping":45},{"user_id":462,"name":"Bored Barred Owl","steam_id":76561198263895597,"connected_time":648000000000,"state":"active","ping":60},{"user_id":463,"name":"dnaak","steam_id":76561197960489193,"connected_time":498000000000,"state":"active","ping":61},{"user_id":465,"name":"Acute Surrealism","steam_id":76561198109618175,"connected_time":121000000000,"state":"active","ping":91},{"user_id":433,"name":"bojack from the show bojack hor","steam_id":76561198053006712,"connected_time":3769000000000,"state":"active","ping":41},{"user_id":442,"name":"Flint","steam_id":76561198148412420,"connected_time":3351000000000,"state":"active","ping":103},{"user_id":428,"name":"Braamklauw","steam_id":76561198283287697,"connected_time":3939000000000,"state":"active","ping":155},{"user_id":454,"name":"Bobfleadip","steam_id":76561198043788642,"connected_time":2424000000000,"state":"active","ping":82},{"user_id":427,"name":"Dandy Bengal","steam_id":76561198156498290,"connected_time":3954000000000,"state":"active","ping":84},{"user_id":453,"name":"Devoid","steam_id":76561198254039012,"connected_time":2822000000000,"state":"active","ping":29},{"user_id":467,"name":"Swifgz","steam_id":76561198162875756,"connected_time":53000000000,"state":"active","ping":44},{"user_id":435,"name":"spaghetti","steam_id":76561198010019214,"connected_time":3636000000000,"state":"active","ping":35},{"user_id":457,"name":"java","steam_id":76561198030276792,"connected_time":1553000000000,"state":"active","ping":64}]},{"server_id":15,"name":"Uncletopia | New York City | 3 | Stopwatch Beta","name_short":"nyc-3","host":"nyc-1.us.uncletopia.com","port":27035,"enabled":true,"region":"us-east","cc":"us","latitude":40.73061,"longitude":-73.93524,"reserved":0,"last_update":"0001-01-01T00:00:00Z","name_a2s":"Uncletopia | New York City | 3 | Stopwatch Beta","protocol":17,"map":"cp_process_final","folder":"tf","game":"Team Fortress","app_id":440,"player_count":24,"max_players":24,"Bots":0,"server_type":"Dedicated","server_os":"Linux","password":true,"vac":true,"version":"7757534","steam_id":85568392924742820,"keywords":["cp","nocrits","nodmgspread","uncletopia"],"game_id":440,"stv_port":27036,"stv_name":"Uncletopia | New York City | 3 | Stopwatch Beta | STV","players":[{"user_id":211,"name":"garbo","steam_id":76561198149280150,"connected_time":1050000000000,"state":"active","ping":169},{"user_id":220,"name":"Nicejoshua48","steam_id":76561198068277321,"connected_time":13000000000,"state":"spawning","ping":56},{"user_id":172,"name":"Cookie","steam_id":76561198047736899,"connected_time":4316000000000,"state":"active","ping":37},{"user_id":140,"name":"7.up‚Ñ¢","steam_id":76561198072428081,"connected_time":6605000000000,"state":"active","ping":95},{"user_id":170,"name":"hehehehehe","steam_id":76561198909415646,"connected_time":4576000000000,"state":"active","ping":101},{"user_id":198,"name":"evdoke","steam_id":76561198044555219,"connected_time":1856000000000,"state":"active","ping":44},{"user_id":194,"name":"The magic doo bus","steam_id":76561198243387974,"connected_time":2748000000000,"state":"active","ping":55},{"user_id":208,"name":"Baleaf","steam_id":76561199193980999,"connected_time":1323000000000,"state":"active","ping":73},{"user_id":197,"name":"BluJay","steam_id":76561198044670560,"connected_time":2204000000000,"state":"active","ping":38},{"user_id":191,"name":"cheetaz","steam_id":76561198224614084,"connected_time":2898000000000,"state":"active","ping":62},{"user_id":217,"name":"2L84U","steam_id":76561198079176017,"connected_time":439000000000,"state":"active","ping":97},{"user_id":202,"name":"Jamrag","steam_id":76561199031241776,"connected_time":1725000000000,"state":"active","ping":81},{"user_id":200,"name":"Romo","steam_id":76561198243101572,"connected_time":1777000000000,"state":"active","ping":81},{"user_id":206,"name":"day","steam_id":76561198194939617,"connected_time":1388000000000,"state":"active","ping":67},{"user_id":165,"name":"(TTV) The_Astrum_Guardian","steam_id":76561198130134103,"connected_time":4747000000000,"state":"active","ping":60},{"user_id":212,"name":"Antwan","steam_id":76561198246200638,"connected_time":1021000000000,"state":"active","ping":84},{"user_id":203,"name":"Turtle.","steam_id":76561198260492608,"connected_time":1724000000000,"state":"active","ping":127},{"user_id":148,"name":"MILK","steam_id":76561198040861810,"connected_time":5860000000000,"state":"active","ping":77},{"user_id":209,"name":"TV","steam_id":76561198177326926,"connected_time":1298000000000,"state":"active","ping":101},{"user_id":214,"name":"Colin102004","steam_id":76561198202384334,"connected_time":921000000000,"state":"active","ping":35},{"user_id":168,"name":"Bow_","steam_id":76561198109608134,"connected_time":4680000000000,"state":"active","ping":74},{"user_id":218,"name":"DigBickDino","steam_id":76561198249548638,"connected_time":303000000000,"state":"active","ping":110},{"user_id":219,"name":"Smokey","steam_id":76561198071523590,"connected_time":285000000000,"state":"active","ping":105},{"user_id":216,"name":"plsplsplslol","steam_id":76561198868084626,"connected_time":496000000000,"state":"active","ping":130}]},{"server_id":16,"name":"Uncletopia | New York City | 4 | Community","name_short":"nyc-4","host":"nyc-1.us.uncletopia.com","port":27045,"enabled":true,"region":"us-east","cc":"us","latitude":40.73061,"longitude":-73.93524,"reserved":0,"last_update":"0001-01-01T00:00:00Z","name_a2s":"Uncletopia | New York City | 4 | Community","protocol":17,"map":"workshop/koth_ashville_final.ugc2130459942","folder":"tf","game":"Team Fortress","app_id":440,"player_count":16,"max_players":24,"Bots":0,"server_type":"Dedicated","server_os":"Linux","password":true,"vac":true,"version":"7757534","steam_id":85568392924742821,"keywords":["cp","nocrits","nodmgspread","uncletopia"],"game_id":440,"stv_port":27046,"stv_name":"Uncletopia | New York City | 4 | Community | STV","players":[{"user_id":300,"name":"Boysenberry Syrup","steam_id":76561198243582986,"connected_time":869000000000,"state":"active","ping":82},{"user_id":280,"name":"canid","steam_id":76561198103496593,"connected_time":1900000000000,"state":"active","ping":63},{"user_id":305,"name":"DDayFilms","steam_id":76561198352986491,"connected_time":456000000000,"state":"active","ping":90},{"user_id":294,"name":"Amado Sanzu","steam_id":76561198450782299,"connected_time":1294000000000,"state":"active","ping":68},{"user_id":307,"name":"cacadudu","steam_id":76561198099481645,"connected_time":316000000000,"state":"active","ping":30},{"user_id":308,"name":"teaf","steam_id":76561198406252824,"connected_time":281000000000,"state":"active","ping":119},{"user_id":302,"name":"Achtan","steam_id":76561198078189844,"connected_time":820000000000,"state":"active","ping":60},{"user_id":304,"name":"stink sauce","steam_id":76561198012149619,"connected_time":713000000000,"state":"active","ping":57},{"user_id":295,"name":"Conquistador","steam_id":76561198035727932,"connected_time":1253000000000,"state":"active","ping":136},{"user_id":288,"name":"GoosePuffs","steam_id":76561198061834364,"connected_time":1606000000000,"state":"active","ping":55},{"user_id":296,"name":"chair force one","steam_id":76561197997007583,"connected_time":1214000000000,"state":"active","ping":81},{"user_id":289,"name":"Your Amish Brother","steam_id":76561199157161181,"connected_time":1592000000000,"state":"active","ping":82},{"user_id":264,"name":"Super D Duper","steam_id":76561198078203677,"connected_time":3505000000000,"state":"active","ping":53},{"user_id":276,"name":"Chin","steam_id":76561198247426906,"connected_time":2343000000000,"state":"active","ping":62},{"user_id":271,"name":"nnobi","steam_id":76561198878729277,"connected_time":3204000000000,"state":"active","ping":84},{"user_id":272,"name":"sc67","steam_id":76561199302471485,"connected_time":3157000000000,"state":"active","ping":56}]},{"server_id":142,"name":"Uncletopia | S√£o Paulo | 1 | All Maps","name_short":"sao-1","host":"sao-1.br.uncletopia.com","port":27015,"enabled":true,"region":"sa","cc":"br","latitude":-23.533773,"longitude":-46.62529,"reserved":0,"last_update":"0001-01-01T00:00:00Z","name_a2s":"Uncletopia | S√£o Paulo | 1 | All Maps","protocol":17,"map":"koth_highpass","folder":"tf","game":"Team Fortress","app_id":440,"player_count":5,"max_players":24,"Bots":0,"server_type":"Dedicated","server_os":"Linux","password":true,"vac":true,"version":"7757534","steam_id":85568392924469996,"keywords":["cp","nocrits","nodmgspread","uncletopia"],"game_id":440,"stv_port":27016,"stv_name":"Uncletopia | S√£o Paulo | 1 | All Maps | STV","players":[{"user_id":37,"name":"Warframe","steam_id":76561198374969574,"connected_time":420000000000,"state":"active","ping":36},{"user_id":36,"name":"Ninethyed","steam_id":76561198208071575,"connected_time":433000000000,"state":"active","ping":49},{"user_id":38,"name":"Nekixus","steam_id":76561199066863863,"connected_time":325000000000,"state":"active","ping":67},{"user_id":39,"name":"soggy","steam_id":76561198230799540,"connected_time":325000000000,"state":"active","ping":44},{"user_id":40,"name":"Pudding","steam_id":76561198426734034,"connected_time":204000000000,"state":"active","ping":80}]},{"server_id":143,"name":"Uncletopia | S√£o Paulo | 2 | All Maps","name_short":"sao-2","host":"sao-2.br.uncletopia.com","port":27015,"enabled":true,"region":"sa","cc":"br","latitude":-23.533773,"longitude":-46.62529,"reserved":0,"last_update":"0001-01-01T00:00:00Z","name_a2s":"Uncletopia | S√£o Paulo | 2 | All Maps","protocol":17,"map":"koth_viaduct","folder":"tf","game":"Team Fortress","app_id":440,"player_count":0,"max_players":24,"Bots":0,"server_type":"Dedicated","server_os":"Linux","password":true,"vac":true,"version":"7757534","steam_id":85568392924485349,"keywords":["cp","nocrits","nodmgspread","uncletopia"],"game_id":440,"stv_port":27016,"stv_name":"Uncletopia | S√£o Paulo | 2 | All Maps | STV","players":null},{"server_id":7,"name":"Uncletopia | Seattle | 1 | All Maps","name_short":"sea-1","host":"sea-1.us.uncletopia.com","port":27015,"enabled":true,"region":"us-west","cc":"us","latitude":47.608013,"longitude":-122.33517,"reserved":0,"last_update":"0001-01-01T00:00:00Z","name_a2s":"Uncletopia | Seattle | 1 | All Maps","protocol":17,"map":"plr_bananabay","folder":"tf","game":"Team Fortress","app_id":440,"player_count":23,"max_players":24,"Bots":0,"server_type":"Dedicated","server_os":"Linux","password":true,"vac":true,"version":"7757534","steam_id":85568392924469997,"keywords":["nocrits","nodmgspread","payload","uncletopia"],"game_id":440,"stv_port":27016,"stv_name":"Uncletopia | Seattle | 1 | All Maps | STV","players":[{"user_id":610,"name":"TROY","steam_id":76561197983852176,"connected_time":4981000000000,"state":"active","ping":74},{"user_id":623,"name":"purple‚Ñ¢ | they/she","steam_id":76561198057459725,"connected_time":3679000000000,"state":"active","ping":52},{"user_id":641,"name":"thunderous prophet","steam_id":76561198131166135,"connected_time":894000000000,"state":"active","ping":44},{"user_id":657,"name":"Tom Skirrett","steam_id":76561198014600788,"connected_time":445000000000,"state":"active","ping":64},{"user_id":638,"name":"Pooter","steam_id":76561198401068571,"connected_time":1258000000000,"state":"active","ping":68},{"user_id":593,"name":"wet animal","steam_id":76561198041983633,"connected_time":6597000000000,"state":"active","ping":45},{"user_id":594,"name":"MegumiTame","steam_id":76561198450280686,"connected_time":6402000000000,"state":"active","ping":54},{"user_id":658,"name":"Surfing Garchomp","steam_id":76561199107236884,"connected_time":424000000000,"state":"active","ping":66},{"user_id":618,"name":"Lambchop","steam_id":76561198043900363,"connected_time":4346000000000,"state":"active","ping":80},{"user_id":584,"name":"Saikyo","steam_id":76561198212461467,"connected_time":7496000000000,"state":"active","ping":110},{"user_id":655,"name":"Thanks Ants","steam_id":76561197966221018,"connected_time":462000000000,"state":"active","ping":55},{"user_id":654,"name":"ImmuneToPeas","steam_id":76561198342411594,"connected_time":468000000000,"state":"active","ping":63},{"user_id":637,"name":"J U K I E","steam_id":76561197962841151,"connected_time":2216000000000,"state":"active","ping":45},{"user_id":612,"name":"ORANGE","steam_id":76561198000401769,"connected_time":4742000000000,"state":"active","ping":46},{"user_id":661,"name":"V‚àÜlume The 1rd","steam_id":76561198133260990,"connected_time":307000000000,"state":"active","ping":60},{"user_id":659,"name":"Trans Anime Rizz Gaming","steam_id":76561198257541502,"connected_time":412000000000,"state":"active","ping":60},{"user_id":639,"name":"Keamy","steam_id":76561199471434875,"connected_time":1174000000000,"state":"active","ping":43},{"user_id":662,"name":"THENX ATHLETE","steam_id":76561198078626283,"connected_time":152000000000,"state":"active","ping":31},{"user_id":545,"name":"Username","steam_id":76561198855586261,"connected_time":10492000000000,"state":"active","ping":62},{"user_id":640,"name":"smeasly","steam_id":76561198028718812,"connected_time":975000000000,"state":"active","ping":44},{"user_id":644,"name":"Banzailizard","steam_id":76561197986785469,"connected_time":719000000000,"state":"active","ping":71},{"user_id":651,"name":"William P. Ennis","steam_id":76561198073464877,"connected_time":624000000000,"state":"active","ping":90},{"user_id":631,"name":"soup","steam_id":76561198043209046,"connected_time":2754000000000,"state":"active","ping":78}]},{"server_id":119,"name":"Uncletopia | Seattle | 2 | All Maps","name_short":"sea-2","host":"sea-1.us.uncletopia.com","port":27025,"enabled":true,"region":"us-west","cc":"us","latitude":47.608013,"longitude":-122.33517,"reserved":0,"last_update":"0001-01-01T00:00:00Z","name_a2s":"Uncletopia | Seattle | 2 | All Maps","protocol":17,"map":"pl_pier","folder":"tf","game":"Team Fortress","app_id":440,"player_count":24,"max_players":24,"Bots":0,"server_type":"Dedicated","server_os":"Linux","password":true,"vac":true,"version":"7757534","steam_id":85568392924469998,"keywords":["nocrits","nodmgspread","payload","uncletopia"],"game_id":440,"stv_port":27026,"stv_name":"Uncletopia | Seattle | 2 | All Maps | STV","players":[{"user_id":471,"name":"Smile","steam_id":76561198110008786,"connected_time":1215000000000,"state":"active","ping":55},{"user_id":484,"name":"Squigzy_","steam_id":76561198061696667,"connected_time":314000000000,"state":"active","ping":81},{"user_id":454,"name":"RipHunter77","steam_id":76561198272973014,"connected_time":2820000000000,"state":"active","ping":89},{"user_id":463,"name":"Professor Cuthbert Calculus","steam_id":76561198003257461,"connected_time":2540000000000,"state":"active","ping":57},{"user_id":486,"name":"Sniff","steam_id":76561198010270922,"connected_time":210000000000,"state":"active","ping":43},{"user_id":487,"name":"Renota","steam_id":76561198058224488,"connected_time":21000000000,"state":"active","ping":124},{"user_id":458,"name":"viciousbeatmaker","steam_id":76561198086876652,"connected_time":2747000000000,"state":"active","ping":78},{"user_id":459,"name":"JoeJoeJoeBob","steam_id":76561198067236683,"connected_time":2741000000000,"state":"active","ping":55},{"user_id":482,"name":"perc 10","steam_id":76561198116471653,"connected_time":958000000000,"state":"active","ping":99},{"user_id":472,"name":"uufyfuu","steam_id":76561198142787212,"connected_time":1202000000000,"state":"active","ping":64},{"user_id":460,"name":"TricKstA","steam_id":76561197988143298,"connected_time":2737000000000,"state":"active","ping":57},{"user_id":404,"name":"Re-Crix","steam_id":76561198351895601,"connected_time":7744000000000,"state":"active","ping":81},{"user_id":473,"name":"Flowey","steam_id":76561198442304406,"connected_time":1200000000000,"state":"active","ping":51},{"user_id":464,"name":"darktheif54","steam_id":76561198043650119,"connected_time":2530000000000,"state":"active","ping":91},{"user_id":477,"name":"resting neutral face","steam_id":76561197999259502,"connected_time":1167000000000,"state":"active","ping":61},{"user_id":469,"name":"Bubbamanme","steam_id":76561198119778504,"connected_time":1649000000000,"state":"active","ping":56},{"user_id":384,"name":"NickoDeeBz","steam_id":76561198294657867,"connected_time":9859000000000,"state":"active","ping":86},{"user_id":479,"name":"slowdance","steam_id":76561198097427947,"connected_time":1113000000000,"state":"active","ping":126},{"user_id":385,"name":"Alex :D","steam_id":76561198088131563,"connected_time":9631000000000,"state":"active","ping":91},{"user_id":470,"name":"Seriously Bruh","steam_id":76561198070408485,"connected_time":1454000000000,"state":"active","ping":54},{"user_id":474,"name":"reclaim gaming","steam_id":76561198301019618,"connected_time":1199000000000,"state":"active","ping":85},{"user_id":448,"name":"Camohno","steam_id":76561198283519918,"connected_time":4194000000000,"state":"active","ping":77},{"user_id":485,"name":"KellyKapoor","steam_id":76561198040828123,"connected_time":309000000000,"state":"active","ping":49},{"user_id":480,"name":"Rose","steam_id":76561198955581861,"connected_time":1106000000000,"state":"active","ping":76}]},{"server_id":406,"name":"Uncletopia | Seattle | 3 | Stopwatch Beta","name_short":"sea-3","host":"sea-1.us.uncletopia.com","port":27035,"enabled":true,"region":"us-west","cc":"us","latitude":47.608013,"longitude":-122.33517,"reserved":0,"last_update":"0001-01-01T00:00:00Z","name_a2s":"Uncletopia | Seattle | 3 | Stopwatch Beta","protocol":17,"map":"cp_process_final","folder":"tf","game":"Team Fortress","app_id":440,"player_count":24,"max_players":24,"Bots":0,"server_type":"Dedicated","server_os":"Linux","password":true,"vac":true,"version":"7757534","steam_id":85568392924515217,"keywords":["cp","nocrits","nodmgspread","uncletopia"],"game_id":440,"stv_port":27036,"stv_name":"Uncletopia | Seattle | 3 | Stopwatch Beta | STV","players":[{"user_id":113,"name":"moe","steam_id":76561198929586245,"connected_time":718000000000,"state":"active","ping":94},{"user_id":123,"name":"muffinman12126","steam_id":76561199471924109,"connected_time":486000000000,"state":"active","ping":68},{"user_id":133,"name":"MantisToboggan","steam_id":76561197969447887,"connected_time":155000000000,"state":"active","ping":63},{"user_id":135,"name":"OrphanObliterator","steam_id":76561199185087795,"connected_time":6000000000,"state":"spawning","ping":44},{"user_id":130,"name":"CPTforever","steam_id":76561198237767198,"connected_time":302000000000,"state":"active","ping":60},{"user_id":114,"name":"Sugary","steam_id":76561198088267265,"connected_time":663000000000,"state":"active","ping":90},{"user_id":12,"name":"F3RRAL","steam_id":76561198172279275,"connected_time":7529000000000,"state":"active","ping":75},{"user_id":124,"name":"TaeTaeNuna","steam_id":76561199177395010,"connected_time":472000000000,"state":"active","ping":173},{"user_id":132,"name":"Tough Puffin","steam_id":76561198024011010,"connected_time":252000000000,"state":"active","ping":113},{"user_id":116,"name":"Big Jon","steam_id":76561198402285099,"connected_time":659000000000,"state":"active","ping":80},{"user_id":134,"name":"Gary Budussy","steam_id":76561197969793969,"connected_time":125000000000,"state":"active","ping":86},{"user_id":103,"name":"Lonestar827","steam_id":76561198035533639,"connected_time":1699000000000,"state":"active","ping":55},{"user_id":118,"name":"Gull","steam_id":76561198161560332,"connected_time":634000000000,"state":"active","ping":99},{"user_id":125,"name":"blazen","steam_id":76561198921007863,"connected_time":468000000000,"state":"active","ping":83},{"user_id":97,"name":"warm_milk","steam_id":76561198080738653,"connected_time":2042000000000,"state":"active","ping":90},{"user_id":129,"name":"pt","steam_id":76561198143023330,"connected_time":332000000000,"state":"active","ping":78},{"user_id":120,"name":"Deathkillsme","steam_id":76561198059468746,"connected_time":606000000000,"state":"active","ping":39},{"user_id":121,"name":"John Wick's puppy","steam_id":76561198064662875,"connected_time":600000000000,"state":"active","ping":64},{"user_id":126,"name":"Why am I the only person who","steam_id":76561198139634916,"connected_time":442000000000,"state":"active","ping":41},{"user_id":128,"name":"The Cool Man","steam_id":76561198096420556,"connected_time":356000000000,"state":"active","ping":142},{"user_id":110,"name":"mango cafe","steam_id":76561198142328193,"connected_time":1061000000000,"state":"active","ping":49},{"user_id":99,"name":"laggy mcstab","steam_id":76561198106379962,"connected_time":2025000000000,"state":"active","ping":82},{"user_id":112,"name":"KitofKats","steam_id":76561198137242573,"connected_time":1016000000000,"state":"active","ping":53},{"user_id":131,"name":"level 7 firemancer","steam_id":76561198209571677,"connected_time":292000000000,"state":"active","ping":120}]},{"server_id":17,"name":"Uncletopia | San Francisco | 1 | All Maps","name_short":"sfo-1","host":"sfo-1.us.uncletopia.com","port":27015,"enabled":true,"region":"us-west","cc":"us","latitude":37.77397,"longitude":-122.4313,"reserved":0,"last_update":"0001-01-01T00:00:00Z","name_a2s":"Uncletopia | San Francisco | 1 | All Maps","protocol":17,"map":"pl_frontier_final","folder":"tf","game":"Team Fortress","app_id":440,"player_count":24,"max_players":24,"Bots":0,"server_type":"Dedicated","server_os":"Linux","password":true,"vac":true,"version":"7757534","steam_id":85568392924469999,"keywords":["nocrits","nodmgspread","payload","uncletopia"],"game_id":440,"stv_port":27016,"stv_name":"Uncletopia | San Francisco | 1 | All Maps | STV","players":[{"user_id":533,"name":"chrome","steam_id":76561198158053923,"connected_time":1200000000000,"state":"active","ping":56},{"user_id":543,"name":"rE_d0","steam_id":76561198975450630,"connected_time":78000000000,"state":"active","ping":62},{"user_id":510,"name":"sciencenerd42","steam_id":76561198274563320,"connected_time":3209000000000,"state":"active","ping":94},{"user_id":544,"name":"SpringIvan","steam_id":76561199133179509,"connected_time":59000000000,"state":"active","ping":40},{"user_id":545,"name":"Pantaloons","steam_id":76561198073071139,"connected_time":59000000000,"state":"active","ping":81},{"user_id":530,"name":"Wuspoppin'","steam_id":76561199049749557,"connected_time":1378000000000,"state":"active","ping":42},{"user_id":531,"name":"Jack","steam_id":76561199135213338,"connected_time":1343000000000,"state":"active","ping":72},{"user_id":496,"name":"GlizzLord","steam_id":76561198321010427,"connected_time":5303000000000,"state":"active","ping":77},{"user_id":512,"name":"Funkmaster Yee","steam_id":76561198037738918,"connected_time":3193000000000,"state":"active","ping":80},{"user_id":546,"name":"AweStruckEXP","steam_id":76561198820920580,"connected_time":57000000000,"state":"active","ping":80},{"user_id":541,"name":"FlamingManiac","steam_id":76561198361996837,"connected_time":91000000000,"state":"active","ping":128},{"user_id":482,"name":"Amogous Supreme","steam_id":76561198025476774,"connected_time":5907000000000,"state":"active","ping":55},{"user_id":501,"name":"Risky","steam_id":76561198231029328,"connected_time":4878000000000,"state":"active","ping":33},{"user_id":529,"name":"jayden","steam_id":76561198152455865,"connected_time":1612000000000,"state":"active","ping":70},{"user_id":494,"name":"Green_GarBear","steam_id":76561199468912415,"connected_time":5540000000000,"state":"active","ping":48},{"user_id":523,"name":"Dr. X","steam_id":76561198023136484,"connected_time":1701000000000,"state":"active","ping":75},{"user_id":538,"name":"Len","steam_id":76561199141913673,"connected_time":826000000000,"state":"active","ping":46},{"user_id":507,"name":"NE–ØO","steam_id":76561197965450216,"connected_time":4469000000000,"state":"active","ping":84},{"user_id":525,"name":"ryghehn","steam_id":76561198195359229,"connected_time":1678000000000,"state":"active","ping":52},{"user_id":535,"name":"HiphopAfrica","steam_id":76561198048302698,"connected_time":940000000000,"state":"active","ping":77},{"user_id":527,"name":"I Vore Friendlies","steam_id":76561198980062131,"connected_time":1666000000000,"state":"active","ping":120},{"user_id":532,"name":"Day","steam_id":76561198346908503,"connected_time":1321000000000,"state":"active","ping":99},{"user_id":518,"name":"Fart Ass","steam_id":76561198186121682,"connected_time":2786000000000,"state":"active","ping":48},{"user_id":528,"name":"Overmeme","steam_id":76561199455124144,"connected_time":1666000000000,"state":"active","ping":71}]},{"server_id":18,"name":"Uncletopia | San Francisco | 2 | All Maps","name_short":"sfo-2","host":"sfo-1.us.uncletopia.com","port":27025,"enabled":true,"region":"us-west","cc":"us","latitude":37.77397,"longitude":-122.4313,"reserved":0,"last_update":"0001-01-01T00:00:00Z","name_a2s":"Uncletopia | San Francisco | 2 | All Maps","protocol":17,"map":"cp_dustbowl","folder":"tf","game":"Team Fortress","app_id":440,"player_count":23,"max_players":24,"Bots":0,"server_type":"Dedicated","server_os":"Linux","password":true,"vac":true,"version":"7757534","steam_id":85568392924470000,"keywords":["cp","nocrits","nodmgspread","uncletopia"],"game_id":440,"stv_port":27026,"stv_name":"Uncletopia | San Francisco | 2 | All Maps | STV","players":[{"user_id":354,"name":"dax","steam_id":76561198045335319,"connected_time":186000000000,"state":"active","ping":122},{"user_id":299,"name":"the gay pope","steam_id":76561198024988489,"connected_time":5190000000000,"state":"active","ping":45},{"user_id":339,"name":"Johnson, Navin R.","steam_id":76561197961107982,"connected_time":1314000000000,"state":"active","ping":106},{"user_id":351,"name":"Bandicam Recording Software","steam_id":76561199122281764,"connected_time":769000000000,"state":"active","ping":84},{"user_id":329,"name":"Grizzakk","steam_id":76561198115821923,"connected_time":2307000000000,"state":"active","ping":73},{"user_id":345,"name":"SomeRandomBetaFish","steam_id":76561198827731399,"connected_time":1178000000000,"state":"active","ping":81},{"user_id":353,"name":"Rafl","steam_id":76561198055222756,"connected_time":373000000000,"state":"active","ping":76},{"user_id":327,"name":"Chimbeto","steam_id":76561198253764263,"connected_time":2314000000000,"state":"active","ping":154},{"user_id":355,"name":"Witchings","steam_id":76561198247431254,"connected_time":92000000000,"state":"active","ping":108},{"user_id":337,"name":"zzzz","steam_id":76561199413388036,"connected_time":1460000000000,"state":"active","ping":63},{"user_id":297,"name":"Hardline Mike","steam_id":76561197993265034,"connected_time":5238000000000,"state":"active","ping":53},{"user_id":322,"name":"Soup","steam_id":76561198002803602,"connected_time":3276000000000,"state":"active","ping":86},{"user_id":338,"name":"scarecrow (evil)","steam_id":76561198082979347,"connected_time":1415000000000,"state":"active","ping":113},{"user_id":298,"name":"cris","steam_id":76561198048052937,"connected_time":5214000000000,"state":"active","ping":118},{"user_id":340,"name":"mik","steam_id":76561198268948176,"connected_time":1278000000000,"state":"active","ping":74},{"user_id":302,"name":"WeedleDeedle","steam_id":76561198197088079,"connected_time":5094000000000,"state":"active","ping":73},{"user_id":356,"name":"great1photo","steam_id":76561198085481933,"connected_time":88000000000,"state":"active","ping":130},{"user_id":341,"name":"Matthew Grozny","steam_id":76561198019584198,"connected_time":1266000000000,"state":"active","ping":61},{"user_id":343,"name":"Landlord","steam_id":76561198987913057,"connected_time":1228000000000,"state":"active","ping":69},{"user_id":357,"name":"Fuse","steam_id":76561198047018079,"connected_time":76000000000,"state":"active","ping":120},{"user_id":344,"name":"momus","steam_id":76561198966979196,"connected_time":1215000000000,"state":"active","ping":61},{"user_id":296,"name":"Yubi Yubi Yeet!","steam_id":76561197999285373,"connected_time":5316000000000,"state":"active","ping":62},{"user_id":334,"name":"SeeYa4D","steam_id":76561198120941779,"connected_time":1785000000000,"state":"active","ping":53}]},{"server_id":19,"name":"Uncletopia | San Francisco | 3 | Stopwatch Beta","name_short":"sfo-3","host":"sfo-1.us.uncletopia.com","port":27035,"enabled":true,"region":"us-west","cc":"us","latitude":37.77397,"longitude":-122.4313,"reserved":0,"last_update":"0001-01-01T00:00:00Z","name_a2s":"Uncletopia | San Francisco | 3 | Stopwatch Beta","protocol":17,"map":"cp_metalworks","folder":"tf","game":"Team Fortress","app_id":440,"player_count":0,"max_players":24,"Bots":0,"server_type":"Dedicated","server_os":"Linux","password":true,"vac":true,"version":"7757534","steam_id":85568392924742824,"keywords":["cp","nocrits","nodmgspread","uncletopia"],"game_id":440,"stv_port":27036,"stv_name":"Uncletopia | San Francisco | 3 | Stopwatch Beta | STV","players":null},{"server_id":20,"name":"Uncletopia | San Francisco | 4 | Community","name_short":"sfo-4","host":"sfo-1.us.uncletopia.com","port":27045,"enabled":true,"region":"us-west","cc":"us","latitude":37.77397,"longitude":-122.4313,"reserved":0,"last_update":"0001-01-01T00:00:00Z","name_a2s":"Uncletopia | San Francisco | 4 | Community","protocol":17,"map":"workshop/koth_ashville_final.ugc2130459942","folder":"tf","game":"Team Fortress","app_id":440,"player_count":0,"max_players":24,"Bots":0,"server_type":"Dedicated","server_os":"Linux","password":true,"vac":true,"version":"7757534","steam_id":85568392924742826,"keywords":["cp","nocrits","nodmgspread","uncletopia"],"game_id":440,"stv_port":27046,"stv_name":"Uncletopia | San Francisco | 4 | Community | STV","players":null},{"server_id":141,"name":"Uncletopia | Sydney | 1 | All Maps","name_short":"syd-1","host":"syd-1.au.uncletopia.com","port":27015,"enabled":true,"region":"au","cc":"au","latitude":-33.865143,"longitude":151.2099,"reserved":0,"last_update":"0001-01-01T00:00:00Z","name_a2s":"Uncletopia | Sydney | 1 | All Maps","protocol":17,"map":"koth_cascade","folder":"tf","game":"Team Fortress","app_id":440,"player_count":0,"max_players":24,"Bots":0,"server_type":"Dedicated","server_os":"Linux","password":true,"vac":true,"version":"7757534","steam_id":85568392924470001,"keywords":["cp","nocrits","nodmgspread","uncletopia"],"game_id":440,"stv_port":27016,"stv_name":"Uncletopia | Sydney | 1 | All Maps | STV","players":null},{"server_id":123,"name":"Uncletopia | Sydney | 2 | All Maps","name_short":"syd-2","host":"syd-1.au.uncletopia.com","port":27025,"enabled":true,"region":"au","cc":"au","latitude":-33.865143,"longitude":151.2099,"reserved":0,"last_update":"0001-01-01T00:00:00Z","name_a2s":"Uncletopia | Sydney | 2 | All Maps","protocol":17,"map":"pl_hoodoo_final","folder":"tf","game":"Team Fortress","app_id":440,"player_count":22,"max_players":24,"Bots":0,"server_type":"Dedicated","server_os":"Linux","password":true,"vac":true,"version":"7757534","steam_id":85568392924470002,"keywords":["nocrits","nodmgspread","payload","uncletopia"],"game_id":440,"stv_port":27026,"stv_name":"Uncletopia | Sydney | 2 | All Maps | STV","players":[{"user_id":93,"name":"Jodelk√∂nig Franzl Lang","steam_id":76561198007667830,"connected_time":815000000000,"state":"active","ping":54},{"user_id":84,"name":"kisses you","steam_id":76561198288970258,"connected_time":1045000000000,"state":"active","ping":54},{"user_id":49,"name":"Rashid Of The Dank Memes","steam_id":76561198281398078,"connected_time":3352000000000,"state":"active","ping":52},{"user_id":57,"name":"lavanderpumpernickle","steam_id":76561199093611800,"connected_time":2840000000000,"state":"active","ping":48},{"user_id":103,"name":"juusha","steam_id":76561198911542330,"connected_time":34000000000,"state":"active","ping":76},{"user_id":70,"name":"Bamooxa","steam_id":76561198067160709,"connected_time":2450000000000,"state":"active","ping":83},{"user_id":92,"name":"Shiki Eiki Yamaxanadu","steam_id":76561198095744048,"connected_time":907000000000,"state":"active","ping":98},{"user_id":54,"name":"Sentry Gun (EpicGuy4227)","steam_id":76561198094132328,"connected_time":3058000000000,"state":"active","ping":44},{"user_id":86,"name":"Atner","steam_id":76561198442934454,"connected_time":1031000000000,"state":"active","ping":88},{"user_id":98,"name":"aliltruk¬≤....","steam_id":76561198016565272,"connected_time":592000000000,"state":"active","ping":59},{"user_id":38,"name":"Zieria","steam_id":76561199261811388,"connected_time":4126000000000,"state":"active","ping":41},{"user_id":39,"name":"itsjustmarvin77","steam_id":76561199375656301,"connected_time":4097000000000,"state":"active","ping":74},{"user_id":91,"name":"Marzell","steam_id":76561198151276153,"connected_time":929000000000,"state":"active","ping":91},{"user_id":43,"name":"Random Cluster Missile -BvM-","steam_id":76561198086192598,"connected_time":3873000000000,"state":"active","ping":84},{"user_id":104,"name":"WillieMakit","steam_id":76561197985391684,"connected_time":19000000000,"state":"active","ping":217},{"user_id":94,"name":"Lord Oink","steam_id":76561198125237921,"connected_time":753000000000,"state":"active","ping":39},{"user_id":47,"name":"thrax","steam_id":76561197992385270,"connected_time":3597000000000,"state":"active","ping":52},{"user_id":102,"name":"fig","steam_id":76561198097964297,"connected_time":384000000000,"state":"active","ping":54},{"user_id":60,"name":"TwilightJericho","steam_id":76561198044875117,"connected_time":2761000000000,"state":"active","ping":74},{"user_id":96,"name":"Owlenstein‚Ñ¢","steam_id":76561198093983826,"connected_time":700000000000,"state":"active","ping":118},{"user_id":81,"name":"soupy","steam_id":76561198073734936,"connected_time":1845000000000,"state":"active","ping":87},{"user_id":80,"name":"Celph","steam_id":76561197993987500,"connected_time":2132000000000,"state":"active","ping":45}]},{"server_id":395,"name":"Uncletopia | Sydney | 3 | All Maps","name_short":"syd-3","host":"syd-1.au.uncletopia.com","port":27035,"enabled":true,"region":"au","cc":"au","latitude":-33.865143,"longitude":151.2099,"reserved":0,"last_update":"0001-01-01T00:00:00Z","name_a2s":"Uncletopia | Sydney | 3 | All Maps","protocol":17,"map":"pl_swiftwater_final1","folder":"tf","game":"Team Fortress","app_id":440,"player_count":0,"max_players":24,"Bots":0,"server_type":"Dedicated","server_os":"Linux","password":true,"vac":true,"version":"7757534","steam_id":85568392925194467,"keywords":["nocrits","nodmgspread","payload","uncletopia"],"game_id":440,"stv_port":27036,"stv_name":"Uncletopia | Sydney | 3 | All Maps | STV","players":null},{"server_id":396,"name":"Uncletopia | Sydney | 4 | All Maps","name_short":"syd-4","host":"syd-1.au.uncletopia.com","port":27045,"enabled":true,"region":"au","cc":"au","latitude":-33.865143,"longitude":151.2099,"reserved":0,"last_update":"0001-01-01T00:00:00Z","name_a2s":"Uncletopia | Sydney | 4 | All Maps","protocol":17,"map":"koth_highpass","folder":"tf","game":"Team Fortress","app_id":440,"player_count":0,"max_players":24,"Bots":0,"server_type":"Dedicated","server_os":"Linux","password":true,"vac":true,"version":"7757534","steam_id":85568392925397958,"keywords":["cp","nocrits","nodmgspread","uncletopia"],"game_id":440,"stv_port":27046,"stv_name":"Uncletopia | Sydney | 4 | All Maps | STV","players":null},{"server_id":58,"name":"Uncletopia | Sydney | 5 | Stopwatch Beta","name_short":"syd-5","host":"syd-1.au.uncletopia.com","port":27055,"enabled":true,"region":"au","cc":"au","latitude":-33.865143,"longitude":151.2099,"reserved":0,"last_update":"0001-01-01T00:00:00Z","name_a2s":"Uncletopia | Sydney | 5 | Stopwatch Beta","protocol":17,"map":"koth_cascade","folder":"tf","game":"Team Fortress","app_id":440,"player_count":0,"max_players":24,"Bots":0,"server_type":"Dedicated","server_os":"Linux","password":true,"vac":true,"version":"7757534","steam_id":85568392925397959,"keywords":["cp","nocrits","nodmgspread","uncletopia"],"game_id":440,"stv_port":27056,"stv_name":"Uncletopia | Sydney | 5 | Stopwatch Beta | STV","players":null},{"server_id":59,"name":"Uncletopia | Sydney | 6 | Community","name_short":"syd-6","host":"syd-1.au.uncletopia.com","port":27065,"enabled":true,"region":"au","cc":"au","latitude":-33.865143,"longitude":151.2099,"reserved":0,"last_update":"0001-01-01T00:00:00Z","name_a2s":"Uncletopia | Sydney | 6 | Community","protocol":17,"map":"workshop/pl_vigil_rc9.ugc1266210012","folder":"tf","game":"Team Fortress","app_id":440,"player_count":0,"max_players":24,"Bots":0,"server_type":"Dedicated","server_os":"Linux","password":true,"vac":true,"version":"7757534","steam_id":85568392925397960,"keywords":["nocrits","nodmgspread","payload","uncletopia"],"game_id":440,"stv_port":27066,"stv_name":"Uncletopia | Sydney | 6 | Community | STV","players":null},{"server_id":49,"name":"Uncletopia | Warsaw | 1 | All Maps","name_short":"waw-1","host":"waw-1.pl.uncletopia.com","port":27015,"enabled":true,"region":"eu","cc":"pl","latitude":52.2297,"longitude":21.017532,"reserved":0,"last_update":"0001-01-01T00:00:00Z","name_a2s":"","protocol":0,"map":"","folder":"","game":"","app_id":0,"player_count":0,"max_players":0,"Bots":0,"server_type":"","server_os":"","password":false,"vac":false,"version":"","steam_id":0,"keywords":null,"game_id":0,"stv_port":0,"stv_name":"","players":null},{"server_id":50,"name":"Uncletopia | Warsaw | 2 | All Maps","name_short":"waw-2","host":"waw-1.pl.uncletopia.com","port":27025,"enabled":true,"region":"eu","cc":"pl","latitude":52.2297,"longitude":21.017532,"reserved":0,"last_update":"0001-01-01T00:00:00Z","name_a2s":"Uncletopia | Warsaw | 2 | All Maps","protocol":17,"map":"koth_viaduct","folder":"tf","game":"Team Fortress","app_id":440,"player_count":0,"max_players":24,"Bots":0,"server_type":"Dedicated","server_os":"Linux","password":true,"vac":true,"version":"7757534","steam_id":85568392925397851,"keywords":["cp","nocrits","nodmgspread","uncletopia"],"game_id":440,"stv_port":27026,"stv_name":"Uncletopia | Warsaw | 2 | All Maps | STV","players":null},{"server_id":51,"name":"Uncletopia | Warsaw | 3 | All Maps","name_short":"waw-3","host":"waw-1.pl.uncletopia.com","port":27035,"enabled":true,"region":"eu","cc":"pl","latitude":52.2297,"longitude":21.017532,"reserved":0,"last_update":"0001-01-01T00:00:00Z","name_a2s":"Uncletopia | Warsaw | 3 | All Maps","protocol":17,"map":"pl_swiftwater_final1","folder":"tf","game":"Team Fortress","app_id":440,"player_count":0,"max_players":24,"Bots":0,"server_type":"Dedicated","server_os":"Linux","password":true,"vac":true,"version":"7757534","steam_id":85568392925397852,"keywords":["nocrits","nodmgspread","payload","uncletopia"],"game_id":440,"stv_port":27036,"stv_name":"Uncletopia | Warsaw | 3 | All Maps | STV","players":null},{"server_id":52,"name":"Uncletopia | Warsaw | 4 | All Maps","name_short":"waw-4","host":"waw-1.pl.uncletopia.com","port":27045,"enabled":true,"region":"eu","cc":"pl","latitude":52.2297,"longitude":21.017532,"reserved":0,"last_update":"0001-01-01T00:00:00Z","name_a2s":"Uncletopia | Warsaw | 4 | All Maps","protocol":17,"map":"koth_lakeside_final","folder":"tf","game":"Team Fortress","app_id":440,"player_count":0,"max_players":24,"Bots":0,"server_type":"Dedicated","server_os":"Linux","password":true,"vac":true,"version":"7757534","steam_id":85568392925397853,"keywords":["cp","nocrits","nodmgspread","uncletopia"],"game_id":440,"stv_port":27046,"stv_name":"Uncletopia | Warsaw | 4 | All Maps | STV","players":null},{"server_id":53,"name":"Uncletopia | Warsaw | 5 | Stopwatch Beta","name_short":"waw-5","host":"waw-1.pl.uncletopia.com","port":27055,"enabled":true,"region":"eu","cc":"pl","latitude":52.2297,"longitude":21.017532,"reserved":0,"last_update":"0001-01-01T00:00:00Z","name_a2s":"Uncletopia | Warsaw | 5 | Stopwatch Beta","protocol":17,"map":"pl_borneo","folder":"tf","game":"Team Fortress","app_id":440,"player_count":0,"max_players":24,"Bots":0,"server_type":"Dedicated","server_os":"Linux","password":true,"vac":true,"version":"7757534","steam_id":85568392925397854,"keywords":["nocrits","nodmgspread","payload","uncletopia"],"game_id":440,"stv_port":27056,"stv_name":"Uncletopia | Warsaw | 5 | Stopwatch Beta | STV","players":null},{"server_id":54,"name":"Uncletopia | Warsaw | 6 | Community","name_short":"waw-6","host":"waw-1.pl.uncletopia.com","port":27065,"enabled":true,"region":"eu","cc":"pl","latitude":52.2297,"longitude":21.017532,"reserved":0,"last_update":"0001-01-01T00:00:00Z","name_a2s":"Uncletopia | Warsaw | 6 | Community","protocol":17,"map":"koth_lakeside_final","folder":"tf","game":"Team Fortress","app_id":440,"player_count":0,"max_players":24,"Bots":0,"server_type":"Dedicated","server_os":"Linux","password":true,"vac":true,"version":"7757534","steam_id":85568392925397856,"keywords":["cp","nocrits","nodmgspread","uncletopia"],"game_id":440,"stv_port":27066,"stv_name":"Uncletopia | Warsaw | 6 | Community | STV","players":null}]}