{"status":true,"message":"","result":[{"server_id":9,"name":"Uncletopia | Atlanta | 1 | All Maps","name_short":"atl-1","host":"atl-1.us.uncletopia.com","port":27015,"enabled":true,"region":"us-east","cc":"us","latitude":33.753746,"longitude":-84.38633,"reserved":0,"last_update":"0001-01-01T00:00:00Z","name_a2s":"Uncletopia | Atlanta | 1 | All Maps","protocol":17,"map":"pl_hoodoo_final","folder":"tf","game":"Team Fortress","app_id":440,"player_count":24,"max_players":24,"Bots":0,"server_type":"Dedicated","server_os":"Linux","password":true,"vac":true,"version":"7723704","steam_id":85568392924469982,"keywords":["nocrits","nodmgspread","payload","uncletopia"],"game_id":440,"stv_port":27016,"stv_name":"Uncletopia | Atlanta | 1 | All Maps | STV","players":[{"user_id":614,"name":"Bali","steam_id":76561198038693845,"connected_time":2099000000000,"state":"active","ping":95},{"user_id":615,"name":"Spiral Mountain","steam_id":76561198058683715,"connected_time":1974000000000,"state":"active","ping":75},{"user_id":617,"name":"mr.edderkopper","steam_id":76561198152614478,"connected_time":1934000000000,"state":"active","ping":98},{"user_id":642,"name":"big poo :)","steam_id":76561198397009880,"connected_time":836000000000,"state":"active","ping":48},{"user_id":618,"name":"World's WORST Gunspy","steam_id":76561199174579733,"connected_time":1844000000000,"state":"active","ping":71},{"user_id":634,"name":"CM32MAker","steam_id":76561199157487382,"connected_time":1464000000000,"state":"active","ping":73},{"user_id":640,"name":"Thom","steam_id":76561199124355248,"connected_time":920000000000,"state":"active","ping":82},{"user_id":641,"name":"Not so Festive Festive Hitman","steam_id":76561199045961412,"connected_time":863000000000,"state":"active","ping":108},{"user_id":645,"name":"reis","steam_id":76561199232952016,"connected_time":806000000000,"state":"active","ping":172},{"user_id":621,"name":"blibulon","steam_id":76561198370642854,"connected_time":1787000000000,"state":"active","ping":88},{"user_id":644,"name":"Wool ‚ô™","steam_id":76561198332704108,"connected_time":826000000000,"state":"active","ping":72},{"user_id":646,"name":"Flint_","steam_id":76561198043192149,"connected_time":684000000000,"state":"active","ping":76},{"user_id":622,"name":"_DrunkenGibberish_","steam_id":76561199123070071,"connected_time":1784000000000,"state":"active","ping":126},{"user_id":623,"name":"Couriadore","steam_id":76561198055814008,"connected_time":1779000000000,"state":"active","ping":65},{"user_id":649,"name":"Croissant Guy","steam_id":76561198077719901,"connected_time":442000000000,"state":"active","ping":85},{"user_id":651,"name":"GiraffeMan","steam_id":76561198042104084,"connected_time":22000000000,"state":"active","ping":83},{"user_id":504,"name":"Garrett","steam_id":76561198008467099,"connected_time":10389000000000,"state":"active","ping":65},{"user_id":639,"name":"Madrox Who?","steam_id":76561197988859134,"connected_time":1133000000000,"state":"active","ping":98},{"user_id":650,"name":"PringleBird34","steam_id":76561198044507060,"connected_time":431000000000,"state":"active","ping":89},{"user_id":575,"name":"WitheringLeo","steam_id":76561198046722918,"connected_time":4060000000000,"state":"active","ping":67},{"user_id":604,"name":"nibbaiffyuh","steam_id":76561198109499986,"connected_time":2577000000000,"state":"active","ping":103},{"user_id":626,"name":"Timbs!!","steam_id":76561198156215344,"connected_time":1757000000000,"state":"active","ping":75},{"user_id":648,"name":"Air Fryer - $39.99 (4 Payments)","steam_id":76561198043572048,"connected_time":611000000000,"state":"active","ping":88},{"user_id":631,"name":"Le Bon Toutou","steam_id":76561198300902712,"connected_time":1639000000000,"state":"active","ping":163}]},{"server_id":400,"name":"Uncletopia | Atlanta | 3 | All Maps","name_short":"atl-3","host":"atl-1.us.uncletopia.com","port":27035,"enabled":true,"region":"us-east","cc":"us","latitude":33.753746,"longitude":-84.38633,"reserved":0,"last_update":"0001-01-01T00:00:00Z","name_a2s":"Uncletopia | Atlanta | 3 | All Maps","protocol":17,"map":"pl_pier","folder":"tf","game":"Team Fortress","app_id":440,"player_count":0,"max_players":24,"Bots":0,"server_type":"Dedicated","server_os":"Linux","password":true,"vac":true,"version":"7723704","steam_id":85568392924515187,"keywords":["nocrits","nodmgspread","payload","uncletopia"],"game_id":440,"stv_port":27036,"stv_name":"Uncletopia | Atlanta | 3 | All Maps | STV","players":null},{"server_id":401,"name":"Uncletopia | Atlanta | 4 | No Payload","name_short":"atl-4","host":"atl-1.us.uncletopia.com","port":27045,"enabled":true,"region":"us-east","cc":"us","latitude":33.753746,"longitude":-84.38633,"reserved":0,"last_update":"0001-01-01T00:00:00Z","name_a2s":"Uncletopia | Atlanta | 4 | No Payload","protocol":17,"map":"cp_sunshine","folder":"tf","game":"Team Fortress","app_id":440,"player_count":0,"max_players":24,"Bots":0,"server_type":"Dedicated","server_os":"Linux","password":true,"vac":true,"version":"7723704","steam_id":85568392924515188,"keywords":["cp","nocrits","nodmgspread","uncletopia"],"game_id":440,"stv_port":27046,"stv_name":"Uncletopia | Atlanta | 4 | No Payload | STV","players":null},{"server_id":2,"name":"Uncletopia | Chicago | 1 | All Maps","name_short":"chi-1","host":"chi-1.us.uncletopia.com","port":27015,"enabled":true,"region":"us-central","cc":"us","latitude":41.881832,"longitude":-87.62318,"reserved":0,"last_update":"0001-01-01T00:00:00Z","name_a2s":"Uncletopia | Chicago | 1 | All Maps","protocol":17,"map":"pl_barnblitz","folder":"tf","game":"Team Fortress","app_id":440,"player_count":24,"max_players":24,"Bots":0,"server_type":"Dedicated","server_os":"Linux","password":true,"vac":true,"version":"7723704","steam_id":85568392924469984,"keywords":["nocrits","nodmgspread","payload","uncletopia"],"game_id":440,"stv_port":27016,"stv_name":"Uncletopia | Chicago | 1 | All Maps | STV","players":[{"user_id":750,"name":"alligator fuckhouse","steam_id":76561198119178364,"connected_time":3403000000000,"state":"active","ping":72},{"user_id":782,"name":"pelicAn","steam_id":76561197963422599,"connected_time":617000000000,"state":"active","ping":65},{"user_id":791,"name":"VOID","steam_id":76561198107501413,"connected_time":433000000000,"state":"active","ping":53},{"user_id":783,"name":"2EggsScrambled","steam_id":76561198052364159,"connected_time":603000000000,"state":"active","ping":98},{"user_id":776,"name":"gonk","steam_id":76561198061206732,"connected_time":831000000000,"state":"active","ping":82},{"user_id":777,"name":"River Rat","steam_id":76561198116383976,"connected_time":816000000000,"state":"active","ping":110},{"user_id":778,"name":"„ÄéHazon„Äè","steam_id":76561198119852107,"connected_time":808000000000,"state":"active","ping":65},{"user_id":779,"name":"Demonfax04","steam_id":76561198243551652,"connected_time":806000000000,"state":"active","ping":102},{"user_id":780,"name":"josh","steam_id":76561198111565081,"connected_time":789000000000,"state":"active","ping":112},{"user_id":765,"name":"a crazy hobo","steam_id":76561198289650060,"connected_time":2071000000000,"state":"active","ping":77},{"user_id":735,"name":"Gamut","steam_id":76561199185822800,"connected_time":4571000000000,"state":"active","ping":76},{"user_id":740,"name":"n8thegr83008","steam_id":76561198214814260,"connected_time":4341000000000,"state":"active","ping":76},{"user_id":784,"name":"q!k.glodfyeehs","steam_id":76561198086008437,"connected_time":583000000000,"state":"active","ping":74},{"user_id":766,"name":"fice (autumnheals)","steam_id":76561198860361610,"connected_time":2068000000000,"state":"active","ping":67},{"user_id":785,"name":"That Dude","steam_id":76561198980486227,"connected_time":551000000000,"state":"active","ping":113},{"user_id":786,"name":"goose","steam_id":76561198015445848,"connected_time":550000000000,"state":"active","ping":61},{"user_id":761,"name":"Pete","steam_id":76561198070499160,"connected_time":2594000000000,"state":"active","ping":51},{"user_id":787,"name":"Female Gamer","steam_id":76561199366482682,"connected_time":548000000000,"state":"active","ping":94},{"user_id":788,"name":"Miner2495","steam_id":76561198445904523,"connected_time":525000000000,"state":"active","ping":61},{"user_id":789,"name":".BL14","steam_id":76561198374604922,"connected_time":498000000000,"state":"active","ping":61},{"user_id":758,"name":"Sovulous","steam_id":76561198045389233,"connected_time":2734000000000,"state":"active","ping":63},{"user_id":790,"name":"Challenger Charles","steam_id":76561198005576553,"connected_time":469000000000,"state":"active","ping":79},{"user_id":747,"name":"Wug","steam_id":76561198084112264,"connected_time":3756000000000,"state":"active","ping":75},{"user_id":769,"name":"Listify","steam_id":76561198315688753,"connected_time":1945000000000,"state":"active","ping":75}]},{"server_id":106,"name":"Uncletopia | Chicago | 2 | All Maps","name_short":"chi-2","host":"chi-1.us.uncletopia.com","port":27025,"enabled":true,"region":"us-central","cc":"us","latitude":41.881832,"longitude":-87.62318,"reserved":0,"last_update":"0001-01-01T00:00:00Z","name_a2s":"Uncletopia | Chicago | 2 | All Maps","protocol":17,"map":"pl_goldrush","folder":"tf","game":"Team Fortress","app_id":440,"player_count":23,"max_players":24,"Bots":0,"server_type":"Dedicated","server_os":"Linux","password":true,"vac":true,"version":"7723704","steam_id":85568392924469985,"keywords":["nocrits","nodmgspread","payload","uncletopia"],"game_id":440,"stv_port":27026,"stv_name":"Uncletopia | Chicago | 2 | All Maps | STV","players":[{"user_id":594,"name":"Indigolake","steam_id":76561198202215807,"connected_time":287000000000,"state":"active","ping":83},{"user_id":590,"name":"Majestic-A","steam_id":76561198988062101,"connected_time":558000000000,"state":"active","ping":91},{"user_id":535,"name":"Dill","steam_id":76561197985091914,"connected_time":4321000000000,"state":"active","ping":62},{"user_id":581,"name":"Ephialtes","steam_id":76561198962981214,"connected_time":1094000000000,"state":"active","ping":67},{"user_id":580,"name":"Alfonso Molestro","steam_id":76561197998677099,"connected_time":1307000000000,"state":"active","ping":74},{"user_id":591,"name":"Brunch","steam_id":76561198045933938,"connected_time":337000000000,"state":"active","ping":57},{"user_id":571,"name":"Diamondback145","steam_id":76561198298236046,"connected_time":1859000000000,"state":"active","ping":79},{"user_id":597,"name":"0r161n4lj0k3","steam_id":76561198127328235,"connected_time":218000000000,"state":"active","ping":107},{"user_id":584,"name":"Michaelpc1","steam_id":76561198088365519,"connected_time":1018000000000,"state":"active","ping":75},{"user_id":582,"name":"Cleric.UTC.TF2","steam_id":76561198045887994,"connected_time":1089000000000,"state":"active","ping":45},{"user_id":586,"name":"stop","steam_id":76561198268686419,"connected_time":749000000000,"state":"active","ping":86},{"user_id":593,"name":"Anxiety","steam_id":76561198365627687,"connected_time":295000000000,"state":"active","ping":107},{"user_id":595,"name":"Curdledwizard","steam_id":76561198020051289,"connected_time":233000000000,"state":"active","ping":68},{"user_id":482,"name":"Jimmy","steam_id":76561197970838363,"connected_time":7473000000000,"state":"active","ping":72},{"user_id":589,"name":"ChipperGunslinger","steam_id":76561199100483140,"connected_time":596000000000,"state":"active","ping":83},{"user_id":538,"name":"Gabagool","steam_id":76561198365935179,"connected_time":4088000000000,"state":"active","ping":76},{"user_id":596,"name":"lemon","steam_id":76561198085571748,"connected_time":233000000000,"state":"active","ping":60},{"user_id":564,"name":"√íw√ì","steam_id":76561197997304387,"connected_time":2190000000000,"state":"active","ping":67},{"user_id":572,"name":"hashmap","steam_id":76561198043794014,"connected_time":1836000000000,"state":"active","ping":48},{"user_id":550,"name":"King Koala","steam_id":76561198004429020,"connected_time":3102000000000,"state":"active","ping":76},{"user_id":578,"name":"T.w¬≤ | Sliced Bread","steam_id":76561198128489595,"connected_time":1568000000000,"state":"active","ping":75},{"user_id":548,"name":"summertime sadness","steam_id":76561198063313115,"connected_time":3463000000000,"state":"active","ping":60},{"user_id":583,"name":"Koi","steam_id":76561198104801287,"connected_time":1088000000000,"state":"active","ping":86}]},{"server_id":402,"name":"Uncletopia | Chicago | 3 | All Maps","name_short":"chi-3","host":"chi-1.us.uncletopia.com","port":27035,"enabled":true,"region":"us-central","cc":"us","latitude":41.881832,"longitude":-87.62318,"reserved":0,"last_update":"0001-01-01T00:00:00Z","name_a2s":"Uncletopia | Chicago | 3 | All Maps","protocol":17,"map":"pl_swiftwater_final1","folder":"tf","game":"Team Fortress","app_id":440,"player_count":24,"max_players":24,"Bots":0,"server_type":"Dedicated","server_os":"Linux","password":true,"vac":true,"version":"7723704","steam_id":85568392924515191,"keywords":["nocrits","nodmgspread","payload","uncletopia"],"game_id":440,"stv_port":27036,"stv_name":"Uncletopia | Chicago | 3 | All Maps | STV","players":[{"user_id":102,"name":"Womanwer","steam_id":76561198194760222,"connected_time":1155000000000,"state":"active","ping":86},{"user_id":72,"name":"swift","steam_id":76561198190461447,"connected_time":4242000000000,"state":"active","ping":49},{"user_id":70,"name":"bubbie","steam_id":76561198860460013,"connected_time":4447000000000,"state":"active","ping":85},{"user_id":103,"name":"Lukewarm","steam_id":76561198354626554,"connected_time":1107000000000,"state":"active","ping":113},{"user_id":98,"name":"Blorgus_J_Blart","steam_id":76561198430926135,"connected_time":1931000000000,"state":"active","ping":79},{"user_id":109,"name":"SwineFlu","steam_id":76561197989014109,"connected_time":757000000000,"state":"active","ping":113},{"user_id":110,"name":"stoppen","steam_id":76561197960281482,"connected_time":690000000000,"state":"active","ping":147},{"user_id":111,"name":"Epifiny","steam_id":76561198027958086,"connected_time":570000000000,"state":"active","ping":53},{"user_id":37,"name":"Chip","steam_id":76561198182205245,"connected_time":8025000000000,"state":"active","ping":59},{"user_id":112,"name":"felinae","steam_id":76561198085308417,"connected_time":564000000000,"state":"active","ping":91},{"user_id":105,"name":"saywhat_","steam_id":76561198088191503,"connected_time":1044000000000,"state":"active","ping":63},{"user_id":74,"name":"Incredible Donk","steam_id":76561198427360423,"connected_time":4211000000000,"state":"active","ping":112},{"user_id":95,"name":"Bruce Leeroy","steam_id":76561198010708247,"connected_time":2094000000000,"state":"active","ping":64},{"user_id":113,"name":"lukamine","steam_id":76561198166827208,"connected_time":563000000000,"state":"active","ping":101},{"user_id":101,"name":"Kipernicus","steam_id":76561197998180212,"connected_time":1660000000000,"state":"active","ping":46},{"user_id":116,"name":"Moth Beam","steam_id":76561198005069202,"connected_time":116000000000,"state":"active","ping":73},{"user_id":97,"name":"Uncle","steam_id":76561197988647705,"connected_time":2079000000000,"state":"active","ping":63},{"user_id":117,"name":"Fillmore From Cars","steam_id":76561198175511286,"connected_time":113000000000,"state":"active","ping":86},{"user_id":77,"name":"stuporvillian","steam_id":76561198083796225,"connected_time":4179000000000,"state":"active","ping":63},{"user_id":68,"name":"kira","steam_id":76561198277979851,"connected_time":4532000000000,"state":"active","ping":90},{"user_id":78,"name":"valtiel","steam_id":76561198165212575,"connected_time":4152000000000,"state":"active","ping":74},{"user_id":106,"name":"CowTipper","steam_id":76561198068024343,"connected_time":847000000000,"state":"active","ping":63},{"user_id":118,"name":"exotic reindeers","steam_id":76561199046490785,"connected_time":87000000000,"state":"active","ping":71},{"user_id":114,"name":"Your childhood","steam_id":76561198799385466,"connected_time":562000000000,"state":"active","ping":48}]},{"server_id":403,"name":"Uncletopia | Chicago | 4 | All Maps","name_short":"chi-4","host":"chi-1.us.uncletopia.com","port":27045,"enabled":true,"region":"us-central","cc":"us","latitude":41.881832,"longitude":-87.62318,"reserved":0,"last_update":"0001-01-01T00:00:00Z","name_a2s":"Uncletopia | Chicago | 4 | All Maps","protocol":17,"map":"cp_metalworks","folder":"tf","game":"Team Fortress","app_id":440,"player_count":0,"max_players":24,"Bots":0,"server_type":"Dedicated","server_os":"Linux","password":true,"vac":true,"version":"7723704","steam_id":85568392924515193,"keywords":["cp","nocrits","nodmgspread","uncletopia"],"game_id":440,"stv_port":27046,"stv_name":"Uncletopia | Chicago | 4 | All Maps | STV","players":null},{"server_id":36,"name":"Uncletopia | Chicago | 5 | All Maps","name_short":"chi-5","host":"chi-2.us.uncletopia.com","port":27015,"enabled":true,"region":"us-central","cc":"us","latitude":41.881832,"longitude":-87.62318,"reserved":0,"last_update":"0001-01-01T00:00:00Z","name_a2s":"Uncletopia | Chicago | 5 | All Maps","protocol":17,"map":"koth_viaduct","folder":"tf","game":"Team Fortress","app_id":440,"player_count":0,"max_players":24,"Bots":0,"server_type":"Dedicated","server_os":"Linux","password":true,"vac":true,"version":"7723704","steam_id":85568392924866362,"keywords":["cp","nocrits","nodmgspread","uncletopia"],"game_id":440,"stv_port":27016,"stv_name":"Uncletopia | Chicago | 5 | All Maps | STV","players":null},{"server_id":37,"name":"Uncletopia | Chicago | 6 | All Maps","name_short":"chi-6","host":"chi-2.us.uncletopia.com","port":27025,"enabled":true,"region":"us-central","cc":"us","latitude":41.881832,"longitude":-87.62318,"reserved":0,"last_update":"0001-01-01T00:00:00Z","name_a2s":"Uncletopia | Chicago | 6 | All Maps","protocol":17,"map":"cp_snakewater_final1","folder":"tf","game":"Team Fortress","app_id":440,"player_count":0,"max_players":24,"Bots":0,"server_type":"Dedicated","server_os":"Linux","password":true,"vac":true,"version":"7723704","steam_id":85568392924866363,"keywords":["cp","nocrits","nodmgspread","uncletopia"],"game_id":440,"stv_port":27026,"stv_name":"Uncletopia | Chicago | 6 | All Maps | STV","players":null},{"server_id":38,"name":"Uncletopia | Chicago | 7 | No Payload","name_short":"chi-7","host":"chi-2.us.uncletopia.com","port":27035,"enabled":true,"region":"us-central","cc":"us","latitude":41.881832,"longitude":-87.62318,"reserved":0,"last_update":"0001-01-01T00:00:00Z","name_a2s":"","protocol":0,"map":"","folder":"","game":"","app_id":0,"player_count":0,"max_players":0,"Bots":0,"server_type":"","server_os":"","password":false,"vac":false,"version":"","steam_id":0,"keywords":null,"game_id":0,"stv_port":0,"stv_name":"","players":null},{"server_id":39,"name":"Uncletopia | Chicago | 8 | Community","name_short":"chi-8","host":"chi-2.us.uncletopia.com","port":27045,"enabled":true,"region":"us-central","cc":"us","latitude":41.881832,"longitude":-87.62318,"reserved":0,"last_update":"0001-01-01T00:00:00Z","name_a2s":"Uncletopia | Chicago | 8 | Community","protocol":17,"map":"workshop/cp_logjam_rc12.ugc454812035","folder":"tf","game":"Team Fortress","app_id":440,"player_count":24,"max_players":24,"Bots":0,"server_type":"Dedicated","server_os":"Linux","password":true,"vac":true,"version":"7723704","steam_id":85568392924866365,"keywords":["cp","nocrits","nodmgspread","uncletopia"],"game_id":440,"stv_port":27046,"stv_name":"Uncletopia | Chicago | 8 | Community | STV","players":[{"user_id":294,"name":"Sabaman55","steam_id":76561198212267979,"connected_time":45000000000,"state":"active","ping":60},{"user_id":287,"name":"Kezner","steam_id":76561198993951071,"connected_time":444000000000,"state":"active","ping":69},{"user_id":211,"name":"Killroy NQP ‚ù§","steam_id":76561198006983771,"connected_time":6511000000000,"state":"active","ping":75},{"user_id":272,"name":"Spicy Within Reason","steam_id":76561198066700370,"connected_time":1751000000000,"state":"active","ping":94},{"user_id":279,"name":"yari","steam_id":76561198154183700,"connected_time":1158000000000,"state":"active","ping":47},{"user_id":277,"name":"Mr.Dies a lot","steam_id":76561199061602946,"connected_time":1289000000000,"state":"active","ping":172},{"user_id":254,"name":"fooders","steam_id":76561198047887543,"connected_time":3349000000000,"state":"active","ping":68},{"user_id":278,"name":"Dave (real)","steam_id":76561198198317378,"connected_time":1278000000000,"state":"active","ping":43},{"user_id":250,"name":"nik","steam_id":76561198210482280,"connected_time":3549000000000,"state":"active","ping":154},{"user_id":282,"name":"pathulhu","steam_id":76561198323941614,"connected_time":553000000000,"state":"active","ping":73},{"user_id":280,"name":"GUACANO","steam_id":76561198797828475,"connected_time":903000000000,"state":"active","ping":98},{"user_id":281,"name":"Blaxxun","steam_id":76561198035090697,"connected_time":774000000000,"state":"active","ping":149},{"user_id":283,"name":"pete erhsinhand","steam_id":76561198000564263,"connected_time":544000000000,"state":"active","ping":65},{"user_id":284,"name":"java","steam_id":76561198030276792,"connected_time":540000000000,"state":"active","ping":60},{"user_id":285,"name":"AlecTheNefarious","steam_id":76561198035291230,"connected_time":537000000000,"state":"active","ping":65},{"user_id":286,"name":"lao yang","steam_id":76561198153020266,"connected_time":528000000000,"state":"active","ping":77},{"user_id":288,"name":"bapabadu","steam_id":76561198254056316,"connected_time":416000000000,"state":"active","ping":59},{"user_id":270,"name":"GreekGoat_Coffee","steam_id":76561198129331088,"connected_time":2235000000000,"state":"active","ping":47},{"user_id":289,"name":"devamar","steam_id":76561198069115467,"connected_time":402000000000,"state":"active","ping":70},{"user_id":290,"name":"Goombagrunt","steam_id":76561198272125947,"connected_time":376000000000,"state":"active","ping":106},{"user_id":292,"name":"YASAI JUICE","steam_id":76561198131971992,"connected_time":154000000000,"state":"active","ping":42},{"user_id":293,"name":"Strike The Earth!","steam_id":76561198090891781,"connected_time":128000000000,"state":"active","ping":70},{"user_id":295,"name":"WasabiWallop","steam_id":76561198140064181,"connected_time":18000000000,"state":"spawning","ping":185},{"user_id":253,"name":"Friend","steam_id":76561198156746320,"connected_time":3527000000000,"state":"active","ping":45}]},{"server_id":8,"name":"Uncletopia | Dallas | 1 | All Maps","name_short":"dal-1","host":"dal-1.us.uncletopia.com","port":27015,"enabled":true,"region":"us-central","cc":"us","latitude":32.779167,"longitude":-96.80889,"reserved":0,"last_update":"0001-01-01T00:00:00Z","name_a2s":"Uncletopia | Dallas | 1 | All Maps","protocol":17,"map":"koth_cascade","folder":"tf","game":"Team Fortress","app_id":440,"player_count":1,"max_players":24,"Bots":0,"server_type":"Dedicated","server_os":"Linux","password":true,"vac":true,"version":"7723704","steam_id":85568392924469986,"keywords":["cp","nocrits","nodmgspread","uncletopia"],"game_id":440,"stv_port":27016,"stv_name":"Uncletopia | Dallas | 1 | All Maps | STV","players":[{"user_id":768,"name":"Nickao","steam_id":76561198083099086,"connected_time":1377000000000,"state":"active","ping":139}]},{"server_id":108,"name":"Uncletopia | Dallas | 2 | All Maps","name_short":"dal-2","host":"dal-1.us.uncletopia.com","port":27025,"enabled":true,"region":"us-central","cc":"us","latitude":32.779167,"longitude":-96.80889,"reserved":0,"last_update":"0001-01-01T00:00:00Z","name_a2s":"Uncletopia | Dallas | 2 | All Maps","protocol":17,"map":"koth_viaduct","folder":"tf","game":"Team Fortress","app_id":440,"player_count":2,"max_players":24,"Bots":0,"server_type":"Dedicated","server_os":"Linux","password":true,"vac":true,"version":"7723704","steam_id":85568392924469988,"keywords":["cp","nocrits","nodmgspread","uncletopia"],"game_id":440,"stv_port":27026,"stv_name":"Uncletopia | Dallas | 2 | All Maps | STV","players":[{"user_id":296,"name":"GLG.Liz","steam_id":76561198021957956,"connected_time":221000000000,"state":"active","ping":41},{"user_id":297,"name":"GLG MUTT","steam_id":76561198147785541,"connected_time":199000000000,"state":"active","ping":47}]},{"server_id":5,"name":"Uncletopia | Frankfurt | 1 | All Maps","name_short":"frk-1","host":"frk-1.de.uncletopia.com","port":27015,"enabled":true,"region":"eu","cc":"de","latitude":50.110924,"longitude":8.682127,"reserved":0,"last_update":"0001-01-01T00:00:00Z","name_a2s":"Uncletopia | Frankfurt | 1 | All Maps","protocol":17,"map":"cp_mountainlab","folder":"tf","game":"Team Fortress","app_id":440,"player_count":0,"max_players":24,"Bots":0,"server_type":"Dedicated","server_os":"Linux","password":true,"vac":true,"version":"7723704","steam_id":85568392924469989,"keywords":["cp","nocrits","nodmgspread","uncletopia"],"game_id":440,"stv_port":27016,"stv_name":"Uncletopia | Frankfurt | 1 | All Maps | STV","players":null},{"server_id":110,"name":"Uncletopia | Frankfurt | 2 | All Maps","name_short":"frk-2","host":"frk-1.de.uncletopia.com","port":27025,"enabled":true,"region":"eu","cc":"de","latitude":50.110924,"longitude":8.682127,"reserved":0,"last_update":"0001-01-01T00:00:00Z","name_a2s":"Uncletopia | Frankfurt | 2 | All Maps","protocol":17,"map":"pl_pier","folder":"tf","game":"Team Fortress","app_id":440,"player_count":0,"max_players":24,"Bots":0,"server_type":"Dedicated","server_os":"Linux","password":true,"vac":true,"version":"7723704","steam_id":85568392924469990,"keywords":["nocrits","nodmgspread","payload","uncletopia"],"game_id":440,"stv_port":27026,"stv_name":"Uncletopia | Frankfurt | 2 | All Maps | STV","players":null},{"server_id":308,"name":"Uncletopia | Frankfurt | 3 | All Maps","name_short":"frk-3","host":"frk-1.de.uncletopia.com","port":27035,"enabled":true,"region":"eu","cc":"de","latitude":50.110924,"longitude":8.682127,"reserved":0,"last_update":"0001-01-01T00:00:00Z","name_a2s":"Uncletopia | Frankfurt | 3 | All Maps","protocol":17,"map":"pl_swiftwater_final1","folder":"tf","game":"Team Fortress","app_id":440,"player_count":0,"max_players":24,"Bots":0,"server_type":"Dedicated","server_os":"Linux","password":true,"vac":true,"version":"7723704","steam_id":85568392924504274,"keywords":["nocrits","nodmgspread","payload","uncletopia"],"game_id":440,"stv_port":27036,"stv_name":"Uncletopia | Frankfurt | 3 | All Maps | STV","players":null},{"server_id":309,"name":"Uncletopia | Frankfurt | 4 | All Maps","name_short":"frk-4","host":"frk-1.de.uncletopia.com","port":27045,"enabled":true,"region":"eu","cc":"de","latitude":50.110924,"longitude":8.682127,"reserved":0,"last_update":"0001-01-01T00:00:00Z","name_a2s":"Uncletopia | Frankfurt | 4 | All Maps","protocol":17,"map":"pl_badwater","folder":"tf","game":"Team Fortress","app_id":440,"player_count":0,"max_players":24,"Bots":0,"server_type":"Dedicated","server_os":"Linux","password":true,"vac":true,"version":"7723704","steam_id":85568392924504275,"keywords":["nocrits","nodmgspread","payload","uncletopia"],"game_id":440,"stv_port":27046,"stv_name":"Uncletopia | Frankfurt | 4 | All Maps | STV","players":null},{"server_id":310,"name":"Uncletopia | Frankfurt | 5 | All Maps","name_short":"frk-5","host":"frk-1.de.uncletopia.com","port":27055,"enabled":true,"region":"eu","cc":"de","latitude":50.110924,"longitude":8.682127,"reserved":0,"last_update":"0001-01-01T00:00:00Z","name_a2s":"Uncletopia | Frankfurt | 5 | All Maps","protocol":17,"map":"cp_process_final","folder":"tf","game":"Team Fortress","app_id":440,"player_count":0,"max_players":24,"Bots":0,"server_type":"Dedicated","server_os":"Linux","password":true,"vac":true,"version":"7723704","steam_id":85568392924504277,"keywords":["cp","nocrits","nodmgspread","uncletopia"],"game_id":440,"stv_port":27056,"stv_name":"Uncletopia | Frankfurt | 5 | All Maps | STV","players":null},{"server_id":311,"name":"Uncletopia | Frankfurt | 6 | All Maps","name_short":"frk-6","host":"frk-1.de.uncletopia.com","port":27065,"enabled":true,"region":"eu","cc":"de","latitude":50.110924,"longitude":8.682127,"reserved":0,"last_update":"0001-01-01T00:00:00Z","name_a2s":"Uncletopia | Frankfurt | 6 | All Maps","protocol":17,"map":"cp_snakewater_final1","folder":"tf","game":"Team Fortress","app_id":440,"player_count":0,"max_players":24,"Bots":0,"server_type":"Dedicated","server_os":"Linux","password":true,"vac":true,"version":"7723704","steam_id":85568392924504278,"keywords":["cp","nocrits","nodmgspread","uncletopia"],"game_id":440,"stv_port":27066,"stv_name":"Uncletopia | Frankfurt | 6 | All Maps | STV","players":null},{"server_id":23,"name":"Uncletopia | Frankfurt | 7 | No Payload","name_short":"frk-7","host":"frk-1.de.uncletopia.com","port":27075,"enabled":true,"region":"eu","cc":"de","latitude":50.110924,"longitude":8.682127,"reserved":0,"last_update":"0001-01-01T00:00:00Z","name_a2s":"Uncletopia | Frankfurt | 7 | No Payload","protocol":17,"map":"pl_upward","folder":"tf","game":"Team Fortress","app_id":440,"player_count":0,"max_players":24,"Bots":0,"server_type":"Dedicated","server_os":"Linux","password":true,"vac":true,"version":"7723704","steam_id":85568392924742827,"keywords":["nocrits","nodmgspread","payload","uncletopia"],"game_id":440,"stv_port":27076,"stv_name":"Uncletopia | Frankfurt | 7 | No Payload | STV","players":null},{"server_id":24,"name":"Uncletopia | Frankfurt | 8 | Community","name_short":"frk-8","host":"frk-1.de.uncletopia.com","port":27085,"enabled":true,"region":"eu","cc":"de","latitude":50.110924,"longitude":8.682127,"reserved":0,"last_update":"0001-01-01T00:00:00Z","name_a2s":"Uncletopia | Frankfurt | 8 | Community","protocol":17,"map":"cp_altitude","folder":"tf","game":"Team Fortress","app_id":440,"player_count":0,"max_players":24,"Bots":0,"server_type":"Dedicated","server_os":"Linux","password":true,"vac":true,"version":"7723704","steam_id":85568392924742828,"keywords":["cp","nocrits","nodmgspread","uncletopia"],"game_id":440,"stv_port":27086,"stv_name":"Uncletopia | Frankfurt | 8 | Community | STV","players":null},{"server_id":202,"name":"Uncletopia | Hong Kong | 1 | All Maps","name_short":"hgk-1","host":"hgk-1.hk.uncletopia.com","port":27015,"enabled":true,"region":"asia","cc":"hk","latitude":22.302711,"longitude":114.177216,"reserved":0,"last_update":"0001-01-01T00:00:00Z","name_a2s":"Uncletopia | Hong Kong | 1 | All Maps","protocol":17,"map":"pl_upward","folder":"tf","game":"Team Fortress","app_id":440,"player_count":24,"max_players":24,"Bots":0,"server_type":"Dedicated","server_os":"Linux","password":true,"vac":true,"version":"7723704","steam_id":85568392924494504,"keywords":["nocrits","nodmgspread","payload","uncletopia"],"game_id":440,"stv_port":27016,"stv_name":"Uncletopia | Hong Kong | 1 | All Maps | STV","players":[{"user_id":240,"name":"LEGS","steam_id":76561199111623890,"connected_time":2880000000000,"state":"active","ping":78},{"user_id":264,"name":"mikkusu","steam_id":76561198306574432,"connected_time":651000000000,"state":"active","ping":141},{"user_id":12,"name":"Bertengkar","steam_id":76561198213031155,"connected_time":21493000000000,"state":"active","ping":96},{"user_id":222,"name":"Corhix","steam_id":76561198968706355,"connected_time":4316000000000,"state":"active","ping":48},{"user_id":259,"name":"MeeLee [ Enemy Med Phobic ]","steam_id":76561199227871384,"connected_time":1346000000000,"state":"active","ping":61},{"user_id":241,"name":"aeross","steam_id":76561198834445483,"connected_time":2747000000000,"state":"active","ping":90},{"user_id":225,"name":"Firefang099","steam_id":76561198136685157,"connected_time":3685000000000,"state":"active","ping":55},{"user_id":245,"name":"hardstyle mix 17","steam_id":76561198413116920,"connected_time":2380000000000,"state":"active","ping":80},{"user_id":265,"name":"Michael Scott","steam_id":76561198023082794,"connected_time":588000000000,"state":"active","ping":47},{"user_id":189,"name":"L√∫d","steam_id":76561198828840546,"connected_time":5949000000000,"state":"active","ping":72},{"user_id":193,"name":"rizzard of oz","steam_id":76561198180363385,"connected_time":5765000000000,"state":"active","ping":82},{"user_id":238,"name":"spy's dick rider","steam_id":76561199146847474,"connected_time":3136000000000,"state":"active","ping":53},{"user_id":215,"name":"Milk‚ù§","steam_id":76561198163911560,"connected_time":5083000000000,"state":"active","ping":81},{"user_id":253,"name":"it chrmis time","steam_id":76561198055553140,"connected_time":1740000000000,"state":"active","ping":79},{"user_id":269,"name":"Ïó¨Î¶Ñ","steam_id":76561198274438558,"connected_time":191000000000,"state":"active","ping":88},{"user_id":263,"name":"can we get much higher","steam_id":76561199390507975,"connected_time":694000000000,"state":"active","ping":48},{"user_id":226,"name":"paga","steam_id":76561198296718007,"connected_time":3634000000000,"state":"active","ping":103},{"user_id":257,"name":"Diavolo Diablo","steam_id":76561198166295333,"connected_time":1364000000000,"state":"active","ping":68},{"user_id":201,"name":"C√° Th√°ng 4","steam_id":76561198047162026,"connected_time":5613000000000,"state":"active","ping":76},{"user_id":266,"name":"i like cheese","steam_id":76561198085893796,"connected_time":252000000000,"state":"active","ping":103},{"user_id":248,"name":"Rudolph","steam_id":76561199012678702,"connected_time":2025000000000,"state":"active","ping":114},{"user_id":268,"name":"Sk√ºll Lad45","steam_id":76561198963567654,"connected_time":220000000000,"state":"active","ping":151},{"user_id":261,"name":"no more half measures waltuh","steam_id":76561199232769556,"connected_time":901000000000,"state":"active","ping":112},{"user_id":258,"name":"Momoxhien","steam_id":76561198414997429,"connected_time":1364000000000,"state":"active","ping":58}]},{"server_id":1,"name":"Uncletopia | Los Angeles | 1 | All Maps","name_short":"lax-1","host":"lax-1.us.uncletopia.com","port":27015,"enabled":true,"region":"us-west","cc":"us","latitude":33.94279,"longitude":-118.41004,"reserved":0,"last_update":"0001-01-01T00:00:00Z","name_a2s":"Uncletopia | Los Angeles | 1 | All Maps","protocol":17,"map":"koth_viaduct","folder":"tf","game":"Team Fortress","app_id":440,"player_count":22,"max_players":24,"Bots":0,"server_type":"Dedicated","server_os":"Linux","password":true,"vac":true,"version":"7723704","steam_id":85568392924469991,"keywords":["cp","nocrits","nodmgspread","uncletopia"],"game_id":440,"stv_port":27016,"stv_name":"Uncletopia | Los Angeles | 1 | All Maps | STV","players":[{"user_id":234,"name":"Look, A Flying Potato!","steam_id":76561198013065507,"connected_time":495000000000,"state":"active","ping":142},{"user_id":235,"name":"neonblack","steam_id":76561198060316801,"connected_time":441000000000,"state":"active","ping":76},{"user_id":236,"name":"Verult (doesn't)Trade","steam_id":76561199018000017,"connected_time":421000000000,"state":"active","ping":110},{"user_id":245,"name":"The Biggest Nobody of Them All","steam_id":76561198168730243,"connected_time":242000000000,"state":"active","ping":46},{"user_id":207,"name":"SQbuilder","steam_id":76561198076473375,"connected_time":2428000000000,"state":"active","ping":48},{"user_id":229,"name":"th,e skunj","steam_id":76561198325980914,"connected_time":1108000000000,"state":"active","ping":90},{"user_id":237,"name":"mr bean full episode","steam_id":76561198133360797,"connected_time":375000000000,"state":"active","ping":49},{"user_id":213,"name":"Whapper","steam_id":76561198044029606,"connected_time":2182000000000,"state":"active","ping":54},{"user_id":233,"name":"That Guy","steam_id":76561197997444126,"connected_time":804000000000,"state":"active","ping":75},{"user_id":191,"name":"Bigby","steam_id":76561199056842761,"connected_time":3031000000000,"state":"active","ping":49},{"user_id":225,"name":"Fish Lambert","steam_id":76561198098279668,"connected_time":1320000000000,"state":"active","ping":55},{"user_id":238,"name":"Son of Slop","steam_id":76561198042816721,"connected_time":351000000000,"state":"active","ping":52},{"user_id":251,"name":"XzXAngryChicken","steam_id":76561199003856044,"connected_time":30000000000,"state":"active","ping":71},{"user_id":240,"name":"[PROFILE REDACTED]","steam_id":76561198817953928,"connected_time":295000000000,"state":"active","ping":75},{"user_id":244,"name":"Chief Beef","steam_id":76561198110682938,"connected_time":260000000000,"state":"active","ping":79},{"user_id":246,"name":"moe","steam_id":76561198929586245,"connected_time":234000000000,"state":"active","ping":50},{"user_id":249,"name":"PirateJet","steam_id":76561198050858744,"connected_time":104000000000,"state":"active","ping":45},{"user_id":252,"name":"eggplantgirl","steam_id":76561198811515692,"connected_time":25000000000,"state":"active","ping":48},{"user_id":211,"name":"elder lich joe biden","steam_id":76561198257134732,"connected_time":2357000000000,"state":"active","ping":79},{"user_id":253,"name":"will(Vqinet)","steam_id":76561199055929199,"connected_time":19000000000,"state":"active","ping":101},{"user_id":220,"name":"SquirrelAway‚Ñ¢","steam_id":76561197998828619,"connected_time":1560000000000,"state":"active","ping":88},{"user_id":228,"name":"Joker's Skull","steam_id":76561199185320627,"connected_time":1210000000000,"state":"active","ping":107}]},{"server_id":112,"name":"Uncletopia | Los Angeles | 2 | All Maps","name_short":"lax-2","host":"lax-1.us.uncletopia.com","port":27025,"enabled":true,"region":"us-west","cc":"us","latitude":33.94279,"longitude":-118.41004,"reserved":0,"last_update":"0001-01-01T00:00:00Z","name_a2s":"Uncletopia | Los Angeles | 2 | All Maps","protocol":17,"map":"koth_highpass","folder":"tf","game":"Team Fortress","app_id":440,"player_count":16,"max_players":24,"Bots":0,"server_type":"Dedicated","server_os":"Linux","password":true,"vac":true,"version":"7723704","steam_id":85568392924469992,"keywords":["cp","nocrits","nodmgspread","uncletopia"],"game_id":440,"stv_port":27026,"stv_name":"Uncletopia | Los Angeles | 2 | All Maps | STV","players":[{"user_id":254,"name":"Murk Wahlberg","steam_id":76561198131467867,"connected_time":1164000000000,"state":"active","ping":45},{"user_id":267,"name":"skaj","steam_id":76561198082278586,"connected_time":27000000000,"state":"active","ping":92},{"user_id":258,"name":"sly1","steam_id":76561198049014977,"connected_time":621000000000,"state":"active","ping":50},{"user_id":253,"name":"Batman Grant Williams","steam_id":76561198115458307,"connected_time":1437000000000,"state":"active","ping":52},{"user_id":213,"name":"Garbo","steam_id":76561198192120869,"connected_time":3947000000000,"state":"active","ping":68},{"user_id":216,"name":"Gazelle","steam_id":76561198336397088,"connected_time":3907000000000,"state":"active","ping":59},{"user_id":266,"name":"smeasly","steam_id":76561198028718812,"connected_time":300000000000,"state":"active","ping":61},{"user_id":211,"name":"a sip on my alcohol","steam_id":76561198152818418,"connected_time":3958000000000,"state":"active","ping":82},{"user_id":264,"name":"Local man that screams at cloud","steam_id":76561198260031998,"connected_time":489000000000,"state":"active","ping":31},{"user_id":259,"name":"Bomb Throwin' Drunk","steam_id":76561198209881263,"connected_time":606000000000,"state":"active","ping":53},{"user_id":260,"name":"(Not) Storyteller","steam_id":76561198338997704,"connected_time":606000000000,"state":"active","ping":46},{"user_id":265,"name":"Fresh off the Kovaaks","steam_id":76561199078404202,"connected_time":373000000000,"state":"active","ping":43},{"user_id":243,"name":"Marz","steam_id":76561198799364911,"connected_time":2499000000000,"state":"active","ping":48},{"user_id":257,"name":"famine","steam_id":76561198407056645,"connected_time":1051000000000,"state":"active","ping":112},{"user_id":246,"name":"Dr.Skrrt","steam_id":76561198329375533,"connected_time":2006000000000,"state":"active","ping":55},{"user_id":263,"name":"Anthid","steam_id":76561198074493797,"connected_time":529000000000,"state":"active","ping":73}]},{"server_id":324,"name":"Uncletopia | Los Angeles | 3 | All Maps","name_short":"lax-3","host":"lax-1.us.uncletopia.com","port":27035,"enabled":true,"region":"us-west","cc":"us","latitude":33.94279,"longitude":-118.41004,"reserved":0,"last_update":"0001-01-01T00:00:00Z","name_a2s":"Uncletopia | Los Angeles | 3 | All Maps","protocol":17,"map":"cp_sunshine","folder":"tf","game":"Team Fortress","app_id":440,"player_count":4,"max_players":24,"Bots":0,"server_type":"Dedicated","server_os":"Linux","password":true,"vac":true,"version":"7723704","steam_id":85568392924510198,"keywords":["cp","nocrits","nodmgspread","uncletopia"],"game_id":440,"stv_port":27036,"stv_name":"Uncletopia | Los Angeles | 3 | All Maps | STV","players":[{"user_id":29,"name":"Absalutegod@demo","steam_id":76561199226558231,"connected_time":2481000000000,"state":"active","ping":48},{"user_id":28,"name":"ScaryMonday","steam_id":76561199204705216,"connected_time":2535000000000,"state":"active","ping":41},{"user_id":30,"name":"üê∫-Iwky-ü¶ä","steam_id":76561198185616311,"connected_time":2342000000000,"state":"active","ping":64},{"user_id":33,"name":"CrackedSanity","steam_id":76561198279841251,"connected_time":1444000000000,"state":"active","ping":45}]},{"server_id":25,"name":"Uncletopia | Los Angeles | 4 | No Payload","name_short":"lax-4","host":"lax-1.us.uncletopia.com","port":27045,"enabled":true,"region":"us-west","cc":"us","latitude":33.94279,"longitude":-118.41004,"reserved":0,"last_update":"0001-01-01T00:00:00Z","name_a2s":"Uncletopia | Los Angeles | 4 | No Payload","protocol":17,"map":"koth_lazarus","folder":"tf","game":"Team Fortress","app_id":440,"player_count":0,"max_players":24,"Bots":0,"server_type":"Dedicated","server_os":"Linux","password":true,"vac":true,"version":"7723704","steam_id":85568392924510199,"keywords":["cp","nocrits","nodmgspread","uncletopia"],"game_id":440,"stv_port":27046,"stv_name":"Uncletopia | Los Angeles | 4 | No Payload | STV","players":null},{"server_id":11,"name":"Uncletopia | London | 1 | All Maps","name_short":"lon-1","host":"lon-1.uk.uncletopia.com","port":27015,"enabled":true,"region":"eu","cc":"gb","latitude":51.509865,"longitude":-0.118092,"reserved":0,"last_update":"0001-01-01T00:00:00Z","name_a2s":"Uncletopia | London | 1 | All Maps","protocol":17,"map":"koth_viaduct","folder":"tf","game":"Team Fortress","app_id":440,"player_count":0,"max_players":24,"Bots":0,"server_type":"Dedicated","server_os":"Linux","password":true,"vac":true,"version":"7723704","steam_id":85568392924367362,"keywords":["cp","nocrits","nodmgspread","uncletopia"],"game_id":440,"stv_port":27016,"stv_name":"Uncletopia | London | 1 | All Maps | STV","players":null},{"server_id":114,"name":"Uncletopia | London | 2 | All Maps","name_short":"lon-2","host":"lon-1.uk.uncletopia.com","port":27025,"enabled":true,"region":"eu","cc":"gb","latitude":51.509865,"longitude":-0.118092,"reserved":0,"last_update":"0001-01-01T00:00:00Z","name_a2s":"Uncletopia | London | 2 | All Maps","protocol":17,"map":"koth_highpass","folder":"tf","game":"Team Fortress","app_id":440,"player_count":0,"max_players":24,"Bots":0,"server_type":"Dedicated","server_os":"Linux","password":true,"vac":true,"version":"7723704","steam_id":85568392924470941,"keywords":["cp","nocrits","nodmgspread","uncletopia"],"game_id":440,"stv_port":27026,"stv_name":"Uncletopia | London | 2 | All Maps | STV","players":null},{"server_id":320,"name":"Uncletopia | London | 3 | All Maps","name_short":"lon-3","host":"lon-1.uk.uncletopia.com","port":27035,"enabled":true,"region":"eu","cc":"gb","latitude":51.509865,"longitude":-0.118092,"reserved":0,"last_update":"0001-01-01T00:00:00Z","name_a2s":"Uncletopia | London | 3 | All Maps","protocol":17,"map":"pl_upward","folder":"tf","game":"Team Fortress","app_id":440,"player_count":0,"max_players":24,"Bots":0,"server_type":"Dedicated","server_os":"Linux","password":true,"vac":true,"version":"7723704","steam_id":85568392924510192,"keywords":["nocrits","nodmgspread","payload","uncletopia"],"game_id":440,"stv_port":27036,"stv_name":"Uncletopia | London | 3 | All Maps | STV","players":null},{"server_id":321,"name":"Uncletopia | London | 4 | All Maps","name_short":"lon-4","host":"lon-1.uk.uncletopia.com","port":27045,"enabled":true,"region":"eu","cc":"gb","latitude":51.509865,"longitude":-0.118092,"reserved":0,"last_update":"0001-01-01T00:00:00Z","name_a2s":"Uncletopia | London | 4 | All Maps","protocol":17,"map":"koth_highpass","folder":"tf","game":"Team Fortress","app_id":440,"player_count":0,"max_players":24,"Bots":0,"server_type":"Dedicated","server_os":"Linux","password":true,"vac":true,"version":"7723704","steam_id":85568392924510193,"keywords":["cp","nocrits","nodmgspread","uncletopia"],"game_id":440,"stv_port":27046,"stv_name":"Uncletopia | London | 4 | All Maps | STV","players":null},{"server_id":21,"name":"Uncletopia | London | 5 | All Maps","name_short":"lon-5","host":"lon-1.uk.uncletopia.com","port":27055,"enabled":true,"region":"eu","cc":"gb","latitude":51.509865,"longitude":-0.118092,"reserved":0,"last_update":"0001-01-01T00:00:00Z","name_a2s":"Uncletopia | London | 5 | All Maps","protocol":17,"map":"pl_badwater","folder":"tf","game":"Team Fortress","app_id":440,"player_count":0,"max_players":24,"Bots":0,"server_type":"Dedicated","server_os":"Linux","password":true,"vac":true,"version":"7723704","steam_id":85568392924742829,"keywords":["nocrits","nodmgspread","payload","uncletopia"],"game_id":440,"stv_port":27056,"stv_name":"Uncletopia | London | 5 | All Maps | STV","players":null},{"server_id":22,"name":"Uncletopia | London | 6 | All Maps","name_short":"lon-6","host":"lon-1.uk.uncletopia.com","port":27065,"enabled":true,"region":"eu","cc":"gb","latitude":51.509865,"longitude":-0.118092,"reserved":0,"last_update":"0001-01-01T00:00:00Z","name_a2s":"Uncletopia | London | 6 | All Maps","protocol":17,"map":"cp_altitude","folder":"tf","game":"Team Fortress","app_id":440,"player_count":0,"max_players":24,"Bots":0,"server_type":"Dedicated","server_os":"Linux","password":true,"vac":true,"version":"7723704","steam_id":85568392924742830,"keywords":["cp","nocrits","nodmgspread","uncletopia"],"game_id":440,"stv_port":27066,"stv_name":"Uncletopia | London | 6 | All Maps | STV","players":null},{"server_id":40,"name":"Uncletopia | London | 7 | No Payload","name_short":"lon-7","host":"lon-1.uk.uncletopia.com","port":27075,"enabled":true,"region":"eu","cc":"gb","latitude":51.509865,"longitude":-0.118092,"reserved":0,"last_update":"0001-01-01T00:00:00Z","name_a2s":"Uncletopia | London | 7 | No Payload","protocol":17,"map":"koth_cascade","folder":"tf","game":"Team Fortress","app_id":440,"player_count":0,"max_players":24,"Bots":0,"server_type":"Dedicated","server_os":"Linux","password":true,"vac":true,"version":"7723704","steam_id":85568392924964314,"keywords":["cp","nocrits","nodmgspread","uncletopia"],"game_id":440,"stv_port":27076,"stv_name":"Uncletopia | London | 7 | No Payload | STV","players":null},{"server_id":41,"name":"Uncletopia | London | 8 | Community","name_short":"lon-8","host":"lon-1.uk.uncletopia.com","port":27085,"enabled":true,"region":"eu","cc":"gb","latitude":51.509865,"longitude":-0.118092,"reserved":0,"last_update":"0001-01-01T00:00:00Z","name_a2s":"Uncletopia | London | 8 | Community","protocol":17,"map":"pl_snowycoast","folder":"tf","game":"Team Fortress","app_id":440,"player_count":0,"max_players":24,"Bots":0,"server_type":"Dedicated","server_os":"Linux","password":true,"vac":true,"version":"7723704","steam_id":85568392924964315,"keywords":["nocrits","nodmgspread","payload","uncletopia"],"game_id":440,"stv_port":27086,"stv_name":"Uncletopia | London | 8 | Community | STV","players":null},{"server_id":300,"name":"Uncletopia | Montr√©al | 1 | All Maps","name_short":"mtl-1","host":"mtl-1.ca.uncletopia.com","port":27015,"enabled":true,"region":"us-east","cc":"ca","latitude":45.50889,"longitude":-73.56167,"reserved":0,"last_update":"0001-01-01T00:00:00Z","name_a2s":"","protocol":0,"map":"","folder":"","game":"","app_id":0,"player_count":0,"max_players":0,"Bots":0,"server_type":"","server_os":"","password":false,"vac":false,"version":"","steam_id":0,"keywords":null,"game_id":0,"stv_port":0,"stv_name":"","players":null},{"server_id":301,"name":"Uncletopia | Montr√©al | 2 | All Maps","name_short":"mtl-2","host":"mtl-1.ca.uncletopia.com","port":27025,"enabled":true,"region":"us-east","cc":"ca","latitude":45.50889,"longitude":-73.56167,"reserved":0,"last_update":"0001-01-01T00:00:00Z","name_a2s":"","protocol":0,"map":"","folder":"","game":"","app_id":0,"player_count":0,"max_players":0,"Bots":0,"server_type":"","server_os":"","password":false,"vac":false,"version":"","steam_id":0,"keywords":null,"game_id":0,"stv_port":0,"stv_name":"","players":null},{"server_id":302,"name":"Uncletopia | Montr√©al | 3 | All Maps","name_short":"mtl-3","host":"mtl-1.ca.uncletopia.com","port":27035,"enabled":true,"region":"us-east","cc":"ca","latitude":45.50889,"longitude":-73.56167,"reserved":0,"last_update":"0001-01-01T00:00:00Z","name_a2s":"","protocol":0,"map":"","folder":"","game":"","app_id":0,"player_count":0,"max_players":0,"Bots":0,"server_type":"","server_os":"","password":false,"vac":false,"version":"","steam_id":0,"keywords":null,"game_id":0,"stv_port":0,"stv_name":"","players":null},{"server_id":303,"name":"Uncletopia | Montr√©al | 4 | No Payload","name_short":"mtl-4","host":"mtl-1.ca.uncletopia.com","port":27045,"enabled":true,"region":"us-east","cc":"ca","latitude":45.50889,"longitude":-73.56167,"reserved":0,"last_update":"0001-01-01T00:00:00Z","name_a2s":"","protocol":0,"map":"","folder":"","game":"","app_id":0,"player_count":0,"max_players":0,"Bots":0,"server_type":"","server_os":"","password":false,"vac":false,"version":"","steam_id":0,"keywords":null,"game_id":0,"stv_port":0,"stv_name":"","players":null},{"server_id":13,"name":"Uncletopia | New York City | 1 | All Maps","name_short":"nyc-1","host":"nyc-1.us.uncletopia.com","port":27015,"enabled":true,"region":"us-east","cc":"us","latitude":40.73061,"longitude":-73.93524,"reserved":0,"last_update":"0001-01-01T00:00:00Z","name_a2s":"Uncletopia | New York City | 1 | All Maps","protocol":17,"map":"plr_bananabay","folder":"tf","game":"Team Fortress","app_id":440,"player_count":2,"max_players":24,"Bots":0,"server_type":"Dedicated","server_os":"Linux","password":true,"vac":true,"version":"7723704","steam_id":85568392924469993,"keywords":["nocrits","nodmgspread","payload","uncletopia"],"game_id":440,"stv_port":27016,"stv_name":"Uncletopia | New York City | 1 | All Maps | STV","players":[{"user_id":687,"name":"TheBoss","steam_id":76561198850333104,"connected_time":1041000000000,"state":"active","ping":111},{"user_id":688,"name":"-fishy-","steam_id":76561199019154932,"connected_time":680000000000,"state":"active","ping":109}]},{"server_id":14,"name":"Uncletopia | New York City | 2 | All Maps","name_short":"nyc-2","host":"nyc-1.us.uncletopia.com","port":27025,"enabled":true,"region":"us-east","cc":"us","latitude":40.73061,"longitude":-73.93524,"reserved":0,"last_update":"0001-01-01T00:00:00Z","name_a2s":"Uncletopia | New York City | 2 | All Maps","protocol":17,"map":"cp_mountainlab","folder":"tf","game":"Team Fortress","app_id":440,"player_count":0,"max_players":24,"Bots":0,"server_type":"Dedicated","server_os":"Linux","password":true,"vac":true,"version":"7723704","steam_id":85568392924469994,"keywords":["cp","nocrits","nodmgspread","uncletopia"],"game_id":440,"stv_port":27026,"stv_name":"Uncletopia | New York City | 2 | All Maps | STV","players":null},{"server_id":15,"name":"Uncletopia | New York City | 3 | All Maps","name_short":"nyc-3","host":"nyc-1.us.uncletopia.com","port":27035,"enabled":true,"region":"us-east","cc":"us","latitude":40.73061,"longitude":-73.93524,"reserved":0,"last_update":"0001-01-01T00:00:00Z","name_a2s":"Uncletopia | New York City | 3 | All Maps","protocol":17,"map":"cp_dustbowl","folder":"tf","game":"Team Fortress","app_id":440,"player_count":0,"max_players":24,"Bots":0,"server_type":"Dedicated","server_os":"Linux","password":true,"vac":true,"version":"7723704","steam_id":85568392924742820,"keywords":["cp","nocrits","nodmgspread","uncletopia"],"game_id":440,"stv_port":27036,"stv_name":"Uncletopia | New York City | 3 | All Maps | STV","players":null},{"server_id":16,"name":"Uncletopia | New York City | 4 | Community","name_short":"nyc-4","host":"nyc-1.us.uncletopia.com","port":27045,"enabled":true,"region":"us-east","cc":"us","latitude":40.73061,"longitude":-73.93524,"reserved":0,"last_update":"0001-01-01T00:00:00Z","name_a2s":"Uncletopia | New York City | 4 | Community","protocol":17,"map":"workshop/koth_ashville_final.ugc2130459942","folder":"tf","game":"Team Fortress","app_id":440,"player_count":0,"max_players":24,"Bots":0,"server_type":"Dedicated","server_os":"Linux","password":true,"vac":true,"version":"7723704","steam_id":85568392924742821,"keywords":["cp","nocrits","nodmgspread","uncletopia"],"game_id":440,"stv_port":27046,"stv_name":"Uncletopia | New York City | 4 | Community | STV","players":null},{"server_id":142,"name":"Uncletopia | S√£o Paulo | 1 | All Maps","name_short":"sao-1","host":"sao-1.br.uncletopia.com","port":27015,"enabled":true,"region":"sa","cc":"br","latitude":-23.533773,"longitude":-46.62529,"reserved":0,"last_update":"0001-01-01T00:00:00Z","name_a2s":"Uncletopia | S√£o Paulo | 1 | All Maps","protocol":17,"map":"pl_swiftwater_final1","folder":"tf","game":"Team Fortress","app_id":440,"player_count":0,"max_players":24,"Bots":0,"server_type":"Dedicated","server_os":"Linux","password":true,"vac":true,"version":"7723704","steam_id":85568392924469996,"keywords":["nocrits","nodmgspread","payload","uncletopia"],"game_id":440,"stv_port":27016,"stv_name":"Uncletopia | S√£o Paulo | 1 | All Maps | STV","players":null},{"server_id":143,"name":"Uncletopia | S√£o Paulo | 2 | All Maps","name_short":"sao-2","host":"sao-2.br.uncletopia.com","port":27015,"enabled":true,"region":"sa","cc":"br","latitude":-23.533773,"longitude":-46.62529,"reserved":0,"last_update":"0001-01-01T00:00:00Z","name_a2s":"Uncletopia | S√£o Paulo | 2 | All Maps","protocol":17,"map":"pl_borneo","folder":"tf","game":"Team Fortress","app_id":440,"player_count":0,"max_players":24,"Bots":0,"server_type":"Dedicated","server_os":"Linux","password":true,"vac":true,"version":"7723704","steam_id":85568392924485349,"keywords":["nocrits","nodmgspread","payload","uncletopia"],"game_id":440,"stv_port":27016,"stv_name":"Uncletopia | S√£o Paulo | 2 | All Maps | STV","players":null},{"server_id":7,"name":"Uncletopia | Seattle | 1 | All Maps","name_short":"sea-1","host":"sea-1.us.uncletopia.com","port":27015,"enabled":true,"region":"us-west","cc":"us","latitude":47.608013,"longitude":-122.33517,"reserved":0,"last_update":"0001-01-01T00:00:00Z","name_a2s":"Uncletopia | Seattle | 1 | All Maps","protocol":17,"map":"cp_powerhouse","folder":"tf","game":"Team Fortress","app_id":440,"player_count":24,"max_players":24,"Bots":0,"server_type":"Dedicated","server_os":"Linux","password":true,"vac":true,"version":"7723704","steam_id":85568392924469997,"keywords":["cp","nocrits","nodmgspread","uncletopia"],"game_id":440,"stv_port":27016,"stv_name":"Uncletopia | Seattle | 1 | All Maps | STV","players":[{"user_id":360,"name":"S Q U I S H E  T H A T  C A T","steam_id":76561198293865429,"connected_time":1258000000000,"state":"active","ping":32},{"user_id":348,"name":"{0} Anor","steam_id":76561198356139775,"connected_time":2787000000000,"state":"active","ping":81},{"user_id":349,"name":"orthotic horse shoes","steam_id":76561198083242298,"connected_time":2786000000000,"state":"active","ping":124},{"user_id":362,"name":"THAT CAT","steam_id":76561198010828625,"connected_time":1227000000000,"state":"active","ping":38},{"user_id":361,"name":"ECO","steam_id":76561198147706400,"connected_time":1247000000000,"state":"active","ping":82},{"user_id":363,"name":"Arsonist Goose","steam_id":76561198147441830,"connected_time":1133000000000,"state":"active","ping":75},{"user_id":341,"name":"NotAWeeb","steam_id":76561198165530739,"connected_time":2820000000000,"state":"active","ping":61},{"user_id":369,"name":"sped ops","steam_id":76561199096780590,"connected_time":952000000000,"state":"active","ping":66},{"user_id":326,"name":"Shah","steam_id":76561198047508851,"connected_time":4198000000000,"state":"active","ping":58},{"user_id":371,"name":"Bodhi","steam_id":76561198043199143,"connected_time":635000000000,"state":"active","ping":93},{"user_id":358,"name":"Dunkle","steam_id":76561198041903573,"connected_time":1271000000000,"state":"active","ping":44},{"user_id":343,"name":"Vishi","steam_id":76561198028710179,"connected_time":2813000000000,"state":"active","ping":169},{"user_id":331,"name":"Ayayahuasca","steam_id":76561199002906056,"connected_time":4047000000000,"state":"active","ping":53},{"user_id":356,"name":"Mak","steam_id":76561198089197922,"connected_time":1278000000000,"state":"active","ping":60},{"user_id":289,"name":"General Fisticuffs","steam_id":76561198255721392,"connected_time":7197000000000,"state":"active","ping":108},{"user_id":366,"name":"Coolshroomish","steam_id":76561199109440924,"connected_time":1090000000000,"state":"active","ping":50},{"user_id":367,"name":"B-0-D-I-E ‚úì","steam_id":76561198079474904,"connected_time":1044000000000,"state":"active","ping":65},{"user_id":368,"name":"THIRDPIERCE","steam_id":76561198405366314,"connected_time":990000000000,"state":"active","ping":119},{"user_id":346,"name":"kirbothebrony","steam_id":76561198971911330,"connected_time":2799000000000,"state":"active","ping":119},{"user_id":357,"name":"Grill Skills","steam_id":76561198053575147,"connected_time":1276000000000,"state":"active","ping":67},{"user_id":312,"name":"goldhed","steam_id":76561198051751133,"connected_time":6152000000000,"state":"active","ping":58},{"user_id":370,"name":"El Gato Paranoico","steam_id":76561198116567116,"connected_time":941000000000,"state":"active","ping":121},{"user_id":347,"name":"Klone","steam_id":76561198854485605,"connected_time":2799000000000,"state":"active","ping":82},{"user_id":334,"name":"incineratedbread","steam_id":76561198133619079,"connected_time":4045000000000,"state":"active","ping":51}]},{"server_id":119,"name":"Uncletopia | Seattle | 2 | All Maps","name_short":"sea-2","host":"sea-1.us.uncletopia.com","port":27025,"enabled":true,"region":"us-west","cc":"us","latitude":47.608013,"longitude":-122.33517,"reserved":0,"last_update":"0001-01-01T00:00:00Z","name_a2s":"Uncletopia | Seattle | 2 | All Maps","protocol":17,"map":"koth_harvest_final","folder":"tf","game":"Team Fortress","app_id":440,"player_count":24,"max_players":24,"Bots":0,"server_type":"Dedicated","server_os":"Linux","password":true,"vac":true,"version":"7723704","steam_id":85568392924469998,"keywords":["cp","nocrits","nodmgspread","uncletopia"],"game_id":440,"stv_port":27026,"stv_name":"Uncletopia | Seattle | 2 | All Maps | STV","players":[{"user_id":331,"name":"Trashamedly","steam_id":76561199049488718,"connected_time":764000000000,"state":"active","ping":73},{"user_id":315,"name":"rorytherednosedreindeer","steam_id":76561198065825165,"connected_time":1883000000000,"state":"active","ping":76},{"user_id":316,"name":"Dino","steam_id":76561198383838640,"connected_time":1827000000000,"state":"active","ping":63},{"user_id":312,"name":"mega","steam_id":76561198089520959,"connected_time":1941000000000,"state":"active","ping":94},{"user_id":267,"name":"lili.winters","steam_id":76561199391478575,"connected_time":5501000000000,"state":"active","ping":62},{"user_id":324,"name":"voidpuppy","steam_id":76561198799922000,"connected_time":1271000000000,"state":"active","ping":84},{"user_id":326,"name":"Swag6","steam_id":76561198064110837,"connected_time":921000000000,"state":"active","ping":66},{"user_id":294,"name":"pyrotechnic","steam_id":76561198043558709,"connected_time":3043000000000,"state":"active","ping":45},{"user_id":310,"name":"ed","steam_id":76561198080475712,"connected_time":2477000000000,"state":"active","ping":65},{"user_id":335,"name":"thundah","steam_id":76561199159928133,"connected_time":370000000000,"state":"active","ping":110},{"user_id":337,"name":"Clemont007","steam_id":76561198030935625,"connected_time":301000000000,"state":"active","ping":91},{"user_id":321,"name":"you're not funny. I AM","steam_id":76561198070136627,"connected_time":1693000000000,"state":"active","ping":75},{"user_id":292,"name":"Lead poisened","steam_id":76561198330743199,"connected_time":3274000000000,"state":"active","ping":79},{"user_id":338,"name":"Legendary Gunther","steam_id":76561198441804455,"connected_time":292000000000,"state":"active","ping":91},{"user_id":333,"name":"you set my soul on fire","steam_id":76561198027052378,"connected_time":433000000000,"state":"active","ping":137},{"user_id":317,"name":"......","steam_id":76561198067612741,"connected_time":1823000000000,"state":"active","ping":47},{"user_id":306,"name":"squash","steam_id":76561198150281353,"connected_time":2771000000000,"state":"active","ping":57},{"user_id":313,"name":"Thanks Ants","steam_id":76561197966221018,"connected_time":1937000000000,"state":"active","ping":49},{"user_id":332,"name":"delight","steam_id":76561197980280272,"connected_time":728000000000,"state":"active","ping":52},{"user_id":244,"name":"gorlab","steam_id":76561198025089694,"connected_time":7550000000000,"state":"active","ping":62},{"user_id":319,"name":"Heavy Lobster","steam_id":76561199437953754,"connected_time":1781000000000,"state":"active","ping":78},{"user_id":328,"name":"Swag5","steam_id":76561198065311356,"connected_time":895000000000,"state":"active","ping":70},{"user_id":307,"name":"Some Dood on the Internet","steam_id":76561198054657687,"connected_time":2716000000000,"state":"active","ping":67},{"user_id":179,"name":"jorts","steam_id":76561199041179985,"connected_time":15177000000000,"state":"active","ping":64}]},{"server_id":17,"name":"Uncletopia | San Francisco | 1 | All Maps","name_short":"sfo-1","host":"sfo-1.us.uncletopia.com","port":27015,"enabled":true,"region":"us-west","cc":"us","latitude":37.77397,"longitude":-122.4313,"reserved":0,"last_update":"0001-01-01T00:00:00Z","name_a2s":"Uncletopia | San Francisco | 1 | All Maps","protocol":17,"map":"cp_sunshine","folder":"tf","game":"Team Fortress","app_id":440,"player_count":1,"max_players":24,"Bots":0,"server_type":"Dedicated","server_os":"Linux","password":true,"vac":true,"version":"7723704","steam_id":85568392924469999,"keywords":["cp","nocrits","nodmgspread","uncletopia"],"game_id":440,"stv_port":27016,"stv_name":"Uncletopia | San Francisco | 1 | All Maps | STV","players":[{"user_id":484,"name":"ZzEp1c5n1p3rzZ","steam_id":76561199209786129,"connected_time":359000000000,"state":"active","ping":370}]},{"server_id":18,"name":"Uncletopia | San Francisco | 2 | All Maps","name_short":"sfo-2","host":"sfo-1.us.uncletopia.com","port":27025,"enabled":true,"region":"us-west","cc":"us","latitude":37.77397,"longitude":-122.4313,"reserved":0,"last_update":"0001-01-01T00:00:00Z","name_a2s":"Uncletopia | San Francisco | 2 | All Maps","protocol":17,"map":"pl_snowycoast","folder":"tf","game":"Team Fortress","app_id":440,"player_count":24,"max_players":24,"Bots":0,"server_type":"Dedicated","server_os":"Linux","password":true,"vac":true,"version":"7723704","steam_id":85568392924470000,"keywords":["nocrits","nodmgspread","payload","uncletopia"],"game_id":440,"stv_port":27026,"stv_name":"Uncletopia | San Francisco | 2 | All Maps | STV","players":[{"user_id":100,"name":"bad spy player","steam_id":76561198873699671,"connected_time":6238000000000,"state":"active","ping":66},{"user_id":152,"name":"bok","steam_id":76561197999411826,"connected_time":1479000000000,"state":"active","ping":54},{"user_id":153,"name":"wenton","steam_id":76561198066706754,"connected_time":1468000000000,"state":"active","ping":54},{"user_id":168,"name":"NOT 16 spiders in a coat","steam_id":76561198137242573,"connected_time":514000000000,"state":"active","ping":67},{"user_id":155,"name":"chop nito","steam_id":76561198249251860,"connected_time":1431000000000,"state":"active","ping":51},{"user_id":169,"name":"busting on dave","steam_id":76561198072789439,"connected_time":463000000000,"state":"active","ping":59},{"user_id":157,"name":"Eggnog","steam_id":76561197968179862,"connected_time":1382000000000,"state":"active","ping":66},{"user_id":158,"name":"3.dlc","steam_id":76561198234377776,"connected_time":1110000000000,"state":"active","ping":56},{"user_id":159,"name":"Living_Zombie","steam_id":76561198204503240,"connected_time":1034000000000,"state":"active","ping":98},{"user_id":134,"name":"Two-Six","steam_id":76561198160983267,"connected_time":2617000000000,"state":"active","ping":73},{"user_id":171,"name":"Huskylicense0","steam_id":76561198985768464,"connected_time":306000000000,"state":"active","ping":125},{"user_id":105,"name":"Dova","steam_id":76561198079481047,"connected_time":5971000000000,"state":"active","ping":59},{"user_id":161,"name":"ElectronX","steam_id":76561198116034988,"connected_time":974000000000,"state":"active","ping":49},{"user_id":128,"name":"lol","steam_id":76561198026491738,"connected_time":3996000000000,"state":"active","ping":68},{"user_id":143,"name":"SesataPomang","steam_id":76561198145133059,"connected_time":2191000000000,"state":"active","ping":107},{"user_id":162,"name":"top tree warlock","steam_id":76561198872339982,"connected_time":970000000000,"state":"active","ping":65},{"user_id":166,"name":"big car","steam_id":76561198067082350,"connected_time":730000000000,"state":"active","ping":60},{"user_id":139,"name":"Soap Man","steam_id":76561198000490235,"connected_time":2450000000000,"state":"active","ping":89},{"user_id":170,"name":"‚õßAlkahestry","steam_id":76561198109641497,"connected_time":432000000000,"state":"active","ping":58},{"user_id":172,"name":"Vojdo","steam_id":76561198064781517,"connected_time":246000000000,"state":"active","ping":61},{"user_id":112,"name":"chmilk","steam_id":76561198068783124,"connected_time":5567000000000,"state":"active","ping":45},{"user_id":147,"name":"a homeless cat","steam_id":76561198058388903,"connected_time":1905000000000,"state":"active","ping":72},{"user_id":148,"name":"Hakuyer","steam_id":76561198098618247,"connected_time":1901000000000,"state":"active","ping":79},{"user_id":164,"name":"s4lmon","steam_id":76561198055882807,"connected_time":959000000000,"state":"active","ping":73}]},{"server_id":19,"name":"Uncletopia | San Francisco | 3 | No Payload","name_short":"sfo-3","host":"sfo-1.us.uncletopia.com","port":27035,"enabled":true,"region":"us-west","cc":"us","latitude":37.77397,"longitude":-122.4313,"reserved":0,"last_update":"0001-01-01T00:00:00Z","name_a2s":"Uncletopia | San Francisco | 3 | No Payload","protocol":17,"map":"ctf_well","folder":"tf","game":"Team Fortress","app_id":440,"player_count":0,"max_players":24,"Bots":0,"server_type":"Dedicated","server_os":"Linux","password":true,"vac":true,"version":"7723704","steam_id":85568392924742824,"keywords":["ctf","nocrits","nodmgspread","uncletopia"],"game_id":440,"stv_port":27036,"stv_name":"Uncletopia | San Francisco | 3 | No Payload | STV","players":null},{"server_id":20,"name":"Uncletopia | San Francisco | 4 | Community","name_short":"sfo-4","host":"sfo-1.us.uncletopia.com","port":27045,"enabled":true,"region":"us-west","cc":"us","latitude":37.77397,"longitude":-122.4313,"reserved":0,"last_update":"0001-01-01T00:00:00Z","name_a2s":"Uncletopia | San Francisco | 4 | Community","protocol":17,"map":"workshop/koth_synthetic_rc6a.ugc1549817316","folder":"tf","game":"Team Fortress","app_id":440,"player_count":0,"max_players":24,"Bots":0,"server_type":"Dedicated","server_os":"Linux","password":true,"vac":true,"version":"7723704","steam_id":85568392924742826,"keywords":["cp","nocrits","nodmgspread","uncletopia"],"game_id":440,"stv_port":27046,"stv_name":"Uncletopia | San Francisco | 4 | Community | STV","players":null},{"server_id":141,"name":"Uncletopia | Sydney | 1 | All Maps","name_short":"syd-1","host":"syd-1.au.uncletopia.com","port":27015,"enabled":true,"region":"au","cc":"au","latitude":-33.865143,"longitude":151.2099,"reserved":0,"last_update":"0001-01-01T00:00:00Z","name_a2s":"Uncletopia | Sydney | 1 | All Maps","protocol":17,"map":"cp_process_final","folder":"tf","game":"Team Fortress","app_id":440,"player_count":24,"max_players":24,"Bots":0,"server_type":"Dedicated","server_os":"Linux","password":true,"vac":true,"version":"7723704","steam_id":85568392924470001,"keywords":["cp","nocrits","nodmgspread","uncletopia"],"game_id":440,"stv_port":27016,"stv_name":"Uncletopia | Sydney | 1 | All Maps | STV","players":[{"user_id":266,"name":"Zoey","steam_id":76561198126153554,"connected_time":3509000000000,"state":"active","ping":92},{"user_id":309,"name":"Dr Barry Mundy PhD","steam_id":76561198034512686,"connected_time":671000000000,"state":"active","ping":41},{"user_id":297,"name":"shirt without the r","steam_id":76561199071810220,"connected_time":1158000000000,"state":"active","ping":81},{"user_id":323,"name":"gongaga","steam_id":76561198072382387,"connected_time":89000000000,"state":"active","ping":78},{"user_id":277,"name":"Chowdermonkey","steam_id":76561198990121068,"connected_time":2263000000000,"state":"active","ping":81},{"user_id":301,"name":"Jetfire","steam_id":76561198047370036,"connected_time":931000000000,"state":"active","ping":76},{"user_id":303,"name":"Tretton","steam_id":76561198038951129,"connected_time":909000000000,"state":"active","ping":50},{"user_id":304,"name":"RA RA","steam_id":76561198361139900,"connected_time":899000000000,"state":"active","ping":60},{"user_id":305,"name":"Johngamer2418","steam_id":76561198377832282,"connected_time":895000000000,"state":"active","ping":53},{"user_id":62,"name":"Mail Bomb Victim","steam_id":76561198284533039,"connected_time":19657000000000,"state":"active","ping":67},{"user_id":308,"name":"TheCherry","steam_id":76561198062312012,"connected_time":856000000000,"state":"active","ping":69},{"user_id":306,"name":"lofty","steam_id":76561198380588357,"connected_time":894000000000,"state":"active","ping":69},{"user_id":207,"name":"AfroNinja","steam_id":76561198120372011,"connected_time":8198000000000,"state":"active","ping":62},{"user_id":292,"name":"ToadFungus","steam_id":76561199219667039,"connected_time":1879000000000,"state":"active","ping":93},{"user_id":314,"name":"Songlatude","steam_id":76561198075920770,"connected_time":395000000000,"state":"active","ping":56},{"user_id":311,"name":"Del Davis","steam_id":76561199365669004,"connected_time":443000000000,"state":"active","ping":60},{"user_id":283,"name":"Old Man Willux","steam_id":76561198069155154,"connected_time":2194000000000,"state":"active","ping":59},{"user_id":321,"name":"123456789","steam_id":76561198190985174,"connected_time":149000000000,"state":"active","ping":60},{"user_id":275,"name":"good morning","steam_id":76561198895690844,"connected_time":2310000000000,"state":"active","ping":54},{"user_id":315,"name":"A Somalian Tank","steam_id":76561199131921077,"connected_time":388000000000,"state":"active","ping":283},{"user_id":316,"name":"mrquestables","steam_id":76561198954911129,"connected_time":371000000000,"state":"active","ping":55},{"user_id":318,"name":"ziah","steam_id":76561198159375596,"connected_time":331000000000,"state":"active","ping":53},{"user_id":320,"name":"KillerBlow","steam_id":76561198930232832,"connected_time":218000000000,"state":"active","ping":98},{"user_id":262,"name":"Wolf","steam_id":76561198067256350,"connected_time":3887000000000,"state":"active","ping":54}]},{"server_id":123,"name":"Uncletopia | Sydney | 2 | All Maps","name_short":"syd-2","host":"syd-1.au.uncletopia.com","port":27025,"enabled":true,"region":"au","cc":"au","latitude":-33.865143,"longitude":151.2099,"reserved":0,"last_update":"0001-01-01T00:00:00Z","name_a2s":"Uncletopia | Sydney | 2 | All Maps","protocol":17,"map":"pl_badwater","folder":"tf","game":"Team Fortress","app_id":440,"player_count":0,"max_players":24,"Bots":0,"server_type":"Dedicated","server_os":"Linux","password":true,"vac":true,"version":"7723704","steam_id":85568392924470002,"keywords":["nocrits","nodmgspread","payload","uncletopia"],"game_id":440,"stv_port":27026,"stv_name":"Uncletopia | Sydney | 2 | All Maps | STV","players":null},{"server_id":395,"name":"Uncletopia | Sydney | 3 | All Maps","name_short":"syd-3","host":"syd-1.au.uncletopia.com","port":27035,"enabled":true,"region":"au","cc":"au","latitude":-33.865143,"longitude":151.2099,"reserved":0,"last_update":"0001-01-01T00:00:00Z","name_a2s":"Uncletopia | Sydney | 3 | All Maps","protocol":17,"map":"cp_snakewater_final1","folder":"tf","game":"Team Fortress","app_id":440,"player_count":1,"max_players":24,"Bots":0,"server_type":"Dedicated","server_os":"Linux","password":true,"vac":true,"version":"7723704","steam_id":85568392925194467,"keywords":["cp","nocrits","nodmgspread","uncletopia"],"game_id":440,"stv_port":27036,"stv_name":"Uncletopia | Sydney | 3 | All Maps | STV","players":[{"user_id":124,"name":"JBoss","steam_id":76561198321937857,"connected_time":1000000000,"state":"spawning","ping":60}]},{"server_id":396,"name":"Uncletopia | Sydney | 4 | All Maps","name_short":"syd-4","host":"syd-1.au.uncletopia.com","port":27045,"enabled":true,"region":"au","cc":"au","latitude":-33.865143,"longitude":151.2099,"reserved":0,"last_update":"0001-01-01T00:00:00Z","name_a2s":"Uncletopia | Sydney | 4 | All Maps","protocol":17,"map":"cp_altitude","folder":"tf","game":"Team Fortress","app_id":440,"player_count":0,"max_players":24,"Bots":0,"server_type":"Dedicated","server_os":"Linux","password":true,"vac":true,"version":"7723704","steam_id":85568392925397958,"keywords":["cp","nocrits","nodmgspread","uncletopia"],"game_id":440,"stv_port":27046,"stv_name":"Uncletopia | Sydney | 4 | All Maps | STV","players":null},{"server_id":58,"name":"Uncletopia | Sydney | 5 | No Payload","name_short":"syd-5","host":"syd-1.au.uncletopia.com","port":27055,"enabled":true,"region":"au","cc":"au","latitude":-33.865143,"longitude":151.2099,"reserved":0,"last_update":"0001-01-01T00:00:00Z","name_a2s":"Uncletopia | Sydney | 5 | No Payload","protocol":17,"map":"koth_cascade","folder":"tf","game":"Team Fortress","app_id":440,"player_count":0,"max_players":24,"Bots":0,"server_type":"Dedicated","server_os":"Linux","password":true,"vac":true,"version":"7723704","steam_id":85568392925397959,"keywords":["cp","nocrits","nodmgspread","uncletopia"],"game_id":440,"stv_port":27056,"stv_name":"Uncletopia | Sydney | 5 | No Payload | STV","players":null},{"server_id":59,"name":"Uncletopia | Sydney | 6 | Community","name_short":"syd-6","host":"syd-1.au.uncletopia.com","port":27065,"enabled":true,"region":"au","cc":"au","latitude":-33.865143,"longitude":151.2099,"reserved":0,"last_update":"0001-01-01T00:00:00Z","name_a2s":"Uncletopia | Sydney | 6 | Community","protocol":17,"map":"koth_lakeside_final","folder":"tf","game":"Team Fortress","app_id":440,"player_count":0,"max_players":24,"Bots":0,"server_type":"Dedicated","server_os":"Linux","password":true,"vac":true,"version":"7723704","steam_id":85568392925397960,"keywords":["cp","nocrits","nodmgspread","uncletopia"],"game_id":440,"stv_port":27066,"stv_name":"Uncletopia | Sydney | 6 | Community | STV","players":null},{"server_id":49,"name":"Uncletopia | Warsaw | 1 | All Maps","name_short":"waw-1","host":"waw-1.pl.uncletopia.com","port":27015,"enabled":true,"region":"eu","cc":"pl","latitude":52.2297,"longitude":21.017532,"reserved":0,"last_update":"0001-01-01T00:00:00Z","name_a2s":"Uncletopia | Warsaw | 1 | All Maps","protocol":17,"map":"cp_process_final","folder":"tf","game":"Team Fortress","app_id":440,"player_count":0,"max_players":24,"Bots":0,"server_type":"Dedicated","server_os":"Linux","password":true,"vac":true,"version":"7723704","steam_id":85568392925397850,"keywords":["cp","nocrits","nodmgspread","uncletopia"],"game_id":440,"stv_port":27016,"stv_name":"Uncletopia | Warsaw | 1 | All Maps | STV","players":null},{"server_id":50,"name":"Uncletopia | Warsaw | 2 | All Maps","name_short":"waw-2","host":"waw-1.pl.uncletopia.com","port":27025,"enabled":true,"region":"eu","cc":"pl","latitude":52.2297,"longitude":21.017532,"reserved":0,"last_update":"0001-01-01T00:00:00Z","name_a2s":"Uncletopia | Warsaw | 2 | All Maps","protocol":17,"map":"pl_snowycoast","folder":"tf","game":"Team Fortress","app_id":440,"player_count":0,"max_players":24,"Bots":0,"server_type":"Dedicated","server_os":"Linux","password":true,"vac":true,"version":"7723704","steam_id":85568392925397851,"keywords":["nocrits","nodmgspread","payload","uncletopia"],"game_id":440,"stv_port":27026,"stv_name":"Uncletopia | Warsaw | 2 | All Maps | STV","players":null},{"server_id":51,"name":"Uncletopia | Warsaw | 3 | All Maps","name_short":"waw-3","host":"waw-1.pl.uncletopia.com","port":27035,"enabled":true,"region":"eu","cc":"pl","latitude":52.2297,"longitude":21.017532,"reserved":0,"last_update":"0001-01-01T00:00:00Z","name_a2s":"Uncletopia | Warsaw | 3 | All Maps","protocol":17,"map":"koth_lakeside_final","folder":"tf","game":"Team Fortress","app_id":440,"player_count":0,"max_players":24,"Bots":0,"server_type":"Dedicated","server_os":"Linux","password":true,"vac":true,"version":"7723704","steam_id":85568392925397852,"keywords":["cp","nocrits","nodmgspread","uncletopia"],"game_id":440,"stv_port":27036,"stv_name":"Uncletopia | Warsaw | 3 | All Maps | STV","players":null},{"server_id":52,"name":"Uncletopia | Warsaw | 4 | All Maps","name_short":"waw-4","host":"waw-1.pl.uncletopia.com","port":27045,"enabled":true,"region":"eu","cc":"pl","latitude":52.2297,"longitude":21.017532,"reserved":0,"last_update":"0001-01-01T00:00:00Z","name_a2s":"Uncletopia | Warsaw | 4 | All Maps","protocol":17,"map":"pl_upward","folder":"tf","game":"Team Fortress","app_id":440,"player_count":0,"max_players":24,"Bots":0,"server_type":"Dedicated","server_os":"Linux","password":true,"vac":true,"version":"7723704","steam_id":85568392925397853,"keywords":["nocrits","nodmgspread","payload","uncletopia"],"game_id":440,"stv_port":27046,"stv_name":"Uncletopia | Warsaw | 4 | All Maps | STV","players":null},{"server_id":53,"name":"Uncletopia | Warsaw | 5 | No Payload","name_short":"waw-5","host":"waw-1.pl.uncletopia.com","port":27055,"enabled":true,"region":"eu","cc":"pl","latitude":52.2297,"longitude":21.017532,"reserved":0,"last_update":"0001-01-01T00:00:00Z","name_a2s":"Uncletopia | Warsaw | 5 | No Payload","protocol":17,"map":"koth_highpass","folder":"tf","game":"Team Fortress","app_id":440,"player_count":0,"max_players":24,"Bots":0,"server_type":"Dedicated","server_os":"Linux","password":true,"vac":true,"version":"7723704","steam_id":85568392925397854,"keywords":["cp","nocrits","nodmgspread","uncletopia"],"game_id":440,"stv_port":27056,"stv_name":"Uncletopia | Warsaw | 5 | No Payload | STV","players":null},{"server_id":54,"name":"Uncletopia | Warsaw | 6 | Community","name_short":"waw-6","host":"waw-1.pl.uncletopia.com","port":27065,"enabled":true,"region":"eu","cc":"pl","latitude":52.2297,"longitude":21.017532,"reserved":0,"last_update":"0001-01-01T00:00:00Z","name_a2s":"Uncletopia | Warsaw | 6 | Community","protocol":17,"map":"koth_viaduct","folder":"tf","game":"Team Fortress","app_id":440,"player_count":0,"max_players":24,"Bots":0,"server_type":"Dedicated","server_os":"Linux","password":true,"vac":true,"version":"7723704","steam_id":85568392925397856,"keywords":["cp","nocrits","nodmgspread","uncletopia"],"game_id":440,"stv_port":27066,"stv_name":"Uncletopia | Warsaw | 6 | Community | STV","players":null}]}