{"status":true,"message":"","result":[{"server_id":9,"name":"Uncletopia | Atlanta | 1 | All Maps","name_short":"atl-1","host":"atl-1.us.uncletopia.com","port":27015,"enabled":true,"region":"us-east","cc":"us","latitude":33.753746,"longitude":-84.38633,"reserved":0,"last_update":"0001-01-01T00:00:00Z","name_a2s":"Uncletopia | Atlanta | 1 | All Maps","protocol":17,"map":"pl_goldrush","folder":"tf","game":"Team Fortress","app_id":440,"player_count":23,"max_players":24,"Bots":0,"server_type":"Dedicated","server_os":"Linux","password":true,"vac":true,"version":"7757534","steam_id":85568392924469982,"keywords":["nocrits","nodmgspread","payload","uncletopia"],"game_id":440,"stv_port":27016,"stv_name":"Uncletopia | Atlanta | 1 | All Maps | STV","players":[{"user_id":60,"name":"Teesitin","steam_id":76561198116147302,"connected_time":1146000000000,"state":"active","ping":86},{"user_id":50,"name":"Beefcake","steam_id":76561198973920703,"connected_time":1650000000000,"state":"active","ping":76},{"user_id":75,"name":"Bush.exe","steam_id":76561198124385307,"connected_time":90000000000,"state":"spawning","ping":125},{"user_id":49,"name":"Logan?","steam_id":76561198419450309,"connected_time":1705000000000,"state":"active","ping":69},{"user_id":48,"name":"JerlBays","steam_id":76561198096773292,"connected_time":1872000000000,"state":"active","ping":49},{"user_id":36,"name":"SCARY MONSTERS","steam_id":76561198042034176,"connected_time":3008000000000,"state":"active","ping":46},{"user_id":76,"name":"Torip","steam_id":76561198251665862,"connected_time":63000000000,"state":"active","ping":83},{"user_id":69,"name":"Mafia","steam_id":76561198225713512,"connected_time":300000000000,"state":"active","ping":76},{"user_id":77,"name":"AlexV_0","steam_id":76561199200780913,"connected_time":43000000000,"state":"active","ping":87},{"user_id":59,"name":"iNGNORX","steam_id":76561198807649258,"connected_time":1184000000000,"state":"active","ping":123},{"user_id":19,"name":"Wizowd","steam_id":76561198167702261,"connected_time":3564000000000,"state":"active","ping":113},{"user_id":64,"name":"floofy","steam_id":76561198389769098,"connected_time":325000000000,"state":"active","ping":83},{"user_id":65,"name":"The Horseless Headless Horseman","steam_id":76561198384098648,"connected_time":323000000000,"state":"active","ping":65},{"user_id":24,"name":"grrrrrrr","steam_id":76561199079513908,"connected_time":3401000000000,"state":"active","ping":161},{"user_id":39,"name":"GPLv2","steam_id":76561198113096772,"connected_time":2973000000000,"state":"active","ping":99},{"user_id":51,"name":"MasterGeek.MX","steam_id":76561198063355220,"connected_time":1581000000000,"state":"active","ping":103},{"user_id":45,"name":"Brown_Dream","steam_id":76561198975766145,"connected_time":2319000000000,"state":"active","ping":73},{"user_id":62,"name":"Violet42","steam_id":76561198072927887,"connected_time":661000000000,"state":"active","ping":60},{"user_id":72,"name":"89","steam_id":76561198106308056,"connected_time":249000000000,"state":"active","ping":100},{"user_id":73,"name":"Jester","steam_id":76561198156746320,"connected_time":221000000000,"state":"active","ping":62},{"user_id":53,"name":"Crackdealer2007","steam_id":76561199389283507,"connected_time":1531000000000,"state":"active","ping":128},{"user_id":55,"name":"GamingJoker2012","steam_id":76561198247589168,"connected_time":1318000000000,"state":"active","ping":51},{"user_id":68,"name":"paint pig","steam_id":76561198024817457,"connected_time":309000000000,"state":"active","ping":62}]},{"server_id":400,"name":"Uncletopia | Atlanta | 3 | Community","name_short":"atl-3","host":"atl-1.us.uncletopia.com","port":27035,"enabled":true,"region":"us-east","cc":"us","latitude":33.753746,"longitude":-84.38633,"reserved":0,"last_update":"0001-01-01T00:00:00Z","name_a2s":"Uncletopia | Atlanta | 3 | Community","protocol":17,"map":"workshop/koth_ramjam_rc1.ugc459778887","folder":"tf","game":"Team Fortress","app_id":440,"player_count":2,"max_players":24,"Bots":0,"server_type":"Dedicated","server_os":"Linux","password":true,"vac":true,"version":"7757534","steam_id":85568392924515187,"keywords":["cp","nocrits","nodmgspread","uncletopia"],"game_id":440,"stv_port":27036,"stv_name":"Uncletopia | Atlanta | 3 | Community | STV","players":[{"user_id":3,"name":"DrO.No.01","steam_id":76561198000663682,"connected_time":747000000000,"state":"active","ping":158},{"user_id":4,"name":"VirusGamingEXE #SaveTF2","steam_id":76561199012537997,"connected_time":744000000000,"state":"active","ping":162}]},{"server_id":401,"name":"Uncletopia | Atlanta | 4 | No Payload","name_short":"atl-4","host":"atl-1.us.uncletopia.com","port":27045,"enabled":true,"region":"us-east","cc":"us","latitude":33.753746,"longitude":-84.38633,"reserved":0,"last_update":"0001-01-01T00:00:00Z","name_a2s":"","protocol":0,"map":"","folder":"","game":"","app_id":0,"player_count":0,"max_players":0,"Bots":0,"server_type":"","server_os":"","password":false,"vac":false,"version":"","steam_id":0,"keywords":null,"game_id":0,"stv_port":0,"stv_name":"","players":null},{"server_id":2,"name":"Uncletopia | Chicago | 1 | All Maps","name_short":"chi-1","host":"chi-1.us.uncletopia.com","port":27015,"enabled":true,"region":"us-central","cc":"us","latitude":41.881832,"longitude":-87.62318,"reserved":0,"last_update":"0001-01-01T00:00:00Z","name_a2s":"Uncletopia | Chicago | 1 | All Maps","protocol":17,"map":"pl_badwater","folder":"tf","game":"Team Fortress","app_id":440,"player_count":24,"max_players":24,"Bots":0,"server_type":"Dedicated","server_os":"Linux","password":true,"vac":true,"version":"7757534","steam_id":85568392924469984,"keywords":["nocrits","nodmgspread","payload","uncletopia"],"game_id":440,"stv_port":27016,"stv_name":"Uncletopia | Chicago | 1 | All Maps | STV","players":[{"user_id":130,"name":"alcohol","steam_id":76561198328109873,"connected_time":828000000000,"state":"active","ping":78},{"user_id":77,"name":"FunGi","steam_id":76561198881418662,"connected_time":5920000000000,"state":"active","ping":79},{"user_id":138,"name":"gorilla","steam_id":76561199103766971,"connected_time":489000000000,"state":"active","ping":80},{"user_id":114,"name":"Dr. Bobo","steam_id":76561198271696761,"connected_time":2918000000000,"state":"active","ping":84},{"user_id":131,"name":"shake","steam_id":76561199064204750,"connected_time":824000000000,"state":"active","ping":79},{"user_id":143,"name":"Ventastega","steam_id":76561197999366317,"connected_time":256000000000,"state":"active","ping":95},{"user_id":136,"name":"Ranger Plague","steam_id":76561198174647666,"connected_time":703000000000,"state":"active","ping":83},{"user_id":123,"name":"Zetta","steam_id":76561198045710113,"connected_time":1933000000000,"state":"active","ping":100},{"user_id":125,"name":"im a pisces","steam_id":76561198063880315,"connected_time":867000000000,"state":"active","ping":103},{"user_id":139,"name":"oddlyobtuselemon1654","steam_id":76561198877069773,"connected_time":414000000000,"state":"active","ping":85},{"user_id":124,"name":"fancyfreak","steam_id":76561198326466375,"connected_time":1913000000000,"state":"active","ping":98},{"user_id":24,"name":"Luca!","steam_id":76561198137880777,"connected_time":8365000000000,"state":"active","ping":81},{"user_id":140,"name":"ryan2goofy","steam_id":76561198131488280,"connected_time":407000000000,"state":"active","ping":94},{"user_id":116,"name":"rice white","steam_id":76561198320732910,"connected_time":2826000000000,"state":"active","ping":75},{"user_id":129,"name":"NOT Susie Deltarune (not real)","steam_id":76561199007365488,"connected_time":853000000000,"state":"active","ping":75},{"user_id":134,"name":"Poppet","steam_id":76561198012301951,"connected_time":788000000000,"state":"active","ping":58},{"user_id":96,"name":"Fredrick","steam_id":76561197981419964,"connected_time":4425000000000,"state":"active","ping":70},{"user_id":127,"name":"Big Phony","steam_id":76561199092395311,"connected_time":860000000000,"state":"active","ping":69},{"user_id":137,"name":"LunarrD","steam_id":76561198811220107,"connected_time":585000000000,"state":"active","ping":82},{"user_id":142,"name":"HYPERBOREAN SPACE STONERS","steam_id":76561198158206236,"connected_time":297000000000,"state":"active","ping":105},{"user_id":34,"name":"Cunny Warrior 77","steam_id":76561198811760680,"connected_time":8224000000000,"state":"active","ping":111},{"user_id":128,"name":"TransWomanGaming","steam_id":76561198809645656,"connected_time":855000000000,"state":"active","ping":72},{"user_id":122,"name":"One Chill Daddio","steam_id":76561198074026282,"connected_time":2077000000000,"state":"active","ping":74},{"user_id":82,"name":"coolguy782","steam_id":76561198165212575,"connected_time":5472000000000,"state":"active","ping":62}]},{"server_id":106,"name":"Uncletopia | Chicago | 2 | All Maps","name_short":"chi-2","host":"chi-1.us.uncletopia.com","port":27025,"enabled":true,"region":"us-central","cc":"us","latitude":41.881832,"longitude":-87.62318,"reserved":0,"last_update":"0001-01-01T00:00:00Z","name_a2s":"Uncletopia | Chicago | 2 | All Maps","protocol":17,"map":"koth_cascade","folder":"tf","game":"Team Fortress","app_id":440,"player_count":0,"max_players":24,"Bots":0,"server_type":"Dedicated","server_os":"Linux","password":true,"vac":true,"version":"7757534","steam_id":85568392924469985,"keywords":["cp","nocrits","nodmgspread","uncletopia"],"game_id":440,"stv_port":27026,"stv_name":"Uncletopia | Chicago | 2 | All Maps | STV","players":null},{"server_id":402,"name":"Uncletopia | Chicago | 3 | All Maps","name_short":"chi-3","host":"chi-1.us.uncletopia.com","port":27035,"enabled":true,"region":"us-central","cc":"us","latitude":41.881832,"longitude":-87.62318,"reserved":0,"last_update":"0001-01-01T00:00:00Z","name_a2s":"Uncletopia | Chicago | 3 | All Maps","protocol":17,"map":"koth_cascade","folder":"tf","game":"Team Fortress","app_id":440,"player_count":0,"max_players":24,"Bots":0,"server_type":"Dedicated","server_os":"Linux","password":true,"vac":true,"version":"7757534","steam_id":85568392924515191,"keywords":["cp","nocrits","nodmgspread","uncletopia"],"game_id":440,"stv_port":27036,"stv_name":"Uncletopia | Chicago | 3 | All Maps | STV","players":null},{"server_id":403,"name":"Uncletopia | Chicago | 4 | All Maps","name_short":"chi-4","host":"chi-1.us.uncletopia.com","port":27045,"enabled":true,"region":"us-central","cc":"us","latitude":41.881832,"longitude":-87.62318,"reserved":0,"last_update":"0001-01-01T00:00:00Z","name_a2s":"Uncletopia | Chicago | 4 | All Maps","protocol":17,"map":"koth_cascade","folder":"tf","game":"Team Fortress","app_id":440,"player_count":0,"max_players":24,"Bots":0,"server_type":"Dedicated","server_os":"Linux","password":true,"vac":true,"version":"7757534","steam_id":85568392924515193,"keywords":["cp","nocrits","nodmgspread","uncletopia"],"game_id":440,"stv_port":27046,"stv_name":"Uncletopia | Chicago | 4 | All Maps | STV","players":null},{"server_id":36,"name":"Uncletopia | Chicago | 5 | All Maps","name_short":"chi-5","host":"chi-2.us.uncletopia.com","port":27015,"enabled":true,"region":"us-central","cc":"us","latitude":41.881832,"longitude":-87.62318,"reserved":0,"last_update":"0001-01-01T00:00:00Z","name_a2s":"Uncletopia | Chicago | 5 | All Maps","protocol":17,"map":"koth_lakeside_final","folder":"tf","game":"Team Fortress","app_id":440,"player_count":0,"max_players":24,"Bots":0,"server_type":"Dedicated","server_os":"Linux","password":true,"vac":true,"version":"7757534","steam_id":85568392924866362,"keywords":["cp","nocrits","nodmgspread","uncletopia"],"game_id":440,"stv_port":27016,"stv_name":"Uncletopia | Chicago | 5 | All Maps | STV","players":null},{"server_id":37,"name":"Uncletopia | Chicago | 6 | All Maps","name_short":"chi-6","host":"chi-2.us.uncletopia.com","port":27025,"enabled":true,"region":"us-central","cc":"us","latitude":41.881832,"longitude":-87.62318,"reserved":0,"last_update":"0001-01-01T00:00:00Z","name_a2s":"Uncletopia | Chicago | 6 | All Maps","protocol":17,"map":"pl_swiftwater_final1","folder":"tf","game":"Team Fortress","app_id":440,"player_count":0,"max_players":24,"Bots":0,"server_type":"Dedicated","server_os":"Linux","password":true,"vac":true,"version":"7757534","steam_id":85568392924866363,"keywords":["nocrits","nodmgspread","payload","uncletopia"],"game_id":440,"stv_port":27026,"stv_name":"Uncletopia | Chicago | 6 | All Maps | STV","players":null},{"server_id":38,"name":"Uncletopia | Chicago | 7 | Stopwatch Beta","name_short":"chi-7","host":"chi-2.us.uncletopia.com","port":27035,"enabled":true,"region":"us-central","cc":"us","latitude":41.881832,"longitude":-87.62318,"reserved":0,"last_update":"0001-01-01T00:00:00Z","name_a2s":"Uncletopia | Chicago | 7 | Stopwatch Beta","protocol":17,"map":"koth_viaduct","folder":"tf","game":"Team Fortress","app_id":440,"player_count":0,"max_players":24,"Bots":0,"server_type":"Dedicated","server_os":"Linux","password":true,"vac":true,"version":"7757534","steam_id":85568392924866364,"keywords":["cp","nocrits","nodmgspread","uncletopia"],"game_id":440,"stv_port":27036,"stv_name":"Uncletopia | Chicago | 7 | Stopwatch Beta | STV","players":null},{"server_id":39,"name":"Uncletopia | Chicago | 8 | Community","name_short":"chi-8","host":"chi-2.us.uncletopia.com","port":27045,"enabled":true,"region":"us-central","cc":"us","latitude":41.881832,"longitude":-87.62318,"reserved":0,"last_update":"0001-01-01T00:00:00Z","name_a2s":"Uncletopia | Chicago | 8 | Community","protocol":17,"map":"koth_lakeside_final","folder":"tf","game":"Team Fortress","app_id":440,"player_count":0,"max_players":24,"Bots":0,"server_type":"Dedicated","server_os":"Linux","password":true,"vac":true,"version":"7757534","steam_id":85568392924866365,"keywords":["cp","nocrits","nodmgspread","uncletopia"],"game_id":440,"stv_port":27046,"stv_name":"Uncletopia | Chicago | 8 | Community | STV","players":null},{"server_id":8,"name":"Uncletopia | Dallas | 1 | All Maps","name_short":"dal-1","host":"dal-1.us.uncletopia.com","port":27015,"enabled":true,"region":"us-central","cc":"us","latitude":32.779167,"longitude":-96.80889,"reserved":0,"last_update":"0001-01-01T00:00:00Z","name_a2s":"Uncletopia | Dallas | 1 | All Maps","protocol":17,"map":"koth_cascade","folder":"tf","game":"Team Fortress","app_id":440,"player_count":0,"max_players":24,"Bots":0,"server_type":"Dedicated","server_os":"Linux","password":true,"vac":true,"version":"7757534","steam_id":85568392924469986,"keywords":["cp","nocrits","nodmgspread","uncletopia"],"game_id":440,"stv_port":27016,"stv_name":"Uncletopia | Dallas | 1 | All Maps | STV","players":null},{"server_id":108,"name":"Uncletopia | Dallas | 2 | All Maps","name_short":"dal-2","host":"dal-1.us.uncletopia.com","port":27025,"enabled":true,"region":"us-central","cc":"us","latitude":32.779167,"longitude":-96.80889,"reserved":0,"last_update":"0001-01-01T00:00:00Z","name_a2s":"Uncletopia | Dallas | 2 | All Maps","protocol":17,"map":"koth_highpass","folder":"tf","game":"Team Fortress","app_id":440,"player_count":9,"max_players":24,"Bots":0,"server_type":"Dedicated","server_os":"Linux","password":true,"vac":true,"version":"7757534","steam_id":85568392924469988,"keywords":["cp","nocrits","nodmgspread","uncletopia"],"game_id":440,"stv_port":27026,"stv_name":"Uncletopia | Dallas | 2 | All Maps | STV","players":[{"user_id":22,"name":"Gibby","steam_id":76561199336569123,"connected_time":946000000000,"state":"active","ping":115},{"user_id":31,"name":"Nic0","steam_id":76561198305690218,"connected_time":199000000000,"state":"active","ping":87},{"user_id":30,"name":"Thy Haz Terrible Name","steam_id":76561198355457689,"connected_time":215000000000,"state":"active","ping":93},{"user_id":32,"name":"SL164","steam_id":76561197970800276,"connected_time":186000000000,"state":"active","ping":78},{"user_id":25,"name":"Alkimia","steam_id":76561198385763137,"connected_time":701000000000,"state":"active","ping":120},{"user_id":33,"name":"zzz","steam_id":76561198302976864,"connected_time":143000000000,"state":"active","ping":75},{"user_id":34,"name":"junki","steam_id":76561198353456379,"connected_time":133000000000,"state":"active","ping":60},{"user_id":35,"name":"MDD","steam_id":76561197998850659,"connected_time":105000000000,"state":"active","ping":88},{"user_id":36,"name":"Whip_the_Rabbit","steam_id":76561198049896057,"connected_time":68000000000,"state":"active","ping":88}]},{"server_id":5,"name":"Uncletopia | Frankfurt | 1 | All Maps","name_short":"frk-1","host":"frk-1.de.uncletopia.com","port":27015,"enabled":true,"region":"eu","cc":"de","latitude":50.110924,"longitude":8.682127,"reserved":0,"last_update":"0001-01-01T00:00:00Z","name_a2s":"Uncletopia | Frankfurt | 1 | All Maps","protocol":17,"map":"pl_snowycoast","folder":"tf","game":"Team Fortress","app_id":440,"player_count":24,"max_players":24,"Bots":0,"server_type":"Dedicated","server_os":"Linux","password":true,"vac":true,"version":"7757534","steam_id":85568392924469989,"keywords":["nocrits","nodmgspread","payload","uncletopia"],"game_id":440,"stv_port":27016,"stv_name":"Uncletopia | Frankfurt | 1 | All Maps | STV","players":[{"user_id":280,"name":"rein","steam_id":76561198067856323,"connected_time":1092000000000,"state":"active","ping":86},{"user_id":225,"name":"Mikeshowsha","steam_id":76561199114014127,"connected_time":3118000000000,"state":"active","ping":75},{"user_id":290,"name":"schlogy","steam_id":76561198129157178,"connected_time":45000000000,"state":"active","ping":94},{"user_id":255,"name":"GardenFungus","steam_id":76561198054894337,"connected_time":1926000000000,"state":"active","ping":60},{"user_id":268,"name":"Dorich","steam_id":76561198287126217,"connected_time":1310000000000,"state":"active","ping":59},{"user_id":269,"name":"hawkblob","steam_id":76561198803720565,"connected_time":1288000000000,"state":"active","ping":98},{"user_id":221,"name":"jt7","steam_id":76561198073655162,"connected_time":3630000000000,"state":"active","ping":68},{"user_id":224,"name":"Swaggot329","steam_id":76561198828503940,"connected_time":3133000000000,"state":"active","ping":82},{"user_id":284,"name":"Trebox78","steam_id":76561198071963357,"connected_time":901000000000,"state":"active","ping":85},{"user_id":271,"name":"Noob_with_source","steam_id":76561198870362103,"connected_time":1264000000000,"state":"active","ping":61},{"user_id":291,"name":"SCRAMMMBLED","steam_id":76561197998307746,"connected_time":43000000000,"state":"active","ping":67},{"user_id":281,"name":"devious looking apple","steam_id":76561198100414245,"connected_time":1070000000000,"state":"active","ping":71},{"user_id":285,"name":"YuraGreek","steam_id":76561198050182252,"connected_time":481000000000,"state":"active","ping":83},{"user_id":262,"name":"decommandpro","steam_id":76561198971647041,"connected_time":1610000000000,"state":"active","ping":78},{"user_id":272,"name":"Pyrolander","steam_id":76561198050785450,"connected_time":1226000000000,"state":"active","ping":53},{"user_id":273,"name":"Raulca25","steam_id":76561199068256964,"connected_time":1217000000000,"state":"active","ping":85},{"user_id":293,"name":"SammyDodgers","steam_id":76561198282901336,"connected_time":15000000000,"state":"spawning","ping":59},{"user_id":242,"name":"|-|ɅGBAЯD¢E£1N","steam_id":76561198103977997,"connected_time":2427000000000,"state":"active","ping":55},{"user_id":275,"name":"Kedy","steam_id":76561198308990457,"connected_time":1192000000000,"state":"active","ping":86},{"user_id":282,"name":"dane uncle","steam_id":76561199374351531,"connected_time":1002000000000,"state":"active","ping":71},{"user_id":279,"name":"Optimist 50","steam_id":76561198039631442,"connected_time":1127000000000,"state":"active","ping":82},{"user_id":286,"name":"Axio","steam_id":76561198046826031,"connected_time":444000000000,"state":"active","ping":85},{"user_id":288,"name":"mercenarypit","steam_id":76561198161935108,"connected_time":355000000000,"state":"active","ping":61},{"user_id":289,"name":"Over here saw bones","steam_id":76561198320506848,"connected_time":354000000000,"state":"active","ping":58}]},{"server_id":110,"name":"Uncletopia | Frankfurt | 2 | All Maps","name_short":"frk-2","host":"frk-1.de.uncletopia.com","port":27025,"enabled":true,"region":"eu","cc":"de","latitude":50.110924,"longitude":8.682127,"reserved":0,"last_update":"0001-01-01T00:00:00Z","name_a2s":"Uncletopia | Frankfurt | 2 | All Maps","protocol":17,"map":"cp_dustbowl","folder":"tf","game":"Team Fortress","app_id":440,"player_count":23,"max_players":24,"Bots":0,"server_type":"Dedicated","server_os":"Linux","password":true,"vac":true,"version":"7757534","steam_id":85568392924469990,"keywords":["cp","nocrits","nodmgspread","uncletopia"],"game_id":440,"stv_port":27026,"stv_name":"Uncletopia | Frankfurt | 2 | All Maps | STV","players":[{"user_id":13,"name":"Thales gaming","steam_id":76561198154569703,"connected_time":1918000000000,"state":"active","ping":78},{"user_id":50,"name":"sz(k)","steam_id":76561198118500940,"connected_time":231000000000,"state":"active","ping":61},{"user_id":52,"name":"NSaaby","steam_id":76561198109270277,"connected_time":213000000000,"state":"active","ping":81},{"user_id":18,"name":"♥ Grel ♥","steam_id":76561199372198864,"connected_time":1459000000000,"state":"active","ping":94},{"user_id":49,"name":"Aleknat","steam_id":76561198055379857,"connected_time":394000000000,"state":"active","ping":83},{"user_id":60,"name":"Chicker","steam_id":76561198809697283,"connected_time":90000000000,"state":"active","ping":52},{"user_id":23,"name":"commetteri","steam_id":76561198334136396,"connected_time":1052000000000,"state":"active","ping":56},{"user_id":17,"name":"quadr","steam_id":76561198871716755,"connected_time":1530000000000,"state":"active","ping":93},{"user_id":25,"name":"H2Orange","steam_id":76561198082128552,"connected_time":915000000000,"state":"active","ping":77},{"user_id":27,"name":"Int3rnet","steam_id":76561198049289285,"connected_time":827000000000,"state":"active","ping":61},{"user_id":54,"name":"F07Y","steam_id":76561199148365329,"connected_time":196000000000,"state":"active","ping":65},{"user_id":31,"name":"˹Fate's·Marionette˼","steam_id":76561198034197381,"connected_time":708000000000,"state":"active","ping":67},{"user_id":32,"name":"misky","steam_id":76561198179070173,"connected_time":682000000000,"state":"active","ping":49},{"user_id":34,"name":"gorztav :3","steam_id":76561199313282353,"connected_time":673000000000,"state":"active","ping":84},{"user_id":55,"name":"Manslayer","steam_id":76561198063956707,"connected_time":152000000000,"state":"active","ping":52},{"user_id":56,"name":"Hansi","steam_id":76561198035577047,"connected_time":141000000000,"state":"active","ping":48},{"user_id":57,"name":"DaOnePiss","steam_id":76561198121090644,"connected_time":115000000000,"state":"active","ping":95},{"user_id":45,"name":"Clitorina","steam_id":76561198077570815,"connected_time":564000000000,"state":"active","ping":56},{"user_id":58,"name":"Bezelutza_69","steam_id":76561199191532562,"connected_time":103000000000,"state":"active","ping":109},{"user_id":43,"name":"SKÚTER","steam_id":76561199262157623,"connected_time":581000000000,"state":"active","ping":67},{"user_id":46,"name":"somehow danced","steam_id":76561198128250460,"connected_time":559000000000,"state":"active","ping":98},{"user_id":47,"name":"Rosguard","steam_id":76561198030984263,"connected_time":547000000000,"state":"active","ping":55},{"user_id":48,"name":"Men Fortress 2","steam_id":76561197999459536,"connected_time":525000000000,"state":"active","ping":73}]},{"server_id":308,"name":"Uncletopia | Frankfurt | 3 | All Maps","name_short":"frk-3","host":"frk-1.de.uncletopia.com","port":27035,"enabled":true,"region":"eu","cc":"de","latitude":50.110924,"longitude":8.682127,"reserved":0,"last_update":"0001-01-01T00:00:00Z","name_a2s":"Uncletopia | Frankfurt | 3 | All Maps","protocol":17,"map":"koth_sawmill","folder":"tf","game":"Team Fortress","app_id":440,"player_count":0,"max_players":24,"Bots":0,"server_type":"Dedicated","server_os":"Linux","password":true,"vac":true,"version":"7757534","steam_id":85568392924504274,"keywords":["cp","nocrits","nodmgspread","uncletopia"],"game_id":440,"stv_port":27036,"stv_name":"Uncletopia | Frankfurt | 3 | All Maps | STV","players":null},{"server_id":309,"name":"Uncletopia | Frankfurt | 4 | All Maps","name_short":"frk-4","host":"frk-1.de.uncletopia.com","port":27045,"enabled":true,"region":"eu","cc":"de","latitude":50.110924,"longitude":8.682127,"reserved":0,"last_update":"0001-01-01T00:00:00Z","name_a2s":"Uncletopia | Frankfurt | 4 | All Maps","protocol":17,"map":"koth_cascade","folder":"tf","game":"Team Fortress","app_id":440,"player_count":0,"max_players":24,"Bots":0,"server_type":"Dedicated","server_os":"Linux","password":true,"vac":true,"version":"7757534","steam_id":85568392924504275,"keywords":["cp","nocrits","nodmgspread","uncletopia"],"game_id":440,"stv_port":27046,"stv_name":"Uncletopia | Frankfurt | 4 | All Maps | STV","players":null},{"server_id":310,"name":"Uncletopia | Frankfurt | 5 | All Maps","name_short":"frk-5","host":"frk-1.de.uncletopia.com","port":27055,"enabled":true,"region":"eu","cc":"de","latitude":50.110924,"longitude":8.682127,"reserved":0,"last_update":"0001-01-01T00:00:00Z","name_a2s":"Uncletopia | Frankfurt | 5 | All Maps","protocol":17,"map":"cp_badlands","folder":"tf","game":"Team Fortress","app_id":440,"player_count":24,"max_players":24,"Bots":0,"server_type":"Dedicated","server_os":"Linux","password":true,"vac":true,"version":"7757534","steam_id":85568392924504277,"keywords":["cp","nocrits","nodmgspread","uncletopia"],"game_id":440,"stv_port":27056,"stv_name":"Uncletopia | Frankfurt | 5 | All Maps | STV","players":[{"user_id":148,"name":"Mr. Mundy","steam_id":76561198132008918,"connected_time":1606000000000,"state":"active","ping":81},{"user_id":163,"name":"spiegelsberge","steam_id":76561199469797619,"connected_time":134000000000,"state":"active","ping":59},{"user_id":164,"name":"MEDiUM","steam_id":76561198112328561,"connected_time":109000000000,"state":"active","ping":88},{"user_id":135,"name":"Mel Rosewood","steam_id":76561198125380509,"connected_time":2312000000000,"state":"active","ping":61},{"user_id":79,"name":"duck with sandals","steam_id":76561199154410024,"connected_time":4799000000000,"state":"active","ping":68},{"user_id":162,"name":"lowdash","steam_id":76561198327827635,"connected_time":215000000000,"state":"active","ping":74},{"user_id":154,"name":"e36 1.8","steam_id":76561198134203031,"connected_time":1294000000000,"state":"active","ping":61},{"user_id":155,"name":"arturo.alvarez2010","steam_id":76561198296884835,"connected_time":1022000000000,"state":"active","ping":71},{"user_id":128,"name":"Nomad994","steam_id":76561198051908201,"connected_time":2525000000000,"state":"active","ping":85},{"user_id":124,"name":"SonicOverlordUK","steam_id":76561198094594015,"connected_time":2638000000000,"state":"active","ping":62},{"user_id":93,"name":"jona3838","steam_id":76561199097658195,"connected_time":4067000000000,"state":"active","ping":104},{"user_id":158,"name":"Caliban","steam_id":76561197999696839,"connected_time":815000000000,"state":"active","ping":100},{"user_id":159,"name":"metodmiha","steam_id":76561199111498575,"connected_time":782000000000,"state":"active","ping":75},{"user_id":130,"name":"Guru","steam_id":76561198093853069,"connected_time":2509000000000,"state":"active","ping":59},{"user_id":138,"name":"If I top 3 my team sucks","steam_id":76561198147668373,"connected_time":2237000000000,"state":"active","ping":138},{"user_id":133,"name":"Fishman","steam_id":76561198361331179,"connected_time":2465000000000,"state":"active","ping":67},{"user_id":139,"name":"Warpzel65","steam_id":76561198799303596,"connected_time":2226000000000,"state":"active","ping":105},{"user_id":151,"name":"yeldad","steam_id":76561198447264153,"connected_time":1505000000000,"state":"active","ping":110},{"user_id":140,"name":"oepidus","steam_id":76561198963841479,"connected_time":2191000000000,"state":"active","ping":87},{"user_id":157,"name":"Operation Bin Coup Hammer","steam_id":76561198449537647,"connected_time":850000000000,"state":"active","ping":70},{"user_id":160,"name":"Killscor","steam_id":76561198036370785,"connected_time":357000000000,"state":"active","ping":99},{"user_id":152,"name":"noobdog","steam_id":76561198036486671,"connected_time":1387000000000,"state":"active","ping":62},{"user_id":161,"name":"omony","steam_id":76561197983750025,"connected_time":226000000000,"state":"active","ping":89},{"user_id":123,"name":"Speedoe36","steam_id":76561198072774823,"connected_time":2797000000000,"state":"active","ping":98}]},{"server_id":311,"name":"Uncletopia | Frankfurt | 6 | All Maps","name_short":"frk-6","host":"frk-1.de.uncletopia.com","port":27065,"enabled":true,"region":"eu","cc":"de","latitude":50.110924,"longitude":8.682127,"reserved":0,"last_update":"0001-01-01T00:00:00Z","name_a2s":"Uncletopia | Frankfurt | 6 | All Maps","protocol":17,"map":"pl_upward","folder":"tf","game":"Team Fortress","app_id":440,"player_count":0,"max_players":24,"Bots":0,"server_type":"Dedicated","server_os":"Linux","password":true,"vac":true,"version":"7757534","steam_id":85568392924504278,"keywords":["nocrits","nodmgspread","payload","uncletopia"],"game_id":440,"stv_port":27066,"stv_name":"Uncletopia | Frankfurt | 6 | All Maps | STV","players":null},{"server_id":23,"name":"Uncletopia | Frankfurt | 7 | Stopwatch Beta","name_short":"frk-7","host":"frk-1.de.uncletopia.com","port":27075,"enabled":true,"region":"eu","cc":"de","latitude":50.110924,"longitude":8.682127,"reserved":0,"last_update":"0001-01-01T00:00:00Z","name_a2s":"Uncletopia | Frankfurt | 7 | Stopwatch Beta","protocol":17,"map":"pl_borneo","folder":"tf","game":"Team Fortress","app_id":440,"player_count":0,"max_players":24,"Bots":0,"server_type":"Dedicated","server_os":"Linux","password":true,"vac":true,"version":"7757534","steam_id":85568392924742827,"keywords":["nocrits","nodmgspread","payload","uncletopia"],"game_id":440,"stv_port":27076,"stv_name":"Uncletopia | Frankfurt | 7 | Stopwatch Beta | STV","players":null},{"server_id":24,"name":"Uncletopia | Frankfurt | 8 | Community","name_short":"frk-8","host":"frk-1.de.uncletopia.com","port":27085,"enabled":true,"region":"eu","cc":"de","latitude":50.110924,"longitude":8.682127,"reserved":0,"last_update":"0001-01-01T00:00:00Z","name_a2s":"Uncletopia | Frankfurt | 8 | Community","protocol":17,"map":"workshop/cp_glacier_rc6.ugc2905735376","folder":"tf","game":"Team Fortress","app_id":440,"player_count":24,"max_players":24,"Bots":0,"server_type":"Dedicated","server_os":"Linux","password":true,"vac":true,"version":"7757534","steam_id":85568392924742828,"keywords":["cp","nocrits","nodmgspread","uncletopia"],"game_id":440,"stv_port":27086,"stv_name":"Uncletopia | Frankfurt | 8 | Community | STV","players":[{"user_id":151,"name":"player","steam_id":76561198054474684,"connected_time":10654000000000,"state":"active","ping":74},{"user_id":298,"name":"=^_^=","steam_id":76561198076494034,"connected_time":3000000000000,"state":"active","ping":57},{"user_id":316,"name":"Chrikin","steam_id":76561198416301532,"connected_time":758000000000,"state":"active","ping":175},{"user_id":314,"name":"my wife left me","steam_id":76561198352727529,"connected_time":787000000000,"state":"active","ping":95},{"user_id":283,"name":"cislastar","steam_id":76561198027202375,"connected_time":3605000000000,"state":"active","ping":76},{"user_id":312,"name":"Mr Manager","steam_id":76561198021775885,"connected_time":911000000000,"state":"active","ping":58},{"user_id":293,"name":"midlpsyzl47","steam_id":76561199475972637,"connected_time":3197000000000,"state":"active","ping":70},{"user_id":319,"name":"Yangus","steam_id":76561198147796010,"connected_time":165000000000,"state":"active","ping":61},{"user_id":311,"name":"silicon based life form","steam_id":76561199127121346,"connected_time":1426000000000,"state":"active","ping":69},{"user_id":284,"name":"Aregularhuman","steam_id":76561198343319848,"connected_time":3575000000000,"state":"active","ping":45},{"user_id":266,"name":"Mi Manchi","steam_id":76561198171573129,"connected_time":4364000000000,"state":"active","ping":60},{"user_id":299,"name":"Mass","steam_id":76561198432195204,"connected_time":2882000000000,"state":"active","ping":57},{"user_id":320,"name":"Corpus Christi","steam_id":76561198417999443,"connected_time":92000000000,"state":"active","ping":94},{"user_id":318,"name":"fox^ #SaveTF2","steam_id":76561198173355995,"connected_time":539000000000,"state":"active","ping":76},{"user_id":315,"name":"Guy with squares as username","steam_id":76561198269524918,"connected_time":783000000000,"state":"active","ping":62},{"user_id":321,"name":"Catsanddogs123","steam_id":76561198030868386,"connected_time":76000000000,"state":"active","ping":105},{"user_id":66,"name":"Fat Pigeon","steam_id":76561198817940142,"connected_time":15060000000000,"state":"active","ping":53},{"user_id":323,"name":"Momovsky","steam_id":76561198005738407,"connected_time":41000000000,"state":"active","ping":85},{"user_id":244,"name":"yyny","steam_id":76561198066287297,"connected_time":5421000000000,"state":"active","ping":49},{"user_id":317,"name":"lab4","steam_id":76561198400350296,"connected_time":750000000000,"state":"active","ping":68},{"user_id":306,"name":"akakez","steam_id":76561198095432821,"connected_time":1715000000000,"state":"active","ping":121},{"user_id":324,"name":"Yassine","steam_id":76561198140565712,"connected_time":26000000000,"state":"spawning","ping":412},{"user_id":251,"name":"Charrky","steam_id":76561198054398642,"connected_time":4978000000000,"state":"active","ping":54},{"user_id":296,"name":"ムGeRmAn |×UA×ム","steam_id":76561199044754898,"connected_time":3101000000000,"state":"active","ping":72}]},{"server_id":202,"name":"Uncletopia | Hong Kong | 1 | All Maps","name_short":"hgk-1","host":"hgk-1.hk.uncletopia.com","port":27015,"enabled":true,"region":"asia","cc":"hk","latitude":22.302711,"longitude":114.177216,"reserved":0,"last_update":"0001-01-01T00:00:00Z","name_a2s":"Uncletopia | Hong Kong | 1 | All Maps","protocol":17,"map":"pl_upward","folder":"tf","game":"Team Fortress","app_id":440,"player_count":23,"max_players":24,"Bots":0,"server_type":"Dedicated","server_os":"Linux","password":true,"vac":true,"version":"7757534","steam_id":85568392924494504,"keywords":["nocrits","nodmgspread","payload","uncletopia"],"game_id":440,"stv_port":27016,"stv_name":"Uncletopia | Hong Kong | 1 | All Maps | STV","players":[{"user_id":771,"name":"김융털","steam_id":76561198230803876,"connected_time":323000000000,"state":"active","ping":165},{"user_id":681,"name":"you best not miss","steam_id":76561197999891358,"connected_time":4028000000000,"state":"active","ping":126},{"user_id":762,"name":"Jumanji™","steam_id":76561198431664383,"connected_time":779000000000,"state":"active","ping":60},{"user_id":756,"name":"hasi","steam_id":76561199186771164,"connected_time":1256000000000,"state":"active","ping":77},{"user_id":774,"name":"FETUS-EATER-1939","steam_id":76561198111611503,"connected_time":151000000000,"state":"active","ping":90},{"user_id":731,"name":"put dispenser here","steam_id":76561199189735185,"connected_time":2196000000000,"state":"active","ping":72},{"user_id":735,"name":"SunShine","steam_id":76561198323642446,"connected_time":1988000000000,"state":"active","ping":119},{"user_id":763,"name":"Epileptic Abuse is bad for you","steam_id":76561199221871877,"connected_time":687000000000,"state":"active","ping":69},{"user_id":737,"name":"Cotton Candyness","steam_id":76561198118254127,"connected_time":1913000000000,"state":"active","ping":61},{"user_id":717,"name":"screaming sniper","steam_id":76561199085568674,"connected_time":3022000000000,"state":"active","ping":86},{"user_id":692,"name":"edward","steam_id":76561198303255912,"connected_time":3627000000000,"state":"active","ping":62},{"user_id":581,"name":"母の肉団子@hao123.com","steam_id":76561198069561896,"connected_time":7942000000000,"state":"active","ping":42},{"user_id":719,"name":"Leo Chung","steam_id":76561198044007777,"connected_time":2953000000000,"state":"active","ping":63},{"user_id":765,"name":"spy-24(F2P)","steam_id":76561199474823259,"connected_time":601000000000,"state":"active","ping":77},{"user_id":758,"name":"17","steam_id":76561198241530712,"connected_time":1148000000000,"state":"active","ping":60},{"user_id":622,"name":"Bertengkar","steam_id":76561198213031155,"connected_time":5905000000000,"state":"active","ping":93},{"user_id":726,"name":"Azi","steam_id":76561198147872523,"connected_time":2517000000000,"state":"active","ping":71},{"user_id":744,"name":"Pillboi","steam_id":76561198011172886,"connected_time":1520000000000,"state":"active","ping":42},{"user_id":738,"name":"xX_thr0bb1ng_c0ck_Xx","steam_id":76561199248550099,"connected_time":1881000000000,"state":"active","ping":65},{"user_id":770,"name":"no vc no c","steam_id":76561197989503095,"connected_time":351000000000,"state":"active","ping":88},{"user_id":773,"name":"Kyo","steam_id":76561198088550274,"connected_time":262000000000,"state":"active","ping":44},{"user_id":746,"name":"Slim3rs","steam_id":76561199088010585,"connected_time":1463000000000,"state":"active","ping":171},{"user_id":684,"name":"Redegade","steam_id":76561198335619751,"connected_time":3876000000000,"state":"active","ping":121}]},{"server_id":1,"name":"Uncletopia | Los Angeles | 1 | All Maps","name_short":"lax-1","host":"lax-1.us.uncletopia.com","port":27015,"enabled":true,"region":"us-west","cc":"us","latitude":33.94279,"longitude":-118.41004,"reserved":0,"last_update":"0001-01-01T00:00:00Z","name_a2s":"Uncletopia | Los Angeles | 1 | All Maps","protocol":17,"map":"cp_process_final","folder":"tf","game":"Team Fortress","app_id":440,"player_count":0,"max_players":24,"Bots":0,"server_type":"Dedicated","server_os":"Linux","password":true,"vac":true,"version":"7757534","steam_id":85568392924469991,"keywords":["cp","nocrits","nodmgspread","uncletopia"],"game_id":440,"stv_port":27016,"stv_name":"Uncletopia | Los Angeles | 1 | All Maps | STV","players":null},{"server_id":112,"name":"Uncletopia | Los Angeles | 2 | All Maps","name_short":"lax-2","host":"lax-1.us.uncletopia.com","port":27025,"enabled":true,"region":"us-west","cc":"us","latitude":33.94279,"longitude":-118.41004,"reserved":0,"last_update":"0001-01-01T00:00:00Z","name_a2s":"Uncletopia | Los Angeles | 2 | All Maps","protocol":17,"map":"koth_viaduct","folder":"tf","game":"Team Fortress","app_id":440,"player_count":0,"max_players":24,"Bots":0,"server_type":"Dedicated","server_os":"Linux","password":true,"vac":true,"version":"7757534","steam_id":85568392924469992,"keywords":["cp","nocrits","nodmgspread","uncletopia"],"game_id":440,"stv_port":27026,"stv_name":"Uncletopia | Los Angeles | 2 | All Maps | STV","players":null},{"server_id":324,"name":"Uncletopia | Los Angeles | 3 | All Maps","name_short":"lax-3","host":"lax-1.us.uncletopia.com","port":27035,"enabled":true,"region":"us-west","cc":"us","latitude":33.94279,"longitude":-118.41004,"reserved":0,"last_update":"0001-01-01T00:00:00Z","name_a2s":"Uncletopia | Los Angeles | 3 | All Maps","protocol":17,"map":"cp_altitude","folder":"tf","game":"Team Fortress","app_id":440,"player_count":0,"max_players":24,"Bots":0,"server_type":"Dedicated","server_os":"Linux","password":true,"vac":true,"version":"7757534","steam_id":85568392924510198,"keywords":["cp","nocrits","nodmgspread","uncletopia"],"game_id":440,"stv_port":27036,"stv_name":"Uncletopia | Los Angeles | 3 | All Maps | STV","players":null},{"server_id":25,"name":"Uncletopia | Los Angeles | 4 | Stopwatch Beta","name_short":"lax-4","host":"lax-1.us.uncletopia.com","port":27045,"enabled":true,"region":"us-west","cc":"us","latitude":33.94279,"longitude":-118.41004,"reserved":0,"last_update":"0001-01-01T00:00:00Z","name_a2s":"Uncletopia | Los Angeles | 4 | Stopwatch Beta","protocol":17,"map":"cp_dustbowl","folder":"tf","game":"Team Fortress","app_id":440,"player_count":0,"max_players":24,"Bots":0,"server_type":"Dedicated","server_os":"Linux","password":true,"vac":true,"version":"7757534","steam_id":85568392924510199,"keywords":["cp","nocrits","nodmgspread","uncletopia"],"game_id":440,"stv_port":27046,"stv_name":"Uncletopia | Los Angeles | 4 | Stopwatch Beta | STV","players":null},{"server_id":11,"name":"Uncletopia | London | 1 | All Maps","name_short":"lon-1","host":"lon-1.uk.uncletopia.com","port":27015,"enabled":true,"region":"eu","cc":"gb","latitude":51.509865,"longitude":-0.118092,"reserved":0,"last_update":"0001-01-01T00:00:00Z","name_a2s":"Uncletopia | London | 1 | All Maps","protocol":17,"map":"koth_harvest_final","folder":"tf","game":"Team Fortress","app_id":440,"player_count":24,"max_players":24,"Bots":0,"server_type":"Dedicated","server_os":"Linux","password":true,"vac":true,"version":"7757534","steam_id":85568392924367362,"keywords":["cp","nocrits","nodmgspread","uncletopia"],"game_id":440,"stv_port":27016,"stv_name":"Uncletopia | London | 1 | All Maps | STV","players":[{"user_id":206,"name":"Flint","steam_id":76561198046885838,"connected_time":196000000000,"state":"active","ping":110},{"user_id":171,"name":"Kitfist","steam_id":76561198048559338,"connected_time":2294000000000,"state":"active","ping":43},{"user_id":170,"name":"Hussite","steam_id":76561199293036742,"connected_time":2299000000000,"state":"active","ping":68},{"user_id":105,"name":"jimbob","steam_id":76561198089322416,"connected_time":6529000000000,"state":"active","ping":90},{"user_id":94,"name":"ldshwt","steam_id":76561198090364357,"connected_time":7254000000000,"state":"active","ping":59},{"user_id":200,"name":"daanvanliempt05","steam_id":76561198355398948,"connected_time":732000000000,"state":"active","ping":45},{"user_id":155,"name":"Gimli","steam_id":76561198004149706,"connected_time":3850000000000,"state":"active","ping":69},{"user_id":198,"name":"TSAR FACE","steam_id":76561198822725169,"connected_time":985000000000,"state":"active","ping":52},{"user_id":201,"name":"Who?","steam_id":76561198271901063,"connected_time":716000000000,"state":"active","ping":52},{"user_id":62,"name":"Caerot","steam_id":76561198839000676,"connected_time":9541000000000,"state":"active","ping":70},{"user_id":205,"name":"john fortress","steam_id":76561198013237629,"connected_time":306000000000,"state":"active","ping":99},{"user_id":204,"name":"boofing prozac","steam_id":76561198851157897,"connected_time":684000000000,"state":"active","ping":64},{"user_id":165,"name":"fume.","steam_id":76561197960476801,"connected_time":3184000000000,"state":"active","ping":54},{"user_id":194,"name":"jefe","steam_id":76561199380849468,"connected_time":1090000000000,"state":"active","ping":61},{"user_id":202,"name":"ｌｏｌｉＢｏＢ","steam_id":76561198085716403,"connected_time":702000000000,"state":"active","ping":75},{"user_id":193,"name":"Craftosaur","steam_id":76561198087010552,"connected_time":1218000000000,"state":"active","ping":73},{"user_id":196,"name":"Night Fury","steam_id":76561197995207032,"connected_time":992000000000,"state":"active","ping":81},{"user_id":207,"name":"NLSAM","steam_id":76561199111154916,"connected_time":169000000000,"state":"active","ping":64},{"user_id":180,"name":"GhostJuice","steam_id":76561198164087698,"connected_time":1898000000000,"state":"active","ping":89},{"user_id":29,"name":"Birdseye","steam_id":76561198025852216,"connected_time":11869000000000,"state":"active","ping":54},{"user_id":182,"name":"jimmy bob","steam_id":76561198319583692,"connected_time":1820000000000,"state":"active","ping":60},{"user_id":184,"name":"Laru","steam_id":76561197998838438,"connected_time":1812000000000,"state":"active","ping":88},{"user_id":185,"name":"NöSTer","steam_id":76561198354649544,"connected_time":1753000000000,"state":"active","ping":74},{"user_id":203,"name":"subway vergil","steam_id":76561199110064166,"connected_time":696000000000,"state":"active","ping":59}]},{"server_id":114,"name":"Uncletopia | London | 2 | All Maps","name_short":"lon-2","host":"lon-1.uk.uncletopia.com","port":27025,"enabled":true,"region":"eu","cc":"gb","latitude":51.509865,"longitude":-0.118092,"reserved":0,"last_update":"0001-01-01T00:00:00Z","name_a2s":"Uncletopia | London | 2 | All Maps","protocol":17,"map":"pl_pier","folder":"tf","game":"Team Fortress","app_id":440,"player_count":24,"max_players":24,"Bots":0,"server_type":"Dedicated","server_os":"Linux","password":true,"vac":true,"version":"7757534","steam_id":85568392924470941,"keywords":["nocrits","nodmgspread","payload","uncletopia"],"game_id":440,"stv_port":27026,"stv_name":"Uncletopia | London | 2 | All Maps | STV","players":[{"user_id":455,"name":"RussianPingLord","steam_id":76561199055517485,"connected_time":973000000000,"state":"active","ping":146},{"user_id":359,"name":"nyanezt","steam_id":76561198253734265,"connected_time":8183000000000,"state":"active","ping":101},{"user_id":429,"name":"Fluffy","steam_id":76561198079404910,"connected_time":3151000000000,"state":"active","ping":84},{"user_id":440,"name":"Wattoz","steam_id":76561198127779511,"connected_time":2105000000000,"state":"active","ping":58},{"user_id":432,"name":"medium rare chicken enjoyer","steam_id":76561198050214002,"connected_time":2366000000000,"state":"active","ping":60},{"user_id":416,"name":"Qwertuss","steam_id":76561198026305366,"connected_time":4984000000000,"state":"active","ping":58},{"user_id":460,"name":"Weenie Hut Jr's","steam_id":76561198050515739,"connected_time":433000000000,"state":"active","ping":45},{"user_id":434,"name":"certified caber enjoyer","steam_id":76561199012488416,"connected_time":2199000000000,"state":"active","ping":86},{"user_id":456,"name":"Ansari","steam_id":76561198074982971,"connected_time":584000000000,"state":"active","ping":59},{"user_id":445,"name":"JohnnyRakieta","steam_id":76561198855789287,"connected_time":1929000000000,"state":"active","ping":66},{"user_id":448,"name":"Sou1Eater7","steam_id":76561198011330131,"connected_time":1728000000000,"state":"active","ping":166},{"user_id":431,"name":"cropping","steam_id":76561198026586456,"connected_time":2801000000000,"state":"active","ping":96},{"user_id":454,"name":"Mr. Pickles #SaveTF2","steam_id":76561199210183560,"connected_time":1012000000000,"state":"active","ping":127},{"user_id":426,"name":"Saken","steam_id":76561198049075295,"connected_time":3221000000000,"state":"active","ping":70},{"user_id":459,"name":"Der Geist des Hans Rosling","steam_id":76561198049231109,"connected_time":440000000000,"state":"active","ping":75},{"user_id":400,"name":"Squeaky","steam_id":76561198177338045,"connected_time":5556000000000,"state":"active","ping":45},{"user_id":451,"name":"Mr. Hunts","steam_id":76561197981910397,"connected_time":1539000000000,"state":"active","ping":60},{"user_id":433,"name":"lark","steam_id":76561198091724522,"connected_time":2314000000000,"state":"active","ping":57},{"user_id":421,"name":"addicted","steam_id":76561199129801006,"connected_time":3744000000000,"state":"active","ping":58},{"user_id":441,"name":"Pootis penser","steam_id":76561198944032480,"connected_time":2098000000000,"state":"active","ping":97},{"user_id":442,"name":"Arti","steam_id":76561197983352845,"connected_time":2035000000000,"state":"active","ping":60},{"user_id":458,"name":"meow","steam_id":76561198289343488,"connected_time":515000000000,"state":"active","ping":61},{"user_id":306,"name":"jar","steam_id":76561198156384007,"connected_time":11067000000000,"state":"active","ping":49},{"user_id":461,"name":"dos y medio","steam_id":76561198987740556,"connected_time":180000000000,"state":"active","ping":60}]},{"server_id":320,"name":"Uncletopia | London | 3 | All Maps","name_short":"lon-3","host":"lon-1.uk.uncletopia.com","port":27035,"enabled":true,"region":"eu","cc":"gb","latitude":51.509865,"longitude":-0.118092,"reserved":0,"last_update":"0001-01-01T00:00:00Z","name_a2s":"Uncletopia | London | 3 | All Maps","protocol":17,"map":"ctf_turbine","folder":"tf","game":"Team Fortress","app_id":440,"player_count":22,"max_players":24,"Bots":0,"server_type":"Dedicated","server_os":"Linux","password":true,"vac":true,"version":"7757534","steam_id":85568392924510192,"keywords":["ctf","nocrits","nodmgspread","uncletopia"],"game_id":440,"stv_port":27036,"stv_name":"Uncletopia | London | 3 | All Maps | STV","players":[{"user_id":183,"name":"porridge","steam_id":76561198044585737,"connected_time":9000000000,"state":"spawning","ping":47},{"user_id":31,"name":"Zonts","steam_id":76561198850176432,"connected_time":8924000000000,"state":"active","ping":89},{"user_id":129,"name":"HorizonPear","steam_id":76561198179808389,"connected_time":3958000000000,"state":"active","ping":136},{"user_id":168,"name":"dusty","steam_id":76561199011977567,"connected_time":1394000000000,"state":"active","ping":96},{"user_id":180,"name":"Mad Cat Kivima","steam_id":76561198028959678,"connected_time":283000000000,"state":"active","ping":105},{"user_id":181,"name":"schweppestr","steam_id":76561198037485644,"connected_time":262000000000,"state":"active","ping":45},{"user_id":182,"name":"lore","steam_id":76561198120984188,"connected_time":260000000000,"state":"active","ping":74},{"user_id":164,"name":"dotdotdot","steam_id":76561198057628751,"connected_time":1617000000000,"state":"active","ping":65},{"user_id":159,"name":"gamingchair","steam_id":76561199476396739,"connected_time":2025000000000,"state":"active","ping":92},{"user_id":174,"name":"BadLuckBard","steam_id":76561199404236041,"connected_time":642000000000,"state":"active","ping":50},{"user_id":62,"name":"Pinkchup","steam_id":76561198106802803,"connected_time":7882000000000,"state":"active","ping":74},{"user_id":40,"name":"Mayor Wank from Wanker Town","steam_id":76561197998253588,"connected_time":8640000000000,"state":"active","ping":57},{"user_id":149,"name":"Just_Random_Stuf","steam_id":76561199000503438,"connected_time":2868000000000,"state":"active","ping":54},{"user_id":177,"name":"Dr. Uberschwein","steam_id":76561198111367431,"connected_time":377000000000,"state":"active","ping":67},{"user_id":157,"name":"Flare","steam_id":76561198039098320,"connected_time":2248000000000,"state":"active","ping":47},{"user_id":169,"name":"Shawty","steam_id":76561198158631465,"connected_time":1319000000000,"state":"active","ping":76},{"user_id":144,"name":"AwterSix","steam_id":76561198042561678,"connected_time":3134000000000,"state":"active","ping":56},{"user_id":42,"name":"NABER","steam_id":76561198831465151,"connected_time":8603000000000,"state":"active","ping":95},{"user_id":171,"name":"V","steam_id":76561199006462039,"connected_time":1010000000000,"state":"active","ping":58},{"user_id":176,"name":"reaus","steam_id":76561198184346587,"connected_time":399000000000,"state":"active","ping":78},{"user_id":173,"name":"mmm delicious bullets","steam_id":76561198254664484,"connected_time":867000000000,"state":"active","ping":57},{"user_id":139,"name":"Pooryoungfrog","steam_id":76561199174779667,"connected_time":3648000000000,"state":"active","ping":155}]},{"server_id":321,"name":"Uncletopia | London | 4 | All Maps","name_short":"lon-4","host":"lon-1.uk.uncletopia.com","port":27045,"enabled":true,"region":"eu","cc":"gb","latitude":51.509865,"longitude":-0.118092,"reserved":0,"last_update":"0001-01-01T00:00:00Z","name_a2s":"Uncletopia | London | 4 | All Maps","protocol":17,"map":"pl_pier","folder":"tf","game":"Team Fortress","app_id":440,"player_count":24,"max_players":24,"Bots":0,"server_type":"Dedicated","server_os":"Linux","password":true,"vac":true,"version":"7757534","steam_id":85568392924510193,"keywords":["nocrits","nodmgspread","payload","uncletopia"],"game_id":440,"stv_port":27046,"stv_name":"Uncletopia | London | 4 | All Maps | STV","players":[{"user_id":353,"name":"Vaulter White","steam_id":76561198082177314,"connected_time":286000000000,"state":"active","ping":112},{"user_id":296,"name":"LOBZIK","steam_id":76561198114830120,"connected_time":4445000000000,"state":"active","ping":82},{"user_id":348,"name":"galad.game","steam_id":76561198336324159,"connected_time":495000000000,"state":"active","ping":67},{"user_id":301,"name":"Zerfesh","steam_id":76561198117534358,"connected_time":3808000000000,"state":"active","ping":97},{"user_id":344,"name":"Udinese Dion","steam_id":76561198067931573,"connected_time":583000000000,"state":"active","ping":53},{"user_id":271,"name":"XPullaHiiri","steam_id":76561198031652375,"connected_time":6118000000000,"state":"active","ping":96},{"user_id":349,"name":"XSCod","steam_id":76561198124586634,"connected_time":493000000000,"state":"active","ping":67},{"user_id":346,"name":"xd","steam_id":76561198066523881,"connected_time":574000000000,"state":"active","ping":63},{"user_id":355,"name":"rummy","steam_id":76561197997573379,"connected_time":230000000000,"state":"active","ping":46},{"user_id":237,"name":"competitively suicidal","steam_id":76561198193357946,"connected_time":7744000000000,"state":"active","ping":106},{"user_id":337,"name":"LSKi","steam_id":76561198215470228,"connected_time":1760000000000,"state":"active","ping":57},{"user_id":356,"name":"[OwO] shadow wolf","steam_id":76561198031573426,"connected_time":224000000000,"state":"active","ping":71},{"user_id":309,"name":"yawnn","steam_id":76561198088624259,"connected_time":3553000000000,"state":"active","ping":56},{"user_id":341,"name":"Boki","steam_id":76561198044553351,"connected_time":1526000000000,"state":"active","ping":75},{"user_id":347,"name":"Valoxi","steam_id":76561197995042938,"connected_time":571000000000,"state":"active","ping":70},{"user_id":298,"name":"MAKENTAKEN","steam_id":76561199127359587,"connected_time":4231000000000,"state":"active","ping":102},{"user_id":352,"name":"fallingpencil","steam_id":76561199230233148,"connected_time":383000000000,"state":"active","ping":62},{"user_id":335,"name":"Houlles","steam_id":76561198095277383,"connected_time":1925000000000,"state":"active","ping":55},{"user_id":327,"name":"Dlaf'rferg (she/her)","steam_id":76561198284744735,"connected_time":2313000000000,"state":"active","ping":56},{"user_id":351,"name":"blurst of times","steam_id":76561197972325640,"connected_time":473000000000,"state":"active","ping":48},{"user_id":328,"name":"Kiers","steam_id":76561198834266801,"connected_time":2302000000000,"state":"active","ping":75},{"user_id":277,"name":"walluu","steam_id":76561198121830870,"connected_time":5894000000000,"state":"active","ping":76},{"user_id":267,"name":"GuSkand","steam_id":76561198043775605,"connected_time":6377000000000,"state":"active","ping":96},{"user_id":333,"name":"relic_","steam_id":76561199053114167,"connected_time":1977000000000,"state":"active","ping":76}]},{"server_id":21,"name":"Uncletopia | London | 5 | All Maps","name_short":"lon-5","host":"lon-1.uk.uncletopia.com","port":27055,"enabled":true,"region":"eu","cc":"gb","latitude":51.509865,"longitude":-0.118092,"reserved":0,"last_update":"0001-01-01T00:00:00Z","name_a2s":"Uncletopia | London | 5 | All Maps","protocol":17,"map":"pl_badwater","folder":"tf","game":"Team Fortress","app_id":440,"player_count":17,"max_players":24,"Bots":0,"server_type":"Dedicated","server_os":"Linux","password":true,"vac":true,"version":"7757534","steam_id":85568392924742829,"keywords":["nocrits","nodmgspread","payload","uncletopia"],"game_id":440,"stv_port":27056,"stv_name":"Uncletopia | London | 5 | All Maps | STV","players":[{"user_id":9,"name":"toxxy the trash","steam_id":76561198279983364,"connected_time":2022000000000,"state":"active","ping":68},{"user_id":10,"name":"medium rare chicken","steam_id":76561198059496944,"connected_time":2015000000000,"state":"active","ping":43},{"user_id":11,"name":"Saturn","steam_id":76561199239752278,"connected_time":1419000000000,"state":"active","ping":136},{"user_id":12,"name":"Yifenifen","steam_id":76561198313759737,"connected_time":1328000000000,"state":"active","ping":56},{"user_id":13,"name":"the","steam_id":76561198293567489,"connected_time":1163000000000,"state":"active","ping":73},{"user_id":17,"name":"HeavySandvichGuy69","steam_id":76561198873995886,"connected_time":515000000000,"state":"active","ping":58},{"user_id":19,"name":"How can I be homophobic?","steam_id":76561198152813004,"connected_time":461000000000,"state":"active","ping":46},{"user_id":20,"name":"arty","steam_id":76561198007971021,"connected_time":439000000000,"state":"active","ping":47},{"user_id":21,"name":"Lyell","steam_id":76561198350329389,"connected_time":360000000000,"state":"active","ping":70},{"user_id":37,"name":"R3inis","steam_id":76561199030393569,"connected_time":241000000000,"state":"active","ping":85},{"user_id":23,"name":"limbicsystem","steam_id":76561198025612680,"connected_time":297000000000,"state":"active","ping":57},{"user_id":42,"name":"Chocofrolik","steam_id":76561198454779847,"connected_time":116000000000,"state":"active","ping":65},{"user_id":39,"name":"Mury","steam_id":76561198069743049,"connected_time":181000000000,"state":"active","ping":129},{"user_id":43,"name":"yayayuyu121","steam_id":76561199271895855,"connected_time":85000000000,"state":"active","ping":152},{"user_id":27,"name":"jojobinks613","steam_id":76561198841293111,"connected_time":260000000000,"state":"active","ping":143},{"user_id":40,"name":"Depression","steam_id":76561198255311543,"connected_time":159000000000,"state":"active","ping":149},{"user_id":41,"name":"curry \u0026 rice diet","steam_id":76561198116736622,"connected_time":141000000000,"state":"active","ping":75}]},{"server_id":22,"name":"Uncletopia | London | 6 | All Maps","name_short":"lon-6","host":"lon-1.uk.uncletopia.com","port":27065,"enabled":true,"region":"eu","cc":"gb","latitude":51.509865,"longitude":-0.118092,"reserved":0,"last_update":"0001-01-01T00:00:00Z","name_a2s":"Uncletopia | London | 6 | All Maps","protocol":17,"map":"pl_badwater","folder":"tf","game":"Team Fortress","app_id":440,"player_count":24,"max_players":24,"Bots":0,"server_type":"Dedicated","server_os":"Linux","password":true,"vac":true,"version":"7757534","steam_id":85568392924742830,"keywords":["nocrits","nodmgspread","payload","uncletopia"],"game_id":440,"stv_port":27066,"stv_name":"Uncletopia | London | 6 | All Maps | STV","players":[{"user_id":261,"name":"sven5011","steam_id":76561198064398200,"connected_time":1462000000000,"state":"active","ping":68},{"user_id":283,"name":"Bananas.","steam_id":76561198274105878,"connected_time":834000000000,"state":"active","ping":91},{"user_id":284,"name":"Ashman0116","steam_id":76561198367986558,"connected_time":810000000000,"state":"active","ping":162},{"user_id":287,"name":"Frobmiak","steam_id":76561198088811544,"connected_time":618000000000,"state":"active","ping":76},{"user_id":285,"name":"SupremeMug","steam_id":76561198267577251,"connected_time":808000000000,"state":"active","ping":74},{"user_id":289,"name":"VolcanicArts","steam_id":76561198063453246,"connected_time":406000000000,"state":"active","ping":48},{"user_id":254,"name":"Tomau5","steam_id":76561198027409468,"connected_time":1688000000000,"state":"active","ping":55},{"user_id":235,"name":"TheBeardedM1G","steam_id":76561198040208946,"connected_time":3943000000000,"state":"active","ping":55},{"user_id":237,"name":"Proud Jojo Fan #TF2SP","steam_id":76561198847327216,"connected_time":3486000000000,"state":"active","ping":72},{"user_id":286,"name":"leonardini.w","steam_id":76561199097963071,"connected_time":801000000000,"state":"active","ping":89},{"user_id":288,"name":"hichem","steam_id":76561198056197307,"connected_time":505000000000,"state":"active","ping":46},{"user_id":290,"name":"rurf","steam_id":76561198107329296,"connected_time":381000000000,"state":"active","ping":64},{"user_id":278,"name":"annoying bot","steam_id":76561198049312442,"connected_time":1076000000000,"state":"active","ping":51},{"user_id":280,"name":"GamingCarp","steam_id":76561198285235511,"connected_time":979000000000,"state":"active","ping":48},{"user_id":270,"name":"puck_panzer","steam_id":76561198121260981,"connected_time":1157000000000,"state":"active","ping":38},{"user_id":271,"name":"Elfie","steam_id":76561198206802255,"connected_time":1149000000000,"state":"active","ping":72},{"user_id":272,"name":"Napole","steam_id":76561198267530436,"connected_time":1144000000000,"state":"active","ping":108},{"user_id":273,"name":"TerraformerBeing","steam_id":76561198281011934,"connected_time":1143000000000,"state":"active","ping":92},{"user_id":274,"name":"George","steam_id":76561198020046873,"connected_time":1116000000000,"state":"active","ping":148},{"user_id":275,"name":"BIGGERDANGO","steam_id":76561198247876394,"connected_time":1106000000000,"state":"active","ping":52},{"user_id":279,"name":"Shrimpeee","steam_id":76561199012689768,"connected_time":1011000000000,"state":"active","ping":69},{"user_id":232,"name":"Largo","steam_id":76561198844368927,"connected_time":4314000000000,"state":"active","ping":73},{"user_id":124,"name":"Wardruna96","steam_id":76561199057083828,"connected_time":11558000000000,"state":"active","ping":89},{"user_id":238,"name":"DrExplosive","steam_id":76561198063678579,"connected_time":3372000000000,"state":"active","ping":53}]},{"server_id":40,"name":"Uncletopia | London | 7 | No Payload","name_short":"lon-7","host":"lon-1.uk.uncletopia.com","port":27075,"enabled":true,"region":"eu","cc":"gb","latitude":51.509865,"longitude":-0.118092,"reserved":0,"last_update":"0001-01-01T00:00:00Z","name_a2s":"Uncletopia | London | 7 | No Payload","protocol":17,"map":"cp_yukon_final","folder":"tf","game":"Team Fortress","app_id":440,"player_count":2,"max_players":24,"Bots":0,"server_type":"Dedicated","server_os":"Linux","password":true,"vac":true,"version":"7757534","steam_id":85568392924964314,"keywords":["cp","nocrits","nodmgspread","uncletopia"],"game_id":440,"stv_port":27076,"stv_name":"Uncletopia | London | 7 | No Payload | STV","players":[{"user_id":15,"name":"ran is running","steam_id":76561199443185667,"connected_time":809000000000,"state":"active","ping":132},{"user_id":16,"name":"justin_ (f2p) (real)","steam_id":76561198839843428,"connected_time":799000000000,"state":"active","ping":120}]},{"server_id":41,"name":"Uncletopia | London | 8 | Community","name_short":"lon-8","host":"lon-1.uk.uncletopia.com","port":27085,"enabled":true,"region":"eu","cc":"gb","latitude":51.509865,"longitude":-0.118092,"reserved":0,"last_update":"0001-01-01T00:00:00Z","name_a2s":"Uncletopia | London | 8 | Community","protocol":17,"map":"workshop/koth_kemptown_rc1.ugc767410655","folder":"tf","game":"Team Fortress","app_id":440,"player_count":0,"max_players":24,"Bots":0,"server_type":"Dedicated","server_os":"Linux","password":true,"vac":true,"version":"7757534","steam_id":85568392924964315,"keywords":["cp","nocrits","nodmgspread","uncletopia"],"game_id":440,"stv_port":27086,"stv_name":"Uncletopia | London | 8 | Community | STV","players":null},{"server_id":300,"name":"Uncletopia | Montréal | 1 | All Maps","name_short":"mtl-1","host":"mtl-1.ca.uncletopia.com","port":27015,"enabled":true,"region":"us-east","cc":"ca","latitude":45.50889,"longitude":-73.56167,"reserved":0,"last_update":"0001-01-01T00:00:00Z","name_a2s":"Uncletopia | Montréal | 1 | All Maps","protocol":17,"map":"pl_pier","folder":"tf","game":"Team Fortress","app_id":440,"player_count":0,"max_players":24,"Bots":0,"server_type":"Dedicated","server_os":"Linux","password":true,"vac":true,"version":"7757534","steam_id":85568392924500087,"keywords":["nocrits","nodmgspread","payload","uncletopia"],"game_id":440,"stv_port":27016,"stv_name":"Uncletopia | Montréal | 1 | All Maps | STV","players":null},{"server_id":301,"name":"Uncletopia | Montréal | 2 | All Maps","name_short":"mtl-2","host":"mtl-1.ca.uncletopia.com","port":27025,"enabled":true,"region":"us-east","cc":"ca","latitude":45.50889,"longitude":-73.56167,"reserved":0,"last_update":"0001-01-01T00:00:00Z","name_a2s":"Uncletopia | Montréal | 2 | All Maps","protocol":17,"map":"cp_sunshine","folder":"tf","game":"Team Fortress","app_id":440,"player_count":0,"max_players":24,"Bots":0,"server_type":"Dedicated","server_os":"Linux","password":true,"vac":true,"version":"7757534","steam_id":85568392924500088,"keywords":["cp","nocrits","nodmgspread","uncletopia"],"game_id":440,"stv_port":27026,"stv_name":"Uncletopia | Montréal | 2 | All Maps | STV","players":null},{"server_id":302,"name":"Uncletopia | Montréal | 3 | All Maps","name_short":"mtl-3","host":"mtl-1.ca.uncletopia.com","port":27035,"enabled":true,"region":"us-east","cc":"ca","latitude":45.50889,"longitude":-73.56167,"reserved":0,"last_update":"0001-01-01T00:00:00Z","name_a2s":"Uncletopia | Montréal | 3 | All Maps","protocol":17,"map":"pl_frontier_final","folder":"tf","game":"Team Fortress","app_id":440,"player_count":0,"max_players":24,"Bots":0,"server_type":"Dedicated","server_os":"Linux","password":true,"vac":true,"version":"7757534","steam_id":85568392924500089,"keywords":["nocrits","nodmgspread","payload","uncletopia"],"game_id":440,"stv_port":27036,"stv_name":"Uncletopia | Montréal | 3 | All Maps | STV","players":null},{"server_id":303,"name":"Uncletopia | Montréal | 4 | No Payload","name_short":"mtl-4","host":"mtl-1.ca.uncletopia.com","port":27045,"enabled":true,"region":"us-east","cc":"ca","latitude":45.50889,"longitude":-73.56167,"reserved":0,"last_update":"0001-01-01T00:00:00Z","name_a2s":"Uncletopia | Montréal | 4 | No Payload","protocol":17,"map":"cp_well","folder":"tf","game":"Team Fortress","app_id":440,"player_count":0,"max_players":24,"Bots":0,"server_type":"Dedicated","server_os":"Linux","password":true,"vac":true,"version":"7757534","steam_id":85568392924500090,"keywords":["cp","nocrits","nodmgspread","uncletopia"],"game_id":440,"stv_port":27046,"stv_name":"Uncletopia | Montréal | 4 | No Payload | STV","players":null},{"server_id":13,"name":"Uncletopia | New York City | 1 | All Maps","name_short":"nyc-1","host":"nyc-1.us.uncletopia.com","port":27015,"enabled":true,"region":"us-east","cc":"us","latitude":40.73061,"longitude":-73.93524,"reserved":0,"last_update":"0001-01-01T00:00:00Z","name_a2s":"Uncletopia | New York City | 1 | All Maps","protocol":17,"map":"pl_pier","folder":"tf","game":"Team Fortress","app_id":440,"player_count":0,"max_players":24,"Bots":0,"server_type":"Dedicated","server_os":"Linux","password":true,"vac":true,"version":"7757534","steam_id":85568392924469993,"keywords":["nocrits","nodmgspread","payload","uncletopia"],"game_id":440,"stv_port":27016,"stv_name":"Uncletopia | New York City | 1 | All Maps | STV","players":null},{"server_id":14,"name":"Uncletopia | New York City | 2 | All Maps","name_short":"nyc-2","host":"nyc-1.us.uncletopia.com","port":27025,"enabled":true,"region":"us-east","cc":"us","latitude":40.73061,"longitude":-73.93524,"reserved":0,"last_update":"0001-01-01T00:00:00Z","name_a2s":"Uncletopia | New York City | 2 | All Maps","protocol":17,"map":"pl_upward","folder":"tf","game":"Team Fortress","app_id":440,"player_count":0,"max_players":24,"Bots":0,"server_type":"Dedicated","server_os":"Linux","password":true,"vac":true,"version":"7757534","steam_id":85568392924469994,"keywords":["nocrits","nodmgspread","payload","uncletopia"],"game_id":440,"stv_port":27026,"stv_name":"Uncletopia | New York City | 2 | All Maps | STV","players":null},{"server_id":15,"name":"Uncletopia | New York City | 3 | Stopwatch Beta","name_short":"nyc-3","host":"nyc-1.us.uncletopia.com","port":27035,"enabled":true,"region":"us-east","cc":"us","latitude":40.73061,"longitude":-73.93524,"reserved":0,"last_update":"0001-01-01T00:00:00Z","name_a2s":"Uncletopia | New York City | 3 | Stopwatch Beta","protocol":17,"map":"koth_cascade","folder":"tf","game":"Team Fortress","app_id":440,"player_count":0,"max_players":24,"Bots":0,"server_type":"Dedicated","server_os":"Linux","password":true,"vac":true,"version":"7757534","steam_id":85568392924742820,"keywords":["cp","nocrits","nodmgspread","uncletopia"],"game_id":440,"stv_port":27036,"stv_name":"Uncletopia | New York City | 3 | Stopwatch Beta | STV","players":null},{"server_id":16,"name":"Uncletopia | New York City | 4 | Community","name_short":"nyc-4","host":"nyc-1.us.uncletopia.com","port":27045,"enabled":true,"region":"us-east","cc":"us","latitude":40.73061,"longitude":-73.93524,"reserved":0,"last_update":"0001-01-01T00:00:00Z","name_a2s":"Uncletopia | New York City | 4 | Community","protocol":17,"map":"pl_frontier_final","folder":"tf","game":"Team Fortress","app_id":440,"player_count":0,"max_players":24,"Bots":0,"server_type":"Dedicated","server_os":"Linux","password":true,"vac":true,"version":"7757534","steam_id":85568392924742821,"keywords":["nocrits","nodmgspread","payload","uncletopia"],"game_id":440,"stv_port":27046,"stv_name":"Uncletopia | New York City | 4 | Community | STV","players":null},{"server_id":142,"name":"Uncletopia | São Paulo | 1 | All Maps","name_short":"sao-1","host":"sao-1.br.uncletopia.com","port":27015,"enabled":true,"region":"sa","cc":"br","latitude":-23.533773,"longitude":-46.62529,"reserved":0,"last_update":"0001-01-01T00:00:00Z","name_a2s":"Uncletopia | São Paulo | 1 | All Maps","protocol":17,"map":"cp_altitude","folder":"tf","game":"Team Fortress","app_id":440,"player_count":0,"max_players":24,"Bots":0,"server_type":"Dedicated","server_os":"Linux","password":true,"vac":true,"version":"7757534","steam_id":85568392924469996,"keywords":["cp","nocrits","nodmgspread","uncletopia"],"game_id":440,"stv_port":27016,"stv_name":"Uncletopia | São Paulo | 1 | All Maps | STV","players":null},{"server_id":143,"name":"Uncletopia | São Paulo | 2 | All Maps","name_short":"sao-2","host":"sao-2.br.uncletopia.com","port":27015,"enabled":true,"region":"sa","cc":"br","latitude":-23.533773,"longitude":-46.62529,"reserved":0,"last_update":"0001-01-01T00:00:00Z","name_a2s":"Uncletopia | São Paulo | 2 | All Maps","protocol":17,"map":"koth_viaduct","folder":"tf","game":"Team Fortress","app_id":440,"player_count":0,"max_players":24,"Bots":0,"server_type":"Dedicated","server_os":"Linux","password":true,"vac":true,"version":"7757534","steam_id":85568392924485349,"keywords":["cp","nocrits","nodmgspread","uncletopia"],"game_id":440,"stv_port":27016,"stv_name":"Uncletopia | São Paulo | 2 | All Maps | STV","players":null},{"server_id":7,"name":"Uncletopia | Seattle | 1 | All Maps","name_short":"sea-1","host":"sea-1.us.uncletopia.com","port":27015,"enabled":true,"region":"us-west","cc":"us","latitude":47.608013,"longitude":-122.33517,"reserved":0,"last_update":"0001-01-01T00:00:00Z","name_a2s":"Uncletopia | Seattle | 1 | All Maps","protocol":17,"map":"pl_upward","folder":"tf","game":"Team Fortress","app_id":440,"player_count":24,"max_players":24,"Bots":0,"server_type":"Dedicated","server_os":"Linux","password":true,"vac":true,"version":"7757534","steam_id":85568392924469997,"keywords":["nocrits","nodmgspread","payload","uncletopia"],"game_id":440,"stv_port":27016,"stv_name":"Uncletopia | Seattle | 1 | All Maps | STV","players":[{"user_id":3,"name":"Futa Lover","steam_id":76561198056775795,"connected_time":2474000000000,"state":"active","ping":119},{"user_id":4,"name":"cesarleonfuentes","steam_id":76561198248461754,"connected_time":2473000000000,"state":"active","ping":73},{"user_id":5,"name":"Winter","steam_id":76561198312741335,"connected_time":2472000000000,"state":"active","ping":121},{"user_id":36,"name":"Schnitz","steam_id":76561198265484253,"connected_time":1265000000000,"state":"active","ping":80},{"user_id":7,"name":"Little Linguine","steam_id":76561198816986370,"connected_time":2465000000000,"state":"active","ping":59},{"user_id":33,"name":"Krampus","steam_id":76561198137530703,"connected_time":1456000000000,"state":"active","ping":116},{"user_id":9,"name":"Doivan Ivan","steam_id":76561199096260479,"connected_time":2444000000000,"state":"active","ping":143},{"user_id":45,"name":"○","steam_id":76561198034560063,"connected_time":761000000000,"state":"active","ping":138},{"user_id":41,"name":"Chip bag","steam_id":76561198329455575,"connected_time":1061000000000,"state":"active","ping":157},{"user_id":13,"name":"Zorlovo","steam_id":76561198006443283,"connected_time":2332000000000,"state":"active","ping":101},{"user_id":14,"name":"Hampter","steam_id":76561198069524089,"connected_time":2310000000000,"state":"active","ping":85},{"user_id":47,"name":"lolletsdothis","steam_id":76561199447017099,"connected_time":176000000000,"state":"active","ping":189},{"user_id":16,"name":"manbearswineflu","steam_id":76561198083945137,"connected_time":2230000000000,"state":"active","ping":111},{"user_id":18,"name":"Captain Dain","steam_id":76561198204045832,"connected_time":2208000000000,"state":"active","ping":111},{"user_id":30,"name":"Goob","steam_id":76561198256918638,"connected_time":1693000000000,"state":"active","ping":60},{"user_id":43,"name":"(^._.^)","steam_id":76561198971354161,"connected_time":878000000000,"state":"active","ping":116},{"user_id":24,"name":"Smiles","steam_id":76561198107197973,"connected_time":1904000000000,"state":"active","ping":66},{"user_id":23,"name":"Also UbeR","steam_id":76561198166926843,"connected_time":1987000000000,"state":"active","ping":77},{"user_id":26,"name":"Mr.Bady","steam_id":76561199094651706,"connected_time":1829000000000,"state":"active","ping":121},{"user_id":27,"name":"Mico (ENA Enthusiast)","steam_id":76561198125462953,"connected_time":1775000000000,"state":"active","ping":45},{"user_id":40,"name":"Fox","steam_id":76561198063507627,"connected_time":1114000000000,"state":"active","ping":87},{"user_id":32,"name":"Braain the Space Guy","steam_id":76561198091640060,"connected_time":1486000000000,"state":"active","ping":94},{"user_id":46,"name":"SIR YES SIR","steam_id":76561199382661194,"connected_time":486000000000,"state":"active","ping":71},{"user_id":35,"name":"Where have you been?","steam_id":76561198798931344,"connected_time":1412000000000,"state":"active","ping":55}]},{"server_id":119,"name":"Uncletopia | Seattle | 2 | All Maps","name_short":"sea-2","host":"sea-1.us.uncletopia.com","port":27025,"enabled":true,"region":"us-west","cc":"us","latitude":47.608013,"longitude":-122.33517,"reserved":0,"last_update":"0001-01-01T00:00:00Z","name_a2s":"Uncletopia | Seattle | 2 | All Maps","protocol":17,"map":"pl_barnblitz","folder":"tf","game":"Team Fortress","app_id":440,"player_count":0,"max_players":24,"Bots":0,"server_type":"Dedicated","server_os":"Linux","password":true,"vac":true,"version":"7757534","steam_id":85568392924469998,"keywords":["nocrits","nodmgspread","payload","uncletopia"],"game_id":440,"stv_port":27026,"stv_name":"Uncletopia | Seattle | 2 | All Maps | STV","players":null},{"server_id":406,"name":"Uncletopia | Seattle | 3 | Stopwatch Beta","name_short":"sea-3","host":"sea-1.us.uncletopia.com","port":27035,"enabled":true,"region":"us-west","cc":"us","latitude":47.608013,"longitude":-122.33517,"reserved":0,"last_update":"0001-01-01T00:00:00Z","name_a2s":"Uncletopia | Seattle | 3 | Stopwatch Beta","protocol":17,"map":"cp_gullywash_final1","folder":"tf","game":"Team Fortress","app_id":440,"player_count":1,"max_players":24,"Bots":0,"server_type":"Dedicated","server_os":"Linux","password":true,"vac":true,"version":"7757534","steam_id":85568392924515217,"keywords":["cp","nocrits","nodmgspread","uncletopia"],"game_id":440,"stv_port":27036,"stv_name":"Uncletopia | Seattle | 3 | Stopwatch Beta | STV","players":[{"user_id":3,"name":"Cloud","steam_id":76561198272454184,"connected_time":632000000000,"state":"active","ping":175}]},{"server_id":17,"name":"Uncletopia | San Francisco | 1 | All Maps","name_short":"sfo-1","host":"sfo-1.us.uncletopia.com","port":27015,"enabled":true,"region":"us-west","cc":"us","latitude":37.77397,"longitude":-122.4313,"reserved":0,"last_update":"0001-01-01T00:00:00Z","name_a2s":"Uncletopia | San Francisco | 1 | All Maps","protocol":17,"map":"pl_badwater","folder":"tf","game":"Team Fortress","app_id":440,"player_count":2,"max_players":24,"Bots":0,"server_type":"Dedicated","server_os":"Linux","password":true,"vac":true,"version":"7757534","steam_id":85568392924469999,"keywords":["nocrits","nodmgspread","payload","uncletopia"],"game_id":440,"stv_port":27016,"stv_name":"Uncletopia | San Francisco | 1 | All Maps | STV","players":[{"user_id":4,"name":"Radagato","steam_id":76561198238859416,"connected_time":2006000000000,"state":"active","ping":69},{"user_id":5,"name":"Littlemissclownie","steam_id":76561199243451181,"connected_time":1937000000000,"state":"active","ping":228}]},{"server_id":18,"name":"Uncletopia | San Francisco | 2 | All Maps","name_short":"sfo-2","host":"sfo-1.us.uncletopia.com","port":27025,"enabled":true,"region":"us-west","cc":"us","latitude":37.77397,"longitude":-122.4313,"reserved":0,"last_update":"0001-01-01T00:00:00Z","name_a2s":"Uncletopia | San Francisco | 2 | All Maps","protocol":17,"map":"koth_viaduct","folder":"tf","game":"Team Fortress","app_id":440,"player_count":0,"max_players":24,"Bots":0,"server_type":"Dedicated","server_os":"Linux","password":true,"vac":true,"version":"7757534","steam_id":85568392924470000,"keywords":["cp","nocrits","nodmgspread","uncletopia"],"game_id":440,"stv_port":27026,"stv_name":"Uncletopia | San Francisco | 2 | All Maps | STV","players":null},{"server_id":19,"name":"Uncletopia | San Francisco | 3 | Stopwatch Beta","name_short":"sfo-3","host":"sfo-1.us.uncletopia.com","port":27035,"enabled":true,"region":"us-west","cc":"us","latitude":37.77397,"longitude":-122.4313,"reserved":0,"last_update":"0001-01-01T00:00:00Z","name_a2s":"Uncletopia | San Francisco | 3 | Stopwatch Beta","protocol":17,"map":"cp_snakewater_final1","folder":"tf","game":"Team Fortress","app_id":440,"player_count":0,"max_players":24,"Bots":0,"server_type":"Dedicated","server_os":"Linux","password":true,"vac":true,"version":"7757534","steam_id":85568392924742824,"keywords":["cp","nocrits","nodmgspread","uncletopia"],"game_id":440,"stv_port":27036,"stv_name":"Uncletopia | San Francisco | 3 | Stopwatch Beta | STV","players":null},{"server_id":20,"name":"Uncletopia | San Francisco | 4 | Community","name_short":"sfo-4","host":"sfo-1.us.uncletopia.com","port":27045,"enabled":true,"region":"us-west","cc":"us","latitude":37.77397,"longitude":-122.4313,"reserved":0,"last_update":"0001-01-01T00:00:00Z","name_a2s":"Uncletopia | San Francisco | 4 | Community","protocol":17,"map":"pl_frontier_final","folder":"tf","game":"Team Fortress","app_id":440,"player_count":0,"max_players":24,"Bots":0,"server_type":"Dedicated","server_os":"Linux","password":true,"vac":true,"version":"7757534","steam_id":85568392924742826,"keywords":["nocrits","nodmgspread","payload","uncletopia"],"game_id":440,"stv_port":27046,"stv_name":"Uncletopia | San Francisco | 4 | Community | STV","players":null},{"server_id":141,"name":"Uncletopia | Sydney | 1 | All Maps","name_short":"syd-1","host":"syd-1.au.uncletopia.com","port":27015,"enabled":true,"region":"au","cc":"au","latitude":-33.865143,"longitude":151.2099,"reserved":0,"last_update":"0001-01-01T00:00:00Z","name_a2s":"Uncletopia | Sydney | 1 | All Maps","protocol":17,"map":"cp_sunshine","folder":"tf","game":"Team Fortress","app_id":440,"player_count":2,"max_players":24,"Bots":0,"server_type":"Dedicated","server_os":"Linux","password":true,"vac":true,"version":"7757534","steam_id":85568392924470001,"keywords":["cp","nocrits","nodmgspread","uncletopia"],"game_id":440,"stv_port":27016,"stv_name":"Uncletopia | Sydney | 1 | All Maps | STV","players":[{"user_id":744,"name":"Traveller","steam_id":76561199161637215,"connected_time":337000000000,"state":"active","ping":94},{"user_id":742,"name":"Brokovnik (cannot tf2 chat)","steam_id":76561199069621013,"connected_time":503000000000,"state":"active","ping":396}]},{"server_id":123,"name":"Uncletopia | Sydney | 2 | All Maps","name_short":"syd-2","host":"syd-1.au.uncletopia.com","port":27025,"enabled":true,"region":"au","cc":"au","latitude":-33.865143,"longitude":151.2099,"reserved":0,"last_update":"0001-01-01T00:00:00Z","name_a2s":"Uncletopia | Sydney | 2 | All Maps","protocol":17,"map":"pl_borneo","folder":"tf","game":"Team Fortress","app_id":440,"player_count":0,"max_players":24,"Bots":0,"server_type":"Dedicated","server_os":"Linux","password":true,"vac":true,"version":"7757534","steam_id":85568392924470002,"keywords":["nocrits","nodmgspread","payload","uncletopia"],"game_id":440,"stv_port":27026,"stv_name":"Uncletopia | Sydney | 2 | All Maps | STV","players":null},{"server_id":395,"name":"Uncletopia | Sydney | 3 | All Maps","name_short":"syd-3","host":"syd-1.au.uncletopia.com","port":27035,"enabled":true,"region":"au","cc":"au","latitude":-33.865143,"longitude":151.2099,"reserved":0,"last_update":"0001-01-01T00:00:00Z","name_a2s":"Uncletopia | Sydney | 3 | All Maps","protocol":17,"map":"cp_mountainlab","folder":"tf","game":"Team Fortress","app_id":440,"player_count":0,"max_players":24,"Bots":0,"server_type":"Dedicated","server_os":"Linux","password":true,"vac":true,"version":"7757534","steam_id":85568392925194467,"keywords":["cp","nocrits","nodmgspread","uncletopia"],"game_id":440,"stv_port":27036,"stv_name":"Uncletopia | Sydney | 3 | All Maps | STV","players":null},{"server_id":396,"name":"Uncletopia | Sydney | 4 | All Maps","name_short":"syd-4","host":"syd-1.au.uncletopia.com","port":27045,"enabled":true,"region":"au","cc":"au","latitude":-33.865143,"longitude":151.2099,"reserved":0,"last_update":"0001-01-01T00:00:00Z","name_a2s":"Uncletopia | Sydney | 4 | All Maps","protocol":17,"map":"pl_swiftwater_final1","folder":"tf","game":"Team Fortress","app_id":440,"player_count":0,"max_players":24,"Bots":0,"server_type":"Dedicated","server_os":"Linux","password":true,"vac":true,"version":"7757534","steam_id":85568392925397958,"keywords":["nocrits","nodmgspread","payload","uncletopia"],"game_id":440,"stv_port":27046,"stv_name":"Uncletopia | Sydney | 4 | All Maps | STV","players":null},{"server_id":58,"name":"Uncletopia | Sydney | 5 | Stopwatch Beta","name_short":"syd-5","host":"syd-1.au.uncletopia.com","port":27055,"enabled":true,"region":"au","cc":"au","latitude":-33.865143,"longitude":151.2099,"reserved":0,"last_update":"0001-01-01T00:00:00Z","name_a2s":"Uncletopia | Sydney | 5 | Stopwatch Beta","protocol":17,"map":"workshop/koth_bagel_rc6.ugc2514036946","folder":"tf","game":"Team Fortress","app_id":440,"player_count":0,"max_players":24,"Bots":0,"server_type":"Dedicated","server_os":"Linux","password":true,"vac":true,"version":"7757534","steam_id":85568392925397959,"keywords":["cp","nocrits","nodmgspread","uncletopia"],"game_id":440,"stv_port":27056,"stv_name":"Uncletopia | Sydney | 5 | Stopwatch Beta | STV","players":null},{"server_id":59,"name":"Uncletopia | Sydney | 6 | Community","name_short":"syd-6","host":"syd-1.au.uncletopia.com","port":27065,"enabled":true,"region":"au","cc":"au","latitude":-33.865143,"longitude":151.2099,"reserved":0,"last_update":"0001-01-01T00:00:00Z","name_a2s":"Uncletopia | Sydney | 6 | Community","protocol":17,"map":"workshop/pl_divulgence_b4b.ugc2884808746","folder":"tf","game":"Team Fortress","app_id":440,"player_count":0,"max_players":24,"Bots":0,"server_type":"Dedicated","server_os":"Linux","password":true,"vac":true,"version":"7757534","steam_id":85568392925397960,"keywords":["nocrits","nodmgspread","payload","uncletopia"],"game_id":440,"stv_port":27066,"stv_name":"Uncletopia | Sydney | 6 | Community | STV","players":null},{"server_id":49,"name":"Uncletopia | Warsaw | 1 | All Maps","name_short":"waw-1","host":"waw-1.pl.uncletopia.com","port":27015,"enabled":true,"region":"eu","cc":"pl","latitude":52.2297,"longitude":21.017532,"reserved":0,"last_update":"0001-01-01T00:00:00Z","name_a2s":"","protocol":0,"map":"","folder":"","game":"","app_id":0,"player_count":0,"max_players":0,"Bots":0,"server_type":"","server_os":"","password":false,"vac":false,"version":"","steam_id":0,"keywords":null,"game_id":0,"stv_port":0,"stv_name":"","players":null},{"server_id":50,"name":"Uncletopia | Warsaw | 2 | All Maps","name_short":"waw-2","host":"waw-1.pl.uncletopia.com","port":27025,"enabled":true,"region":"eu","cc":"pl","latitude":52.2297,"longitude":21.017532,"reserved":0,"last_update":"0001-01-01T00:00:00Z","name_a2s":"Uncletopia | Warsaw | 2 | All Maps","protocol":17,"map":"koth_highpass","folder":"tf","game":"Team Fortress","app_id":440,"player_count":0,"max_players":24,"Bots":0,"server_type":"Dedicated","server_os":"Linux","password":true,"vac":true,"version":"7757534","steam_id":85568392925397851,"keywords":["cp","nocrits","nodmgspread","uncletopia"],"game_id":440,"stv_port":27026,"stv_name":"Uncletopia | Warsaw | 2 | All Maps | STV","players":null},{"server_id":51,"name":"Uncletopia | Warsaw | 3 | All Maps","name_short":"waw-3","host":"waw-1.pl.uncletopia.com","port":27035,"enabled":true,"region":"eu","cc":"pl","latitude":52.2297,"longitude":21.017532,"reserved":0,"last_update":"0001-01-01T00:00:00Z","name_a2s":"Uncletopia | Warsaw | 3 | All Maps","protocol":17,"map":"cp_mountainlab","folder":"tf","game":"Team Fortress","app_id":440,"player_count":0,"max_players":24,"Bots":0,"server_type":"Dedicated","server_os":"Linux","password":true,"vac":true,"version":"7757534","steam_id":85568392925397852,"keywords":["cp","nocrits","nodmgspread","uncletopia"],"game_id":440,"stv_port":27036,"stv_name":"Uncletopia | Warsaw | 3 | All Maps | STV","players":null},{"server_id":52,"name":"Uncletopia | Warsaw | 4 | All Maps","name_short":"waw-4","host":"waw-1.pl.uncletopia.com","port":27045,"enabled":true,"region":"eu","cc":"pl","latitude":52.2297,"longitude":21.017532,"reserved":0,"last_update":"0001-01-01T00:00:00Z","name_a2s":"Uncletopia | Warsaw | 4 | All Maps","protocol":17,"map":"koth_viaduct","folder":"tf","game":"Team Fortress","app_id":440,"player_count":0,"max_players":24,"Bots":0,"server_type":"Dedicated","server_os":"Linux","password":true,"vac":true,"version":"7757534","steam_id":85568392925397853,"keywords":["cp","nocrits","nodmgspread","uncletopia"],"game_id":440,"stv_port":27046,"stv_name":"Uncletopia | Warsaw | 4 | All Maps | STV","players":null},{"server_id":53,"name":"Uncletopia | Warsaw | 5 | Stopwatch Beta","name_short":"waw-5","host":"waw-1.pl.uncletopia.com","port":27055,"enabled":true,"region":"eu","cc":"pl","latitude":52.2297,"longitude":21.017532,"reserved":0,"last_update":"0001-01-01T00:00:00Z","name_a2s":"Uncletopia | Warsaw | 5 | Stopwatch Beta","protocol":17,"map":"pl_pier","folder":"tf","game":"Team Fortress","app_id":440,"player_count":0,"max_players":24,"Bots":0,"server_type":"Dedicated","server_os":"Linux","password":true,"vac":true,"version":"7757534","steam_id":85568392925397854,"keywords":["nocrits","nodmgspread","payload","uncletopia"],"game_id":440,"stv_port":27056,"stv_name":"Uncletopia | Warsaw | 5 | Stopwatch Beta | STV","players":null},{"server_id":54,"name":"Uncletopia | Warsaw | 6 | Community","name_short":"waw-6","host":"waw-1.pl.uncletopia.com","port":27065,"enabled":true,"region":"eu","cc":"pl","latitude":52.2297,"longitude":21.017532,"reserved":0,"last_update":"0001-01-01T00:00:00Z","name_a2s":"Uncletopia | Warsaw | 6 | Community","protocol":17,"map":"koth_highpass","folder":"tf","game":"Team Fortress","app_id":440,"player_count":0,"max_players":24,"Bots":0,"server_type":"Dedicated","server_os":"Linux","password":true,"vac":true,"version":"7757534","steam_id":85568392925397856,"keywords":["cp","nocrits","nodmgspread","uncletopia"],"game_id":440,"stv_port":27066,"stv_name":"Uncletopia | Warsaw | 6 | Community | STV","players":null}]}