{"status":true,"message":"","result":[{"server_id":9,"name":"Uncletopia | Atlanta | 1 | All Maps","name_short":"atl-1","host":"atl-1.us.uncletopia.com","port":27015,"enabled":true,"region":"us-east","cc":"us","latitude":33.753746,"longitude":-84.38633,"reserved":0,"last_update":"0001-01-01T00:00:00Z","name_a2s":"Uncletopia | Atlanta | 1 | All Maps","protocol":17,"map":"koth_viaduct","folder":"tf","game":"Team Fortress","app_id":440,"player_count":24,"max_players":24,"Bots":0,"server_type":"Dedicated","server_os":"Linux","password":true,"vac":true,"version":"7882260","steam_id":85568392924469982,"keywords":["cp","nocrits","nodmgspread","uncletopia"],"game_id":440,"stv_port":27016,"stv_name":"Uncletopia | Atlanta | 1 | All Maps | STV","players":[{"user_id":314,"name":"thunders0ck","steam_id":76561198048895396,"connected_time":2356000000000,"state":"active","ping":64},{"user_id":292,"name":"lil hog","steam_id":76561199230929836,"connected_time":4912000000000,"state":"active","ping":89},{"user_id":318,"name":"Faswoosh","steam_id":76561199117460963,"connected_time":2016000000000,"state":"active","ping":60},{"user_id":306,"name":"Pixler544","steam_id":76561198240575132,"connected_time":3744000000000,"state":"active","ping":56},{"user_id":332,"name":"Pixel","steam_id":76561198096221632,"connected_time":1358000000000,"state":"active","ping":41},{"user_id":351,"name":"You Don't Nomi.","steam_id":76561197969137836,"connected_time":154000000000,"state":"active","ping":68},{"user_id":338,"name":"Eazy_Peazy16","steam_id":76561198079056194,"connected_time":954000000000,"state":"active","ping":70},{"user_id":348,"name":"OneLess","steam_id":76561198150870338,"connected_time":606000000000,"state":"active","ping":94},{"user_id":317,"name":"Wahooka","steam_id":76561197962240925,"connected_time":2026000000000,"state":"active","ping":56},{"user_id":347,"name":"bollweevil","steam_id":76561199030726701,"connected_time":653000000000,"state":"active","ping":97},{"user_id":324,"name":"Alexthegreat","steam_id":76561197996796222,"connected_time":1718000000000,"state":"active","ping":60},{"user_id":263,"name":"--_Cook_--","steam_id":76561198080855748,"connected_time":6361000000000,"state":"active","ping":49},{"user_id":334,"name":"Dim","steam_id":76561198061411324,"connected_time":1287000000000,"state":"active","ping":170},{"user_id":279,"name":"Karma","steam_id":76561198030565234,"connected_time":5438000000000,"state":"active","ping":71},{"user_id":339,"name":"good soup guy","steam_id":76561199210237835,"connected_time":948000000000,"state":"active","ping":91},{"user_id":325,"name":"Cube","steam_id":76561198156746320,"connected_time":1685000000000,"state":"active","ping":64},{"user_id":340,"name":"minly","steam_id":76561199078991134,"connected_time":945000000000,"state":"active","ping":60},{"user_id":350,"name":"john_minecraft05","steam_id":76561198354026474,"connected_time":593000000000,"state":"active","ping":67},{"user_id":310,"name":"Trotsky Gaming","steam_id":76561199101638460,"connected_time":3150000000000,"state":"active","ping":63},{"user_id":343,"name":"Sup m8","steam_id":76561198081659121,"connected_time":887000000000,"state":"active","ping":60},{"user_id":345,"name":"{FITH}‚Ñ¢ SmittyWun {FM}","steam_id":76561198079531938,"connected_time":820000000000,"state":"active","ping":59},{"user_id":337,"name":"Ashes!","steam_id":76561197998475441,"connected_time":1146000000000,"state":"active","ping":78},{"user_id":316,"name":"Vladikr1","steam_id":76561198401495362,"connected_time":2064000000000,"state":"active","ping":81},{"user_id":346,"name":"Rex","steam_id":76561198138365053,"connected_time":746000000000,"state":"active","ping":104}]},{"server_id":104,"name":"Uncletopia | Atlanta | 2 | All Maps","name_short":"atl-2","host":"atl-1.us.uncletopia.com","port":27025,"enabled":true,"region":"us-east","cc":"us","latitude":33.753746,"longitude":-84.38633,"reserved":0,"last_update":"0001-01-01T00:00:00Z","name_a2s":"Uncletopia | Atlanta | 2 | All Maps","protocol":17,"map":"koth_suijin","folder":"tf","game":"Team Fortress","app_id":440,"player_count":24,"max_players":24,"Bots":0,"server_type":"Dedicated","server_os":"Linux","password":true,"vac":true,"version":"7882260","steam_id":85568392924469983,"keywords":["cp","nocrits","nodmgspread","uncletopia"],"game_id":440,"stv_port":27026,"stv_name":"Uncletopia | Atlanta | 2 | All Maps | STV","players":[{"user_id":262,"name":"Mehman","steam_id":76561199020244051,"connected_time":536000000000,"state":"active","ping":80},{"user_id":267,"name":"dope","steam_id":76561198126699550,"connected_time":220000000000,"state":"active","ping":98},{"user_id":132,"name":"Oopsie Daisy ‚ùã","steam_id":76561198042144492,"connected_time":9963000000000,"state":"active","ping":55},{"user_id":125,"name":"Bomb Squirtle‚Ñ¢","steam_id":76561197998931145,"connected_time":11163000000000,"state":"active","ping":88},{"user_id":243,"name":"Tatum","steam_id":76561198106192754,"connected_time":1829000000000,"state":"active","ping":60},{"user_id":252,"name":"Channing","steam_id":76561198251665862,"connected_time":1067000000000,"state":"active","ping":85},{"user_id":257,"name":"kingjeffry2012@hotmail.com","steam_id":76561198314104415,"connected_time":642000000000,"state":"active","ping":54},{"user_id":250,"name":"Fstev ‚úò","steam_id":76561198358766202,"connected_time":1278000000000,"state":"active","ping":124},{"user_id":260,"name":"Post nut clarity","steam_id":76561198060246831,"connected_time":590000000000,"state":"active","ping":97},{"user_id":223,"name":"LeadHickory","steam_id":76561198219756521,"connected_time":2808000000000,"state":"active","ping":87},{"user_id":233,"name":"SteveMutt","steam_id":76561198871884341,"connected_time":2138000000000,"state":"active","ping":123},{"user_id":266,"name":"Milf n' Cookies","steam_id":76561198104805359,"connected_time":256000000000,"state":"active","ping":86},{"user_id":231,"name":"[chef] iron","steam_id":76561197970888616,"connected_time":2322000000000,"state":"active","ping":69},{"user_id":253,"name":"Wagemage","steam_id":76561198013625580,"connected_time":1034000000000,"state":"active","ping":62},{"user_id":246,"name":"Victor","steam_id":76561198848984975,"connected_time":1569000000000,"state":"active","ping":71},{"user_id":207,"name":"Wumbologist","steam_id":76561198188729514,"connected_time":3845000000000,"state":"active","ping":46},{"user_id":269,"name":"mother lover","steam_id":76561198085451776,"connected_time":20000000000,"state":"spawning","ping":118},{"user_id":268,"name":"SEWER RODENT","steam_id":76561198858984051,"connected_time":190000000000,"state":"active","ping":77},{"user_id":261,"name":"Mr.HumanSoup","steam_id":76561198799202879,"connected_time":575000000000,"state":"active","ping":79},{"user_id":111,"name":"Okpar","steam_id":76561199221067945,"connected_time":12419000000000,"state":"active","ping":81},{"user_id":265,"name":"Jamin'Jelly","steam_id":76561199011399657,"connected_time":383000000000,"state":"active","ping":83},{"user_id":222,"name":"D Rose w/ Da Jetpack","steam_id":76561198891584971,"connected_time":3045000000000,"state":"active","ping":73},{"user_id":203,"name":"Phyzisist","steam_id":76561197983915993,"connected_time":4407000000000,"state":"active","ping":61},{"user_id":212,"name":"ilikeballs","steam_id":76561198249980016,"connected_time":3387000000000,"state":"active","ping":117}]},{"server_id":400,"name":"Uncletopia | Atlanta | 3 | Community","name_short":"atl-3","host":"atl-1.us.uncletopia.com","port":27035,"enabled":true,"region":"us-east","cc":"us","latitude":33.753746,"longitude":-84.38633,"reserved":0,"last_update":"0001-01-01T00:00:00Z","name_a2s":"Uncletopia | Atlanta | 3 | Community","protocol":17,"map":"workshop/cp_caldera_rc2.ugc2834196889","folder":"tf","game":"Team Fortress","app_id":440,"player_count":0,"max_players":24,"Bots":0,"server_type":"Dedicated","server_os":"Linux","password":true,"vac":true,"version":"7882260","steam_id":85568392924515187,"keywords":["cp","nocrits","nodmgspread","uncletopia"],"game_id":440,"stv_port":27036,"stv_name":"Uncletopia | Atlanta | 3 | Community | STV","players":null},{"server_id":401,"name":"Uncletopia | Atlanta | 4 | No Payload","name_short":"atl-4","host":"atl-1.us.uncletopia.com","port":27045,"enabled":true,"region":"us-east","cc":"us","latitude":33.753746,"longitude":-84.38633,"reserved":0,"last_update":"0001-01-01T00:00:00Z","name_a2s":"","protocol":0,"map":"","folder":"","game":"","app_id":0,"player_count":0,"max_players":0,"Bots":0,"server_type":"","server_os":"","password":false,"vac":false,"version":"","steam_id":0,"keywords":null,"game_id":0,"stv_port":0,"stv_name":"","players":null},{"server_id":2,"name":"Uncletopia | Chicago | 1 | All Maps","name_short":"chi-1","host":"chi-1.us.uncletopia.com","port":27015,"enabled":true,"region":"us-central","cc":"us","latitude":41.881832,"longitude":-87.62318,"reserved":0,"last_update":"0001-01-01T00:00:00Z","name_a2s":"Uncletopia | Chicago | 1 | All Maps","protocol":17,"map":"cp_coldfront","folder":"tf","game":"Team Fortress","app_id":440,"player_count":24,"max_players":24,"Bots":0,"server_type":"Dedicated","server_os":"Linux","password":true,"vac":true,"version":"7882260","steam_id":85568392924469984,"keywords":["cp","nocrits","nodmgspread","uncletopia"],"game_id":440,"stv_port":27016,"stv_name":"Uncletopia | Chicago | 1 | All Maps | STV","players":[{"user_id":293,"name":"General Of Kicking Your Ass.","steam_id":76561198879929343,"connected_time":1002000000000,"state":"active","ping":63},{"user_id":216,"name":"Spy Gaming","steam_id":76561198453295613,"connected_time":5163000000000,"state":"active","ping":109},{"user_id":305,"name":"Primal","steam_id":76561197983118203,"connected_time":51000000000,"state":"active","ping":76},{"user_id":306,"name":"LtSalte","steam_id":76561198004721081,"connected_time":28000000000,"state":"spawning","ping":64},{"user_id":261,"name":"POSTERBOYOFGOODBOYS","steam_id":76561198199344313,"connected_time":2694000000000,"state":"active","ping":132},{"user_id":295,"name":"Battlelord MankTKO","steam_id":76561198189421005,"connected_time":867000000000,"state":"active","ping":46},{"user_id":297,"name":"twizted","steam_id":76561197960407274,"connected_time":713000000000,"state":"active","ping":75},{"user_id":298,"name":"Skeleton Rick","steam_id":76561197988235877,"connected_time":636000000000,"state":"active","ping":76},{"user_id":304,"name":"Bagel Smagel","steam_id":76561199207373176,"connected_time":90000000000,"state":"active","ping":91},{"user_id":303,"name":"who up wit worms in they brain","steam_id":76561198095313463,"connected_time":104000000000,"state":"active","ping":57},{"user_id":257,"name":"Fyberoptic","steam_id":76561198025232643,"connected_time":2756000000000,"state":"active","ping":67},{"user_id":258,"name":"Zemlynn","steam_id":76561198072474034,"connected_time":2755000000000,"state":"active","ping":51},{"user_id":288,"name":"CyberZayne","steam_id":76561198002351356,"connected_time":1578000000000,"state":"active","ping":88},{"user_id":207,"name":"|WS| Don't_Taze_Me_Bro","steam_id":76561198043289495,"connected_time":6034000000000,"state":"active","ping":80},{"user_id":307,"name":"king dedede","steam_id":76561198965562679,"connected_time":23000000000,"state":"spawning","ping":64},{"user_id":220,"name":"Once in a Lifetime","steam_id":76561199180652178,"connected_time":5099000000000,"state":"active","ping":92},{"user_id":285,"name":"A Pyro Main","steam_id":76561198421760112,"connected_time":1693000000000,"state":"active","ping":57},{"user_id":268,"name":"seldom","steam_id":76561198166193756,"connected_time":2631000000000,"state":"active","ping":51},{"user_id":290,"name":"PKBEAST_7","steam_id":76561198177136537,"connected_time":1360000000000,"state":"active","ping":94},{"user_id":170,"name":"TallBit","steam_id":76561199059748976,"connected_time":8702000000000,"state":"active","ping":53},{"user_id":253,"name":"carrot cake","steam_id":76561198055174915,"connected_time":3085000000000,"state":"active","ping":67},{"user_id":299,"name":"Yonker","steam_id":76561198079473397,"connected_time":271000000000,"state":"active","ping":55},{"user_id":294,"name":"evnobev","steam_id":76561198038966462,"connected_time":1002000000000,"state":"active","ping":49},{"user_id":301,"name":"MrDarkc","steam_id":76561199233053848,"connected_time":258000000000,"state":"active","ping":121}]},{"server_id":106,"name":"Uncletopia | Chicago | 2 | All Maps","name_short":"chi-2","host":"chi-1.us.uncletopia.com","port":27025,"enabled":true,"region":"us-central","cc":"us","latitude":41.881832,"longitude":-87.62318,"reserved":0,"last_update":"0001-01-01T00:00:00Z","name_a2s":"Uncletopia | Chicago | 2 | All Maps","protocol":17,"map":"pl_badwater","folder":"tf","game":"Team Fortress","app_id":440,"player_count":24,"max_players":24,"Bots":0,"server_type":"Dedicated","server_os":"Linux","password":true,"vac":true,"version":"7882260","steam_id":85568392924469985,"keywords":["nocrits","nodmgspread","payload","uncletopia"],"game_id":440,"stv_port":27026,"stv_name":"Uncletopia | Chicago | 2 | All Maps | STV","players":[{"user_id":313,"name":"StonedGiant","steam_id":76561197984386932,"connected_time":3862000000000,"state":"active","ping":55},{"user_id":366,"name":"ObsessedNerd505","steam_id":76561199045531456,"connected_time":60000000000,"state":"active","ping":77},{"user_id":330,"name":"DonoC","steam_id":76561198274473338,"connected_time":3028000000000,"state":"active","ping":75},{"user_id":275,"name":"Jill the Owl","steam_id":76561197999210583,"connected_time":6760000000000,"state":"active","ping":72},{"user_id":367,"name":"Boot","steam_id":76561198423162555,"connected_time":58000000000,"state":"active","ping":60},{"user_id":363,"name":"6thDog","steam_id":76561198097713905,"connected_time":618000000000,"state":"active","ping":75},{"user_id":365,"name":"Mug Moment Gaming","steam_id":76561198233098136,"connected_time":144000000000,"state":"active","ping":43},{"user_id":326,"name":"aschen","steam_id":76561198044981904,"connected_time":3196000000000,"state":"active","ping":69},{"user_id":302,"name":"bobbymcbobington","steam_id":76561199089411172,"connected_time":5235000000000,"state":"active","ping":115},{"user_id":347,"name":"Pizza","steam_id":76561198118748364,"connected_time":2228000000000,"state":"active","ping":75},{"user_id":368,"name":"The Silkyest of Boys","steam_id":76561198320921269,"connected_time":46000000000,"state":"active","ping":98},{"user_id":358,"name":"Chin","steam_id":76561198247426906,"connected_time":1143000000000,"state":"active","ping":75},{"user_id":370,"name":"Milk carton","steam_id":76561198967876347,"connected_time":6000000000,"state":"spawning","ping":273},{"user_id":371,"name":"MeatShield 2000","steam_id":76561199375192850,"connected_time":2000000000,"state":"spawning","ping":70},{"user_id":361,"name":"Shattered Glass","steam_id":76561198116835391,"connected_time":1070000000000,"state":"active","ping":80},{"user_id":355,"name":"Scorpie Doodle","steam_id":76561198021845763,"connected_time":1464000000000,"state":"active","ping":57},{"user_id":369,"name":"a hyena","steam_id":76561198299493639,"connected_time":45000000000,"state":"active","ping":60},{"user_id":350,"name":"GreekGoat_Coffee","steam_id":76561198129331088,"connected_time":2148000000000,"state":"active","ping":40},{"user_id":348,"name":"Marshall","steam_id":76561198042570322,"connected_time":2223000000000,"state":"active","ping":57},{"user_id":345,"name":"Grilled Jizo","steam_id":76561199250875340,"connected_time":2398000000000,"state":"active","ping":81},{"user_id":356,"name":"Battery Acid Slurper","steam_id":76561198439793697,"connected_time":1243000000000,"state":"active","ping":73},{"user_id":354,"name":"ZigmaDrive","steam_id":76561198025569209,"connected_time":1677000000000,"state":"active","ping":61},{"user_id":353,"name":"ayr","steam_id":76561198083640961,"connected_time":1849000000000,"state":"active","ping":62},{"user_id":364,"name":"the clouds,your past,your room","steam_id":76561198160335315,"connected_time":475000000000,"state":"active","ping":42}]},{"server_id":402,"name":"Uncletopia | Chicago | 3 | All Maps","name_short":"chi-3","host":"chi-1.us.uncletopia.com","port":27035,"enabled":true,"region":"us-central","cc":"us","latitude":41.881832,"longitude":-87.62318,"reserved":0,"last_update":"0001-01-01T00:00:00Z","name_a2s":"Uncletopia | Chicago | 3 | All Maps","protocol":17,"map":"koth_suijin","folder":"tf","game":"Team Fortress","app_id":440,"player_count":24,"max_players":24,"Bots":0,"server_type":"Dedicated","server_os":"Linux","password":true,"vac":true,"version":"7882260","steam_id":85568392924515191,"keywords":["cp","nocrits","nodmgspread","uncletopia"],"game_id":440,"stv_port":27036,"stv_name":"Uncletopia | Chicago | 3 | All Maps | STV","players":[{"user_id":126,"name":"peepee man (new mouse)","steam_id":76561198113716047,"connected_time":1055000000000,"state":"active","ping":60},{"user_id":116,"name":"Goose of Wisdom","steam_id":76561198233465044,"connected_time":1314000000000,"state":"active","ping":67},{"user_id":22,"name":"CreativeCoffeeCake","steam_id":76561198323542875,"connected_time":8584000000000,"state":"active","ping":93},{"user_id":157,"name":"GarbagePile","steam_id":76561198013720521,"connected_time":67000000000,"state":"active","ping":75},{"user_id":155,"name":"7 Eleven Official","steam_id":76561198206229467,"connected_time":351000000000,"state":"active","ping":75},{"user_id":151,"name":"RiverEgg","steam_id":76561198888913405,"connected_time":463000000000,"state":"active","ping":55},{"user_id":125,"name":"Jobius","steam_id":76561198145561348,"connected_time":1075000000000,"state":"active","ping":64},{"user_id":127,"name":"Kingpin","steam_id":76561198362916241,"connected_time":1049000000000,"state":"active","ping":60},{"user_id":146,"name":"GoofyAhGamingGuy","steam_id":76561199331315881,"connected_time":704000000000,"state":"active","ping":86},{"user_id":123,"name":"oph","steam_id":76561198130182991,"connected_time":1100000000000,"state":"active","ping":82},{"user_id":143,"name":"Apetometrist","steam_id":76561198045391635,"connected_time":770000000000,"state":"active","ping":67},{"user_id":106,"name":"Dzhoshua","steam_id":76561198071915251,"connected_time":2324000000000,"state":"active","ping":69},{"user_id":142,"name":"Goldensliv","steam_id":76561198161673891,"connected_time":813000000000,"state":"active","ping":91},{"user_id":133,"name":"Breen","steam_id":76561198846478006,"connected_time":968000000000,"state":"active","ping":69},{"user_id":152,"name":"joemoe84g","steam_id":76561199141651280,"connected_time":456000000000,"state":"active","ping":84},{"user_id":156,"name":"GTO- xXxSasuke-PainxXx","steam_id":76561198083975056,"connected_time":200000000000,"state":"active","ping":100},{"user_id":144,"name":"cellogamer","steam_id":76561198016937098,"connected_time":767000000000,"state":"active","ping":75},{"user_id":154,"name":"Nut Bustray","steam_id":76561198092403883,"connected_time":354000000000,"state":"active","ping":103},{"user_id":148,"name":"az_noob","steam_id":76561199382983284,"connected_time":643000000000,"state":"active","ping":85},{"user_id":111,"name":"ColonelKermit","steam_id":76561198318215660,"connected_time":1715000000000,"state":"active","ping":59},{"user_id":149,"name":"Vortex","steam_id":76561199068078599,"connected_time":493000000000,"state":"active","ping":58},{"user_id":153,"name":"pHsHy","steam_id":76561198013195018,"connected_time":436000000000,"state":"active","ping":75},{"user_id":91,"name":"PyroEagle","steam_id":76561198296434231,"connected_time":2988000000000,"state":"active","ping":58},{"user_id":104,"name":"Rockcrusher","steam_id":76561199012666353,"connected_time":2708000000000,"state":"active","ping":70}]},{"server_id":403,"name":"Uncletopia | Chicago | 4 | All Maps","name_short":"chi-4","host":"chi-1.us.uncletopia.com","port":27045,"enabled":true,"region":"us-central","cc":"us","latitude":41.881832,"longitude":-87.62318,"reserved":0,"last_update":"0001-01-01T00:00:00Z","name_a2s":"Uncletopia | Chicago | 4 | All Maps","protocol":17,"map":"pl_upward","folder":"tf","game":"Team Fortress","app_id":440,"player_count":24,"max_players":24,"Bots":0,"server_type":"Dedicated","server_os":"Linux","password":true,"vac":true,"version":"7882260","steam_id":85568392924515193,"keywords":["nocrits","nodmgspread","payload","uncletopia"],"game_id":440,"stv_port":27046,"stv_name":"Uncletopia | Chicago | 4 | All Maps | STV","players":[{"user_id":90,"name":"SIN K4RMA","steam_id":76561198869287223,"connected_time":484000000000,"state":"active","ping":84},{"user_id":76,"name":"Retro Phoenix","steam_id":76561198077176271,"connected_time":1044000000000,"state":"active","ping":56},{"user_id":99,"name":"ScaryTree","steam_id":76561199384362833,"connected_time":96000000000,"state":"spawning","ping":162},{"user_id":85,"name":"warrior","steam_id":76561198074500319,"connected_time":560000000000,"state":"active","ping":110},{"user_id":83,"name":"Scut","steam_id":76561198973734291,"connected_time":592000000000,"state":"active","ping":93},{"user_id":54,"name":"Petrivus","steam_id":76561198202152453,"connected_time":3437000000000,"state":"active","ping":101},{"user_id":86,"name":"BatJet","steam_id":76561198147738441,"connected_time":558000000000,"state":"active","ping":113},{"user_id":73,"name":"6' 4\" 270 lbs ALL MUSCLE","steam_id":76561198021308963,"connected_time":1580000000000,"state":"active","ping":71},{"user_id":60,"name":"observe a mack","steam_id":76561198040675606,"connected_time":2783000000000,"state":"active","ping":76},{"user_id":35,"name":"[El Fail] MR.BadassMCLee","steam_id":76561198043787818,"connected_time":3796000000000,"state":"active","ping":116},{"user_id":87,"name":"Relax","steam_id":76561198306199872,"connected_time":548000000000,"state":"active","ping":92},{"user_id":72,"name":"yeehaw","steam_id":76561198133984927,"connected_time":1587000000000,"state":"active","ping":58},{"user_id":41,"name":"ElChuchoXf","steam_id":76561199235124146,"connected_time":3715000000000,"state":"active","ping":154},{"user_id":96,"name":"Bon Gripper","steam_id":76561198090074621,"connected_time":314000000000,"state":"active","ping":57},{"user_id":88,"name":"jorge b","steam_id":76561199009975096,"connected_time":541000000000,"state":"active","ping":76},{"user_id":66,"name":"Kamin","steam_id":76561198255299559,"connected_time":2308000000000,"state":"active","ping":83},{"user_id":89,"name":"dr peppah chug!","steam_id":76561198068835693,"connected_time":532000000000,"state":"active","ping":87},{"user_id":45,"name":"Psychosis","steam_id":76561198078659070,"connected_time":3655000000000,"state":"active","ping":81},{"user_id":71,"name":"Sean Bae","steam_id":76561198036909521,"connected_time":1818000000000,"state":"active","ping":56},{"user_id":91,"name":"Demoman With One Joke","steam_id":76561197993467034,"connected_time":484000000000,"state":"active","ping":51},{"user_id":92,"name":"WALL-E","steam_id":76561198154701370,"connected_time":482000000000,"state":"active","ping":88},{"user_id":75,"name":"YesMargaret","steam_id":76561198127971751,"connected_time":1360000000000,"state":"active","ping":56},{"user_id":95,"name":"Monsieur l'INGENIEUR","steam_id":76561198090504334,"connected_time":341000000000,"state":"active","ping":79},{"user_id":98,"name":"Jerry Bondle","steam_id":76561198337512213,"connected_time":223000000000,"state":"active","ping":67}]},{"server_id":36,"name":"Uncletopia | Chicago | 5 | All Maps","name_short":"chi-5","host":"chi-2.us.uncletopia.com","port":27015,"enabled":true,"region":"us-central","cc":"us","latitude":41.881832,"longitude":-87.62318,"reserved":0,"last_update":"0001-01-01T00:00:00Z","name_a2s":"Uncletopia | Chicago | 5 | All Maps","protocol":17,"map":"pl_borneo","folder":"tf","game":"Team Fortress","app_id":440,"player_count":24,"max_players":24,"Bots":0,"server_type":"Dedicated","server_os":"Linux","password":true,"vac":true,"version":"7882260","steam_id":85568392924866362,"keywords":["nocrits","nodmgspread","payload","uncletopia"],"game_id":440,"stv_port":27016,"stv_name":"Uncletopia | Chicago | 5 | All Maps | STV","players":[{"user_id":47,"name":"LWebb","steam_id":76561199162936929,"connected_time":1145000000000,"state":"active","ping":77},{"user_id":18,"name":"Paraguayan hamster kebabs","steam_id":76561199195104977,"connected_time":2130000000000,"state":"active","ping":75},{"user_id":19,"name":"ispongebobz11","steam_id":76561198862843572,"connected_time":1999000000000,"state":"active","ping":69},{"user_id":59,"name":"deadpixel","steam_id":76561198150249843,"connected_time":26000000000,"state":"active","ping":52},{"user_id":21,"name":"corntent","steam_id":76561198824847948,"connected_time":1855000000000,"state":"active","ping":60},{"user_id":53,"name":"OminousNoises","steam_id":76561198263320321,"connected_time":1011000000000,"state":"active","ping":142},{"user_id":23,"name":"Bill from L4D","steam_id":76561198821762699,"connected_time":1790000000000,"state":"active","ping":108},{"user_id":30,"name":"dr sex, md (sexologist)","steam_id":76561198115874625,"connected_time":1426000000000,"state":"active","ping":95},{"user_id":58,"name":"Mablinlok","steam_id":76561197992718242,"connected_time":85000000000,"state":"active","ping":70},{"user_id":27,"name":"gen","steam_id":76561199118569153,"connected_time":1537000000000,"state":"active","ping":67},{"user_id":28,"name":"ChaingunnerFails","steam_id":76561198963075967,"connected_time":1518000000000,"state":"active","ping":103},{"user_id":55,"name":"challen","steam_id":76561197961277967,"connected_time":840000000000,"state":"active","ping":65},{"user_id":45,"name":"Whos Mans Is Dis","steam_id":76561198370978056,"connected_time":1219000000000,"state":"active","ping":77},{"user_id":49,"name":"Wigl","steam_id":76561198019324464,"connected_time":1124000000000,"state":"active","ping":73},{"user_id":46,"name":"derz","steam_id":76561198010742216,"connected_time":1215000000000,"state":"active","ping":56},{"user_id":36,"name":"lexi","steam_id":76561198176299759,"connected_time":1337000000000,"state":"active","ping":91},{"user_id":56,"name":"amedei porcelana","steam_id":76561198150382695,"connected_time":655000000000,"state":"active","ping":76},{"user_id":38,"name":"Joshua31704","steam_id":76561198125898714,"connected_time":1330000000000,"state":"active","ping":106},{"user_id":57,"name":"yeah","steam_id":76561198003214384,"connected_time":379000000000,"state":"active","ping":61},{"user_id":40,"name":"Trollamoo","steam_id":76561198865767224,"connected_time":1317000000000,"state":"active","ping":52},{"user_id":52,"name":"javulas","steam_id":76561198838784551,"connected_time":1095000000000,"state":"active","ping":70},{"user_id":54,"name":"just some average joe","steam_id":76561198994349483,"connected_time":1004000000000,"state":"active","ping":100},{"user_id":43,"name":"Polly Geist","steam_id":76561198271964253,"connected_time":1269000000000,"state":"active","ping":77},{"user_id":44,"name":"playing tf2 in a van?","steam_id":76561198380018244,"connected_time":1235000000000,"state":"active","ping":75}]},{"server_id":37,"name":"Uncletopia | Chicago | 6 | All Maps","name_short":"chi-6","host":"chi-2.us.uncletopia.com","port":27025,"enabled":true,"region":"us-central","cc":"us","latitude":41.881832,"longitude":-87.62318,"reserved":0,"last_update":"0001-01-01T00:00:00Z","name_a2s":"Uncletopia | Chicago | 6 | All Maps","protocol":17,"map":"koth_cascade","folder":"tf","game":"Team Fortress","app_id":440,"player_count":0,"max_players":24,"Bots":0,"server_type":"Dedicated","server_os":"Linux","password":true,"vac":true,"version":"7882260","steam_id":85568392924866363,"keywords":["cp","nocrits","nodmgspread","uncletopia"],"game_id":440,"stv_port":27026,"stv_name":"Uncletopia | Chicago | 6 | All Maps | STV","players":null},{"server_id":38,"name":"Uncletopia | Chicago | 7 | Stopwatch Beta","name_short":"chi-7","host":"chi-2.us.uncletopia.com","port":27035,"enabled":true,"region":"us-central","cc":"us","latitude":41.881832,"longitude":-87.62318,"reserved":0,"last_update":"0001-01-01T00:00:00Z","name_a2s":"Uncletopia | Chicago | 7 | Stopwatch Beta","protocol":17,"map":"workshop/koth_bagel_rc6.ugc2514036946","folder":"tf","game":"Team Fortress","app_id":440,"player_count":0,"max_players":24,"Bots":0,"server_type":"Dedicated","server_os":"Linux","password":true,"vac":true,"version":"7882260","steam_id":85568392924866364,"keywords":["cp","nocrits","nodmgspread","uncletopia"],"game_id":440,"stv_port":27036,"stv_name":"Uncletopia | Chicago | 7 | Stopwatch Beta | STV","players":null},{"server_id":39,"name":"Uncletopia | Chicago | 8 | Community","name_short":"chi-8","host":"chi-2.us.uncletopia.com","port":27045,"enabled":true,"region":"us-central","cc":"us","latitude":41.881832,"longitude":-87.62318,"reserved":0,"last_update":"0001-01-01T00:00:00Z","name_a2s":"Uncletopia | Chicago | 8 | Community","protocol":17,"map":"workshop/pl_eruption_b9a.ugc2807898013","folder":"tf","game":"Team Fortress","app_id":440,"player_count":24,"max_players":24,"Bots":0,"server_type":"Dedicated","server_os":"Linux","password":true,"vac":true,"version":"7882260","steam_id":85568392924866365,"keywords":["nocrits","nodmgspread","payload","uncletopia"],"game_id":440,"stv_port":27046,"stv_name":"Uncletopia | Chicago | 8 | Community | STV","players":[{"user_id":156,"name":"DeadDankDreamMemes","steam_id":76561198007053209,"connected_time":258000000000,"state":"active","ping":86},{"user_id":135,"name":"Antifa Alligator","steam_id":76561197988170816,"connected_time":1803000000000,"state":"active","ping":60},{"user_id":143,"name":"kJ","steam_id":76561198387826096,"connected_time":1205000000000,"state":"active","ping":98},{"user_id":110,"name":"AchyExpert","steam_id":76561198363526665,"connected_time":3293000000000,"state":"active","ping":80},{"user_id":121,"name":"Poser01","steam_id":76561197999257332,"connected_time":2838000000000,"state":"active","ping":102},{"user_id":153,"name":"IFong","steam_id":76561198047571208,"connected_time":329000000000,"state":"active","ping":75},{"user_id":144,"name":"Dua Ligma","steam_id":76561198329087915,"connected_time":1140000000000,"state":"active","ping":99},{"user_id":129,"name":"The Incredible Fem Boy","steam_id":76561198355754259,"connected_time":2271000000000,"state":"active","ping":77},{"user_id":151,"name":"Generator","steam_id":76561198011762257,"connected_time":478000000000,"state":"active","ping":102},{"user_id":125,"name":"Rin \"Hindwing\" Redtail","steam_id":76561199074865638,"connected_time":2551000000000,"state":"active","ping":72},{"user_id":111,"name":"troll","steam_id":76561199154079112,"connected_time":3287000000000,"state":"active","ping":63},{"user_id":159,"name":"Zombiehunter11","steam_id":76561198237517830,"connected_time":29000000000,"state":"spawning","ping":164},{"user_id":122,"name":"Anyar","steam_id":76561198160174097,"connected_time":2838000000000,"state":"active","ping":69},{"user_id":158,"name":"seems_fishy","steam_id":76561199028846656,"connected_time":178000000000,"state":"active","ping":65},{"user_id":55,"name":"Reversed","steam_id":76561198136433466,"connected_time":7017000000000,"state":"active","ping":52},{"user_id":132,"name":"caberknight tf2  (f2p-ish)","steam_id":76561199273882768,"connected_time":2035000000000,"state":"active","ping":72},{"user_id":148,"name":"chunk milk","steam_id":76561199027208532,"connected_time":1066000000000,"state":"active","ping":64},{"user_id":127,"name":"White Boy Freestyle #337","steam_id":76561198880396651,"connected_time":2510000000000,"state":"active","ping":86},{"user_id":155,"name":"Skele Ton of Fun","steam_id":76561198154574280,"connected_time":318000000000,"state":"active","ping":64},{"user_id":99,"name":"just a gamer","steam_id":76561199208833695,"connected_time":4022000000000,"state":"active","ping":91},{"user_id":138,"name":"mEch114","steam_id":76561198236936060,"connected_time":1721000000000,"state":"active","ping":67},{"user_id":42,"name":"Dead Face","steam_id":76561198857643139,"connected_time":7705000000000,"state":"active","ping":73},{"user_id":149,"name":"Sunshine","steam_id":76561198885528098,"connected_time":994000000000,"state":"active","ping":66},{"user_id":157,"name":"kuromble","steam_id":76561198130312064,"connected_time":255000000000,"state":"active","ping":94}]},{"server_id":8,"name":"Uncletopia | Dallas | 1 | All Maps","name_short":"dal-1","host":"dal-1.us.uncletopia.com","port":27015,"enabled":true,"region":"us-central","cc":"us","latitude":32.779167,"longitude":-96.80889,"reserved":0,"last_update":"0001-01-01T00:00:00Z","name_a2s":"Uncletopia | Dallas | 1 | All Maps","protocol":17,"map":"cp_steel","folder":"tf","game":"Team Fortress","app_id":440,"player_count":23,"max_players":24,"Bots":0,"server_type":"Dedicated","server_os":"Linux","password":true,"vac":true,"version":"7882260","steam_id":85568392924469986,"keywords":["cp","nocrits","nodmgspread","uncletopia"],"game_id":440,"stv_port":27016,"stv_name":"Uncletopia | Dallas | 1 | All Maps | STV","players":[{"user_id":458,"name":"basilberry","steam_id":76561198145275937,"connected_time":2159000000000,"state":"active","ping":56},{"user_id":457,"name":"scrinkytroph","steam_id":76561198414573977,"connected_time":2184000000000,"state":"active","ping":63},{"user_id":481,"name":"rian","steam_id":76561198074707249,"connected_time":671000000000,"state":"active","ping":61},{"user_id":471,"name":"NOT Susie Deltarune (not real)","steam_id":76561199007365488,"connected_time":1517000000000,"state":"active","ping":67},{"user_id":488,"name":"Lapisüíõ ","steam_id":76561198009198502,"connected_time":546000000000,"state":"active","ping":88},{"user_id":482,"name":"Yam Jazzy Jim","steam_id":76561198000788950,"connected_time":632000000000,"state":"active","ping":79},{"user_id":459,"name":"Molten Pancake","steam_id":76561199085340387,"connected_time":2155000000000,"state":"active","ping":85},{"user_id":491,"name":"0vii","steam_id":76561198117084598,"connected_time":321000000000,"state":"active","ping":89},{"user_id":489,"name":"_cza","steam_id":76561198079793576,"connected_time":452000000000,"state":"active","ping":105},{"user_id":487,"name":"RockBandOnWii","steam_id":76561198285410854,"connected_time":578000000000,"state":"active","ping":94},{"user_id":483,"name":"Gluppo","steam_id":76561198379320087,"connected_time":628000000000,"state":"active","ping":83},{"user_id":426,"name":"SomeRandomMail","steam_id":76561199002913110,"connected_time":3949000000000,"state":"active","ping":86},{"user_id":460,"name":"sheldon_cooper___sicko_mode","steam_id":76561198073269122,"connected_time":2154000000000,"state":"active","ping":89},{"user_id":490,"name":"tyson","steam_id":76561198135028860,"connected_time":394000000000,"state":"active","ping":85},{"user_id":492,"name":"Ace","steam_id":76561198878661482,"connected_time":153000000000,"state":"active","ping":44},{"user_id":477,"name":"BUSY","steam_id":76561198047532250,"connected_time":946000000000,"state":"active","ping":104},{"user_id":451,"name":"a curved basket","steam_id":76561199192135759,"connected_time":2884000000000,"state":"active","ping":60},{"user_id":474,"name":"Smooky","steam_id":76561198191435451,"connected_time":1092000000000,"state":"active","ping":96},{"user_id":476,"name":"Ôº¥Ôº®Ôº• Ôº¢Ôº°Ôº£Ôº´Ôº£Ôº°Ôº∞","steam_id":76561198030282308,"connected_time":978000000000,"state":"active","ping":101},{"user_id":469,"name":"C4K3","steam_id":76561197996963285,"connected_time":1780000000000,"state":"active","ping":72},{"user_id":485,"name":"Jatt","steam_id":76561198822011219,"connected_time":612000000000,"state":"active","ping":94},{"user_id":449,"name":"G-G-G-GAMERSHOT","steam_id":76561198798980951,"connected_time":2962000000000,"state":"active","ping":75},{"user_id":467,"name":"your little goofy homie","steam_id":76561198967158026,"connected_time":1832000000000,"state":"active","ping":78}]},{"server_id":108,"name":"Uncletopia | Dallas | 2 | All Maps","name_short":"dal-2","host":"dal-1.us.uncletopia.com","port":27025,"enabled":true,"region":"us-central","cc":"us","latitude":32.779167,"longitude":-96.80889,"reserved":0,"last_update":"0001-01-01T00:00:00Z","name_a2s":"Uncletopia | Dallas | 2 | All Maps","protocol":17,"map":"pl_upward","folder":"tf","game":"Team Fortress","app_id":440,"player_count":24,"max_players":24,"Bots":0,"server_type":"Dedicated","server_os":"Linux","password":true,"vac":true,"version":"7882260","steam_id":85568392924469988,"keywords":["nocrits","nodmgspread","payload","uncletopia"],"game_id":440,"stv_port":27026,"stv_name":"Uncletopia | Dallas | 2 | All Maps | STV","players":[{"user_id":294,"name":"Brandon32204","steam_id":76561198031665291,"connected_time":2212000000000,"state":"active","ping":62},{"user_id":329,"name":"Queen Ishtar","steam_id":76561198035614233,"connected_time":381000000000,"state":"active","ping":77},{"user_id":330,"name":"„ÅÑ„Å°„Åî„Åæ„Çç","steam_id":76561198166100997,"connected_time":315000000000,"state":"active","ping":67},{"user_id":337,"name":"Kid named download","steam_id":76561199192074448,"connected_time":99000000000,"state":"active","ping":101},{"user_id":291,"name":"OMEGALUL","steam_id":76561198007400771,"connected_time":2279000000000,"state":"active","ping":71},{"user_id":306,"name":"SaLt_VauLt","steam_id":76561199096277985,"connected_time":1153000000000,"state":"active","ping":91},{"user_id":312,"name":"This Death That I Deservioli","steam_id":76561198808784253,"connected_time":930000000000,"state":"active","ping":115},{"user_id":261,"name":"Shimi","steam_id":76561198348149996,"connected_time":4663000000000,"state":"active","ping":129},{"user_id":316,"name":"Communist Killing Candy Cactus\ufffd","steam_id":76561198074980635,"connected_time":819000000000,"state":"active","ping":98},{"user_id":338,"name":"kermeeee","steam_id":76561198106278670,"connected_time":97000000000,"state":"active","ping":63},{"user_id":320,"name":"kibsta","steam_id":76561198991982630,"connected_time":615000000000,"state":"active","ping":69},{"user_id":282,"name":"Monsta","steam_id":76561197971626425,"connected_time":2571000000000,"state":"active","ping":71},{"user_id":307,"name":"Orbs","steam_id":76561198075938744,"connected_time":1123000000000,"state":"active","ping":75},{"user_id":332,"name":"GOLDIE","steam_id":76561199375258674,"connected_time":312000000000,"state":"active","ping":83},{"user_id":318,"name":"2JZ_","steam_id":76561198064027289,"connected_time":772000000000,"state":"active","ping":72},{"user_id":328,"name":"Blaasz","steam_id":76561198021394453,"connected_time":508000000000,"state":"active","ping":48},{"user_id":321,"name":"Ros","steam_id":76561199055963822,"connected_time":606000000000,"state":"active","ping":61},{"user_id":333,"name":"Jo_","steam_id":76561198142135469,"connected_time":293000000000,"state":"active","ping":62},{"user_id":227,"name":"The Jar","steam_id":76561198146013385,"connected_time":5957000000000,"state":"active","ping":86},{"user_id":335,"name":"Anamm","steam_id":76561198328762510,"connected_time":200000000000,"state":"active","ping":82},{"user_id":323,"name":"PostBASH","steam_id":76561199194134673,"connected_time":569000000000,"state":"active","ping":57},{"user_id":334,"name":"Capitalism 101","steam_id":76561198017214464,"connected_time":250000000000,"state":"active","ping":67},{"user_id":336,"name":"squaggles!","steam_id":76561197994995011,"connected_time":180000000000,"state":"active","ping":57},{"user_id":326,"name":"Dauntless Duelist","steam_id":76561198025056018,"connected_time":550000000000,"state":"active","ping":101}]},{"server_id":5,"name":"Uncletopia | Frankfurt | 1 | All Maps","name_short":"frk-1","host":"frk-1.de.uncletopia.com","port":27015,"enabled":true,"region":"eu","cc":"de","latitude":50.110924,"longitude":8.682127,"reserved":0,"last_update":"0001-01-01T00:00:00Z","name_a2s":"Uncletopia | Frankfurt | 1 | All Maps","protocol":17,"map":"pl_badwater","folder":"tf","game":"Team Fortress","app_id":440,"player_count":24,"max_players":24,"Bots":0,"server_type":"Dedicated","server_os":"Linux","password":true,"vac":true,"version":"7882260","steam_id":85568392924469989,"keywords":["nocrits","nodmgspread","payload","uncletopia"],"game_id":440,"stv_port":27016,"stv_name":"Uncletopia | Frankfurt | 1 | All Maps | STV","players":[{"user_id":575,"name":"Burpman","steam_id":76561198022897937,"connected_time":1982000000000,"state":"active","ping":61},{"user_id":579,"name":"yeyegoncas","steam_id":76561198061217656,"connected_time":1577000000000,"state":"active","ping":73},{"user_id":583,"name":"peruna","steam_id":76561198000721196,"connected_time":1241000000000,"state":"active","ping":93},{"user_id":582,"name":"Archsam","steam_id":76561198137828616,"connected_time":1267000000000,"state":"active","ping":58},{"user_id":566,"name":"Keittokapteeni","steam_id":76561198271579939,"connected_time":3123000000000,"state":"active","ping":89},{"user_id":594,"name":"kavun","steam_id":76561198023461869,"connected_time":406000000000,"state":"active","ping":83},{"user_id":585,"name":"20BB Raxor","steam_id":76561198239927434,"connected_time":1153000000000,"state":"active","ping":89},{"user_id":586,"name":"ackermann","steam_id":76561199129801006,"connected_time":689000000000,"state":"active","ping":56},{"user_id":588,"name":"Bonk my Balls","steam_id":76561198070154445,"connected_time":652000000000,"state":"active","ping":168},{"user_id":425,"name":"HerrMyrddin","steam_id":76561198045778215,"connected_time":13021000000000,"state":"active","ping":56},{"user_id":597,"name":"pocahonta","steam_id":76561199188503835,"connected_time":91000000000,"state":"active","ping":75},{"user_id":574,"name":"Claw","steam_id":76561198060985181,"connected_time":2162000000000,"state":"active","ping":63},{"user_id":545,"name":"LarsInABox","steam_id":76561198028329262,"connected_time":4978000000000,"state":"active","ping":73},{"user_id":533,"name":"Valoxi","steam_id":76561197995042938,"connected_time":5704000000000,"state":"active","ping":70},{"user_id":589,"name":"etc","steam_id":76561197998394797,"connected_time":620000000000,"state":"active","ping":52},{"user_id":590,"name":"Stigurna","steam_id":76561198063906822,"connected_time":602000000000,"state":"active","ping":98},{"user_id":595,"name":"Pestdoktor","steam_id":76561198058159271,"connected_time":371000000000,"state":"active","ping":68},{"user_id":587,"name":"Kumquat","steam_id":76561198200490386,"connected_time":683000000000,"state":"active","ping":81},{"user_id":592,"name":"Dirt Road","steam_id":76561198210372012,"connected_time":479000000000,"state":"active","ping":146},{"user_id":552,"name":"Mach","steam_id":76561198952487564,"connected_time":4313000000000,"state":"active","ping":177},{"user_id":565,"name":"Caro","steam_id":76561198065506317,"connected_time":3391000000000,"state":"active","ping":69},{"user_id":596,"name":"AVOID EVERYONE","steam_id":76561198051852765,"connected_time":362000000000,"state":"active","ping":60},{"user_id":584,"name":"flange","steam_id":76561198040182692,"connected_time":1164000000000,"state":"active","ping":58},{"user_id":539,"name":"Dope","steam_id":76561198318858892,"connected_time":5550000000000,"state":"active","ping":70}]},{"server_id":110,"name":"Uncletopia | Frankfurt | 2 | All Maps","name_short":"frk-2","host":"frk-1.de.uncletopia.com","port":27025,"enabled":true,"region":"eu","cc":"de","latitude":50.110924,"longitude":8.682127,"reserved":0,"last_update":"0001-01-01T00:00:00Z","name_a2s":"Uncletopia | Frankfurt | 2 | All Maps","protocol":17,"map":"pl_badwater","folder":"tf","game":"Team Fortress","app_id":440,"player_count":24,"max_players":24,"Bots":0,"server_type":"Dedicated","server_os":"Linux","password":true,"vac":true,"version":"7882260","steam_id":85568392924469990,"keywords":["nocrits","nodmgspread","payload","uncletopia"],"game_id":440,"stv_port":27026,"stv_name":"Uncletopia | Frankfurt | 2 | All Maps | STV","players":[{"user_id":640,"name":"wasps","steam_id":76561198049485054,"connected_time":4927000000000,"state":"active","ping":75},{"user_id":709,"name":"svino on Deck","steam_id":76561198313752653,"connected_time":91000000000,"state":"active","ping":425},{"user_id":682,"name":"lenny","steam_id":76561198064545300,"connected_time":1823000000000,"state":"active","ping":73},{"user_id":600,"name":"AmssoBador Spacelot","steam_id":76561197993444617,"connected_time":7567000000000,"state":"active","ping":72},{"user_id":641,"name":"I Don't Know","steam_id":76561198841011430,"connected_time":4907000000000,"state":"active","ping":66},{"user_id":679,"name":"gort (sextrance enjoyer)","steam_id":76561198060339391,"connected_time":1919000000000,"state":"active","ping":46},{"user_id":694,"name":"Peeblo","steam_id":76561198231904816,"connected_time":1323000000000,"state":"active","ping":92},{"user_id":700,"name":"Bread","steam_id":76561198145232617,"connected_time":729000000000,"state":"active","ping":55},{"user_id":685,"name":"Joker‚ë¶‚ë¶‚ë¶¬≥","steam_id":76561197992353350,"connected_time":1594000000000,"state":"active","ping":73},{"user_id":710,"name":"SpyCrab  Erik Twice","steam_id":76561198009710309,"connected_time":10000000000,"state":"active","ping":90},{"user_id":644,"name":"Ratatatatatatouille","steam_id":76561198182267098,"connected_time":4890000000000,"state":"active","ping":88},{"user_id":659,"name":"modavak","steam_id":76561198946290908,"connected_time":3726000000000,"state":"active","ping":90},{"user_id":696,"name":"Engie Healer","steam_id":76561198091736413,"connected_time":1140000000000,"state":"active","ping":54},{"user_id":704,"name":"Yuzu","steam_id":76561198121694613,"connected_time":296000000000,"state":"active","ping":55},{"user_id":690,"name":"LIGHTWEIGHT BABY","steam_id":76561198002761980,"connected_time":1384000000000,"state":"active","ping":68},{"user_id":699,"name":"maxharmony","steam_id":76561198233819688,"connected_time":738000000000,"state":"active","ping":87},{"user_id":701,"name":"urskiskurskis","steam_id":76561198107767058,"connected_time":354000000000,"state":"active","ping":84},{"user_id":705,"name":"rolmos","steam_id":76561198024121853,"connected_time":162000000000,"state":"active","ping":76},{"user_id":706,"name":"That Phlog mfer","steam_id":76561198050416948,"connected_time":143000000000,"state":"active","ping":62},{"user_id":681,"name":"‚ô• trixy ‚ô•","steam_id":76561199474154775,"connected_time":1841000000000,"state":"active","ping":58},{"user_id":698,"name":"why rum gone","steam_id":76561198158484784,"connected_time":767000000000,"state":"active","ping":59},{"user_id":632,"name":"Professional Donker","steam_id":76561199235435358,"connected_time":6031000000000,"state":"active","ping":81},{"user_id":692,"name":"Alice in Rubberland","steam_id":76561198087328346,"connected_time":1364000000000,"state":"active","ping":153},{"user_id":693,"name":"Ë™∞„Åã„ÅåË¶ã„Å¶„ÅÑ„Çã","steam_id":76561198834913692,"connected_time":1348000000000,"state":"active","ping":69}]},{"server_id":308,"name":"Uncletopia | Frankfurt | 3 | All Maps","name_short":"frk-3","host":"frk-1.de.uncletopia.com","port":27035,"enabled":true,"region":"eu","cc":"de","latitude":50.110924,"longitude":8.682127,"reserved":0,"last_update":"0001-01-01T00:00:00Z","name_a2s":"Uncletopia | Frankfurt | 3 | All Maps","protocol":17,"map":"koth_cascade","folder":"tf","game":"Team Fortress","app_id":440,"player_count":20,"max_players":24,"Bots":0,"server_type":"Dedicated","server_os":"Linux","password":true,"vac":true,"version":"7882260","steam_id":85568392924504274,"keywords":["cp","nocrits","nodmgspread","uncletopia"],"game_id":440,"stv_port":27036,"stv_name":"Uncletopia | Frankfurt | 3 | All Maps | STV","players":[{"user_id":553,"name":"USBug999","steam_id":76561199174677820,"connected_time":1698000000000,"state":"active","ping":133},{"user_id":549,"name":"Der Herr Doktor","steam_id":76561198119476089,"connected_time":1935000000000,"state":"active","ping":59},{"user_id":554,"name":"sunshine (he/him)","steam_id":76561198084597975,"connected_time":1453000000000,"state":"active","ping":63},{"user_id":531,"name":"Totesdrache","steam_id":76561199088861308,"connected_time":2929000000000,"state":"active","ping":57},{"user_id":577,"name":"Solu","steam_id":76561198054652468,"connected_time":45000000000,"state":"active","ping":45},{"user_id":528,"name":"FanFish","steam_id":76561199389558024,"connected_time":3070000000000,"state":"active","ping":63},{"user_id":557,"name":"TheFox.tf","steam_id":76561197996851702,"connected_time":861000000000,"state":"active","ping":62},{"user_id":559,"name":"PIZZAMAN","steam_id":76561198296484184,"connected_time":719000000000,"state":"active","ping":60},{"user_id":569,"name":"BrotherPotato","steam_id":76561198049948120,"connected_time":242000000000,"state":"active","ping":72},{"user_id":571,"name":"Daemerling","steam_id":76561198108751915,"connected_time":203000000000,"state":"active","ping":49},{"user_id":578,"name":"Explosive_kink","steam_id":76561198998702838,"connected_time":43000000000,"state":"active","ping":67},{"user_id":574,"name":"Heisenberg","steam_id":76561198313735618,"connected_time":135000000000,"state":"active","ping":137},{"user_id":567,"name":"Lugialf","steam_id":76561198069050794,"connected_time":253000000000,"state":"active","ping":90},{"user_id":520,"name":"Xiqui","steam_id":76561198818386611,"connected_time":3376000000000,"state":"active","ping":89},{"user_id":544,"name":"Battle_Pass90","steam_id":76561199367142516,"connected_time":2252000000000,"state":"active","ping":69},{"user_id":570,"name":"Honker","steam_id":76561198119283288,"connected_time":229000000000,"state":"active","ping":50},{"user_id":572,"name":"oscar","steam_id":76561198079636127,"connected_time":195000000000,"state":"active","ping":81},{"user_id":579,"name":"BELADIT","steam_id":76561198011911501,"connected_time":28000000000,"state":"active","ping":65},{"user_id":580,"name":"Pingutaro","steam_id":76561198112803718,"connected_time":19000000000,"state":"spawning","ping":104},{"user_id":523,"name":"simplex","steam_id":76561198185135235,"connected_time":3299000000000,"state":"active","ping":81}]},{"server_id":309,"name":"Uncletopia | Frankfurt | 4 | All Maps","name_short":"frk-4","host":"frk-1.de.uncletopia.com","port":27045,"enabled":true,"region":"eu","cc":"de","latitude":50.110924,"longitude":8.682127,"reserved":0,"last_update":"0001-01-01T00:00:00Z","name_a2s":"Uncletopia | Frankfurt | 4 | All Maps","protocol":17,"map":"ctf_2fort","folder":"tf","game":"Team Fortress","app_id":440,"player_count":21,"max_players":24,"Bots":0,"server_type":"Dedicated","server_os":"Linux","password":true,"vac":true,"version":"7882260","steam_id":85568392924504275,"keywords":["ctf","nocrits","nodmgspread","uncletopia"],"game_id":440,"stv_port":27046,"stv_name":"Uncletopia | Frankfurt | 4 | All Maps | STV","players":[{"user_id":752,"name":"HentaiEnjoyer","steam_id":76561198148361982,"connected_time":1413000000000,"state":"active","ping":111},{"user_id":771,"name":"Issei Hyoudou ÂÖµËó§ ‰∏ÄË™†","steam_id":76561198174088183,"connected_time":847000000000,"state":"active","ping":69},{"user_id":692,"name":"Poland Doge","steam_id":76561198280605135,"connected_time":6419000000000,"state":"active","ping":60},{"user_id":758,"name":"Greg","steam_id":76561199117798282,"connected_time":1099000000000,"state":"active","ping":189},{"user_id":745,"name":"Kurage","steam_id":76561198021221288,"connected_time":2327000000000,"state":"active","ping":56},{"user_id":755,"name":"SpaceisthePlace","steam_id":76561198274736688,"connected_time":1364000000000,"state":"active","ping":167},{"user_id":754,"name":"Snot Bubble Fan","steam_id":76561198168489637,"connected_time":1371000000000,"state":"active","ping":136},{"user_id":772,"name":"Cortilex","steam_id":76561198850619406,"connected_time":316000000000,"state":"active","ping":74},{"user_id":762,"name":"Guardsman Alex","steam_id":76561198000094686,"connected_time":1008000000000,"state":"active","ping":68},{"user_id":760,"name":"minespweper","steam_id":76561199096919345,"connected_time":1062000000000,"state":"active","ping":83},{"user_id":761,"name":"R","steam_id":76561199379233899,"connected_time":1060000000000,"state":"active","ping":87},{"user_id":773,"name":"StingyLettuce","steam_id":76561199010337406,"connected_time":301000000000,"state":"active","ping":109},{"user_id":766,"name":"live funny joke reaction cam","steam_id":76561198346324423,"connected_time":930000000000,"state":"active","ping":108},{"user_id":778,"name":"4","steam_id":76561197964945192,"connected_time":49000000000,"state":"active","ping":46},{"user_id":774,"name":"kel584","steam_id":76561199484115378,"connected_time":204000000000,"state":"active","ping":74},{"user_id":775,"name":"Valdis","steam_id":76561198057340489,"connected_time":143000000000,"state":"active","ping":59},{"user_id":748,"name":"Dr. Sir Knight","steam_id":76561198146313878,"connected_time":2268000000000,"state":"active","ping":64},{"user_id":769,"name":"robu","steam_id":76561198113874116,"connected_time":882000000000,"state":"active","ping":69},{"user_id":737,"name":"Stylian","steam_id":76561198112948473,"connected_time":3736000000000,"state":"active","ping":92},{"user_id":750,"name":"chess club manager","steam_id":76561198011047413,"connected_time":1942000000000,"state":"active","ping":70},{"user_id":770,"name":"BlinkedUp","steam_id":76561198249985618,"connected_time":879000000000,"state":"active","ping":63}]},{"server_id":310,"name":"Uncletopia | Frankfurt | 5 | All Maps","name_short":"frk-5","host":"frk-1.de.uncletopia.com","port":27055,"enabled":true,"region":"eu","cc":"de","latitude":50.110924,"longitude":8.682127,"reserved":0,"last_update":"0001-01-01T00:00:00Z","name_a2s":"Uncletopia | Frankfurt | 5 | All Maps","protocol":17,"map":"cp_process_final","folder":"tf","game":"Team Fortress","app_id":440,"player_count":0,"max_players":24,"Bots":0,"server_type":"Dedicated","server_os":"Linux","password":true,"vac":true,"version":"7882260","steam_id":85568392924504277,"keywords":["cp","nocrits","nodmgspread","uncletopia"],"game_id":440,"stv_port":27056,"stv_name":"Uncletopia | Frankfurt | 5 | All Maps | STV","players":null},{"server_id":311,"name":"Uncletopia | Frankfurt | 6 | All Maps","name_short":"frk-6","host":"frk-1.de.uncletopia.com","port":27065,"enabled":true,"region":"eu","cc":"de","latitude":50.110924,"longitude":8.682127,"reserved":0,"last_update":"0001-01-01T00:00:00Z","name_a2s":"Uncletopia | Frankfurt | 6 | All Maps","protocol":17,"map":"plr_hightower","folder":"tf","game":"Team Fortress","app_id":440,"player_count":22,"max_players":24,"Bots":0,"server_type":"Dedicated","server_os":"Linux","password":true,"vac":true,"version":"7882260","steam_id":85568392924504278,"keywords":["nocrits","nodmgspread","payload","uncletopia"],"game_id":440,"stv_port":27066,"stv_name":"Uncletopia | Frankfurt | 6 | All Maps | STV","players":[{"user_id":472,"name":"LOBZIK","steam_id":76561198114830120,"connected_time":851000000000,"state":"active","ping":76},{"user_id":475,"name":"Perci","steam_id":76561198097789669,"connected_time":741000000000,"state":"active","ping":58},{"user_id":445,"name":"kyuta","steam_id":76561198382281653,"connected_time":2268000000000,"state":"active","ping":65},{"user_id":446,"name":"futer","steam_id":76561198059699043,"connected_time":2199000000000,"state":"active","ping":62},{"user_id":471,"name":"Diktoulong","steam_id":76561198170613135,"connected_time":908000000000,"state":"active","ping":139},{"user_id":443,"name":"Mrbluuub","steam_id":76561199273847084,"connected_time":2428000000000,"state":"active","ping":70},{"user_id":476,"name":"Pepsi Man","steam_id":76561198061835461,"connected_time":523000000000,"state":"active","ping":49},{"user_id":484,"name":"icy_spicy","steam_id":76561199481524657,"connected_time":14000000000,"state":"active","ping":47},{"user_id":464,"name":"Pixie","steam_id":76561198044038797,"connected_time":1328000000000,"state":"active","ping":75},{"user_id":455,"name":"TheEventGuy","steam_id":76561197972797744,"connected_time":1597000000000,"state":"active","ping":51},{"user_id":426,"name":"Satanael","steam_id":76561198165252930,"connected_time":4074000000000,"state":"active","ping":120},{"user_id":483,"name":"Zero (Orbital Gear Mastermind)","steam_id":76561198017416816,"connected_time":89000000000,"state":"active","ping":58},{"user_id":481,"name":"tanyathsus","steam_id":76561198089522447,"connected_time":118000000000,"state":"active","ping":60},{"user_id":482,"name":"Femboy","steam_id":76561198384909993,"connected_time":99000000000,"state":"active","ping":107},{"user_id":461,"name":"Mr.Schnittlauch","steam_id":76561198295868113,"connected_time":1541000000000,"state":"active","ping":57},{"user_id":416,"name":"gamering","steam_id":76561198047359132,"connected_time":4792000000000,"state":"active","ping":59},{"user_id":428,"name":"Engineering since 1941","steam_id":76561198851157897,"connected_time":4025000000000,"state":"active","ping":75},{"user_id":442,"name":"alan","steam_id":76561198306947435,"connected_time":2538000000000,"state":"active","ping":75},{"user_id":480,"name":"aslloc((sizeof(U64) \u003c\u003c 0xff));","steam_id":76561198365870439,"connected_time":146000000000,"state":"active","ping":104},{"user_id":397,"name":"Government Agent","steam_id":76561198021409554,"connected_time":5735000000000,"state":"active","ping":48},{"user_id":434,"name":"MorVill","steam_id":76561198809859945,"connected_time":2951000000000,"state":"active","ping":71},{"user_id":432,"name":"Adam/Sentry Gun tf2","steam_id":76561199103777436,"connected_time":2962000000000,"state":"active","ping":69}]},{"server_id":23,"name":"Uncletopia | Frankfurt | 7 | Stopwatch Beta","name_short":"frk-7","host":"frk-1.de.uncletopia.com","port":27075,"enabled":true,"region":"eu","cc":"de","latitude":50.110924,"longitude":8.682127,"reserved":0,"last_update":"0001-01-01T00:00:00Z","name_a2s":"Uncletopia | Frankfurt | 7 | Stopwatch Beta","protocol":17,"map":"cp_gullywash_final1","folder":"tf","game":"Team Fortress","app_id":440,"player_count":0,"max_players":24,"Bots":0,"server_type":"Dedicated","server_os":"Linux","password":true,"vac":true,"version":"7882260","steam_id":85568392924742827,"keywords":["cp","nocrits","nodmgspread","uncletopia"],"game_id":440,"stv_port":27076,"stv_name":"Uncletopia | Frankfurt | 7 | Stopwatch Beta | STV","players":null},{"server_id":24,"name":"Uncletopia | Frankfurt | 8 | Community","name_short":"frk-8","host":"frk-1.de.uncletopia.com","port":27085,"enabled":true,"region":"eu","cc":"de","latitude":50.110924,"longitude":8.682127,"reserved":0,"last_update":"0001-01-01T00:00:00Z","name_a2s":"Uncletopia | Frankfurt | 8 | Community","protocol":17,"map":"workshop/cp_alloy_rc3.ugc592805587","folder":"tf","game":"Team Fortress","app_id":440,"player_count":0,"max_players":24,"Bots":0,"server_type":"Dedicated","server_os":"Linux","password":true,"vac":true,"version":"7882260","steam_id":85568392924742828,"keywords":["cp","nocrits","nodmgspread","uncletopia"],"game_id":440,"stv_port":27086,"stv_name":"Uncletopia | Frankfurt | 8 | Community | STV","players":null},{"server_id":202,"name":"Uncletopia | Hong Kong | 1 | All Maps","name_short":"hgk-1","host":"hgk-1.hk.uncletopia.com","port":27015,"enabled":true,"region":"asia","cc":"hk","latitude":22.302711,"longitude":114.177216,"reserved":0,"last_update":"0001-01-01T00:00:00Z","name_a2s":"Uncletopia | Hong Kong | 1 | All Maps","protocol":17,"map":"koth_highpass","folder":"tf","game":"Team Fortress","app_id":440,"player_count":0,"max_players":24,"Bots":0,"server_type":"Dedicated","server_os":"Linux","password":true,"vac":true,"version":"7882260","steam_id":85568392924494504,"keywords":["cp","nocrits","nodmgspread","uncletopia"],"game_id":440,"stv_port":27016,"stv_name":"Uncletopia | Hong Kong | 1 | All Maps | STV","players":null},{"server_id":1,"name":"Uncletopia | Los Angeles | 1 | All Maps","name_short":"lax-1","host":"lax-1.us.uncletopia.com","port":27015,"enabled":true,"region":"us-west","cc":"us","latitude":33.94279,"longitude":-118.41004,"reserved":0,"last_update":"0001-01-01T00:00:00Z","name_a2s":"Uncletopia | Los Angeles | 1 | All Maps","protocol":17,"map":"cp_dustbowl","folder":"tf","game":"Team Fortress","app_id":440,"player_count":24,"max_players":24,"Bots":0,"server_type":"Dedicated","server_os":"Linux","password":true,"vac":true,"version":"7882260","steam_id":85568392924469991,"keywords":["cp","nocrits","nodmgspread","uncletopia"],"game_id":440,"stv_port":27016,"stv_name":"Uncletopia | Los Angeles | 1 | All Maps | STV","players":[{"user_id":169,"name":"pink knite","steam_id":76561198311543042,"connected_time":345000000000,"state":"active","ping":44},{"user_id":151,"name":"Grim","steam_id":76561198016978310,"connected_time":1351000000000,"state":"active","ping":62},{"user_id":126,"name":"Sol","steam_id":76561198121500201,"connected_time":2650000000000,"state":"active","ping":45},{"user_id":168,"name":"RaTtYc","steam_id":76561198954419354,"connected_time":374000000000,"state":"active","ping":77},{"user_id":163,"name":"Taylor Swift","steam_id":76561198078130694,"connected_time":538000000000,"state":"active","ping":106},{"user_id":155,"name":"Counterpart","steam_id":76561198135030468,"connected_time":896000000000,"state":"active","ping":48},{"user_id":170,"name":"aiming with drawing tablet","steam_id":76561198397662124,"connected_time":339000000000,"state":"active","ping":93},{"user_id":156,"name":"DiscoTraveler","steam_id":76561199240168088,"connected_time":873000000000,"state":"active","ping":91},{"user_id":149,"name":"Gr33n3st","steam_id":76561198974888226,"connected_time":1568000000000,"state":"active","ping":123},{"user_id":153,"name":"Ban_nana","steam_id":76561199206827767,"connected_time":1002000000000,"state":"active","ping":89},{"user_id":167,"name":"jayzak24","steam_id":76561198354267509,"connected_time":415000000000,"state":"active","ping":57},{"user_id":161,"name":"DOPEam1ne","steam_id":76561198112204774,"connected_time":598000000000,"state":"active","ping":56},{"user_id":171,"name":"imtoofadedicantevendapuup","steam_id":76561198180372310,"connected_time":321000000000,"state":"active","ping":94},{"user_id":148,"name":"Ypuoi","steam_id":76561198170203261,"connected_time":1659000000000,"state":"active","ping":58},{"user_id":174,"name":"[GUT] RiDiK¬Æ","steam_id":76561197969756446,"connected_time":295000000000,"state":"active","ping":112},{"user_id":120,"name":"culture shock","steam_id":76561198212421513,"connected_time":3263000000000,"state":"active","ping":48},{"user_id":157,"name":"Sidekick","steam_id":76561198392740835,"connected_time":871000000000,"state":"active","ping":75},{"user_id":177,"name":"[GUT] 13","steam_id":76561197985209820,"connected_time":156000000000,"state":"active","ping":102},{"user_id":159,"name":"‚ú™ Y V E S","steam_id":76561198299479796,"connected_time":665000000000,"state":"active","ping":45},{"user_id":133,"name":"...","steam_id":76561198121508845,"connected_time":2036000000000,"state":"active","ping":66},{"user_id":175,"name":"Portal2Player","steam_id":76561198062870114,"connected_time":289000000000,"state":"active","ping":139},{"user_id":176,"name":"Stapler","steam_id":76561198099295077,"connected_time":206000000000,"state":"active","ping":60},{"user_id":40,"name":"stboncho","steam_id":76561198172275301,"connected_time":9379000000000,"state":"active","ping":70},{"user_id":179,"name":"Onii-chan","steam_id":76561197972195497,"connected_time":130000000000,"state":"active","ping":116}]},{"server_id":112,"name":"Uncletopia | Los Angeles | 2 | All Maps","name_short":"lax-2","host":"lax-1.us.uncletopia.com","port":27025,"enabled":true,"region":"us-west","cc":"us","latitude":33.94279,"longitude":-118.41004,"reserved":0,"last_update":"0001-01-01T00:00:00Z","name_a2s":"Uncletopia | Los Angeles | 2 | All Maps","protocol":17,"map":"koth_viaduct","folder":"tf","game":"Team Fortress","app_id":440,"player_count":0,"max_players":24,"Bots":0,"server_type":"Dedicated","server_os":"Linux","password":true,"vac":true,"version":"7882260","steam_id":85568392924469992,"keywords":["cp","nocrits","nodmgspread","uncletopia"],"game_id":440,"stv_port":27026,"stv_name":"Uncletopia | Los Angeles | 2 | All Maps | STV","players":null},{"server_id":324,"name":"Uncletopia | Los Angeles | 3 | All Maps","name_short":"lax-3","host":"lax-1.us.uncletopia.com","port":27035,"enabled":true,"region":"us-west","cc":"us","latitude":33.94279,"longitude":-118.41004,"reserved":0,"last_update":"0001-01-01T00:00:00Z","name_a2s":"Uncletopia | Los Angeles | 3 | All Maps","protocol":17,"map":"cp_altitude","folder":"tf","game":"Team Fortress","app_id":440,"player_count":0,"max_players":24,"Bots":0,"server_type":"Dedicated","server_os":"Linux","password":true,"vac":true,"version":"7882260","steam_id":85568392924510198,"keywords":["cp","nocrits","nodmgspread","uncletopia"],"game_id":440,"stv_port":27036,"stv_name":"Uncletopia | Los Angeles | 3 | All Maps | STV","players":null},{"server_id":25,"name":"Uncletopia | Los Angeles | 4 | Stopwatch Beta","name_short":"lax-4","host":"lax-1.us.uncletopia.com","port":27045,"enabled":true,"region":"us-west","cc":"us","latitude":33.94279,"longitude":-118.41004,"reserved":0,"last_update":"0001-01-01T00:00:00Z","name_a2s":"Uncletopia | Los Angeles | 4 | Stopwatch Beta","protocol":17,"map":"cp_snakewater_final1","folder":"tf","game":"Team Fortress","app_id":440,"player_count":0,"max_players":24,"Bots":0,"server_type":"Dedicated","server_os":"Linux","password":true,"vac":true,"version":"7882260","steam_id":85568392924510199,"keywords":["cp","nocrits","nodmgspread","uncletopia"],"game_id":440,"stv_port":27046,"stv_name":"Uncletopia | Los Angeles | 4 | Stopwatch Beta | STV","players":null},{"server_id":11,"name":"Uncletopia | London | 1 | All Maps","name_short":"lon-1","host":"lon-1.uk.uncletopia.com","port":27015,"enabled":true,"region":"eu","cc":"gb","latitude":51.509865,"longitude":-0.118092,"reserved":0,"last_update":"0001-01-01T00:00:00Z","name_a2s":"Uncletopia | London | 1 | All Maps","protocol":17,"map":"ctf_well","folder":"tf","game":"Team Fortress","app_id":440,"player_count":24,"max_players":24,"Bots":0,"server_type":"Dedicated","server_os":"Linux","password":true,"vac":true,"version":"7882260","steam_id":85568392924367362,"keywords":["ctf","nocrits","nodmgspread","uncletopia"],"game_id":440,"stv_port":27016,"stv_name":"Uncletopia | London | 1 | All Maps | STV","players":[{"user_id":649,"name":"d u k k i","steam_id":76561198071807437,"connected_time":644000000000,"state":"active","ping":90},{"user_id":627,"name":"a cat","steam_id":76561199089563896,"connected_time":1829000000000,"state":"active","ping":84},{"user_id":623,"name":"Prome","steam_id":76561199050383942,"connected_time":2003000000000,"state":"active","ping":57},{"user_id":630,"name":"MikeHawk","steam_id":76561198037050528,"connected_time":1789000000000,"state":"active","ping":133},{"user_id":643,"name":"Dedu","steam_id":76561198132191324,"connected_time":907000000000,"state":"active","ping":65},{"user_id":543,"name":"Plep","steam_id":76561198840259819,"connected_time":6776000000000,"state":"active","ping":52},{"user_id":613,"name":"Hydro","steam_id":76561199081791855,"connected_time":2539000000000,"state":"active","ping":65},{"user_id":621,"name":"Tormund67","steam_id":76561199092920019,"connected_time":2076000000000,"state":"active","ping":100},{"user_id":556,"name":"Fwebbie","steam_id":76561199006875621,"connected_time":6364000000000,"state":"active","ping":56},{"user_id":588,"name":"shrug ü§®","steam_id":76561198079365986,"connected_time":4045000000000,"state":"active","ping":74},{"user_id":632,"name":"Hoff","steam_id":76561198026537318,"connected_time":1720000000000,"state":"active","ping":35},{"user_id":624,"name":"Aaron","steam_id":76561197990046953,"connected_time":1964000000000,"state":"active","ping":58},{"user_id":638,"name":"Rex","steam_id":76561199132866589,"connected_time":1340000000000,"state":"active","ping":51},{"user_id":614,"name":"goff","steam_id":76561198118989010,"connected_time":2495000000000,"state":"active","ping":52},{"user_id":645,"name":"Maya","steam_id":76561198128616615,"connected_time":791000000000,"state":"active","ping":71},{"user_id":622,"name":"Sherlockno","steam_id":76561198361872092,"connected_time":2050000000000,"state":"active","ping":76},{"user_id":495,"name":"shooer!","steam_id":76561198110531281,"connected_time":9550000000000,"state":"active","ping":71},{"user_id":651,"name":"impossible whopper eater","steam_id":76561198058641805,"connected_time":397000000000,"state":"active","ping":49},{"user_id":647,"name":":P","steam_id":76561198106399430,"connected_time":755000000000,"state":"active","ping":45},{"user_id":654,"name":"Mapavri","steam_id":76561198370196400,"connected_time":75000000000,"state":"active","ping":85},{"user_id":637,"name":"Gubbly Bubbins","steam_id":76561198101451654,"connected_time":1367000000000,"state":"active","ping":45},{"user_id":648,"name":"Orbit","steam_id":76561198242999878,"connected_time":747000000000,"state":"active","ping":56},{"user_id":652,"name":"ElElliot","steam_id":76561198842278840,"connected_time":300000000000,"state":"active","ping":118},{"user_id":607,"name":"Ava9","steam_id":76561198975869024,"connected_time":3066000000000,"state":"active","ping":88}]},{"server_id":114,"name":"Uncletopia | London | 2 | All Maps","name_short":"lon-2","host":"lon-1.uk.uncletopia.com","port":27025,"enabled":true,"region":"eu","cc":"gb","latitude":51.509865,"longitude":-0.118092,"reserved":0,"last_update":"0001-01-01T00:00:00Z","name_a2s":"Uncletopia | London | 2 | All Maps","protocol":17,"map":"koth_viaduct","folder":"tf","game":"Team Fortress","app_id":440,"player_count":19,"max_players":24,"Bots":0,"server_type":"Dedicated","server_os":"Linux","password":true,"vac":true,"version":"7882260","steam_id":85568392924470941,"keywords":["cp","nocrits","nodmgspread","uncletopia"],"game_id":440,"stv_port":27026,"stv_name":"Uncletopia | London | 2 | All Maps | STV","players":[{"user_id":250,"name":"NinjaTuna","steam_id":76561198034569315,"connected_time":762000000000,"state":"active","ping":53},{"user_id":260,"name":"David \"Crash\" Murphy","steam_id":76561198292845505,"connected_time":30000000000,"state":"active","ping":87},{"user_id":244,"name":"Fizz","steam_id":76561197994814990,"connected_time":886000000000,"state":"active","ping":76},{"user_id":245,"name":"JohkupohkuXD","steam_id":76561198391108762,"connected_time":883000000000,"state":"active","ping":83},{"user_id":234,"name":"Antifaschistischer","steam_id":76561198452588605,"connected_time":1268000000000,"state":"active","ping":66},{"user_id":247,"name":"üóªüé¥Hadrian Maloneüé¥üóª","steam_id":76561198036151103,"connected_time":796000000000,"state":"active","ping":55},{"user_id":242,"name":"Portal79","steam_id":76561198095499584,"connected_time":1034000000000,"state":"active","ping":59},{"user_id":248,"name":"tuber","steam_id":76561198086644199,"connected_time":773000000000,"state":"active","ping":45},{"user_id":226,"name":"First Class Gamer","steam_id":76561198871136698,"connected_time":1519000000000,"state":"active","ping":38},{"user_id":249,"name":"voco","steam_id":76561198179250642,"connected_time":771000000000,"state":"active","ping":114},{"user_id":203,"name":"Hivel","steam_id":76561198151390773,"connected_time":2786000000000,"state":"active","ping":87},{"user_id":218,"name":"disc0rd","steam_id":76561197985965776,"connected_time":1925000000000,"state":"active","ping":61},{"user_id":257,"name":"bushman","steam_id":76561197996548146,"connected_time":213000000000,"state":"active","ping":148},{"user_id":241,"name":"Elix","steam_id":76561199072306920,"connected_time":1072000000000,"state":"active","ping":104},{"user_id":261,"name":"Sublime34","steam_id":76561198163138792,"connected_time":7000000000,"state":"active","ping":81},{"user_id":239,"name":"OutOfDucks","steam_id":76561198166376227,"connected_time":1108000000000,"state":"active","ping":56},{"user_id":255,"name":"Junsei","steam_id":76561199088984886,"connected_time":516000000000,"state":"active","ping":146},{"user_id":189,"name":"anti","steam_id":76561198313440475,"connected_time":3494000000000,"state":"active","ping":83},{"user_id":233,"name":"OxygeNxo","steam_id":76561198031632028,"connected_time":1360000000000,"state":"active","ping":62}]},{"server_id":320,"name":"Uncletopia | London | 3 | All Maps","name_short":"lon-3","host":"lon-1.uk.uncletopia.com","port":27035,"enabled":true,"region":"eu","cc":"gb","latitude":51.509865,"longitude":-0.118092,"reserved":0,"last_update":"0001-01-01T00:00:00Z","name_a2s":"Uncletopia | London | 3 | All Maps","protocol":17,"map":"pl_borneo","folder":"tf","game":"Team Fortress","app_id":440,"player_count":24,"max_players":24,"Bots":0,"server_type":"Dedicated","server_os":"Linux","password":true,"vac":true,"version":"7882260","steam_id":85568392924510192,"keywords":["nocrits","nodmgspread","payload","uncletopia"],"game_id":440,"stv_port":27036,"stv_name":"Uncletopia | London | 3 | All Maps | STV","players":[{"user_id":677,"name":"Dr. Mike","steam_id":76561197991205793,"connected_time":3012000000000,"state":"active","ping":78},{"user_id":718,"name":"Ekstra","steam_id":76561199031147010,"connected_time":431000000000,"state":"active","ping":72},{"user_id":706,"name":"Kaishakunin","steam_id":76561198028123874,"connected_time":1010000000000,"state":"active","ping":99},{"user_id":719,"name":"Meddler","steam_id":76561198033001402,"connected_time":404000000000,"state":"active","ping":45},{"user_id":657,"name":"sarii ‚òÜ","steam_id":76561199155102111,"connected_time":4233000000000,"state":"active","ping":76},{"user_id":720,"name":"Papillon","steam_id":76561198049725849,"connected_time":348000000000,"state":"active","ping":144},{"user_id":711,"name":"Margaret Thatcher","steam_id":76561198124463930,"connected_time":894000000000,"state":"active","ping":43},{"user_id":713,"name":"R1CH4RD","steam_id":76561197995291423,"connected_time":822000000000,"state":"active","ping":87},{"user_id":707,"name":"Virgil","steam_id":76561198248786778,"connected_time":1005000000000,"state":"active","ping":112},{"user_id":656,"name":"Finn","steam_id":76561198179960193,"connected_time":4346000000000,"state":"active","ping":44},{"user_id":724,"name":"dnljns","steam_id":76561198085091752,"connected_time":126000000000,"state":"active","ping":92},{"user_id":723,"name":"varsity athlete","steam_id":76561198058656179,"connected_time":141000000000,"state":"active","ping":56},{"user_id":721,"name":"dodo10","steam_id":76561198036632498,"connected_time":178000000000,"state":"active","ping":35},{"user_id":681,"name":"vadr","steam_id":76561198334528186,"connected_time":2984000000000,"state":"active","ping":49},{"user_id":682,"name":"astigmatic","steam_id":76561199103959197,"connected_time":2981000000000,"state":"active","ping":99},{"user_id":695,"name":"adam","steam_id":76561199024816404,"connected_time":1804000000000,"state":"active","ping":92},{"user_id":699,"name":"Professional facestab","steam_id":76561198258721056,"connected_time":1521000000000,"state":"active","ping":49},{"user_id":701,"name":"balanced diet","steam_id":76561198240320806,"connected_time":1457000000000,"state":"active","ping":72},{"user_id":717,"name":"Voks_","steam_id":76561198159687785,"connected_time":498000000000,"state":"active","ping":68},{"user_id":709,"name":"Mannequin","steam_id":76561198128833974,"connected_time":967000000000,"state":"active","ping":58},{"user_id":692,"name":"ack","steam_id":76561198139796077,"connected_time":1995000000000,"state":"active","ping":53},{"user_id":702,"name":"Milk","steam_id":76561198125876588,"connected_time":1315000000000,"state":"active","ping":40},{"user_id":710,"name":"twitch.tv/red_naxela","steam_id":76561197998803950,"connected_time":966000000000,"state":"active","ping":67},{"user_id":725,"name":"Dr Ludwig","steam_id":76561198426522902,"connected_time":68000000000,"state":"active","ping":56}]},{"server_id":321,"name":"Uncletopia | London | 4 | All Maps","name_short":"lon-4","host":"lon-1.uk.uncletopia.com","port":27045,"enabled":true,"region":"eu","cc":"gb","latitude":51.509865,"longitude":-0.118092,"reserved":0,"last_update":"0001-01-01T00:00:00Z","name_a2s":"Uncletopia | London | 4 | All Maps","protocol":17,"map":"pl_upward","folder":"tf","game":"Team Fortress","app_id":440,"player_count":24,"max_players":24,"Bots":0,"server_type":"Dedicated","server_os":"Linux","password":true,"vac":true,"version":"7882260","steam_id":85568392924510193,"keywords":["nocrits","nodmgspread","payload","uncletopia"],"game_id":440,"stv_port":27046,"stv_name":"Uncletopia | London | 4 | All Maps | STV","players":[{"user_id":290,"name":"Fish 'n' Chips","steam_id":76561198033476886,"connected_time":962000000000,"state":"active","ping":50},{"user_id":280,"name":"hungry little man","steam_id":76561199229110612,"connected_time":1769000000000,"state":"active","ping":57},{"user_id":274,"name":"Germanium_Ge","steam_id":76561198130561775,"connected_time":2447000000000,"state":"active","ping":54},{"user_id":278,"name":"Real Unreal Lau","steam_id":76561197993573576,"connected_time":1843000000000,"state":"active","ping":91},{"user_id":294,"name":"Rask","steam_id":76561198052934944,"connected_time":905000000000,"state":"active","ping":90},{"user_id":272,"name":"LiterallyRyanGosling","steam_id":76561199017856691,"connected_time":2570000000000,"state":"active","ping":56},{"user_id":299,"name":"BenteBent","steam_id":76561198297920637,"connected_time":382000000000,"state":"active","ping":34},{"user_id":258,"name":"UltimateAura","steam_id":76561198338361324,"connected_time":3767000000000,"state":"active","ping":44},{"user_id":216,"name":"Koli","steam_id":76561197992428783,"connected_time":6557000000000,"state":"active","ping":60},{"user_id":269,"name":"Jogador de LAN","steam_id":76561198137054059,"connected_time":2612000000000,"state":"active","ping":87},{"user_id":281,"name":"Baton De Leon","steam_id":76561198353944785,"connected_time":1720000000000,"state":"active","ping":85},{"user_id":248,"name":"SnowShot","steam_id":76561198004766638,"connected_time":4759000000000,"state":"active","ping":80},{"user_id":259,"name":"Mywar4","steam_id":76561198069143759,"connected_time":3721000000000,"state":"active","ping":60},{"user_id":250,"name":"Monkey","steam_id":76561199083647054,"connected_time":4642000000000,"state":"active","ping":77},{"user_id":270,"name":"5tv^","steam_id":76561198063129586,"connected_time":2600000000000,"state":"active","ping":47},{"user_id":292,"name":"Ted Kaczynski","steam_id":76561198064795519,"connected_time":936000000000,"state":"active","ping":61},{"user_id":293,"name":"eeeeee","steam_id":76561198017786875,"connected_time":912000000000,"state":"active","ping":68},{"user_id":288,"name":"Hoochie Coochie Man","steam_id":76561198012351470,"connected_time":1157000000000,"state":"active","ping":37},{"user_id":184,"name":"Death","steam_id":76561198176896415,"connected_time":9402000000000,"state":"active","ping":85},{"user_id":298,"name":"Carrotcracker","steam_id":76561198034862396,"connected_time":615000000000,"state":"active","ping":80},{"user_id":283,"name":"Jeffenthropus","steam_id":76561198134204248,"connected_time":1604000000000,"state":"active","ping":130},{"user_id":254,"name":"mike erhmentraut","steam_id":76561199025378498,"connected_time":4007000000000,"state":"active","ping":45},{"user_id":256,"name":"KnugenIV","steam_id":76561198127091993,"connected_time":3958000000000,"state":"active","ping":59},{"user_id":295,"name":"TylowStar","steam_id":76561198357107806,"connected_time":904000000000,"state":"active","ping":68}]},{"server_id":21,"name":"Uncletopia | London | 5 | All Maps","name_short":"lon-5","host":"lon-1.uk.uncletopia.com","port":27055,"enabled":true,"region":"eu","cc":"gb","latitude":51.509865,"longitude":-0.118092,"reserved":0,"last_update":"0001-01-01T00:00:00Z","name_a2s":"Uncletopia | London | 5 | All Maps","protocol":17,"map":"pl_upward","folder":"tf","game":"Team Fortress","app_id":440,"player_count":24,"max_players":24,"Bots":0,"server_type":"Dedicated","server_os":"Linux","password":true,"vac":true,"version":"7882260","steam_id":85568392924742829,"keywords":["nocrits","nodmgspread","payload","uncletopia"],"game_id":440,"stv_port":27056,"stv_name":"Uncletopia | London | 5 | All Maps | STV","players":[{"user_id":200,"name":"Boki","steam_id":76561198044553351,"connected_time":1421000000000,"state":"active","ping":64},{"user_id":221,"name":"NorthPolar","steam_id":76561198438741909,"connected_time":689000000000,"state":"active","ping":86},{"user_id":222,"name":"–º–∏—Å—Ç–µ—Ä —Ç–µ–π–æ","steam_id":76561199149307190,"connected_time":660000000000,"state":"active","ping":88},{"user_id":199,"name":"Luuk","steam_id":76561198088266026,"connected_time":1436000000000,"state":"active","ping":45},{"user_id":174,"name":"TPC","steam_id":76561198127380768,"connected_time":3627000000000,"state":"active","ping":74},{"user_id":231,"name":"Flint","steam_id":76561197995920776,"connected_time":420000000000,"state":"active","ping":48},{"user_id":198,"name":"‚ù§G a n K","steam_id":76561199125995565,"connected_time":1564000000000,"state":"active","ping":64},{"user_id":230,"name":"Woman (Real)","steam_id":76561199151823932,"connected_time":514000000000,"state":"active","ping":76},{"user_id":204,"name":"The cost of living in the UK","steam_id":76561199000520747,"connected_time":1265000000000,"state":"active","ping":39},{"user_id":215,"name":"doopsuiker","steam_id":76561198025916703,"connected_time":884000000000,"state":"active","ping":64},{"user_id":210,"name":"VolcanicArts","steam_id":76561198063453246,"connected_time":1014000000000,"state":"active","ping":52},{"user_id":211,"name":"Suetolog","steam_id":76561199053090212,"connected_time":984000000000,"state":"active","ping":62},{"user_id":190,"name":"The Muffin Man","steam_id":76561199084805759,"connected_time":2386000000000,"state":"active","ping":151},{"user_id":234,"name":"Special Agent Big Smoke","steam_id":76561198154468827,"connected_time":345000000000,"state":"active","ping":66},{"user_id":214,"name":"BOB","steam_id":76561198797287684,"connected_time":899000000000,"state":"active","ping":56},{"user_id":188,"name":"Mato","steam_id":76561198267114673,"connected_time":2604000000000,"state":"active","ping":71},{"user_id":217,"name":"A Succulent Chinese Meal","steam_id":76561198069472440,"connected_time":876000000000,"state":"active","ping":88},{"user_id":192,"name":"Medeaz","steam_id":76561197984426403,"connected_time":2321000000000,"state":"active","ping":30},{"user_id":218,"name":"Diggity","steam_id":76561198297157085,"connected_time":789000000000,"state":"active","ping":37},{"user_id":232,"name":"sushii","steam_id":76561198297987372,"connected_time":406000000000,"state":"active","ping":68},{"user_id":226,"name":"Le p√®re Volca","steam_id":76561198235814492,"connected_time":593000000000,"state":"active","ping":83},{"user_id":227,"name":"hardway","steam_id":76561198272529254,"connected_time":592000000000,"state":"active","ping":60},{"user_id":228,"name":"Davey","steam_id":76561198256879107,"connected_time":591000000000,"state":"active","ping":75},{"user_id":233,"name":"Callahan","steam_id":76561198849981151,"connected_time":391000000000,"state":"active","ping":153}]},{"server_id":22,"name":"Uncletopia | London | 6 | All Maps","name_short":"lon-6","host":"lon-1.uk.uncletopia.com","port":27065,"enabled":true,"region":"eu","cc":"gb","latitude":51.509865,"longitude":-0.118092,"reserved":0,"last_update":"0001-01-01T00:00:00Z","name_a2s":"Uncletopia | London | 6 | All Maps","protocol":17,"map":"cp_sunshine","folder":"tf","game":"Team Fortress","app_id":440,"player_count":23,"max_players":24,"Bots":0,"server_type":"Dedicated","server_os":"Linux","password":true,"vac":true,"version":"7882260","steam_id":85568392924742830,"keywords":["cp","nocrits","nodmgspread","uncletopia"],"game_id":440,"stv_port":27066,"stv_name":"Uncletopia | London | 6 | All Maps | STV","players":[{"user_id":509,"name":"Donny","steam_id":76561198317950036,"connected_time":1501000000000,"state":"active","ping":91},{"user_id":532,"name":"Feyro","steam_id":76561198111345801,"connected_time":180000000000,"state":"active","ping":70},{"user_id":521,"name":"Sta≈Ñczyk","steam_id":76561197998906563,"connected_time":959000000000,"state":"active","ping":43},{"user_id":524,"name":"brtaba","steam_id":76561198796334790,"connected_time":883000000000,"state":"active","ping":69},{"user_id":520,"name":"hardstyle","steam_id":76561198091840184,"connected_time":979000000000,"state":"active","ping":48},{"user_id":523,"name":"cosmetical","steam_id":76561198444036574,"connected_time":938000000000,"state":"active","ping":60},{"user_id":493,"name":"dartush","steam_id":76561198067506270,"connected_time":2244000000000,"state":"active","ping":90},{"user_id":525,"name":"Rook","steam_id":76561197995204779,"connected_time":861000000000,"state":"active","ping":43},{"user_id":487,"name":"Jaiden the Caber main","steam_id":76561198126998695,"connected_time":2672000000000,"state":"active","ping":160},{"user_id":494,"name":"Merrie Melodies","steam_id":76561199086808471,"connected_time":2174000000000,"state":"active","ping":96},{"user_id":527,"name":"Bird Up!","steam_id":76561198868587060,"connected_time":705000000000,"state":"active","ping":57},{"user_id":531,"name":"TheFluffyCrano","steam_id":76561198058832960,"connected_time":376000000000,"state":"active","ping":48},{"user_id":498,"name":"Plague Doctor F","steam_id":76561198121443358,"connected_time":2089000000000,"state":"active","ping":81},{"user_id":416,"name":"le big mac","steam_id":76561199026378253,"connected_time":8417000000000,"state":"active","ping":62},{"user_id":500,"name":"wheatley worshipper","steam_id":76561198883869325,"connected_time":2024000000000,"state":"active","ping":65},{"user_id":533,"name":"AproX","steam_id":76561198880652045,"connected_time":162000000000,"state":"active","ping":87},{"user_id":517,"name":"first ever nonbinary","steam_id":76561199181821779,"connected_time":1014000000000,"state":"active","ping":64},{"user_id":503,"name":"wicked","steam_id":76561198164376035,"connected_time":1883000000000,"state":"active","ping":82},{"user_id":529,"name":"pano","steam_id":76561198157446722,"connected_time":684000000000,"state":"active","ping":73},{"user_id":506,"name":"Teecho","steam_id":76561197995269610,"connected_time":1631000000000,"state":"active","ping":56},{"user_id":507,"name":"nynon","steam_id":76561197998432126,"connected_time":1579000000000,"state":"active","ping":100},{"user_id":512,"name":"teddy","steam_id":76561198007436837,"connected_time":1314000000000,"state":"active","ping":37},{"user_id":534,"name":"BROKEN_MIC","steam_id":76561198310031791,"connected_time":62000000000,"state":"active","ping":85}]},{"server_id":40,"name":"Uncletopia | London | 7 | No Payload","name_short":"lon-7","host":"lon-1.uk.uncletopia.com","port":27075,"enabled":true,"region":"eu","cc":"gb","latitude":51.509865,"longitude":-0.118092,"reserved":0,"last_update":"0001-01-01T00:00:00Z","name_a2s":"Uncletopia | London | 7 | No Payload","protocol":17,"map":"plr_hightower","folder":"tf","game":"Team Fortress","app_id":440,"player_count":5,"max_players":24,"Bots":0,"server_type":"Dedicated","server_os":"Linux","password":true,"vac":true,"version":"7882260","steam_id":85568392924964314,"keywords":["nocrits","nodmgspread","payload","uncletopia"],"game_id":440,"stv_port":27076,"stv_name":"Uncletopia | London | 7 | No Payload | STV","players":[{"user_id":28,"name":"Medic Girlfriend","steam_id":76561198243554156,"connected_time":3892000000000,"state":"active","ping":62},{"user_id":62,"name":"kylebates2010","steam_id":76561198385078666,"connected_time":28000000000,"state":"active","ping":44},{"user_id":30,"name":"DoggoFan69420","steam_id":76561198385390153,"connected_time":3853000000000,"state":"active","ping":31},{"user_id":54,"name":"herorisk","steam_id":76561198850763749,"connected_time":703000000000,"state":"active","ping":52},{"user_id":53,"name":"Pile Of Dead Kittens","steam_id":76561198064168944,"connected_time":1088000000000,"state":"active","ping":61}]},{"server_id":41,"name":"Uncletopia | London | 8 | Community","name_short":"lon-8","host":"lon-1.uk.uncletopia.com","port":27085,"enabled":true,"region":"eu","cc":"gb","latitude":51.509865,"longitude":-0.118092,"reserved":0,"last_update":"0001-01-01T00:00:00Z","name_a2s":"Uncletopia | London | 8 | Community","protocol":17,"map":"workshop/pl_fifthcurve_rc1.ugc648227046","folder":"tf","game":"Team Fortress","app_id":440,"player_count":24,"max_players":24,"Bots":0,"server_type":"Dedicated","server_os":"Linux","password":true,"vac":true,"version":"7882260","steam_id":85568392924964315,"keywords":["nocrits","nodmgspread","payload","uncletopia"],"game_id":440,"stv_port":27086,"stv_name":"Uncletopia | London | 8 | Community | STV","players":[{"user_id":562,"name":"≈†tƒõp√°n","steam_id":76561198275742101,"connected_time":366000000000,"state":"active","ping":68},{"user_id":571,"name":"YO MAMA(CZ)","steam_id":76561198057308825,"connected_time":45000000000,"state":"spawning","ping":3330},{"user_id":527,"name":"prolog","steam_id":76561198356421550,"connected_time":2382000000000,"state":"active","ping":94},{"user_id":521,"name":"Conan","steam_id":76561198158321202,"connected_time":2998000000000,"state":"active","ping":63},{"user_id":564,"name":"marok","steam_id":76561198168884605,"connected_time":229000000000,"state":"active","ping":83},{"user_id":565,"name":"Nickel","steam_id":76561199037745941,"connected_time":173000000000,"state":"active","ping":140},{"user_id":566,"name":"randompixel","steam_id":76561198003941207,"connected_time":169000000000,"state":"active","ping":59},{"user_id":505,"name":"‚ú™ m_br3","steam_id":76561198044981990,"connected_time":3892000000000,"state":"active","ping":75},{"user_id":522,"name":"Doruk K√º√ß√ºkduman","steam_id":76561198399815628,"connected_time":2964000000000,"state":"active","ping":107},{"user_id":529,"name":"tea girl","steam_id":76561198068054530,"connected_time":2359000000000,"state":"active","ping":90},{"user_id":558,"name":"Py-Welldone","steam_id":76561198063227902,"connected_time":605000000000,"state":"active","ping":57},{"user_id":557,"name":"johnoclockdk","steam_id":76561198043439624,"connected_time":669000000000,"state":"active","ping":60},{"user_id":530,"name":"SKFBoge","steam_id":76561198269038278,"connected_time":2324000000000,"state":"active","ping":72},{"user_id":560,"name":"Water Veil","steam_id":76561198236612230,"connected_time":573000000000,"state":"active","ping":85},{"user_id":486,"name":"Purps","steam_id":76561198053886680,"connected_time":4757000000000,"state":"active","ping":37},{"user_id":572,"name":"RISINBURGER","steam_id":76561199078289191,"connected_time":12000000000,"state":"spawning","ping":208},{"user_id":524,"name":"RedFog","steam_id":76561198284713081,"connected_time":2592000000000,"state":"active","ping":46},{"user_id":568,"name":"tone","steam_id":76561197975301462,"connected_time":129000000000,"state":"active","ping":49},{"user_id":548,"name":"mitical uknown","steam_id":76561198844852761,"connected_time":1204000000000,"state":"active","ping":73},{"user_id":515,"name":"Biden Blast (Kaio-ken x100)","steam_id":76561199042470246,"connected_time":3380000000000,"state":"active","ping":67},{"user_id":535,"name":"Dr.Nefario","steam_id":76561198874586020,"connected_time":2172000000000,"state":"active","ping":74},{"user_id":569,"name":"Getrkod","steam_id":76561198986560793,"connected_time":127000000000,"state":"active","ping":60},{"user_id":513,"name":"burgz","steam_id":76561198109955787,"connected_time":3642000000000,"state":"active","ping":57},{"user_id":550,"name":"Thresh","steam_id":76561198043442558,"connected_time":1143000000000,"state":"active","ping":78}]},{"server_id":300,"name":"Uncletopia | Montr√©al | 1 | All Maps","name_short":"mtl-1","host":"mtl-1.ca.uncletopia.com","port":27015,"enabled":true,"region":"us-east","cc":"ca","latitude":45.50889,"longitude":-73.56167,"reserved":0,"last_update":"0001-01-01T00:00:00Z","name_a2s":"Uncletopia | Montr√©al | 1 | All Maps","protocol":17,"map":"pl_borneo","folder":"tf","game":"Team Fortress","app_id":440,"player_count":0,"max_players":24,"Bots":0,"server_type":"Dedicated","server_os":"Linux","password":true,"vac":true,"version":"7882260","steam_id":85568392924500087,"keywords":["nocrits","nodmgspread","payload","uncletopia"],"game_id":440,"stv_port":27016,"stv_name":"Uncletopia | Montr√©al | 1 | All Maps | STV","players":null},{"server_id":301,"name":"Uncletopia | Montr√©al | 2 | All Maps","name_short":"mtl-2","host":"mtl-1.ca.uncletopia.com","port":27025,"enabled":true,"region":"us-east","cc":"ca","latitude":45.50889,"longitude":-73.56167,"reserved":0,"last_update":"0001-01-01T00:00:00Z","name_a2s":"Uncletopia | Montr√©al | 2 | All Maps","protocol":17,"map":"pl_snowycoast","folder":"tf","game":"Team Fortress","app_id":440,"player_count":0,"max_players":24,"Bots":0,"server_type":"Dedicated","server_os":"Linux","password":true,"vac":true,"version":"7882260","steam_id":85568392924500088,"keywords":["nocrits","nodmgspread","payload","uncletopia"],"game_id":440,"stv_port":27026,"stv_name":"Uncletopia | Montr√©al | 2 | All Maps | STV","players":null},{"server_id":302,"name":"Uncletopia | Montr√©al | 3 | All Maps","name_short":"mtl-3","host":"mtl-1.ca.uncletopia.com","port":27035,"enabled":true,"region":"us-east","cc":"ca","latitude":45.50889,"longitude":-73.56167,"reserved":0,"last_update":"0001-01-01T00:00:00Z","name_a2s":"Uncletopia | Montr√©al | 3 | All Maps","protocol":17,"map":"pl_borneo","folder":"tf","game":"Team Fortress","app_id":440,"player_count":0,"max_players":24,"Bots":0,"server_type":"Dedicated","server_os":"Linux","password":true,"vac":true,"version":"7882260","steam_id":85568392924500089,"keywords":["nocrits","nodmgspread","payload","uncletopia"],"game_id":440,"stv_port":27036,"stv_name":"Uncletopia | Montr√©al | 3 | All Maps | STV","players":null},{"server_id":303,"name":"Uncletopia | Montr√©al | 4 | No Payload","name_short":"mtl-4","host":"mtl-1.ca.uncletopia.com","port":27045,"enabled":true,"region":"us-east","cc":"ca","latitude":45.50889,"longitude":-73.56167,"reserved":0,"last_update":"0001-01-01T00:00:00Z","name_a2s":"Uncletopia | Montr√©al | 4 | No Payload","protocol":17,"map":"cp_altitude","folder":"tf","game":"Team Fortress","app_id":440,"player_count":0,"max_players":24,"Bots":0,"server_type":"Dedicated","server_os":"Linux","password":true,"vac":true,"version":"7882260","steam_id":85568392924500090,"keywords":["cp","nocrits","nodmgspread","uncletopia"],"game_id":440,"stv_port":27046,"stv_name":"Uncletopia | Montr√©al | 4 | No Payload | STV","players":null},{"server_id":13,"name":"Uncletopia | New York City | 1 | All Maps","name_short":"nyc-1","host":"nyc-1.us.uncletopia.com","port":27015,"enabled":true,"region":"us-east","cc":"us","latitude":40.73061,"longitude":-73.93524,"reserved":0,"last_update":"0001-01-01T00:00:00Z","name_a2s":"Uncletopia | New York City | 1 | All Maps","protocol":17,"map":"pl_badwater","folder":"tf","game":"Team Fortress","app_id":440,"player_count":24,"max_players":24,"Bots":0,"server_type":"Dedicated","server_os":"Linux","password":true,"vac":true,"version":"7882260","steam_id":85568392924469993,"keywords":["nocrits","nodmgspread","payload","uncletopia"],"game_id":440,"stv_port":27016,"stv_name":"Uncletopia | New York City | 1 | All Maps | STV","players":[{"user_id":215,"name":"meat glasses","steam_id":76561198046742645,"connected_time":4942000000000,"state":"active","ping":60},{"user_id":241,"name":"kid squid","steam_id":76561198167016289,"connected_time":2716000000000,"state":"active","ping":72},{"user_id":264,"name":"Admiral Desto","steam_id":76561198301585815,"connected_time":969000000000,"state":"active","ping":45},{"user_id":189,"name":"meth ape","steam_id":76561199110579692,"connected_time":8071000000000,"state":"active","ping":85},{"user_id":245,"name":"No Credit","steam_id":76561198110245806,"connected_time":2271000000000,"state":"active","ping":59},{"user_id":263,"name":"RyInc","steam_id":76561198874261643,"connected_time":1066000000000,"state":"active","ping":57},{"user_id":212,"name":"emilee (evil)","steam_id":76561198061455664,"connected_time":5158000000000,"state":"active","ping":55},{"user_id":265,"name":"Glory","steam_id":76561198013975080,"connected_time":844000000000,"state":"active","ping":101},{"user_id":260,"name":"tooth","steam_id":76561197986437643,"connected_time":1246000000000,"state":"active","ping":50},{"user_id":261,"name":"pixeldonkey1923","steam_id":76561198929880594,"connected_time":1243000000000,"state":"active","ping":80},{"user_id":172,"name":"FrostLeaf üíô","steam_id":76561198277045296,"connected_time":9159000000000,"state":"active","ping":57},{"user_id":262,"name":"Strangelove","steam_id":76561198353773611,"connected_time":1243000000000,"state":"active","ping":83},{"user_id":252,"name":"saib","steam_id":76561198966980576,"connected_time":1467000000000,"state":"active","ping":41},{"user_id":225,"name":"Doubting Dave","steam_id":76561198066410749,"connected_time":3878000000000,"state":"active","ping":78},{"user_id":251,"name":"Nic0","steam_id":76561198305690218,"connected_time":1630000000000,"state":"active","ping":60},{"user_id":223,"name":"Sensitive Shooter","steam_id":76561198041439581,"connected_time":3891000000000,"state":"active","ping":45},{"user_id":205,"name":"glue sniffer","steam_id":76561198044689778,"connected_time":6009000000000,"state":"active","ping":49},{"user_id":256,"name":"Ampereii","steam_id":76561199047421020,"connected_time":1414000000000,"state":"active","ping":62},{"user_id":235,"name":"Wique","steam_id":76561198071217597,"connected_time":3205000000000,"state":"active","ping":73},{"user_id":220,"name":"ApertureCity","steam_id":76561198004153607,"connected_time":4459000000000,"state":"active","ping":89},{"user_id":246,"name":"chaffy","steam_id":76561198021754567,"connected_time":2260000000000,"state":"active","ping":61},{"user_id":200,"name":"Whitelock","steam_id":76561197996016130,"connected_time":7241000000000,"state":"active","ping":63},{"user_id":237,"name":"Pockets","steam_id":76561198001742296,"connected_time":3012000000000,"state":"active","ping":74},{"user_id":234,"name":"CRAZY engineer","steam_id":76561198887937902,"connected_time":3354000000000,"state":"active","ping":56}]},{"server_id":14,"name":"Uncletopia | New York City | 2 | All Maps","name_short":"nyc-2","host":"nyc-1.us.uncletopia.com","port":27025,"enabled":true,"region":"us-east","cc":"us","latitude":40.73061,"longitude":-73.93524,"reserved":0,"last_update":"0001-01-01T00:00:00Z","name_a2s":"Uncletopia | New York City | 2 | All Maps","protocol":17,"map":"pl_barnblitz","folder":"tf","game":"Team Fortress","app_id":440,"player_count":24,"max_players":24,"Bots":0,"server_type":"Dedicated","server_os":"Linux","password":true,"vac":true,"version":"7882260","steam_id":85568392924469994,"keywords":["nocrits","nodmgspread","payload","uncletopia"],"game_id":440,"stv_port":27026,"stv_name":"Uncletopia | New York City | 2 | All Maps | STV","players":[{"user_id":314,"name":"Zoo Keeper Engie","steam_id":76561198064380111,"connected_time":979000000000,"state":"active","ping":74},{"user_id":324,"name":"SoundKitKiller","steam_id":76561198053535873,"connected_time":617000000000,"state":"active","ping":70},{"user_id":281,"name":"BooceMaster","steam_id":76561198148520318,"connected_time":2446000000000,"state":"active","ping":54},{"user_id":297,"name":"Ozald","steam_id":76561199092019322,"connected_time":1862000000000,"state":"active","ping":60},{"user_id":320,"name":"Bluesleek | backpack.tf","steam_id":76561199207607835,"connected_time":647000000000,"state":"active","ping":120},{"user_id":319,"name":"Snail","steam_id":76561198153026006,"connected_time":678000000000,"state":"active","ping":68},{"user_id":321,"name":"Sleepy","steam_id":76561198273471153,"connected_time":642000000000,"state":"active","ping":60},{"user_id":307,"name":"CertifiedCereal","steam_id":76561198055027895,"connected_time":1292000000000,"state":"active","ping":53},{"user_id":248,"name":"Snugboo","steam_id":76561198147970327,"connected_time":4458000000000,"state":"active","ping":37},{"user_id":318,"name":"NervousMusa","steam_id":76561198400703770,"connected_time":736000000000,"state":"active","ping":50},{"user_id":305,"name":"CURSED_ROKIM","steam_id":76561199120016510,"connected_time":1353000000000,"state":"active","ping":129},{"user_id":309,"name":"Byakko  ï ‚Ä¢·¥•‚Ä¢ î","steam_id":76561198079601174,"connected_time":1202000000000,"state":"active","ping":68},{"user_id":310,"name":"Aristotle Voulton","steam_id":76561198100174923,"connected_time":1195000000000,"state":"active","ping":78},{"user_id":311,"name":"inphlate","steam_id":76561199016973013,"connected_time":1176000000000,"state":"active","ping":60},{"user_id":251,"name":"Person","steam_id":76561198093244204,"connected_time":4425000000000,"state":"active","ping":67},{"user_id":322,"name":"Yoshimelon","steam_id":76561198253054325,"connected_time":628000000000,"state":"active","ping":76},{"user_id":315,"name":"turtis cai","steam_id":76561198038825302,"connected_time":918000000000,"state":"active","ping":84},{"user_id":263,"name":"asbestos","steam_id":76561198079178866,"connected_time":3604000000000,"state":"active","ping":59},{"user_id":323,"name":".9 lg","steam_id":76561198092238353,"connected_time":625000000000,"state":"active","ping":91},{"user_id":175,"name":"trollos (real)","steam_id":76561199195097493,"connected_time":9465000000000,"state":"active","ping":59},{"user_id":325,"name":"Herdez Hot Salsa","steam_id":76561197991740906,"connected_time":572000000000,"state":"active","ping":67},{"user_id":330,"name":"BigBattleToaster","steam_id":76561199087551431,"connected_time":2000000000,"state":"spawning","ping":110},{"user_id":329,"name":"top 10 thug shakes","steam_id":76561199100342013,"connected_time":535000000000,"state":"active","ping":119},{"user_id":257,"name":"Piss collecter","steam_id":76561199123118241,"connected_time":3947000000000,"state":"active","ping":126}]},{"server_id":15,"name":"Uncletopia | New York City | 3 | Stopwatch Beta","name_short":"nyc-3","host":"nyc-1.us.uncletopia.com","port":27035,"enabled":true,"region":"us-east","cc":"us","latitude":40.73061,"longitude":-73.93524,"reserved":0,"last_update":"0001-01-01T00:00:00Z","name_a2s":"Uncletopia | New York City | 3 | Stopwatch Beta","protocol":17,"map":"cp_sunshine","folder":"tf","game":"Team Fortress","app_id":440,"player_count":0,"max_players":24,"Bots":0,"server_type":"Dedicated","server_os":"Linux","password":true,"vac":true,"version":"7882260","steam_id":85568392924742820,"keywords":["cp","nocrits","nodmgspread","uncletopia"],"game_id":440,"stv_port":27036,"stv_name":"Uncletopia | New York City | 3 | Stopwatch Beta | STV","players":null},{"server_id":16,"name":"Uncletopia | New York City | 4 | Community","name_short":"nyc-4","host":"nyc-1.us.uncletopia.com","port":27045,"enabled":true,"region":"us-east","cc":"us","latitude":40.73061,"longitude":-73.93524,"reserved":0,"last_update":"0001-01-01T00:00:00Z","name_a2s":"Uncletopia | New York City | 4 | Community","protocol":17,"map":"workshop/pl_boundary_final1.ugc456799153","folder":"tf","game":"Team Fortress","app_id":440,"player_count":2,"max_players":24,"Bots":0,"server_type":"Dedicated","server_os":"Linux","password":true,"vac":true,"version":"7882260","steam_id":85568392924742821,"keywords":["nocrits","nodmgspread","payload","uncletopia"],"game_id":440,"stv_port":27046,"stv_name":"Uncletopia | New York City | 4 | Community | STV","players":[{"user_id":139,"name":"Un-Destroyer","steam_id":76561199441945270,"connected_time":2333000000000,"state":"active","ping":86},{"user_id":134,"name":"Linkedfurhire","steam_id":76561198149363268,"connected_time":2791000000000,"state":"active","ping":73}]},{"server_id":142,"name":"Uncletopia | S√£o Paulo | 1 | All Maps","name_short":"sao-1","host":"sao-1.br.uncletopia.com","port":27015,"enabled":true,"region":"sa","cc":"br","latitude":-23.533773,"longitude":-46.62529,"reserved":0,"last_update":"0001-01-01T00:00:00Z","name_a2s":"Uncletopia | S√£o Paulo | 1 | All Maps","protocol":17,"map":"cp_dustbowl","folder":"tf","game":"Team Fortress","app_id":440,"player_count":0,"max_players":24,"Bots":0,"server_type":"Dedicated","server_os":"Linux","password":true,"vac":true,"version":"7882260","steam_id":85568392924469996,"keywords":["cp","nocrits","nodmgspread","uncletopia"],"game_id":440,"stv_port":27016,"stv_name":"Uncletopia | S√£o Paulo | 1 | All Maps | STV","players":null},{"server_id":143,"name":"Uncletopia | S√£o Paulo | 2 | All Maps","name_short":"sao-2","host":"sao-2.br.uncletopia.com","port":27015,"enabled":true,"region":"sa","cc":"br","latitude":-23.533773,"longitude":-46.62529,"reserved":0,"last_update":"0001-01-01T00:00:00Z","name_a2s":"Uncletopia | S√£o Paulo | 2 | All Maps","protocol":17,"map":"pl_pier","folder":"tf","game":"Team Fortress","app_id":440,"player_count":24,"max_players":24,"Bots":0,"server_type":"Dedicated","server_os":"Linux","password":true,"vac":true,"version":"7882260","steam_id":85568392924485349,"keywords":["nocrits","nodmgspread","payload","uncletopia"],"game_id":440,"stv_port":27016,"stv_name":"Uncletopia | S√£o Paulo | 2 | All Maps | STV","players":[{"user_id":171,"name":"Au Revoir","steam_id":76561198176626650,"connected_time":482000000000,"state":"active","ping":44},{"user_id":150,"name":"Gogoyle50","steam_id":76561198148524228,"connected_time":2140000000000,"state":"active","ping":46},{"user_id":149,"name":"Kenoxn","steam_id":76561198045818080,"connected_time":2284000000000,"state":"active","ping":90},{"user_id":166,"name":"Fideo con tuco","steam_id":76561198348481137,"connected_time":969000000000,"state":"active","ping":106},{"user_id":167,"name":"Joacum","steam_id":76561198130605832,"connected_time":941000000000,"state":"active","ping":71},{"user_id":153,"name":"zezin","steam_id":76561199116032943,"connected_time":2010000000000,"state":"active","ping":77},{"user_id":154,"name":"Kaiser Gaming","steam_id":76561198798127692,"connected_time":1906000000000,"state":"active","ping":83},{"user_id":119,"name":"lambari makonha","steam_id":76561198169083341,"connected_time":4467000000000,"state":"active","ping":45},{"user_id":174,"name":"Derretimento Geral 2017","steam_id":76561198194300069,"connected_time":256000000000,"state":"active","ping":39},{"user_id":118,"name":"666karka","steam_id":76561198431489843,"connected_time":4468000000000,"state":"active","ping":72},{"user_id":179,"name":"Leokadio, o pistoleiro gal√°tic","steam_id":76561198048884985,"connected_time":108000000000,"state":"active","ping":78},{"user_id":168,"name":"_Mannick_","steam_id":76561199018444829,"connected_time":924000000000,"state":"active","ping":107},{"user_id":158,"name":"Snow_BR","steam_id":76561199297009304,"connected_time":1492000000000,"state":"active","ping":33},{"user_id":159,"name":"OI JOSUKE!","steam_id":76561198405215032,"connected_time":1458000000000,"state":"active","ping":89},{"user_id":160,"name":"Estanii","steam_id":76561198188199903,"connected_time":1436000000000,"state":"active","ping":77},{"user_id":169,"name":"Arceus","steam_id":76561199146716278,"connected_time":761000000000,"state":"active","ping":169},{"user_id":172,"name":"Edge","steam_id":76561198850405241,"connected_time":480000000000,"state":"active","ping":51},{"user_id":170,"name":"kiyowoÍ∑ÄÏó¨Ïõå","steam_id":76561198143438576,"connected_time":686000000000,"state":"active","ping":45},{"user_id":175,"name":"Sandviche‚Ñ¢, da Dan√ßa do Mach","steam_id":76561198042404296,"connected_time":253000000000,"state":"active","ping":60},{"user_id":176,"name":"Gen√©sio, O Gamer","steam_id":76561198293611495,"connected_time":246000000000,"state":"active","ping":53},{"user_id":177,"name":"larry","steam_id":76561199097626414,"connected_time":245000000000,"state":"active","ping":59},{"user_id":178,"name":"cleito rasta","steam_id":76561198983533099,"connected_time":171000000000,"state":"active","ping":50},{"user_id":180,"name":"Tails","steam_id":76561198063743202,"connected_time":97000000000,"state":"spawning","ping":76},{"user_id":181,"name":"Lucky","steam_id":76561198372326390,"connected_time":76000000000,"state":"active","ping":47}]},{"server_id":7,"name":"Uncletopia | Seattle | 1 | All Maps","name_short":"sea-1","host":"sea-1.us.uncletopia.com","port":27015,"enabled":true,"region":"us-west","cc":"us","latitude":47.608013,"longitude":-122.33517,"reserved":0,"last_update":"0001-01-01T00:00:00Z","name_a2s":"Uncletopia | Seattle | 1 | All Maps","protocol":17,"map":"pl_frontier_final","folder":"tf","game":"Team Fortress","app_id":440,"player_count":24,"max_players":24,"Bots":0,"server_type":"Dedicated","server_os":"Linux","password":true,"vac":true,"version":"7882260","steam_id":85568392924469997,"keywords":["nocrits","nodmgspread","payload","uncletopia"],"game_id":440,"stv_port":27016,"stv_name":"Uncletopia | Seattle | 1 | All Maps | STV","players":[{"user_id":237,"name":"Robert E.T.","steam_id":76561197986439371,"connected_time":355000000000,"state":"active","ping":48},{"user_id":155,"name":"Keamy","steam_id":76561199471434875,"connected_time":7741000000000,"state":"active","ping":44},{"user_id":209,"name":"Noxitril_Enjoyer","steam_id":76561198870649125,"connected_time":3738000000000,"state":"active","ping":87},{"user_id":212,"name":"mega","steam_id":76561198089520959,"connected_time":3530000000000,"state":"active","ping":93},{"user_id":207,"name":"ZEKKER","steam_id":76561197967968980,"connected_time":3775000000000,"state":"active","ping":51},{"user_id":236,"name":"Bishuhp","steam_id":76561198015062850,"connected_time":361000000000,"state":"active","ping":52},{"user_id":229,"name":"Pineapple Pizza","steam_id":76561198079515432,"connected_time":2012000000000,"state":"active","ping":54},{"user_id":205,"name":"Goku","steam_id":76561198271939793,"connected_time":4229000000000,"state":"active","ping":44},{"user_id":224,"name":"Apollo","steam_id":76561198162364702,"connected_time":2174000000000,"state":"active","ping":45},{"user_id":232,"name":"charm quark","steam_id":76561198098770777,"connected_time":1244000000000,"state":"active","ping":57},{"user_id":213,"name":"ITSPICE","steam_id":76561198173274042,"connected_time":3272000000000,"state":"active","ping":61},{"user_id":240,"name":"It's a Doggydog World","steam_id":76561198018232414,"connected_time":275000000000,"state":"active","ping":86},{"user_id":179,"name":"dougrocks421","steam_id":76561198165063918,"connected_time":6559000000000,"state":"active","ping":47},{"user_id":238,"name":"Cam","steam_id":76561198285054047,"connected_time":353000000000,"state":"active","ping":85},{"user_id":187,"name":"jayeskae","steam_id":76561198144220801,"connected_time":6242000000000,"state":"active","ping":53},{"user_id":235,"name":"DrunkOnChocolateMilk","steam_id":76561198036540528,"connected_time":377000000000,"state":"active","ping":52},{"user_id":231,"name":"DEMO PAN TF2","steam_id":76561199152778243,"connected_time":1258000000000,"state":"active","ping":49},{"user_id":211,"name":"dust | she/it","steam_id":76561198045218909,"connected_time":3657000000000,"state":"active","ping":42},{"user_id":230,"name":"Twitch.tv/Jinx_VM","steam_id":76561198280150602,"connected_time":1309000000000,"state":"active","ping":62},{"user_id":233,"name":"üéÄPinküéÄ","steam_id":76561198062181031,"connected_time":382000000000,"state":"active","ping":87},{"user_id":234,"name":"Baltimore CA-68","steam_id":76561198313517179,"connected_time":382000000000,"state":"active","ping":90},{"user_id":239,"name":"ejschild745","steam_id":76561199013388867,"connected_time":328000000000,"state":"active","ping":72},{"user_id":217,"name":"backstab me -\u003e 1 ref","steam_id":76561198866629645,"connected_time":2691000000000,"state":"active","ping":66},{"user_id":222,"name":"NEBULA","steam_id":76561198086878595,"connected_time":2189000000000,"state":"active","ping":75}]},{"server_id":119,"name":"Uncletopia | Seattle | 2 | All Maps","name_short":"sea-2","host":"sea-1.us.uncletopia.com","port":27025,"enabled":true,"region":"us-west","cc":"us","latitude":47.608013,"longitude":-122.33517,"reserved":0,"last_update":"0001-01-01T00:00:00Z","name_a2s":"Uncletopia | Seattle | 2 | All Maps","protocol":17,"map":"pl_upward","folder":"tf","game":"Team Fortress","app_id":440,"player_count":24,"max_players":24,"Bots":0,"server_type":"Dedicated","server_os":"Linux","password":true,"vac":true,"version":"7882260","steam_id":85568392924469998,"keywords":["nocrits","nodmgspread","payload","uncletopia"],"game_id":440,"stv_port":27026,"stv_name":"Uncletopia | Seattle | 2 | All Maps | STV","players":[{"user_id":112,"name":"milf (real)","steam_id":76561198045926594,"connected_time":540000000000,"state":"active","ping":79},{"user_id":104,"name":"SnoDot","steam_id":76561198062209970,"connected_time":962000000000,"state":"active","ping":38},{"user_id":107,"name":"PiolaCat","steam_id":76561199100535345,"connected_time":713000000000,"state":"active","ping":126},{"user_id":114,"name":"Pyrotek‚Å¥","steam_id":76561198072747672,"connected_time":277000000000,"state":"active","ping":73},{"user_id":110,"name":"Dankey Kang","steam_id":76561197993020936,"connected_time":621000000000,"state":"active","ping":57},{"user_id":32,"name":"General Fisticuffs","steam_id":76561198255721392,"connected_time":5337000000000,"state":"active","ping":118},{"user_id":105,"name":"teafy","steam_id":76561198406252824,"connected_time":784000000000,"state":"active","ping":55},{"user_id":88,"name":"some nerd","steam_id":76561198297272878,"connected_time":2125000000000,"state":"active","ping":72},{"user_id":115,"name":"Honeybunch","steam_id":76561198014850580,"connected_time":233000000000,"state":"active","ping":44},{"user_id":116,"name":"Donald Trump","steam_id":76561199455987525,"connected_time":195000000000,"state":"active","ping":130},{"user_id":117,"name":"johnman gooberguy","steam_id":76561199014859764,"connected_time":194000000000,"state":"active","ping":77},{"user_id":106,"name":"MrRojan","steam_id":76561197993760849,"connected_time":775000000000,"state":"active","ping":70},{"user_id":118,"name":"e doctor","steam_id":76561198081851446,"connected_time":191000000000,"state":"active","ping":92},{"user_id":39,"name":"J O S H¬≥¬≤","steam_id":76561198122603779,"connected_time":5199000000000,"state":"active","ping":81},{"user_id":111,"name":"wmjledger","steam_id":76561198443046861,"connected_time":618000000000,"state":"active","ping":57},{"user_id":119,"name":"Strikerbolt","steam_id":76561199095622897,"connected_time":181000000000,"state":"active","ping":78},{"user_id":60,"name":"likelygoose","steam_id":76561199094339356,"connected_time":4090000000000,"state":"active","ping":126},{"user_id":73,"name":"BertWert","steam_id":76561198308277681,"connected_time":3464000000000,"state":"active","ping":74},{"user_id":99,"name":"Greskrendtregk","steam_id":76561197969553142,"connected_time":1277000000000,"state":"active","ping":58},{"user_id":120,"name":"Jawn","steam_id":76561198424248616,"connected_time":169000000000,"state":"active","ping":114},{"user_id":100,"name":"cowgirl_up rodney bling","steam_id":76561198136535844,"connected_time":1266000000000,"state":"active","ping":47},{"user_id":121,"name":"havarti gaming","steam_id":76561198069895678,"connected_time":126000000000,"state":"active","ping":71},{"user_id":122,"name":"BlueBruh","steam_id":76561199078613052,"connected_time":94000000000,"state":"active","ping":86},{"user_id":96,"name":"carpet","steam_id":76561198207881077,"connected_time":1324000000000,"state":"active","ping":110}]},{"server_id":406,"name":"Uncletopia | Seattle | 3 | Stopwatch Beta","name_short":"sea-3","host":"sea-1.us.uncletopia.com","port":27035,"enabled":true,"region":"us-west","cc":"us","latitude":47.608013,"longitude":-122.33517,"reserved":0,"last_update":"0001-01-01T00:00:00Z","name_a2s":"Uncletopia | Seattle | 3 | Stopwatch Beta","protocol":17,"map":"pl_swiftwater_final1","folder":"tf","game":"Team Fortress","app_id":440,"player_count":0,"max_players":24,"Bots":0,"server_type":"Dedicated","server_os":"Linux","password":true,"vac":true,"version":"7882260","steam_id":85568392924515217,"keywords":["nocrits","nodmgspread","payload","uncletopia"],"game_id":440,"stv_port":27036,"stv_name":"Uncletopia | Seattle | 3 | Stopwatch Beta | STV","players":null},{"server_id":17,"name":"Uncletopia | San Francisco | 1 | All Maps","name_short":"sfo-1","host":"sfo-1.us.uncletopia.com","port":27015,"enabled":true,"region":"us-west","cc":"us","latitude":37.77397,"longitude":-122.4313,"reserved":0,"last_update":"0001-01-01T00:00:00Z","name_a2s":"Uncletopia | San Francisco | 1 | All Maps","protocol":17,"map":"cp_snakewater_final1","folder":"tf","game":"Team Fortress","app_id":440,"player_count":0,"max_players":24,"Bots":0,"server_type":"Dedicated","server_os":"Linux","password":true,"vac":true,"version":"7882260","steam_id":85568392924469999,"keywords":["cp","nocrits","nodmgspread","uncletopia"],"game_id":440,"stv_port":27016,"stv_name":"Uncletopia | San Francisco | 1 | All Maps | STV","players":null},{"server_id":18,"name":"Uncletopia | San Francisco | 2 | All Maps","name_short":"sfo-2","host":"sfo-1.us.uncletopia.com","port":27025,"enabled":true,"region":"us-west","cc":"us","latitude":37.77397,"longitude":-122.4313,"reserved":0,"last_update":"0001-01-01T00:00:00Z","name_a2s":"Uncletopia | San Francisco | 2 | All Maps","protocol":17,"map":"pl_pier","folder":"tf","game":"Team Fortress","app_id":440,"player_count":24,"max_players":24,"Bots":0,"server_type":"Dedicated","server_os":"Linux","password":true,"vac":true,"version":"7882260","steam_id":85568392924470000,"keywords":["nocrits","nodmgspread","payload","uncletopia"],"game_id":440,"stv_port":27026,"stv_name":"Uncletopia | San Francisco | 2 | All Maps | STV","players":[{"user_id":186,"name":"thegreatsawyer","steam_id":76561198393604826,"connected_time":810000000000,"state":"active","ping":62},{"user_id":143,"name":"sunspook","steam_id":76561198858474714,"connected_time":3376000000000,"state":"active","ping":63},{"user_id":178,"name":"scrimblo","steam_id":76561199150833796,"connected_time":1725000000000,"state":"active","ping":68},{"user_id":192,"name":"Ivyprophen","steam_id":76561198096893644,"connected_time":130000000000,"state":"active","ping":85},{"user_id":189,"name":"1738 gecs","steam_id":76561198058617608,"connected_time":344000000000,"state":"active","ping":61},{"user_id":156,"name":"Ghost","steam_id":76561198426370628,"connected_time":2417000000000,"state":"active","ping":98},{"user_id":182,"name":"TJGSASQUATCH","steam_id":76561198077806921,"connected_time":1281000000000,"state":"active","ping":119},{"user_id":193,"name":"SaturnSeven777","steam_id":76561199468889421,"connected_time":93000000000,"state":"active","ping":184},{"user_id":150,"name":"a cat plushie","steam_id":76561198080046542,"connected_time":2793000000000,"state":"active","ping":63},{"user_id":151,"name":"Surfing Garchomp","steam_id":76561199107236884,"connected_time":2657000000000,"state":"active","ping":81},{"user_id":157,"name":"Punished \"Venom\" Snick","steam_id":76561198066566813,"connected_time":2350000000000,"state":"active","ping":173},{"user_id":188,"name":"Marksito14","steam_id":76561199132272437,"connected_time":601000000000,"state":"active","ping":92},{"user_id":158,"name":"GLaDOS Simp","steam_id":76561198084849541,"connected_time":2344000000000,"state":"active","ping":76},{"user_id":159,"name":"sailaser","steam_id":76561198035752229,"connected_time":2335000000000,"state":"active","ping":114},{"user_id":194,"name":"Dark_Eagle","steam_id":76561198397908108,"connected_time":60000000000,"state":"active","ping":91},{"user_id":162,"name":"Aeris","steam_id":76561198287271028,"connected_time":2297000000000,"state":"active","ping":100},{"user_id":168,"name":"Mugenman88","steam_id":76561198041261388,"connected_time":1968000000000,"state":"active","ping":121},{"user_id":169,"name":"no","steam_id":76561198862660741,"connected_time":1967000000000,"state":"active","ping":48},{"user_id":195,"name":"old birb man","steam_id":76561199410269097,"connected_time":44000000000,"state":"active","ping":92},{"user_id":191,"name":"chicken","steam_id":76561198196998007,"connected_time":289000000000,"state":"active","ping":58},{"user_id":184,"name":"Noremac_","steam_id":76561198074701001,"connected_time":891000000000,"state":"active","ping":106},{"user_id":175,"name":"randomuserxd69","steam_id":76561199434896929,"connected_time":1817000000000,"state":"active","ping":194},{"user_id":176,"name":"Ant","steam_id":76561198253062337,"connected_time":1810000000000,"state":"active","ping":90},{"user_id":177,"name":"Mike Bean Burritos","steam_id":76561198173430607,"connected_time":1810000000000,"state":"active","ping":63}]},{"server_id":19,"name":"Uncletopia | San Francisco | 3 | Stopwatch Beta","name_short":"sfo-3","host":"sfo-1.us.uncletopia.com","port":27035,"enabled":true,"region":"us-west","cc":"us","latitude":37.77397,"longitude":-122.4313,"reserved":0,"last_update":"0001-01-01T00:00:00Z","name_a2s":"Uncletopia | San Francisco | 3 | Stopwatch Beta","protocol":17,"map":"pl_frontier_final","folder":"tf","game":"Team Fortress","app_id":440,"player_count":0,"max_players":24,"Bots":0,"server_type":"Dedicated","server_os":"Linux","password":true,"vac":true,"version":"7882260","steam_id":85568392924742824,"keywords":["nocrits","nodmgspread","payload","uncletopia"],"game_id":440,"stv_port":27036,"stv_name":"Uncletopia | San Francisco | 3 | Stopwatch Beta | STV","players":null},{"server_id":20,"name":"Uncletopia | San Francisco | 4 | Community","name_short":"sfo-4","host":"sfo-1.us.uncletopia.com","port":27045,"enabled":true,"region":"us-west","cc":"us","latitude":37.77397,"longitude":-122.4313,"reserved":0,"last_update":"0001-01-01T00:00:00Z","name_a2s":"Uncletopia | San Francisco | 4 | Community","protocol":17,"map":"cp_process_final","folder":"tf","game":"Team Fortress","app_id":440,"player_count":0,"max_players":24,"Bots":0,"server_type":"Dedicated","server_os":"Linux","password":true,"vac":true,"version":"7882260","steam_id":85568392924742826,"keywords":["cp","nocrits","nodmgspread","uncletopia"],"game_id":440,"stv_port":27046,"stv_name":"Uncletopia | San Francisco | 4 | Community | STV","players":null},{"server_id":141,"name":"Uncletopia | Sydney | 1 | All Maps","name_short":"syd-1","host":"syd-1.au.uncletopia.com","port":27015,"enabled":true,"region":"au","cc":"au","latitude":-33.865143,"longitude":151.2099,"reserved":0,"last_update":"0001-01-01T00:00:00Z","name_a2s":"Uncletopia | Sydney | 1 | All Maps","protocol":17,"map":"cp_snakewater_final1","folder":"tf","game":"Team Fortress","app_id":440,"player_count":0,"max_players":24,"Bots":0,"server_type":"Dedicated","server_os":"Linux","password":true,"vac":true,"version":"7882260","steam_id":85568392924470001,"keywords":["cp","nocrits","nodmgspread","uncletopia"],"game_id":440,"stv_port":27016,"stv_name":"Uncletopia | Sydney | 1 | All Maps | STV","players":null},{"server_id":123,"name":"Uncletopia | Sydney | 2 | All Maps","name_short":"syd-2","host":"syd-1.au.uncletopia.com","port":27025,"enabled":true,"region":"au","cc":"au","latitude":-33.865143,"longitude":151.2099,"reserved":0,"last_update":"0001-01-01T00:00:00Z","name_a2s":"Uncletopia | Sydney | 2 | All Maps","protocol":17,"map":"pl_barnblitz","folder":"tf","game":"Team Fortress","app_id":440,"player_count":0,"max_players":24,"Bots":0,"server_type":"Dedicated","server_os":"Linux","password":true,"vac":true,"version":"7882260","steam_id":85568392924470002,"keywords":["nocrits","nodmgspread","payload","uncletopia"],"game_id":440,"stv_port":27026,"stv_name":"Uncletopia | Sydney | 2 | All Maps | STV","players":null},{"server_id":395,"name":"Uncletopia | Sydney | 3 | All Maps","name_short":"syd-3","host":"syd-1.au.uncletopia.com","port":27035,"enabled":true,"region":"au","cc":"au","latitude":-33.865143,"longitude":151.2099,"reserved":0,"last_update":"0001-01-01T00:00:00Z","name_a2s":"Uncletopia | Sydney | 3 | All Maps","protocol":17,"map":"pl_badwater","folder":"tf","game":"Team Fortress","app_id":440,"player_count":0,"max_players":24,"Bots":0,"server_type":"Dedicated","server_os":"Linux","password":true,"vac":true,"version":"7882260","steam_id":85568392925194467,"keywords":["nocrits","nodmgspread","payload","uncletopia"],"game_id":440,"stv_port":27036,"stv_name":"Uncletopia | Sydney | 3 | All Maps | STV","players":null},{"server_id":396,"name":"Uncletopia | Sydney | 4 | All Maps","name_short":"syd-4","host":"syd-1.au.uncletopia.com","port":27045,"enabled":true,"region":"au","cc":"au","latitude":-33.865143,"longitude":151.2099,"reserved":0,"last_update":"0001-01-01T00:00:00Z","name_a2s":"Uncletopia | Sydney | 4 | All Maps","protocol":17,"map":"cp_dustbowl","folder":"tf","game":"Team Fortress","app_id":440,"player_count":0,"max_players":24,"Bots":0,"server_type":"Dedicated","server_os":"Linux","password":true,"vac":true,"version":"7882260","steam_id":85568392925397958,"keywords":["cp","nocrits","nodmgspread","uncletopia"],"game_id":440,"stv_port":27046,"stv_name":"Uncletopia | Sydney | 4 | All Maps | STV","players":null},{"server_id":58,"name":"Uncletopia | Sydney | 5 | Stopwatch Beta","name_short":"syd-5","host":"syd-1.au.uncletopia.com","port":27055,"enabled":true,"region":"au","cc":"au","latitude":-33.865143,"longitude":151.2099,"reserved":0,"last_update":"0001-01-01T00:00:00Z","name_a2s":"Uncletopia | Sydney | 5 | Stopwatch Beta","protocol":17,"map":"cp_snakewater_final1","folder":"tf","game":"Team Fortress","app_id":440,"player_count":0,"max_players":24,"Bots":0,"server_type":"Dedicated","server_os":"Linux","password":true,"vac":true,"version":"7882260","steam_id":85568392925397959,"keywords":["cp","nocrits","nodmgspread","uncletopia"],"game_id":440,"stv_port":27056,"stv_name":"Uncletopia | Sydney | 5 | Stopwatch Beta | STV","players":null},{"server_id":59,"name":"Uncletopia | Sydney | 6 | Community","name_short":"syd-6","host":"syd-1.au.uncletopia.com","port":27065,"enabled":true,"region":"au","cc":"au","latitude":-33.865143,"longitude":151.2099,"reserved":0,"last_update":"0001-01-01T00:00:00Z","name_a2s":"Uncletopia | Sydney | 6 | Community","protocol":17,"map":"pl_snowycoast","folder":"tf","game":"Team Fortress","app_id":440,"player_count":0,"max_players":24,"Bots":0,"server_type":"Dedicated","server_os":"Linux","password":true,"vac":true,"version":"7882260","steam_id":85568392925397960,"keywords":["nocrits","nodmgspread","payload","uncletopia"],"game_id":440,"stv_port":27066,"stv_name":"Uncletopia | Sydney | 6 | Community | STV","players":null},{"server_id":49,"name":"Uncletopia | Warsaw | 1 | All Maps","name_short":"waw-1","host":"waw-1.pl.uncletopia.com","port":27015,"enabled":true,"region":"eu","cc":"pl","latitude":52.2297,"longitude":21.017532,"reserved":0,"last_update":"0001-01-01T00:00:00Z","name_a2s":"","protocol":0,"map":"","folder":"","game":"","app_id":0,"player_count":0,"max_players":0,"Bots":0,"server_type":"","server_os":"","password":false,"vac":false,"version":"","steam_id":0,"keywords":null,"game_id":0,"stv_port":0,"stv_name":"","players":null},{"server_id":50,"name":"Uncletopia | Warsaw | 2 | All Maps","name_short":"waw-2","host":"waw-1.pl.uncletopia.com","port":27025,"enabled":true,"region":"eu","cc":"pl","latitude":52.2297,"longitude":21.017532,"reserved":0,"last_update":"0001-01-01T00:00:00Z","name_a2s":"Uncletopia | Warsaw | 2 | All Maps","protocol":17,"map":"cp_mountainlab","folder":"tf","game":"Team Fortress","app_id":440,"player_count":0,"max_players":24,"Bots":0,"server_type":"Dedicated","server_os":"Linux","password":true,"vac":true,"version":"7882260","steam_id":85568392925397851,"keywords":["cp","nocrits","nodmgspread","uncletopia"],"game_id":440,"stv_port":27026,"stv_name":"Uncletopia | Warsaw | 2 | All Maps | STV","players":null},{"server_id":51,"name":"Uncletopia | Warsaw | 3 | All Maps","name_short":"waw-3","host":"waw-1.pl.uncletopia.com","port":27035,"enabled":true,"region":"eu","cc":"pl","latitude":52.2297,"longitude":21.017532,"reserved":0,"last_update":"0001-01-01T00:00:00Z","name_a2s":"Uncletopia | Warsaw | 3 | All Maps","protocol":17,"map":"koth_viaduct","folder":"tf","game":"Team Fortress","app_id":440,"player_count":0,"max_players":24,"Bots":0,"server_type":"Dedicated","server_os":"Linux","password":true,"vac":true,"version":"7882260","steam_id":85568392925397852,"keywords":["cp","nocrits","nodmgspread","uncletopia"],"game_id":440,"stv_port":27036,"stv_name":"Uncletopia | Warsaw | 3 | All Maps | STV","players":null},{"server_id":52,"name":"Uncletopia | Warsaw | 4 | All Maps","name_short":"waw-4","host":"waw-1.pl.uncletopia.com","port":27045,"enabled":true,"region":"eu","cc":"pl","latitude":52.2297,"longitude":21.017532,"reserved":0,"last_update":"0001-01-01T00:00:00Z","name_a2s":"Uncletopia | Warsaw | 4 | All Maps","protocol":17,"map":"koth_highpass","folder":"tf","game":"Team Fortress","app_id":440,"player_count":4,"max_players":24,"Bots":0,"server_type":"Dedicated","server_os":"Linux","password":true,"vac":true,"version":"7882260","steam_id":85568392925397853,"keywords":["cp","nocrits","nodmgspread","uncletopia"],"game_id":440,"stv_port":27046,"stv_name":"Uncletopia | Warsaw | 4 | All Maps | STV","players":[{"user_id":5,"name":"Koka","steam_id":76561198419519811,"connected_time":1010000000000,"state":"active","ping":156},{"user_id":6,"name":"–¥—É–±–ª–µ—Ä –¥—É–±–ª–µ—Ä–∞","steam_id":76561198159957450,"connected_time":993000000000,"state":"active","ping":82},{"user_id":7,"name":"koncicvladislav","steam_id":76561199481202719,"connected_time":978000000000,"state":"active","ping":79},{"user_id":8,"name":"arinanebylova","steam_id":76561199387168759,"connected_time":965000000000,"state":"active","ping":41}]},{"server_id":53,"name":"Uncletopia | Warsaw | 5 | Stopwatch Beta","name_short":"waw-5","host":"waw-1.pl.uncletopia.com","port":27055,"enabled":true,"region":"eu","cc":"pl","latitude":52.2297,"longitude":21.017532,"reserved":0,"last_update":"0001-01-01T00:00:00Z","name_a2s":"Uncletopia | Warsaw | 5 | Stopwatch Beta","protocol":17,"map":"cp_mountainlab","folder":"tf","game":"Team Fortress","app_id":440,"player_count":0,"max_players":24,"Bots":0,"server_type":"Dedicated","server_os":"Linux","password":true,"vac":true,"version":"7882260","steam_id":85568392925397854,"keywords":["cp","nocrits","nodmgspread","uncletopia"],"game_id":440,"stv_port":27056,"stv_name":"Uncletopia | Warsaw | 5 | Stopwatch Beta | STV","players":null},{"server_id":54,"name":"Uncletopia | Warsaw | 6 | Community","name_short":"waw-6","host":"waw-1.pl.uncletopia.com","port":27065,"enabled":true,"region":"eu","cc":"pl","latitude":52.2297,"longitude":21.017532,"reserved":0,"last_update":"0001-01-01T00:00:00Z","name_a2s":"Uncletopia | Warsaw | 6 | Community","protocol":17,"map":"koth_viaduct","folder":"tf","game":"Team Fortress","app_id":440,"player_count":0,"max_players":24,"Bots":0,"server_type":"Dedicated","server_os":"Linux","password":true,"vac":true,"version":"7882260","steam_id":85568392925397856,"keywords":["cp","nocrits","nodmgspread","uncletopia"],"game_id":440,"stv_port":27066,"stv_name":"Uncletopia | Warsaw | 6 | Community | STV","players":null}]}