{"status":true,"message":"","result":[{"server_id":9,"name":"Uncletopia | Atlanta | 1 | All Maps","name_short":"atl-1","host":"atl-1.us.uncletopia.com","port":27015,"enabled":true,"region":"us-east","cc":"us","latitude":33.753746,"longitude":-84.38633,"reserved":0,"last_update":"0001-01-01T00:00:00Z","name_a2s":"Uncletopia | Atlanta | 1 | All Maps","protocol":17,"map":"pl_pier","folder":"tf","game":"Team Fortress","app_id":440,"player_count":24,"max_players":24,"Bots":0,"server_type":"Dedicated","server_os":"Linux","password":true,"vac":true,"version":"7757534","steam_id":85568392924469982,"keywords":["nocrits","nodmgspread","payload","uncletopia"],"game_id":440,"stv_port":27016,"stv_name":"Uncletopia | Atlanta | 1 | All Maps | STV","players":[{"user_id":276,"name":"Tony","steam_id":76561198040602075,"connected_time":2265000000000,"state":"active","ping":87},{"user_id":240,"name":"kite","steam_id":76561198346516392,"connected_time":5060000000000,"state":"active","ping":79},{"user_id":277,"name":"Oddball","steam_id":76561198040440984,"connected_time":2069000000000,"state":"active","ping":83},{"user_id":285,"name":"Xuey","steam_id":76561199120960187,"connected_time":555000000000,"state":"active","ping":78},{"user_id":224,"name":"Toonice","steam_id":76561198402994885,"connected_time":6064000000000,"state":"active","ping":81},{"user_id":246,"name":"marguerite","steam_id":76561198170873495,"connected_time":4221000000000,"state":"active","ping":55},{"user_id":271,"name":"The sad vanilla","steam_id":76561198268621447,"connected_time":2514000000000,"state":"active","ping":85},{"user_id":245,"name":"DFR Le4n!!!","steam_id":76561198045522596,"connected_time":4314000000000,"state":"active","ping":70},{"user_id":280,"name":"morphine","steam_id":76561198072124799,"connected_time":1690000000000,"state":"active","ping":95},{"user_id":255,"name":"Ziath","steam_id":76561198094009164,"connected_time":3461000000000,"state":"active","ping":64},{"user_id":296,"name":"Spiderfight1","steam_id":76561199189991528,"connected_time":8000000000,"state":"active","ping":88},{"user_id":286,"name":"Just PYE","steam_id":76561199439622967,"connected_time":475000000000,"state":"active","ping":72},{"user_id":193,"name":"ash","steam_id":76561198127890645,"connected_time":9178000000000,"state":"active","ping":71},{"user_id":295,"name":"Louis","steam_id":76561198152010204,"connected_time":19000000000,"state":"spawning","ping":62},{"user_id":291,"name":"GKEmperor","steam_id":76561197995187011,"connected_time":150000000000,"state":"active","ping":81},{"user_id":282,"name":"xX_HimboSwallower_Xx","steam_id":76561198016029965,"connected_time":787000000000,"state":"active","ping":72},{"user_id":281,"name":"Dr. Dingus PhD","steam_id":76561199209834538,"connected_time":1464000000000,"state":"active","ping":62},{"user_id":273,"name":"Lancer47","steam_id":76561198020481475,"connected_time":2502000000000,"state":"active","ping":101},{"user_id":288,"name":"Bunt","steam_id":76561198124477567,"connected_time":368000000000,"state":"active","ping":48},{"user_id":270,"name":"SparkStorm","steam_id":76561198095817025,"connected_time":2560000000000,"state":"active","ping":38},{"user_id":279,"name":"popfulmail","steam_id":76561198865971290,"connected_time":1703000000000,"state":"active","ping":82},{"user_id":262,"name":"BurgerPizza","steam_id":76561198151256410,"connected_time":2866000000000,"state":"active","ping":130},{"user_id":293,"name":"Inkmix","steam_id":76561198854070384,"connected_time":96000000000,"state":"active","ping":109},{"user_id":235,"name":"Sophie","steam_id":76561198170408057,"connected_time":5230000000000,"state":"active","ping":51}]},{"server_id":104,"name":"Uncletopia | Atlanta | 2 | All Maps","name_short":"atl-2","host":"atl-1.us.uncletopia.com","port":27025,"enabled":true,"region":"us-east","cc":"us","latitude":33.753746,"longitude":-84.38633,"reserved":0,"last_update":"0001-01-01T00:00:00Z","name_a2s":"Uncletopia | Atlanta | 2 | All Maps","protocol":17,"map":"pl_upward","folder":"tf","game":"Team Fortress","app_id":440,"player_count":21,"max_players":24,"Bots":0,"server_type":"Dedicated","server_os":"Linux","password":true,"vac":true,"version":"7757534","steam_id":85568392924469983,"keywords":["nocrits","nodmgspread","payload","uncletopia"],"game_id":440,"stv_port":27026,"stv_name":"Uncletopia | Atlanta | 2 | All Maps | STV","players":[{"user_id":13,"name":"Magicjacken","steam_id":76561198383428937,"connected_time":2852000000000,"state":"active","ping":69},{"user_id":64,"name":"Lindes","steam_id":76561198132472867,"connected_time":67000000000,"state":"active","ping":40},{"user_id":16,"name":"Raptortastic","steam_id":76561198105613110,"connected_time":2738000000000,"state":"active","ping":61},{"user_id":17,"name":"wG deez","steam_id":76561198277163301,"connected_time":2735000000000,"state":"active","ping":84},{"user_id":41,"name":"rapscallion","steam_id":76561198188722751,"connected_time":1684000000000,"state":"active","ping":105},{"user_id":57,"name":"J_Bug","steam_id":76561198163362175,"connected_time":773000000000,"state":"active","ping":65},{"user_id":53,"name":"geeWIZ","steam_id":76561198067909242,"connected_time":1034000000000,"state":"active","ping":82},{"user_id":54,"name":"caberknight tf2","steam_id":76561199273882768,"connected_time":1024000000000,"state":"active","ping":57},{"user_id":60,"name":"Sableye","steam_id":76561198061247147,"connected_time":482000000000,"state":"active","ping":70},{"user_id":62,"name":"SasukeGOD","steam_id":76561199077255310,"connected_time":184000000000,"state":"active","ping":60},{"user_id":63,"name":"Lspan","steam_id":76561199002806208,"connected_time":104000000000,"state":"active","ping":115},{"user_id":27,"name":"runicarc","steam_id":76561199209277380,"connected_time":2069000000000,"state":"active","ping":117},{"user_id":28,"name":"gorf?","steam_id":76561198142286417,"connected_time":2047000000000,"state":"active","ping":69},{"user_id":30,"name":"Le Meilleur","steam_id":76561198054581325,"connected_time":1940000000000,"state":"active","ping":74},{"user_id":32,"name":"FlopPatrick Bateman","steam_id":76561198115901626,"connected_time":1889000000000,"state":"active","ping":72},{"user_id":33,"name":"[BBC] Justario","steam_id":76561198016095410,"connected_time":1865000000000,"state":"active","ping":60},{"user_id":59,"name":"Broken Cereal‚àö","steam_id":76561198087489795,"connected_time":722000000000,"state":"active","ping":106},{"user_id":36,"name":"iggybones (girl with balls)","steam_id":76561198101610291,"connected_time":1822000000000,"state":"active","ping":114},{"user_id":55,"name":"mylomalopi","steam_id":76561198354990729,"connected_time":971000000000,"state":"active","ping":77},{"user_id":51,"name":"Momki","steam_id":76561198072944509,"connected_time":1129000000000,"state":"active","ping":83},{"user_id":52,"name":"FauxSho'  ï '‚Ä¢'  î","steam_id":76561197988233611,"connected_time":1124000000000,"state":"active","ping":63}]},{"server_id":400,"name":"Uncletopia | Atlanta | 3 | Community","name_short":"atl-3","host":"atl-1.us.uncletopia.com","port":27035,"enabled":true,"region":"us-east","cc":"us","latitude":33.753746,"longitude":-84.38633,"reserved":0,"last_update":"0001-01-01T00:00:00Z","name_a2s":"Uncletopia | Atlanta | 3 | Community","protocol":17,"map":"workshop/pl_vigil_rc9.ugc1266210012","folder":"tf","game":"Team Fortress","app_id":440,"player_count":0,"max_players":24,"Bots":0,"server_type":"Dedicated","server_os":"Linux","password":true,"vac":true,"version":"7757534","steam_id":85568392924515187,"keywords":["nocrits","nodmgspread","payload","uncletopia"],"game_id":440,"stv_port":27036,"stv_name":"Uncletopia | Atlanta | 3 | Community | STV","players":null},{"server_id":401,"name":"Uncletopia | Atlanta | 4 | No Payload","name_short":"atl-4","host":"atl-1.us.uncletopia.com","port":27045,"enabled":true,"region":"us-east","cc":"us","latitude":33.753746,"longitude":-84.38633,"reserved":0,"last_update":"0001-01-01T00:00:00Z","name_a2s":"","protocol":0,"map":"","folder":"","game":"","app_id":0,"player_count":0,"max_players":0,"Bots":0,"server_type":"","server_os":"","password":false,"vac":false,"version":"","steam_id":0,"keywords":null,"game_id":0,"stv_port":0,"stv_name":"","players":null},{"server_id":2,"name":"Uncletopia | Chicago | 1 | All Maps","name_short":"chi-1","host":"chi-1.us.uncletopia.com","port":27015,"enabled":true,"region":"us-central","cc":"us","latitude":41.881832,"longitude":-87.62318,"reserved":0,"last_update":"0001-01-01T00:00:00Z","name_a2s":"Uncletopia | Chicago | 1 | All Maps","protocol":17,"map":"cp_sunshine","folder":"tf","game":"Team Fortress","app_id":440,"player_count":24,"max_players":24,"Bots":0,"server_type":"Dedicated","server_os":"Linux","password":true,"vac":true,"version":"7757534","steam_id":85568392924469984,"keywords":["cp","nocrits","nodmgspread","uncletopia"],"game_id":440,"stv_port":27016,"stv_name":"Uncletopia | Chicago | 1 | All Maps | STV","players":[{"user_id":283,"name":"Project_Counter","steam_id":76561198152786076,"connected_time":2831000000000,"state":"active","ping":74},{"user_id":318,"name":"FooFLit","steam_id":76561198236967080,"connected_time":322000000000,"state":"active","ping":84},{"user_id":325,"name":"wroh2801","steam_id":76561199103292218,"connected_time":1000000000,"state":"spawning","ping":37},{"user_id":315,"name":"exile","steam_id":76561198047813960,"connected_time":1023000000000,"state":"active","ping":84},{"user_id":277,"name":"KBoneski ‚ô°","steam_id":76561198307409065,"connected_time":3388000000000,"state":"active","ping":95},{"user_id":293,"name":"porco dio","steam_id":76561198268174395,"connected_time":2506000000000,"state":"active","ping":45},{"user_id":319,"name":"I am a Toaster","steam_id":76561199190216106,"connected_time":288000000000,"state":"active","ping":67},{"user_id":272,"name":"ghoster","steam_id":76561199001918194,"connected_time":3774000000000,"state":"active","ping":116},{"user_id":296,"name":"Ink","steam_id":76561198389914633,"connected_time":2009000000000,"state":"active","ping":148},{"user_id":287,"name":"(snoozer)","steam_id":76561198106322577,"connected_time":2663000000000,"state":"active","ping":60},{"user_id":308,"name":"kermitcreeper(ZAZA)","steam_id":76561199222829972,"connected_time":1705000000000,"state":"active","ping":46},{"user_id":316,"name":"Qball","steam_id":76561198179016466,"connected_time":473000000000,"state":"active","ping":48},{"user_id":312,"name":"ColonelKermit","steam_id":76561198318215660,"connected_time":1390000000000,"state":"active","ping":59},{"user_id":311,"name":"nick","steam_id":76561198055494645,"connected_time":1425000000000,"state":"active","ping":76},{"user_id":317,"name":"God","steam_id":76561199245320103,"connected_time":343000000000,"state":"active","ping":71},{"user_id":230,"name":"JimmyNeutron","steam_id":76561197993353322,"connected_time":6876000000000,"state":"active","ping":75},{"user_id":300,"name":"{FITH}‚Ñ¢ Halcyon","steam_id":76561198049132808,"connected_time":1976000000000,"state":"active","ping":79},{"user_id":301,"name":"Kapitan Bomba","steam_id":76561199102087660,"connected_time":1974000000000,"state":"active","ping":63},{"user_id":320,"name":"cheetaz","steam_id":76561198224614084,"connected_time":278000000000,"state":"active","ping":63},{"user_id":321,"name":"heritage","steam_id":76561198108685037,"connected_time":274000000000,"state":"active","ping":71},{"user_id":323,"name":"nines","steam_id":76561198078992548,"connected_time":164000000000,"state":"active","ping":75},{"user_id":324,"name":"Cerabond","steam_id":76561199230915333,"connected_time":58000000000,"state":"active","ping":77},{"user_id":302,"name":"My Pet Polar Bear","steam_id":76561198052902058,"connected_time":1969000000000,"state":"active","ping":96},{"user_id":314,"name":"beep beep","steam_id":76561198149443710,"connected_time":1049000000000,"state":"active","ping":105}]},{"server_id":106,"name":"Uncletopia | Chicago | 2 | All Maps","name_short":"chi-2","host":"chi-1.us.uncletopia.com","port":27025,"enabled":true,"region":"us-central","cc":"us","latitude":41.881832,"longitude":-87.62318,"reserved":0,"last_update":"0001-01-01T00:00:00Z","name_a2s":"Uncletopia | Chicago | 2 | All Maps","protocol":17,"map":"koth_viaduct","folder":"tf","game":"Team Fortress","app_id":440,"player_count":24,"max_players":24,"Bots":0,"server_type":"Dedicated","server_os":"Linux","password":true,"vac":true,"version":"7757534","steam_id":85568392924469985,"keywords":["cp","nocrits","nodmgspread","uncletopia"],"game_id":440,"stv_port":27026,"stv_name":"Uncletopia | Chicago | 2 | All Maps | STV","players":[{"user_id":248,"name":"andyiscolorless","steam_id":76561199239870921,"connected_time":6925000000000,"state":"active","ping":137},{"user_id":200,"name":"Kieran","steam_id":76561198072788168,"connected_time":11174000000000,"state":"active","ping":77},{"user_id":305,"name":"BasicPeaches","steam_id":76561198190890150,"connected_time":1199000000000,"state":"active","ping":78},{"user_id":317,"name":"Aeri","steam_id":76561197996522919,"connected_time":133000000000,"state":"active","ping":80},{"user_id":315,"name":"if i kill you do 5 push-ups","steam_id":76561198337692867,"connected_time":154000000000,"state":"active","ping":67},{"user_id":298,"name":"x3 ‚ô°","steam_id":76561198132011077,"connected_time":1296000000000,"state":"active","ping":50},{"user_id":290,"name":"Zeebop","steam_id":76561198148332988,"connected_time":3508000000000,"state":"active","ping":45},{"user_id":274,"name":"adastra","steam_id":76561198152090448,"connected_time":4339000000000,"state":"active","ping":67},{"user_id":302,"name":"sunny","steam_id":76561198069380992,"connected_time":1236000000000,"state":"active","ping":78},{"user_id":312,"name":"Sir Cookie","steam_id":76561198045919760,"connected_time":736000000000,"state":"active","ping":68},{"user_id":295,"name":"Jho-oh","steam_id":76561198062473436,"connected_time":2355000000000,"state":"active","ping":71},{"user_id":311,"name":"Penny #girl","steam_id":76561198144281771,"connected_time":1035000000000,"state":"active","ping":70},{"user_id":296,"name":"Ark","steam_id":76561198053000340,"connected_time":1853000000000,"state":"active","ping":60},{"user_id":310,"name":"acurlyquote","steam_id":76561198110033420,"connected_time":1057000000000,"state":"active","ping":70},{"user_id":285,"name":"Lowvast","steam_id":76561198068455981,"connected_time":3590000000000,"state":"active","ping":75},{"user_id":307,"name":"GeneralMike","steam_id":76561198065799430,"connected_time":1156000000000,"state":"active","ping":56},{"user_id":308,"name":"identity","steam_id":76561198140584050,"connected_time":1103000000000,"state":"active","ping":61},{"user_id":299,"name":"Spookuragee","steam_id":76561198144911139,"connected_time":1267000000000,"state":"active","ping":115},{"user_id":69,"name":"Succubus_Lilith (She/They)","steam_id":76561198240578890,"connected_time":26603000000000,"state":"active","ping":75},{"user_id":254,"name":"box","steam_id":76561198985635309,"connected_time":6491000000000,"state":"active","ping":88},{"user_id":316,"name":"Mental-Mentor","steam_id":76561198049777777,"connected_time":147000000000,"state":"active","ping":100},{"user_id":291,"name":"BorstchBag","steam_id":76561198155294045,"connected_time":3430000000000,"state":"active","ping":81},{"user_id":309,"name":"Lonely Friendless Gamer","steam_id":76561198046728155,"connected_time":1085000000000,"state":"active","ping":46},{"user_id":289,"name":"Doubting Dave","steam_id":76561198066410749,"connected_time":3541000000000,"state":"active","ping":70}]},{"server_id":402,"name":"Uncletopia | Chicago | 3 | All Maps","name_short":"chi-3","host":"chi-1.us.uncletopia.com","port":27035,"enabled":true,"region":"us-central","cc":"us","latitude":41.881832,"longitude":-87.62318,"reserved":0,"last_update":"0001-01-01T00:00:00Z","name_a2s":"Uncletopia | Chicago | 3 | All Maps","protocol":17,"map":"koth_viaduct","folder":"tf","game":"Team Fortress","app_id":440,"player_count":1,"max_players":24,"Bots":0,"server_type":"Dedicated","server_os":"Linux","password":true,"vac":true,"version":"7757534","steam_id":85568392924515191,"keywords":["cp","nocrits","nodmgspread","uncletopia"],"game_id":440,"stv_port":27036,"stv_name":"Uncletopia | Chicago | 3 | All Maps | STV","players":[{"user_id":21,"name":"Scotch Tape","steam_id":76561199389314894,"connected_time":16000000000,"state":"active","ping":162}]},{"server_id":403,"name":"Uncletopia | Chicago | 4 | All Maps","name_short":"chi-4","host":"chi-1.us.uncletopia.com","port":27045,"enabled":true,"region":"us-central","cc":"us","latitude":41.881832,"longitude":-87.62318,"reserved":0,"last_update":"0001-01-01T00:00:00Z","name_a2s":"Uncletopia | Chicago | 4 | All Maps","protocol":17,"map":"koth_nucleus","folder":"tf","game":"Team Fortress","app_id":440,"player_count":24,"max_players":24,"Bots":0,"server_type":"Dedicated","server_os":"Linux","password":true,"vac":true,"version":"7757534","steam_id":85568392924515193,"keywords":["cp","nocrits","nodmgspread","uncletopia"],"game_id":440,"stv_port":27046,"stv_name":"Uncletopia | Chicago | 4 | All Maps | STV","players":[{"user_id":192,"name":"foux","steam_id":76561198037518646,"connected_time":562000000000,"state":"active","ping":72},{"user_id":194,"name":"NUt","steam_id":76561198031007966,"connected_time":293000000000,"state":"active","ping":73},{"user_id":178,"name":"Nuwrox1","steam_id":76561198406951007,"connected_time":1266000000000,"state":"active","ping":64},{"user_id":193,"name":"K1nG","steam_id":76561198862980983,"connected_time":553000000000,"state":"active","ping":79},{"user_id":126,"name":"Edder","steam_id":76561198011088393,"connected_time":6468000000000,"state":"active","ping":85},{"user_id":186,"name":"üï±Roi","steam_id":76561198043237194,"connected_time":683000000000,"state":"active","ping":74},{"user_id":187,"name":"Seller of Waffles","steam_id":76561198296018138,"connected_time":668000000000,"state":"active","ping":55},{"user_id":182,"name":"The Fiend","steam_id":76561199229771413,"connected_time":845000000000,"state":"active","ping":86},{"user_id":174,"name":"Pine","steam_id":76561198165139404,"connected_time":1614000000000,"state":"active","ping":74},{"user_id":117,"name":"MINE_","steam_id":76561198092970200,"connected_time":7109000000000,"state":"active","ping":97},{"user_id":176,"name":"Worldstarhiphop Mike","steam_id":76561198053967778,"connected_time":1292000000000,"state":"active","ping":74},{"user_id":173,"name":"Jpayne","steam_id":76561198011913455,"connected_time":1856000000000,"state":"active","ping":89},{"user_id":188,"name":"üÖúüÖîüÖîüÖöüÖ¢üÖ£üÖî\ufffd\ufffd\ufffd","steam_id":76561197999748343,"connected_time":665000000000,"state":"active","ping":60},{"user_id":127,"name":"Wild_Rumpus","steam_id":76561198066393719,"connected_time":6427000000000,"state":"active","ping":53},{"user_id":181,"name":"Acehay14","steam_id":76561198052373291,"connected_time":1135000000000,"state":"active","ping":56},{"user_id":154,"name":"ShadBad","steam_id":76561198248287390,"connected_time":3516000000000,"state":"active","ping":111},{"user_id":129,"name":"b","steam_id":76561198196769297,"connected_time":6240000000000,"state":"active","ping":60},{"user_id":189,"name":"Hook, Line, and Sphincter","steam_id":76561198078207743,"connected_time":663000000000,"state":"active","ping":64},{"user_id":190,"name":"Super D Duper","steam_id":76561198078203677,"connected_time":662000000000,"state":"active","ping":66},{"user_id":195,"name":"CyberZayne","steam_id":76561198002351356,"connected_time":191000000000,"state":"active","ping":110},{"user_id":70,"name":"bimbo blow up doll! \u003c3","steam_id":76561198959541006,"connected_time":12112000000000,"state":"active","ping":69},{"user_id":172,"name":"DJ Taj Mahal","steam_id":76561198024504491,"connected_time":2311000000000,"state":"active","ping":51},{"user_id":191,"name":"Laxoloni","steam_id":76561199197045700,"connected_time":618000000000,"state":"active","ping":112},{"user_id":155,"name":"A Rhino with Coronavirus","steam_id":76561197999451366,"connected_time":3516000000000,"state":"active","ping":72}]},{"server_id":36,"name":"Uncletopia | Chicago | 5 | All Maps","name_short":"chi-5","host":"chi-2.us.uncletopia.com","port":27015,"enabled":true,"region":"us-central","cc":"us","latitude":41.881832,"longitude":-87.62318,"reserved":0,"last_update":"0001-01-01T00:00:00Z","name_a2s":"Uncletopia | Chicago | 5 | All Maps","protocol":17,"map":"koth_cascade","folder":"tf","game":"Team Fortress","app_id":440,"player_count":0,"max_players":24,"Bots":0,"server_type":"Dedicated","server_os":"Linux","password":true,"vac":true,"version":"7757534","steam_id":85568392924866362,"keywords":["cp","nocrits","nodmgspread","uncletopia"],"game_id":440,"stv_port":27016,"stv_name":"Uncletopia | Chicago | 5 | All Maps | STV","players":null},{"server_id":37,"name":"Uncletopia | Chicago | 6 | All Maps","name_short":"chi-6","host":"chi-2.us.uncletopia.com","port":27025,"enabled":true,"region":"us-central","cc":"us","latitude":41.881832,"longitude":-87.62318,"reserved":0,"last_update":"0001-01-01T00:00:00Z","name_a2s":"Uncletopia | Chicago | 6 | All Maps","protocol":17,"map":"pl_upward","folder":"tf","game":"Team Fortress","app_id":440,"player_count":24,"max_players":24,"Bots":0,"server_type":"Dedicated","server_os":"Linux","password":true,"vac":true,"version":"7757534","steam_id":85568392924866363,"keywords":["nocrits","nodmgspread","payload","uncletopia"],"game_id":440,"stv_port":27026,"stv_name":"Uncletopia | Chicago | 6 | All Maps | STV","players":[{"user_id":115,"name":"herb","steam_id":76561198185980055,"connected_time":3000000000000,"state":"active","ping":62},{"user_id":139,"name":"(‚óî) Neville","steam_id":76561198025637970,"connected_time":1126000000000,"state":"active","ping":75},{"user_id":144,"name":"slowdance","steam_id":76561198097427947,"connected_time":260000000000,"state":"active","ping":146},{"user_id":124,"name":"Seojer","steam_id":76561198234965408,"connected_time":2045000000000,"state":"active","ping":108},{"user_id":145,"name":"ITS SO OVER","steam_id":76561198987579589,"connected_time":153000000000,"state":"active","ping":50},{"user_id":89,"name":"kitchen crusader","steam_id":76561199217620385,"connected_time":4154000000000,"state":"active","ping":68},{"user_id":99,"name":"CBT Hammer","steam_id":76561198263631055,"connected_time":3502000000000,"state":"active","ping":63},{"user_id":141,"name":"Alexthegreat","steam_id":76561197996796222,"connected_time":931000000000,"state":"active","ping":87},{"user_id":138,"name":"Troglodyte","steam_id":76561198257410914,"connected_time":1237000000000,"state":"active","ping":85},{"user_id":122,"name":"robot with human hair","steam_id":76561198018691308,"connected_time":2103000000000,"state":"active","ping":75},{"user_id":130,"name":"VALENCE","steam_id":76561198118492031,"connected_time":1411000000000,"state":"active","ping":75},{"user_id":131,"name":"RarestGuide","steam_id":76561198050338923,"connected_time":1409000000000,"state":"active","ping":74},{"user_id":97,"name":"Goofball","steam_id":76561198061211537,"connected_time":3624000000000,"state":"active","ping":61},{"user_id":132,"name":"{·¥õ Ä_·¥Ñ·¥á Ä·¥ò} shullers","steam_id":76561198889997809,"connected_time":1332000000000,"state":"active","ping":91},{"user_id":133,"name":"The Cool Man","steam_id":76561198096420556,"connected_time":1327000000000,"state":"active","ping":100},{"user_id":68,"name":"Zeek","steam_id":76561197987204351,"connected_time":6234000000000,"state":"active","ping":58},{"user_id":104,"name":"Also Known As Assteeth","steam_id":76561198049837377,"connected_time":3362000000000,"state":"active","ping":48},{"user_id":112,"name":"what","steam_id":76561198082336619,"connected_time":3097000000000,"state":"active","ping":71},{"user_id":134,"name":"certainlysim","steam_id":76561199092352335,"connected_time":1315000000000,"state":"active","ping":112},{"user_id":125,"name":"Yakts","steam_id":76561198115044159,"connected_time":2010000000000,"state":"active","ping":91},{"user_id":127,"name":"returnofpussypoppinhondacivic","steam_id":76561198307012859,"connected_time":1849000000000,"state":"active","ping":65},{"user_id":109,"name":"PANDER","steam_id":76561198021732844,"connected_time":3201000000000,"state":"active","ping":71},{"user_id":136,"name":"jumarius quangle dangle","steam_id":76561199123009301,"connected_time":1276000000000,"state":"active","ping":89},{"user_id":137,"name":"se√±or meth coker","steam_id":76561198929410945,"connected_time":1269000000000,"state":"active","ping":67}]},{"server_id":38,"name":"Uncletopia | Chicago | 7 | Stopwatch Beta","name_short":"chi-7","host":"chi-2.us.uncletopia.com","port":27035,"enabled":true,"region":"us-central","cc":"us","latitude":41.881832,"longitude":-87.62318,"reserved":0,"last_update":"0001-01-01T00:00:00Z","name_a2s":"Uncletopia | Chicago | 7 | Stopwatch Beta","protocol":17,"map":"workshop/koth_product_final.ugc454272353","folder":"tf","game":"Team Fortress","app_id":440,"player_count":0,"max_players":24,"Bots":0,"server_type":"Dedicated","server_os":"Linux","password":true,"vac":true,"version":"7757534","steam_id":85568392924866364,"keywords":["cp","nocrits","nodmgspread","uncletopia"],"game_id":440,"stv_port":27036,"stv_name":"Uncletopia | Chicago | 7 | Stopwatch Beta | STV","players":null},{"server_id":39,"name":"Uncletopia | Chicago | 8 | Community","name_short":"chi-8","host":"chi-2.us.uncletopia.com","port":27045,"enabled":true,"region":"us-central","cc":"us","latitude":41.881832,"longitude":-87.62318,"reserved":0,"last_update":"0001-01-01T00:00:00Z","name_a2s":"Uncletopia | Chicago | 8 | Community","protocol":17,"map":"workshop/koth_product_final.ugc454272353","folder":"tf","game":"Team Fortress","app_id":440,"player_count":23,"max_players":24,"Bots":0,"server_type":"Dedicated","server_os":"Linux","password":true,"vac":true,"version":"7757534","steam_id":85568392924866365,"keywords":["cp","nocrits","nodmgspread","uncletopia"],"game_id":440,"stv_port":27046,"stv_name":"Uncletopia | Chicago | 8 | Community | STV","players":[{"user_id":70,"name":"Reaper","steam_id":76561198435826103,"connected_time":3652000000000,"state":"active","ping":73},{"user_id":55,"name":"Tohru","steam_id":76561198175722677,"connected_time":5014000000000,"state":"active","ping":55},{"user_id":109,"name":"oomper","steam_id":76561199189982701,"connected_time":1748000000000,"state":"active","ping":56},{"user_id":89,"name":"sxl","steam_id":76561198150627999,"connected_time":3061000000000,"state":"active","ping":79},{"user_id":90,"name":"The Worst Player in The World","steam_id":76561198850661159,"connected_time":3053000000000,"state":"active","ping":59},{"user_id":127,"name":"MoldyCoffee936","steam_id":76561198099061153,"connected_time":1224000000000,"state":"active","ping":104},{"user_id":138,"name":"bogus","steam_id":76561198377555279,"connected_time":424000000000,"state":"active","ping":82},{"user_id":114,"name":"Minedark","steam_id":76561198250995706,"connected_time":1669000000000,"state":"active","ping":124},{"user_id":131,"name":"The Winter Medic","steam_id":76561198197112922,"connected_time":1078000000000,"state":"active","ping":78},{"user_id":140,"name":"elso","steam_id":76561198058209902,"connected_time":278000000000,"state":"active","ping":88},{"user_id":139,"name":"nothere","steam_id":76561198341624641,"connected_time":324000000000,"state":"active","ping":78},{"user_id":108,"name":"Maddox","steam_id":76561198062120554,"connected_time":1901000000000,"state":"active","ping":70},{"user_id":132,"name":"Silvercoat's Stargazer","steam_id":76561198399525329,"connected_time":1068000000000,"state":"active","ping":83},{"user_id":128,"name":"Broadsword","steam_id":76561198011160411,"connected_time":1207000000000,"state":"active","ping":79},{"user_id":113,"name":"N0Ne","steam_id":76561198376822522,"connected_time":1674000000000,"state":"active","ping":82},{"user_id":141,"name":"Mr. Crispy Lips","steam_id":76561198028157625,"connected_time":138000000000,"state":"active","ping":84},{"user_id":133,"name":"‡πñ√êiestow","steam_id":76561198046662484,"connected_time":966000000000,"state":"active","ping":79},{"user_id":99,"name":"[DEEP] Danmar33","steam_id":76561198056453091,"connected_time":2730000000000,"state":"active","ping":56},{"user_id":135,"name":"An Offended","steam_id":76561198162461585,"connected_time":723000000000,"state":"active","ping":107},{"user_id":84,"name":".Cassius.","steam_id":76561199181383832,"connected_time":3339000000000,"state":"active","ping":62},{"user_id":130,"name":"BluJay","steam_id":76561198044670560,"connected_time":1189000000000,"state":"active","ping":68},{"user_id":123,"name":"01samflynn01","steam_id":76561198166834787,"connected_time":1446000000000,"state":"active","ping":100},{"user_id":124,"name":"Foreskin Reattachment service","steam_id":76561198060342804,"connected_time":1441000000000,"state":"active","ping":71}]},{"server_id":8,"name":"Uncletopia | Dallas | 1 | All Maps","name_short":"dal-1","host":"dal-1.us.uncletopia.com","port":27015,"enabled":true,"region":"us-central","cc":"us","latitude":32.779167,"longitude":-96.80889,"reserved":0,"last_update":"0001-01-01T00:00:00Z","name_a2s":"Uncletopia | Dallas | 1 | All Maps","protocol":17,"map":"pl_swiftwater_final1","folder":"tf","game":"Team Fortress","app_id":440,"player_count":24,"max_players":24,"Bots":0,"server_type":"Dedicated","server_os":"Linux","password":true,"vac":true,"version":"7757534","steam_id":85568392924469986,"keywords":["nocrits","nodmgspread","payload","uncletopia"],"game_id":440,"stv_port":27016,"stv_name":"Uncletopia | Dallas | 1 | All Maps | STV","players":[{"user_id":96,"name":"Sup m8","steam_id":76561198081659121,"connected_time":586000000000,"state":"active","ping":38},{"user_id":82,"name":"JaredTheReal","steam_id":76561198372449718,"connected_time":1146000000000,"state":"active","ping":41},{"user_id":36,"name":"Mediocre Gaming","steam_id":76561199230467980,"connected_time":3507000000000,"state":"active","ping":79},{"user_id":21,"name":"Wem-worlds-of-wine.","steam_id":76561199321959230,"connected_time":4358000000000,"state":"active","ping":58},{"user_id":68,"name":"I_amgeneric","steam_id":76561198058605649,"connected_time":2291000000000,"state":"active","ping":43},{"user_id":87,"name":"Cartwright","steam_id":76561197975491705,"connected_time":1092000000000,"state":"active","ping":82},{"user_id":83,"name":"Tritium","steam_id":76561198043305626,"connected_time":1137000000000,"state":"active","ping":104},{"user_id":25,"name":"Doomagedden","steam_id":76561198272589475,"connected_time":4109000000000,"state":"active","ping":58},{"user_id":101,"name":"Bucket Joe","steam_id":76561198995973865,"connected_time":270000000000,"state":"active","ping":76},{"user_id":81,"name":"bloard","steam_id":76561198083206034,"connected_time":1161000000000,"state":"active","ping":76},{"user_id":85,"name":"ZachB.","steam_id":76561198039146326,"connected_time":1114000000000,"state":"active","ping":99},{"user_id":105,"name":"Lipo","steam_id":76561198295702119,"connected_time":8000000000,"state":"spawning","ping":70},{"user_id":99,"name":"Wolverine Fingerblaster","steam_id":76561198095394582,"connected_time":424000000000,"state":"active","ping":65},{"user_id":58,"name":"himbo malewife","steam_id":76561199143725014,"connected_time":2992000000000,"state":"active","ping":132},{"user_id":95,"name":"sly1","steam_id":76561198049014977,"connected_time":616000000000,"state":"active","ping":91},{"user_id":90,"name":"Kamikazedoctor","steam_id":76561198157078818,"connected_time":844000000000,"state":"active","ping":76},{"user_id":102,"name":"k1tty","steam_id":76561198869348268,"connected_time":229000000000,"state":"active","ping":75},{"user_id":53,"name":"sex (real)","steam_id":76561198396414319,"connected_time":3087000000000,"state":"active","ping":79},{"user_id":88,"name":"hunterzar","steam_id":76561198347666725,"connected_time":1057000000000,"state":"active","ping":88},{"user_id":103,"name":"Female Gamer","steam_id":76561199366482682,"connected_time":119000000000,"state":"active","ping":112},{"user_id":72,"name":"Smittywerbenjager-manjenson","steam_id":76561198067060742,"connected_time":2143000000000,"state":"active","ping":60},{"user_id":80,"name":"errant","steam_id":76561197961758410,"connected_time":1357000000000,"state":"active","ping":40},{"user_id":97,"name":"anappleadaygaming","steam_id":76561198087570794,"connected_time":530000000000,"state":"active","ping":45},{"user_id":104,"name":"kent C Straight","steam_id":76561198056190259,"connected_time":104000000000,"state":"active","ping":81}]},{"server_id":108,"name":"Uncletopia | Dallas | 2 | All Maps","name_short":"dal-2","host":"dal-1.us.uncletopia.com","port":27025,"enabled":true,"region":"us-central","cc":"us","latitude":32.779167,"longitude":-96.80889,"reserved":0,"last_update":"0001-01-01T00:00:00Z","name_a2s":"Uncletopia | Dallas | 2 | All Maps","protocol":17,"map":"pl_frontier_final","folder":"tf","game":"Team Fortress","app_id":440,"player_count":24,"max_players":24,"Bots":0,"server_type":"Dedicated","server_os":"Linux","password":true,"vac":true,"version":"7757534","steam_id":85568392924469988,"keywords":["nocrits","nodmgspread","payload","uncletopia"],"game_id":440,"stv_port":27026,"stv_name":"Uncletopia | Dallas | 2 | All Maps | STV","players":[{"user_id":566,"name":"Sunshine","steam_id":76561198885528098,"connected_time":1488000000000,"state":"active","ping":92},{"user_id":542,"name":"Junky","steam_id":76561198049612322,"connected_time":2715000000000,"state":"active","ping":77},{"user_id":540,"name":"AMEOBA","steam_id":76561198169315998,"connected_time":2743000000000,"state":"active","ping":83},{"user_id":569,"name":"momb","steam_id":76561198142234038,"connected_time":1240000000000,"state":"active","ping":86},{"user_id":574,"name":"TechnoBear2099","steam_id":76561198238863596,"connected_time":749000000000,"state":"active","ping":42},{"user_id":517,"name":"vividatant","steam_id":76561198367913885,"connected_time":5203000000000,"state":"active","ping":165},{"user_id":578,"name":"Allyn (she/they)","steam_id":76561198999161827,"connected_time":393000000000,"state":"active","ping":79},{"user_id":577,"name":"‚ñ≤ Weevils | Al-Muttaqin ‚ñ≤","steam_id":76561197974847428,"connected_time":415000000000,"state":"active","ping":76},{"user_id":575,"name":"Luna","steam_id":76561198131342156,"connected_time":661000000000,"state":"active","ping":62},{"user_id":576,"name":"Fenris","steam_id":76561198355460424,"connected_time":625000000000,"state":"active","ping":94},{"user_id":584,"name":"i eated sand","steam_id":76561198062763756,"connected_time":178000000000,"state":"active","ping":75},{"user_id":579,"name":"pigswill","steam_id":76561197999081865,"connected_time":377000000000,"state":"active","ping":90},{"user_id":583,"name":"Shaky Boi","steam_id":76561198129769783,"connected_time":230000000000,"state":"active","ping":83},{"user_id":509,"name":"westward (was/were)","steam_id":76561198805512350,"connected_time":5359000000000,"state":"active","ping":118},{"user_id":571,"name":"DJ-Whatchya #rEtiReD","steam_id":76561198060355298,"connected_time":1068000000000,"state":"active","ping":96},{"user_id":548,"name":"Cedric","steam_id":76561198072090580,"connected_time":2628000000000,"state":"active","ping":101},{"user_id":527,"name":"Griffith","steam_id":76561198074407897,"connected_time":4080000000000,"state":"active","ping":95},{"user_id":572,"name":"Colonel Chikara","steam_id":76561198010021087,"connected_time":1048000000000,"state":"active","ping":84},{"user_id":581,"name":"Husker414Pupper","steam_id":76561198812776770,"connected_time":340000000000,"state":"active","ping":59},{"user_id":534,"name":"Alkimia","steam_id":76561198385763137,"connected_time":3648000000000,"state":"active","ping":122},{"user_id":528,"name":"MattJettskie","steam_id":76561199229493583,"connected_time":4063000000000,"state":"active","ping":99},{"user_id":582,"name":"Aligote","steam_id":76561199188849493,"connected_time":323000000000,"state":"active","ping":99},{"user_id":585,"name":"Muk__Tuk","steam_id":76561199122524457,"connected_time":84000000000,"state":"active","ping":82},{"user_id":568,"name":"r0ck","steam_id":76561198395892272,"connected_time":1318000000000,"state":"active","ping":94}]},{"server_id":5,"name":"Uncletopia | Frankfurt | 1 | All Maps","name_short":"frk-1","host":"frk-1.de.uncletopia.com","port":27015,"enabled":true,"region":"eu","cc":"de","latitude":50.110924,"longitude":8.682127,"reserved":0,"last_update":"0001-01-01T00:00:00Z","name_a2s":"Uncletopia | Frankfurt | 1 | All Maps","protocol":17,"map":"cp_sunshine","folder":"tf","game":"Team Fortress","app_id":440,"player_count":15,"max_players":24,"Bots":0,"server_type":"Dedicated","server_os":"Linux","password":true,"vac":true,"version":"7757534","steam_id":85568392924469989,"keywords":["cp","nocrits","nodmgspread","uncletopia"],"game_id":440,"stv_port":27016,"stv_name":"Uncletopia | Frankfurt | 1 | All Maps | STV","players":[{"user_id":489,"name":"Mi Manchi","steam_id":76561198171573129,"connected_time":47000000000,"state":"active","ping":51},{"user_id":484,"name":"Stryder","steam_id":76561199387418697,"connected_time":274000000000,"state":"active","ping":185},{"user_id":476,"name":"NotNamedBob","steam_id":76561199482149729,"connected_time":785000000000,"state":"active","ping":123},{"user_id":470,"name":"aRtaRt","steam_id":76561199051316171,"connected_time":1185000000000,"state":"active","ping":71},{"user_id":442,"name":"BoBunny McGlitter","steam_id":76561198057403817,"connected_time":3115000000000,"state":"active","ping":62},{"user_id":481,"name":"Davidman","steam_id":76561198188912934,"connected_time":425000000000,"state":"active","ping":60},{"user_id":478,"name":"Gay Engineer","steam_id":76561199110557595,"connected_time":589000000000,"state":"active","ping":62},{"user_id":462,"name":"JugoTopia","steam_id":76561197996067209,"connected_time":1454000000000,"state":"active","ping":114},{"user_id":485,"name":"Buddy","steam_id":76561198050185582,"connected_time":261000000000,"state":"active","ping":79},{"user_id":466,"name":"4nalpr0d","steam_id":76561198052092018,"connected_time":1389000000000,"state":"active","ping":48},{"user_id":448,"name":"Bred Sheeran (real)","steam_id":76561198045692016,"connected_time":2008000000000,"state":"active","ping":46},{"user_id":425,"name":"Zedifo","steam_id":76561198044032070,"connected_time":4672000000000,"state":"active","ping":46},{"user_id":456,"name":"dailamolie","steam_id":76561199217768634,"connected_time":1675000000000,"state":"active","ping":159},{"user_id":480,"name":"nyanezt","steam_id":76561198253734265,"connected_time":465000000000,"state":"active","ping":93},{"user_id":453,"name":"Burger King Dante","steam_id":76561198390314734,"connected_time":1828000000000,"state":"active","ping":59}]},{"server_id":110,"name":"Uncletopia | Frankfurt | 2 | All Maps","name_short":"frk-2","host":"frk-1.de.uncletopia.com","port":27025,"enabled":true,"region":"eu","cc":"de","latitude":50.110924,"longitude":8.682127,"reserved":0,"last_update":"0001-01-01T00:00:00Z","name_a2s":"Uncletopia | Frankfurt | 2 | All Maps","protocol":17,"map":"koth_cascade","folder":"tf","game":"Team Fortress","app_id":440,"player_count":1,"max_players":24,"Bots":0,"server_type":"Dedicated","server_os":"Linux","password":true,"vac":true,"version":"7757534","steam_id":85568392924469990,"keywords":["cp","nocrits","nodmgspread","uncletopia"],"game_id":440,"stv_port":27026,"stv_name":"Uncletopia | Frankfurt | 2 | All Maps | STV","players":[{"user_id":658,"name":"oldy","steam_id":76561198031899043,"connected_time":201000000000,"state":"active","ping":60}]},{"server_id":308,"name":"Uncletopia | Frankfurt | 3 | All Maps","name_short":"frk-3","host":"frk-1.de.uncletopia.com","port":27035,"enabled":true,"region":"eu","cc":"de","latitude":50.110924,"longitude":8.682127,"reserved":0,"last_update":"0001-01-01T00:00:00Z","name_a2s":"Uncletopia | Frankfurt | 3 | All Maps","protocol":17,"map":"cp_gorge","folder":"tf","game":"Team Fortress","app_id":440,"player_count":0,"max_players":24,"Bots":0,"server_type":"Dedicated","server_os":"Linux","password":true,"vac":true,"version":"7757534","steam_id":85568392924504274,"keywords":["cp","nocrits","nodmgspread","uncletopia"],"game_id":440,"stv_port":27036,"stv_name":"Uncletopia | Frankfurt | 3 | All Maps | STV","players":null},{"server_id":309,"name":"Uncletopia | Frankfurt | 4 | All Maps","name_short":"frk-4","host":"frk-1.de.uncletopia.com","port":27045,"enabled":true,"region":"eu","cc":"de","latitude":50.110924,"longitude":8.682127,"reserved":0,"last_update":"0001-01-01T00:00:00Z","name_a2s":"Uncletopia | Frankfurt | 4 | All Maps","protocol":17,"map":"pl_pier","folder":"tf","game":"Team Fortress","app_id":440,"player_count":22,"max_players":24,"Bots":0,"server_type":"Dedicated","server_os":"Linux","password":true,"vac":true,"version":"7757534","steam_id":85568392924504275,"keywords":["nocrits","nodmgspread","payload","uncletopia"],"game_id":440,"stv_port":27046,"stv_name":"Uncletopia | Frankfurt | 4 | All Maps | STV","players":[{"user_id":365,"name":"weird gamer","steam_id":76561198047749446,"connected_time":1026000000000,"state":"active","ping":45},{"user_id":353,"name":"Mandy Muse","steam_id":76561199001105496,"connected_time":2061000000000,"state":"active","ping":63},{"user_id":328,"name":"Szymekc","steam_id":76561198009541119,"connected_time":4486000000000,"state":"active","ping":73},{"user_id":377,"name":"Peat","steam_id":76561197992168067,"connected_time":362000000000,"state":"active","ping":74},{"user_id":313,"name":"MEGOS","steam_id":76561198172740637,"connected_time":6012000000000,"state":"active","ping":56},{"user_id":354,"name":"Pipp Petals2014","steam_id":76561198147668373,"connected_time":2054000000000,"state":"active","ping":56},{"user_id":339,"name":"nynon","steam_id":76561197998432126,"connected_time":3252000000000,"state":"active","ping":77},{"user_id":364,"name":"lamalakamala","steam_id":76561198314076661,"connected_time":1511000000000,"state":"active","ping":92},{"user_id":378,"name":"Qwerty","steam_id":76561198023525894,"connected_time":140000000000,"state":"active","ping":95},{"user_id":373,"name":"sv_opor 13123","steam_id":76561198002229612,"connected_time":465000000000,"state":"active","ping":67},{"user_id":362,"name":"Hyppy ja liipasin pohjaan :D","steam_id":76561198080669698,"connected_time":1717000000000,"state":"active","ping":110},{"user_id":371,"name":"r06u3","steam_id":76561198254099253,"connected_time":654000000000,"state":"active","ping":167},{"user_id":374,"name":"78","steam_id":76561198208328357,"connected_time":461000000000,"state":"active","ping":74},{"user_id":340,"name":"mishka.*","steam_id":76561198040003628,"connected_time":3252000000000,"state":"active","ping":70},{"user_id":368,"name":"Plop_","steam_id":76561198112567921,"connected_time":937000000000,"state":"active","ping":46},{"user_id":369,"name":"Gryoss","steam_id":76561197999837111,"connected_time":906000000000,"state":"active","ping":94},{"user_id":312,"name":"r4s1","steam_id":76561198024034917,"connected_time":6028000000000,"state":"active","ping":60},{"user_id":379,"name":"Wiwi","steam_id":76561198041316970,"connected_time":43000000000,"state":"active","ping":91},{"user_id":380,"name":"thomas3003","steam_id":76561198209860039,"connected_time":18000000000,"state":"active","ping":144},{"user_id":294,"name":"Tails8521","steam_id":76561198051747164,"connected_time":7165000000000,"state":"active","ping":59},{"user_id":376,"name":"pakin157","steam_id":76561198035125667,"connected_time":424000000000,"state":"active","ping":81},{"user_id":361,"name":"Captain Scrumpe","steam_id":76561198032206577,"connected_time":1736000000000,"state":"active","ping":82}]},{"server_id":310,"name":"Uncletopia | Frankfurt | 5 | All Maps","name_short":"frk-5","host":"frk-1.de.uncletopia.com","port":27055,"enabled":true,"region":"eu","cc":"de","latitude":50.110924,"longitude":8.682127,"reserved":0,"last_update":"0001-01-01T00:00:00Z","name_a2s":"Uncletopia | Frankfurt | 5 | All Maps","protocol":17,"map":"pl_goldrush","folder":"tf","game":"Team Fortress","app_id":440,"player_count":0,"max_players":24,"Bots":0,"server_type":"Dedicated","server_os":"Linux","password":true,"vac":true,"version":"7757534","steam_id":85568392924504277,"keywords":["nocrits","nodmgspread","payload","uncletopia"],"game_id":440,"stv_port":27056,"stv_name":"Uncletopia | Frankfurt | 5 | All Maps | STV","players":null},{"server_id":311,"name":"Uncletopia | Frankfurt | 6 | All Maps","name_short":"frk-6","host":"frk-1.de.uncletopia.com","port":27065,"enabled":true,"region":"eu","cc":"de","latitude":50.110924,"longitude":8.682127,"reserved":0,"last_update":"0001-01-01T00:00:00Z","name_a2s":"Uncletopia | Frankfurt | 6 | All Maps","protocol":17,"map":"pl_upward","folder":"tf","game":"Team Fortress","app_id":440,"player_count":9,"max_players":24,"Bots":0,"server_type":"Dedicated","server_os":"Linux","password":true,"vac":true,"version":"7757534","steam_id":85568392924504278,"keywords":["nocrits","nodmgspread","payload","uncletopia"],"game_id":440,"stv_port":27066,"stv_name":"Uncletopia | Frankfurt | 6 | All Maps | STV","players":[{"user_id":520,"name":"Pixie","steam_id":76561198044038797,"connected_time":1594000000000,"state":"active","ping":78},{"user_id":519,"name":"Spanns","steam_id":76561197998349793,"connected_time":1914000000000,"state":"active","ping":63},{"user_id":521,"name":"Destinys","steam_id":76561198056132894,"connected_time":1576000000000,"state":"active","ping":55},{"user_id":524,"name":"printer is broken","steam_id":76561198234270592,"connected_time":458000000000,"state":"active","ping":56},{"user_id":525,"name":"intcoms","steam_id":76561199021605762,"connected_time":255000000000,"state":"active","ping":59},{"user_id":526,"name":"Bitter","steam_id":76561198146532457,"connected_time":45000000000,"state":"active","ping":158},{"user_id":482,"name":"Psychicpie","steam_id":76561198126065206,"connected_time":4929000000000,"state":"active","ping":45},{"user_id":499,"name":"kaelan","steam_id":76561198001425310,"connected_time":3886000000000,"state":"active","ping":74},{"user_id":506,"name":"biohazard.pt","steam_id":76561198088367808,"connected_time":3736000000000,"state":"active","ping":80}]},{"server_id":23,"name":"Uncletopia | Frankfurt | 7 | Stopwatch Beta","name_short":"frk-7","host":"frk-1.de.uncletopia.com","port":27075,"enabled":true,"region":"eu","cc":"de","latitude":50.110924,"longitude":8.682127,"reserved":0,"last_update":"0001-01-01T00:00:00Z","name_a2s":"Uncletopia | Frankfurt | 7 | Stopwatch Beta","protocol":17,"map":"koth_highpass","folder":"tf","game":"Team Fortress","app_id":440,"player_count":0,"max_players":24,"Bots":0,"server_type":"Dedicated","server_os":"Linux","password":true,"vac":true,"version":"7757534","steam_id":85568392924742827,"keywords":["cp","nocrits","nodmgspread","uncletopia"],"game_id":440,"stv_port":27076,"stv_name":"Uncletopia | Frankfurt | 7 | Stopwatch Beta | STV","players":null},{"server_id":24,"name":"Uncletopia | Frankfurt | 8 | Community","name_short":"frk-8","host":"frk-1.de.uncletopia.com","port":27085,"enabled":true,"region":"eu","cc":"de","latitude":50.110924,"longitude":8.682127,"reserved":0,"last_update":"0001-01-01T00:00:00Z","name_a2s":"Uncletopia | Frankfurt | 8 | Community","protocol":17,"map":"workshop/pl_vigil_rc9.ugc1266210012","folder":"tf","game":"Team Fortress","app_id":440,"player_count":0,"max_players":24,"Bots":0,"server_type":"Dedicated","server_os":"Linux","password":true,"vac":true,"version":"7757534","steam_id":85568392924742828,"keywords":["nocrits","nodmgspread","payload","uncletopia"],"game_id":440,"stv_port":27086,"stv_name":"Uncletopia | Frankfurt | 8 | Community | STV","players":null},{"server_id":202,"name":"Uncletopia | Hong Kong | 1 | All Maps","name_short":"hgk-1","host":"hgk-1.hk.uncletopia.com","port":27015,"enabled":true,"region":"asia","cc":"hk","latitude":22.302711,"longitude":114.177216,"reserved":0,"last_update":"0001-01-01T00:00:00Z","name_a2s":"Uncletopia | Hong Kong | 1 | All Maps","protocol":17,"map":"pl_borneo","folder":"tf","game":"Team Fortress","app_id":440,"player_count":0,"max_players":24,"Bots":0,"server_type":"Dedicated","server_os":"Linux","password":true,"vac":true,"version":"7757534","steam_id":85568392924494504,"keywords":["nocrits","nodmgspread","payload","uncletopia"],"game_id":440,"stv_port":27016,"stv_name":"Uncletopia | Hong Kong | 1 | All Maps | STV","players":null},{"server_id":1,"name":"Uncletopia | Los Angeles | 1 | All Maps","name_short":"lax-1","host":"lax-1.us.uncletopia.com","port":27015,"enabled":true,"region":"us-west","cc":"us","latitude":33.94279,"longitude":-118.41004,"reserved":0,"last_update":"0001-01-01T00:00:00Z","name_a2s":"Uncletopia | Los Angeles | 1 | All Maps","protocol":17,"map":"pl_frontier_final","folder":"tf","game":"Team Fortress","app_id":440,"player_count":24,"max_players":24,"Bots":0,"server_type":"Dedicated","server_os":"Linux","password":true,"vac":true,"version":"7757534","steam_id":85568392924469991,"keywords":["nocrits","nodmgspread","payload","uncletopia"],"game_id":440,"stv_port":27016,"stv_name":"Uncletopia | Los Angeles | 1 | All Maps | STV","players":[{"user_id":130,"name":"Tmiracle","steam_id":76561198052375275,"connected_time":207000000000,"state":"active","ping":47},{"user_id":116,"name":"weed","steam_id":76561199128192017,"connected_time":2404000000000,"state":"active","ping":88},{"user_id":122,"name":"usedhalfcart","steam_id":76561198072621852,"connected_time":1432000000000,"state":"active","ping":80},{"user_id":128,"name":"AMLO","steam_id":76561199213988023,"connected_time":380000000000,"state":"active","ping":40},{"user_id":43,"name":"Regular player #SaveTF2","steam_id":76561198036806850,"connected_time":8019000000000,"state":"active","ping":94},{"user_id":136,"name":"gay porn","steam_id":76561198102454261,"connected_time":73000000000,"state":"active","ping":41},{"user_id":126,"name":"Bluedemon","steam_id":76561199212058684,"connected_time":611000000000,"state":"active","ping":52},{"user_id":95,"name":"Mom","steam_id":76561198207936000,"connected_time":3974000000000,"state":"active","ping":48},{"user_id":131,"name":"Weiland Davis \"water\" Freeman","steam_id":76561198376657037,"connected_time":204000000000,"state":"active","ping":51},{"user_id":23,"name":"F3RRAL","steam_id":76561198172279275,"connected_time":9260000000000,"state":"active","ping":50},{"user_id":132,"name":"paxtonjdrew","steam_id":76561199443375088,"connected_time":143000000000,"state":"active","ping":76},{"user_id":106,"name":"Bloodgoat","steam_id":76561198047407295,"connected_time":3484000000000,"state":"active","ping":70},{"user_id":123,"name":"noceof","steam_id":76561198043656816,"connected_time":1240000000000,"state":"active","ping":171},{"user_id":121,"name":"Droozlex","steam_id":76561198157221366,"connected_time":1731000000000,"state":"active","ping":69},{"user_id":133,"name":"Love Waffle","steam_id":76561197990077189,"connected_time":119000000000,"state":"active","ping":78},{"user_id":134,"name":"Serene Salamander","steam_id":76561198001094770,"connected_time":112000000000,"state":"active","ping":63},{"user_id":101,"name":"Juul Room","steam_id":76561198132867238,"connected_time":3724000000000,"state":"active","ping":79},{"user_id":135,"name":"minerkid2004","steam_id":76561198044262827,"connected_time":100000000000,"state":"active","ping":56},{"user_id":127,"name":"men","steam_id":76561199194759161,"connected_time":442000000000,"state":"active","ping":79},{"user_id":103,"name":"Shamrock Shake Oct.10.2020 @8pm","steam_id":76561198833313201,"connected_time":3667000000000,"state":"active","ping":104},{"user_id":124,"name":"TTV/ChadMorningWood","steam_id":76561198139832291,"connected_time":1186000000000,"state":"active","ping":51},{"user_id":137,"name":"Twiggles","steam_id":76561198045513388,"connected_time":45000000000,"state":"spawning","ping":124},{"user_id":117,"name":"goopuffer","steam_id":76561198118644686,"connected_time":2319000000000,"state":"active","ping":47},{"user_id":75,"name":"toodles","steam_id":76561198025463883,"connected_time":5819000000000,"state":"active","ping":85}]},{"server_id":112,"name":"Uncletopia | Los Angeles | 2 | All Maps","name_short":"lax-2","host":"lax-1.us.uncletopia.com","port":27025,"enabled":true,"region":"us-west","cc":"us","latitude":33.94279,"longitude":-118.41004,"reserved":0,"last_update":"0001-01-01T00:00:00Z","name_a2s":"Uncletopia | Los Angeles | 2 | All Maps","protocol":17,"map":"pl_goldrush","folder":"tf","game":"Team Fortress","app_id":440,"player_count":24,"max_players":24,"Bots":0,"server_type":"Dedicated","server_os":"Linux","password":true,"vac":true,"version":"7757534","steam_id":85568392924469992,"keywords":["nocrits","nodmgspread","payload","uncletopia"],"game_id":440,"stv_port":27026,"stv_name":"Uncletopia | Los Angeles | 2 | All Maps | STV","players":[{"user_id":103,"name":"Power Jake","steam_id":76561198051510260,"connected_time":563000000000,"state":"active","ping":62},{"user_id":52,"name":"[Zero] Lag","steam_id":76561198983494186,"connected_time":3828000000000,"state":"active","ping":107},{"user_id":99,"name":"MayaBon","steam_id":76561198797968261,"connected_time":714000000000,"state":"active","ping":76},{"user_id":101,"name":"Prof. Abedul","steam_id":76561198146171581,"connected_time":677000000000,"state":"active","ping":87},{"user_id":57,"name":"BUSY","steam_id":76561198047532250,"connected_time":3593000000000,"state":"active","ping":96},{"user_id":63,"name":"Drakon","steam_id":76561198078210822,"connected_time":2724000000000,"state":"active","ping":64},{"user_id":64,"name":"vareh","steam_id":76561197993190926,"connected_time":2686000000000,"state":"active","ping":94},{"user_id":93,"name":"RaixaR","steam_id":76561198025289430,"connected_time":1056000000000,"state":"active","ping":52},{"user_id":86,"name":"Spaceman","steam_id":76561198349305249,"connected_time":1569000000000,"state":"active","ping":81},{"user_id":89,"name":"matt_rolltide","steam_id":76561198796727164,"connected_time":1333000000000,"state":"active","ping":33},{"user_id":60,"name":"dirty30","steam_id":76561198021226566,"connected_time":3230000000000,"state":"active","ping":83},{"user_id":50,"name":"MonkeyNobody","steam_id":76561199451266605,"connected_time":4084000000000,"state":"active","ping":55},{"user_id":107,"name":"fish.EXE","steam_id":76561198995564430,"connected_time":163000000000,"state":"active","ping":136},{"user_id":102,"name":"Matthew","steam_id":76561199084649882,"connected_time":581000000000,"state":"active","ping":121},{"user_id":77,"name":"Purchase your tracks today","steam_id":76561198084422657,"connected_time":2138000000000,"state":"active","ping":58},{"user_id":104,"name":"Pump","steam_id":76561198085846167,"connected_time":435000000000,"state":"active","ping":73},{"user_id":108,"name":"Cheese Miller","steam_id":76561199451933673,"connected_time":107000000000,"state":"active","ping":62},{"user_id":105,"name":"JonBoy","steam_id":76561198082052480,"connected_time":231000000000,"state":"active","ping":93},{"user_id":95,"name":"lord setch","steam_id":76561198252328518,"connected_time":1008000000000,"state":"active","ping":54},{"user_id":109,"name":"Tummy Sunday","steam_id":76561198031336957,"connected_time":96000000000,"state":"active","ping":90},{"user_id":96,"name":"Lolxdloldx","steam_id":76561198136887125,"connected_time":999000000000,"state":"active","ping":78},{"user_id":87,"name":"Rabblerouser","steam_id":76561198127930963,"connected_time":1569000000000,"state":"active","ping":87},{"user_id":97,"name":"Jack from Jack in The Box","steam_id":76561199083594971,"connected_time":980000000000,"state":"active","ping":51},{"user_id":56,"name":"I'mFromSpace","steam_id":76561198808969653,"connected_time":3798000000000,"state":"active","ping":70}]},{"server_id":324,"name":"Uncletopia | Los Angeles | 3 | All Maps","name_short":"lax-3","host":"lax-1.us.uncletopia.com","port":27035,"enabled":true,"region":"us-west","cc":"us","latitude":33.94279,"longitude":-118.41004,"reserved":0,"last_update":"0001-01-01T00:00:00Z","name_a2s":"Uncletopia | Los Angeles | 3 | All Maps","protocol":17,"map":"pl_badwater","folder":"tf","game":"Team Fortress","app_id":440,"player_count":0,"max_players":24,"Bots":0,"server_type":"Dedicated","server_os":"Linux","password":true,"vac":true,"version":"7757534","steam_id":85568392924510198,"keywords":["nocrits","nodmgspread","payload","uncletopia"],"game_id":440,"stv_port":27036,"stv_name":"Uncletopia | Los Angeles | 3 | All Maps | STV","players":null},{"server_id":25,"name":"Uncletopia | Los Angeles | 4 | Stopwatch Beta","name_short":"lax-4","host":"lax-1.us.uncletopia.com","port":27045,"enabled":true,"region":"us-west","cc":"us","latitude":33.94279,"longitude":-118.41004,"reserved":0,"last_update":"0001-01-01T00:00:00Z","name_a2s":"Uncletopia | Los Angeles | 4 | Stopwatch Beta","protocol":17,"map":"pl_swiftwater_final1","folder":"tf","game":"Team Fortress","app_id":440,"player_count":0,"max_players":24,"Bots":0,"server_type":"Dedicated","server_os":"Linux","password":true,"vac":true,"version":"7757534","steam_id":85568392924510199,"keywords":["nocrits","nodmgspread","payload","uncletopia"],"game_id":440,"stv_port":27046,"stv_name":"Uncletopia | Los Angeles | 4 | Stopwatch Beta | STV","players":null},{"server_id":11,"name":"Uncletopia | London | 1 | All Maps","name_short":"lon-1","host":"lon-1.uk.uncletopia.com","port":27015,"enabled":true,"region":"eu","cc":"gb","latitude":51.509865,"longitude":-0.118092,"reserved":0,"last_update":"0001-01-01T00:00:00Z","name_a2s":"Uncletopia | London | 1 | All Maps","protocol":17,"map":"pl_badwater","folder":"tf","game":"Team Fortress","app_id":440,"player_count":24,"max_players":24,"Bots":0,"server_type":"Dedicated","server_os":"Linux","password":true,"vac":true,"version":"7757534","steam_id":85568392924367362,"keywords":["nocrits","nodmgspread","payload","uncletopia"],"game_id":440,"stv_port":27016,"stv_name":"Uncletopia | London | 1 | All Maps | STV","players":[{"user_id":795,"name":"Mad Dog Gamer","steam_id":76561198011949134,"connected_time":117000000000,"state":"active","ping":45},{"user_id":784,"name":"Cabbch","steam_id":76561198045955679,"connected_time":919000000000,"state":"active","ping":50},{"user_id":786,"name":"Aaron","steam_id":76561197990046953,"connected_time":864000000000,"state":"active","ping":69},{"user_id":782,"name":"sora","steam_id":76561198096547662,"connected_time":1595000000000,"state":"active","ping":50},{"user_id":734,"name":"shooer! :D \u003e\u003c(((¬∫\u003e","steam_id":76561198110531281,"connected_time":5890000000000,"state":"active","ping":68},{"user_id":793,"name":"Dwevy","steam_id":76561198090379437,"connected_time":206000000000,"state":"active","ping":58},{"user_id":785,"name":"Skinny101","steam_id":76561197985599360,"connected_time":867000000000,"state":"active","ping":50},{"user_id":794,"name":"Juiceydough","steam_id":76561197997323419,"connected_time":204000000000,"state":"active","ping":78},{"user_id":753,"name":"gnarly business","steam_id":76561198832688767,"connected_time":3314000000000,"state":"active","ping":47},{"user_id":796,"name":"dn4k","steam_id":76561199221755690,"connected_time":78000000000,"state":"active","ping":79},{"user_id":777,"name":"Step back","steam_id":76561198063855616,"connected_time":2013000000000,"state":"active","ping":75},{"user_id":740,"name":"Germanium_Ge","steam_id":76561198130561775,"connected_time":5053000000000,"state":"active","ping":56},{"user_id":765,"name":"buudhist monk","steam_id":76561197984918636,"connected_time":2792000000000,"state":"active","ping":74},{"user_id":788,"name":"Ott","steam_id":76561198276464481,"connected_time":758000000000,"state":"active","ping":60},{"user_id":776,"name":"jimmy bob","steam_id":76561198319583692,"connected_time":2077000000000,"state":"active","ping":60},{"user_id":766,"name":"„Äé G e n k i „Äè ‚öô","steam_id":76561198126559952,"connected_time":2762000000000,"state":"active","ping":88},{"user_id":783,"name":"Cave","steam_id":76561198423147900,"connected_time":1250000000000,"state":"active","ping":56},{"user_id":797,"name":"Harry the Wizard","steam_id":76561198128345843,"connected_time":53000000000,"state":"spawning","ping":44},{"user_id":789,"name":"Tweedle","steam_id":76561198160141785,"connected_time":755000000000,"state":"active","ping":42},{"user_id":755,"name":"cooler bones","steam_id":76561199480942903,"connected_time":3119000000000,"state":"active","ping":76},{"user_id":731,"name":"mercurial","steam_id":76561198046227550,"connected_time":6694000000000,"state":"active","ping":55},{"user_id":769,"name":"Nameless","steam_id":76561198084215731,"connected_time":2703000000000,"state":"active","ping":44},{"user_id":781,"name":"sugar baby doon","steam_id":76561198006084110,"connected_time":1689000000000,"state":"active","ping":71},{"user_id":772,"name":"teddy","steam_id":76561198007436837,"connected_time":2552000000000,"state":"active","ping":45}]},{"server_id":114,"name":"Uncletopia | London | 2 | All Maps","name_short":"lon-2","host":"lon-1.uk.uncletopia.com","port":27025,"enabled":true,"region":"eu","cc":"gb","latitude":51.509865,"longitude":-0.118092,"reserved":0,"last_update":"0001-01-01T00:00:00Z","name_a2s":"Uncletopia | London | 2 | All Maps","protocol":17,"map":"cp_mercenarypark","folder":"tf","game":"Team Fortress","app_id":440,"player_count":24,"max_players":24,"Bots":0,"server_type":"Dedicated","server_os":"Linux","password":true,"vac":true,"version":"7757534","steam_id":85568392924470941,"keywords":["cp","nocrits","nodmgspread","uncletopia"],"game_id":440,"stv_port":27026,"stv_name":"Uncletopia | London | 2 | All Maps | STV","players":[{"user_id":741,"name":"dnljns","steam_id":76561198085091752,"connected_time":3459000000000,"state":"active","ping":87},{"user_id":772,"name":"Burgoo_King","steam_id":76561198133572225,"connected_time":733000000000,"state":"active","ping":78},{"user_id":773,"name":"JUST C2","steam_id":76561199194240072,"connected_time":671000000000,"state":"active","ping":129},{"user_id":781,"name":"Special needs pyro","steam_id":76561198119475305,"connected_time":156000000000,"state":"active","ping":65},{"user_id":753,"name":"Bartis","steam_id":76561198119512221,"connected_time":3164000000000,"state":"active","ping":92},{"user_id":776,"name":"D_Ink","steam_id":76561198267716662,"connected_time":557000000000,"state":"active","ping":33},{"user_id":738,"name":"Dr. Mike","steam_id":76561197991205793,"connected_time":3751000000000,"state":"active","ping":80},{"user_id":726,"name":"Max Andrew","steam_id":76561198158955194,"connected_time":5396000000000,"state":"active","ping":53},{"user_id":774,"name":"Ra1k","steam_id":76561198429725598,"connected_time":657000000000,"state":"active","ping":91},{"user_id":735,"name":"Battersüå∏","steam_id":76561198927992205,"connected_time":4997000000000,"state":"active","ping":49},{"user_id":707,"name":"NitPig","steam_id":76561198212991935,"connected_time":6807000000000,"state":"active","ping":102},{"user_id":775,"name":"Positive0","steam_id":76561198035780181,"connected_time":584000000000,"state":"active","ping":189},{"user_id":723,"name":"Tort","steam_id":76561198329646769,"connected_time":5454000000000,"state":"active","ping":57},{"user_id":777,"name":"Scorpio127","steam_id":76561198188684019,"connected_time":533000000000,"state":"active","ping":64},{"user_id":747,"name":"hedon/","steam_id":76561198249832770,"connected_time":3246000000000,"state":"active","ping":46},{"user_id":778,"name":"Chaffy2125","steam_id":76561198232839260,"connected_time":528000000000,"state":"active","ping":45},{"user_id":748,"name":"Gay Idiet","steam_id":76561198081301354,"connected_time":3211000000000,"state":"active","ping":57},{"user_id":768,"name":"8 Ball","steam_id":76561197960988736,"connected_time":2276000000000,"state":"active","ping":46},{"user_id":719,"name":"CptHavvock","steam_id":76561199189740651,"connected_time":5812000000000,"state":"active","ping":89},{"user_id":779,"name":"AftiksPL #femboygaming","steam_id":76561198875182686,"connected_time":499000000000,"state":"active","ping":100},{"user_id":750,"name":"kaa","steam_id":76561198044061430,"connected_time":3193000000000,"state":"active","ping":48},{"user_id":771,"name":"Sir Spankalot","steam_id":76561197999651846,"connected_time":951000000000,"state":"active","ping":108},{"user_id":754,"name":"RobTheKid","steam_id":76561198346638308,"connected_time":3159000000000,"state":"active","ping":58},{"user_id":780,"name":"Sirzen","steam_id":76561198170155434,"connected_time":456000000000,"state":"active","ping":50}]},{"server_id":320,"name":"Uncletopia | London | 3 | All Maps","name_short":"lon-3","host":"lon-1.uk.uncletopia.com","port":27035,"enabled":true,"region":"eu","cc":"gb","latitude":51.509865,"longitude":-0.118092,"reserved":0,"last_update":"0001-01-01T00:00:00Z","name_a2s":"Uncletopia | London | 3 | All Maps","protocol":17,"map":"koth_lakeside_final","folder":"tf","game":"Team Fortress","app_id":440,"player_count":0,"max_players":24,"Bots":0,"server_type":"Dedicated","server_os":"Linux","password":true,"vac":true,"version":"7757534","steam_id":85568392924510192,"keywords":["cp","nocrits","nodmgspread","uncletopia"],"game_id":440,"stv_port":27036,"stv_name":"Uncletopia | London | 3 | All Maps | STV","players":null},{"server_id":321,"name":"Uncletopia | London | 4 | All Maps","name_short":"lon-4","host":"lon-1.uk.uncletopia.com","port":27045,"enabled":true,"region":"eu","cc":"gb","latitude":51.509865,"longitude":-0.118092,"reserved":0,"last_update":"0001-01-01T00:00:00Z","name_a2s":"Uncletopia | London | 4 | All Maps","protocol":17,"map":"cp_snakewater_final1","folder":"tf","game":"Team Fortress","app_id":440,"player_count":14,"max_players":24,"Bots":0,"server_type":"Dedicated","server_os":"Linux","password":true,"vac":true,"version":"7757534","steam_id":85568392924510193,"keywords":["cp","nocrits","nodmgspread","uncletopia"],"game_id":440,"stv_port":27046,"stv_name":"Uncletopia | London | 4 | All Maps | STV","players":[{"user_id":390,"name":"Bocchi","steam_id":76561198101532240,"connected_time":588000000000,"state":"active","ping":59},{"user_id":293,"name":"Like A G6","steam_id":76561199380849468,"connected_time":7673000000000,"state":"active","ping":54},{"user_id":397,"name":"Volcyy","steam_id":76561198063979124,"connected_time":125000000000,"state":"active","ping":53},{"user_id":391,"name":"cinny","steam_id":76561198832112629,"connected_time":460000000000,"state":"active","ping":83},{"user_id":339,"name":"Fat Pigeon","steam_id":76561198817940142,"connected_time":4466000000000,"state":"active","ping":52},{"user_id":393,"name":"‚ô• Emma ‚ô•","steam_id":76561198046796406,"connected_time":351000000000,"state":"active","ping":46},{"user_id":357,"name":"Virgineer","steam_id":76561199140814522,"connected_time":2956000000000,"state":"active","ping":161},{"user_id":394,"name":"XL54M15Y","steam_id":76561198048250715,"connected_time":349000000000,"state":"active","ping":61},{"user_id":386,"name":"Bill Carr","steam_id":76561198110033943,"connected_time":1266000000000,"state":"active","ping":41},{"user_id":327,"name":"porngamer","steam_id":76561198204620491,"connected_time":5616000000000,"state":"active","ping":32},{"user_id":352,"name":"frosty","steam_id":76561198094560834,"connected_time":3478000000000,"state":"active","ping":45},{"user_id":366,"name":"‚ô• aura ‚ô•","steam_id":76561198066258544,"connected_time":2549000000000,"state":"active","ping":64},{"user_id":383,"name":"Milk","steam_id":76561198125876588,"connected_time":1380000000000,"state":"active","ping":39},{"user_id":384,"name":"MFA [pt]","steam_id":76561198021950957,"connected_time":1367000000000,"state":"active","ping":89}]},{"server_id":21,"name":"Uncletopia | London | 5 | All Maps","name_short":"lon-5","host":"lon-1.uk.uncletopia.com","port":27055,"enabled":true,"region":"eu","cc":"gb","latitude":51.509865,"longitude":-0.118092,"reserved":0,"last_update":"0001-01-01T00:00:00Z","name_a2s":"Uncletopia | London | 5 | All Maps","protocol":17,"map":"koth_highpass","folder":"tf","game":"Team Fortress","app_id":440,"player_count":2,"max_players":24,"Bots":0,"server_type":"Dedicated","server_os":"Linux","password":true,"vac":true,"version":"7757534","steam_id":85568392924742829,"keywords":["cp","nocrits","nodmgspread","uncletopia"],"game_id":440,"stv_port":27056,"stv_name":"Uncletopia | London | 5 | All Maps | STV","players":[{"user_id":79,"name":"efrasierhead","steam_id":76561198060646182,"connected_time":387000000000,"state":"active","ping":79},{"user_id":80,"name":"BrowncoatOfArms","steam_id":76561198190419622,"connected_time":307000000000,"state":"active","ping":68}]},{"server_id":22,"name":"Uncletopia | London | 6 | All Maps","name_short":"lon-6","host":"lon-1.uk.uncletopia.com","port":27065,"enabled":true,"region":"eu","cc":"gb","latitude":51.509865,"longitude":-0.118092,"reserved":0,"last_update":"0001-01-01T00:00:00Z","name_a2s":"Uncletopia | London | 6 | All Maps","protocol":17,"map":"pl_upward","folder":"tf","game":"Team Fortress","app_id":440,"player_count":23,"max_players":24,"Bots":0,"server_type":"Dedicated","server_os":"Linux","password":true,"vac":true,"version":"7757534","steam_id":85568392924742830,"keywords":["nocrits","nodmgspread","payload","uncletopia"],"game_id":440,"stv_port":27066,"stv_name":"Uncletopia | London | 6 | All Maps | STV","players":[{"user_id":544,"name":"Datenegassie","steam_id":76561198089417032,"connected_time":2438000000000,"state":"active","ping":63},{"user_id":580,"name":"Charles Darwin","steam_id":76561197973496139,"connected_time":283000000000,"state":"active","ping":60},{"user_id":574,"name":"MoeruKurowassan","steam_id":76561198319349647,"connected_time":741000000000,"state":"active","ping":85},{"user_id":575,"name":"Explosive_kink","steam_id":76561198998702838,"connected_time":656000000000,"state":"active","ping":53},{"user_id":531,"name":"Drosan „ÉÑ","steam_id":76561197960389216,"connected_time":3009000000000,"state":"active","ping":45},{"user_id":581,"name":"desnot","steam_id":76561198862581894,"connected_time":208000000000,"state":"active","ping":70},{"user_id":582,"name":"CarrotFlowers","steam_id":76561198154714698,"connected_time":203000000000,"state":"active","ping":50},{"user_id":547,"name":"splongerto","steam_id":76561198007792525,"connected_time":2295000000000,"state":"active","ping":40},{"user_id":571,"name":"blade","steam_id":76561198235739036,"connected_time":820000000000,"state":"active","ping":81},{"user_id":572,"name":"ducks","steam_id":76561198166148685,"connected_time":800000000000,"state":"active","ping":30},{"user_id":551,"name":"HilldogGaming","steam_id":76561198082209322,"connected_time":2197000000000,"state":"active","ping":112},{"user_id":569,"name":"dd","steam_id":76561198257836694,"connected_time":970000000000,"state":"active","ping":40},{"user_id":585,"name":"*Monkey Noises*","steam_id":76561198136529691,"connected_time":61000000000,"state":"active","ping":38},{"user_id":532,"name":"dEzZe „ÉÑ","steam_id":76561197960291106,"connected_time":3002000000000,"state":"active","ping":59},{"user_id":556,"name":"King Nugget","steam_id":76561198134037464,"connected_time":2076000000000,"state":"active","ping":66},{"user_id":557,"name":"the rat","steam_id":76561198079101313,"connected_time":2071000000000,"state":"active","ping":55},{"user_id":578,"name":"BepisR47","steam_id":76561198084515716,"connected_time":377000000000,"state":"active","ping":35},{"user_id":558,"name":"Minimi","steam_id":76561198873850443,"connected_time":2066000000000,"state":"active","ping":39},{"user_id":560,"name":"Scarlet","steam_id":76561198075966579,"connected_time":1981000000000,"state":"active","ping":41},{"user_id":579,"name":"Alibi","steam_id":76561198061845595,"connected_time":374000000000,"state":"active","ping":50},{"user_id":584,"name":"arcSolver","steam_id":76561198212013944,"connected_time":189000000000,"state":"active","ping":51},{"user_id":573,"name":"Choirboy (He/Hymn)","steam_id":76561198183949987,"connected_time":773000000000,"state":"active","ping":53},{"user_id":564,"name":"Mata_FM","steam_id":76561198044824504,"connected_time":1928000000000,"state":"active","ping":69}]},{"server_id":40,"name":"Uncletopia | London | 7 | No Payload","name_short":"lon-7","host":"lon-1.uk.uncletopia.com","port":27075,"enabled":true,"region":"eu","cc":"gb","latitude":51.509865,"longitude":-0.118092,"reserved":0,"last_update":"0001-01-01T00:00:00Z","name_a2s":"Uncletopia | London | 7 | No Payload","protocol":17,"map":"ctf_doublecross","folder":"tf","game":"Team Fortress","app_id":440,"player_count":0,"max_players":24,"Bots":0,"server_type":"Dedicated","server_os":"Linux","password":true,"vac":true,"version":"7757534","steam_id":85568392924964314,"keywords":["ctf","nocrits","nodmgspread","uncletopia"],"game_id":440,"stv_port":27076,"stv_name":"Uncletopia | London | 7 | No Payload | STV","players":null},{"server_id":41,"name":"Uncletopia | London | 8 | Community","name_short":"lon-8","host":"lon-1.uk.uncletopia.com","port":27085,"enabled":true,"region":"eu","cc":"gb","latitude":51.509865,"longitude":-0.118092,"reserved":0,"last_update":"0001-01-01T00:00:00Z","name_a2s":"Uncletopia | London | 8 | Community","protocol":17,"map":"pl_barnblitz","folder":"tf","game":"Team Fortress","app_id":440,"player_count":0,"max_players":24,"Bots":0,"server_type":"Dedicated","server_os":"Linux","password":true,"vac":true,"version":"7757534","steam_id":85568392924964315,"keywords":["nocrits","nodmgspread","payload","uncletopia"],"game_id":440,"stv_port":27086,"stv_name":"Uncletopia | London | 8 | Community | STV","players":null},{"server_id":300,"name":"Uncletopia | Montr√©al | 1 | All Maps","name_short":"mtl-1","host":"mtl-1.ca.uncletopia.com","port":27015,"enabled":true,"region":"us-east","cc":"ca","latitude":45.50889,"longitude":-73.56167,"reserved":0,"last_update":"0001-01-01T00:00:00Z","name_a2s":"Uncletopia | Montr√©al | 1 | All Maps","protocol":17,"map":"pl_snowycoast","folder":"tf","game":"Team Fortress","app_id":440,"player_count":0,"max_players":24,"Bots":0,"server_type":"Dedicated","server_os":"Linux","password":true,"vac":true,"version":"7757534","steam_id":85568392924500087,"keywords":["nocrits","nodmgspread","payload","uncletopia"],"game_id":440,"stv_port":27016,"stv_name":"Uncletopia | Montr√©al | 1 | All Maps | STV","players":null},{"server_id":301,"name":"Uncletopia | Montr√©al | 2 | All Maps","name_short":"mtl-2","host":"mtl-1.ca.uncletopia.com","port":27025,"enabled":true,"region":"us-east","cc":"ca","latitude":45.50889,"longitude":-73.56167,"reserved":0,"last_update":"0001-01-01T00:00:00Z","name_a2s":"Uncletopia | Montr√©al | 2 | All Maps","protocol":17,"map":"pl_snowycoast","folder":"tf","game":"Team Fortress","app_id":440,"player_count":0,"max_players":24,"Bots":0,"server_type":"Dedicated","server_os":"Linux","password":true,"vac":true,"version":"7757534","steam_id":85568392924500088,"keywords":["nocrits","nodmgspread","payload","uncletopia"],"game_id":440,"stv_port":27026,"stv_name":"Uncletopia | Montr√©al | 2 | All Maps | STV","players":null},{"server_id":302,"name":"Uncletopia | Montr√©al | 3 | All Maps","name_short":"mtl-3","host":"mtl-1.ca.uncletopia.com","port":27035,"enabled":true,"region":"us-east","cc":"ca","latitude":45.50889,"longitude":-73.56167,"reserved":0,"last_update":"0001-01-01T00:00:00Z","name_a2s":"Uncletopia | Montr√©al | 3 | All Maps","protocol":17,"map":"koth_lakeside_final","folder":"tf","game":"Team Fortress","app_id":440,"player_count":23,"max_players":24,"Bots":0,"server_type":"Dedicated","server_os":"Linux","password":true,"vac":true,"version":"7757534","steam_id":85568392924500089,"keywords":["cp","nocrits","nodmgspread","uncletopia"],"game_id":440,"stv_port":27036,"stv_name":"Uncletopia | Montr√©al | 3 | All Maps | STV","players":[{"user_id":71,"name":"Cosmic","steam_id":76561199089359491,"connected_time":1800000000000,"state":"active","ping":70},{"user_id":96,"name":"Cherry Bomb!","steam_id":76561198017947020,"connected_time":174000000000,"state":"active","ping":78},{"user_id":68,"name":"Waaagh!","steam_id":76561197995317887,"connected_time":2278000000000,"state":"active","ping":48},{"user_id":55,"name":"Ethan","steam_id":76561198371216468,"connected_time":3147000000000,"state":"active","ping":127},{"user_id":87,"name":"d-fens","steam_id":76561197969414326,"connected_time":477000000000,"state":"active","ping":45},{"user_id":57,"name":"Nyko","steam_id":76561198143197549,"connected_time":3120000000000,"state":"active","ping":68},{"user_id":99,"name":"bennett_xd","steam_id":76561198164555655,"connected_time":75000000000,"state":"active","ping":64},{"user_id":78,"name":"Fribas","steam_id":76561198138502813,"connected_time":1170000000000,"state":"active","ping":68},{"user_id":88,"name":"Shoko55","steam_id":76561198321460555,"connected_time":461000000000,"state":"active","ping":75},{"user_id":89,"name":"slack","steam_id":76561198000564263,"connected_time":431000000000,"state":"active","ping":75},{"user_id":100,"name":"faxxy","steam_id":76561198079621240,"connected_time":55000000000,"state":"active","ping":62},{"user_id":101,"name":"Oneal","steam_id":76561198026564095,"connected_time":46000000000,"state":"active","ping":48},{"user_id":70,"name":"Jesse Bear","steam_id":76561198217075305,"connected_time":1831000000000,"state":"active","ping":86},{"user_id":86,"name":"Holdie","steam_id":76561198070378200,"connected_time":529000000000,"state":"active","ping":48},{"user_id":95,"name":"Blessed_Hero","steam_id":76561198048218995,"connected_time":345000000000,"state":"active","ping":51},{"user_id":90,"name":"Amino","steam_id":76561199179006648,"connected_time":425000000000,"state":"active","ping":60},{"user_id":63,"name":"Big Dick Swinging","steam_id":76561198053819929,"connected_time":2782000000000,"state":"active","ping":105},{"user_id":91,"name":"Schmingus","steam_id":76561199476148332,"connected_time":418000000000,"state":"active","ping":108},{"user_id":92,"name":"Mako","steam_id":76561199437710547,"connected_time":389000000000,"state":"active","ping":95},{"user_id":94,"name":"lanoc","steam_id":76561198055415367,"connected_time":362000000000,"state":"active","ping":75},{"user_id":97,"name":"Kasodani Kyouko","steam_id":76561198023178589,"connected_time":174000000000,"state":"active","ping":81},{"user_id":98,"name":"SoggySardines","steam_id":76561198999605710,"connected_time":146000000000,"state":"active","ping":63},{"user_id":51,"name":"dde6khkg","steam_id":76561198042561537,"connected_time":3727000000000,"state":"active","ping":119}]},{"server_id":303,"name":"Uncletopia | Montr√©al | 4 | No Payload","name_short":"mtl-4","host":"mtl-1.ca.uncletopia.com","port":27045,"enabled":true,"region":"us-east","cc":"ca","latitude":45.50889,"longitude":-73.56167,"reserved":0,"last_update":"0001-01-01T00:00:00Z","name_a2s":"Uncletopia | Montr√©al | 4 | No Payload","protocol":17,"map":"ctf_sawmill","folder":"tf","game":"Team Fortress","app_id":440,"player_count":0,"max_players":24,"Bots":0,"server_type":"Dedicated","server_os":"Linux","password":true,"vac":true,"version":"7757534","steam_id":85568392924500090,"keywords":["ctf","nocrits","nodmgspread","uncletopia"],"game_id":440,"stv_port":27046,"stv_name":"Uncletopia | Montr√©al | 4 | No Payload | STV","players":null},{"server_id":13,"name":"Uncletopia | New York City | 1 | All Maps","name_short":"nyc-1","host":"nyc-1.us.uncletopia.com","port":27015,"enabled":true,"region":"us-east","cc":"us","latitude":40.73061,"longitude":-73.93524,"reserved":0,"last_update":"0001-01-01T00:00:00Z","name_a2s":"Uncletopia | New York City | 1 | All Maps","protocol":17,"map":"pl_pier","folder":"tf","game":"Team Fortress","app_id":440,"player_count":23,"max_players":24,"Bots":0,"server_type":"Dedicated","server_os":"Linux","password":true,"vac":true,"version":"7757534","steam_id":85568392924469993,"keywords":["nocrits","nodmgspread","payload","uncletopia"],"game_id":440,"stv_port":27016,"stv_name":"Uncletopia | New York City | 1 | All Maps | STV","players":[{"user_id":358,"name":"flappyflap2","steam_id":76561198285048973,"connected_time":6705000000000,"state":"active","ping":37},{"user_id":421,"name":"Ghost Modern Warfare 2 (2022)","steam_id":76561198116295334,"connected_time":2346000000000,"state":"active","ping":55},{"user_id":430,"name":"Red_Hatkins","steam_id":76561198214004105,"connected_time":1611000000000,"state":"active","ping":81},{"user_id":424,"name":"Knox","steam_id":76561198965045525,"connected_time":2164000000000,"state":"active","ping":183},{"user_id":409,"name":"Voodo133","steam_id":76561198042670351,"connected_time":2861000000000,"state":"active","ping":78},{"user_id":435,"name":"monke","steam_id":76561198308289194,"connected_time":1190000000000,"state":"active","ping":78},{"user_id":437,"name":"Avo","steam_id":76561197993340494,"connected_time":1036000000000,"state":"active","ping":76},{"user_id":438,"name":"Diarrhea Gaming","steam_id":76561198090589784,"connected_time":252000000000,"state":"active","ping":73},{"user_id":441,"name":"turd ferguson","steam_id":76561198071620782,"connected_time":22000000000,"state":"active","ping":61},{"user_id":383,"name":"‚ô°Alyx‚ô°","steam_id":76561198024303978,"connected_time":4510000000000,"state":"active","ping":53},{"user_id":385,"name":"Decolour","steam_id":76561199045608372,"connected_time":4478000000000,"state":"active","ping":53},{"user_id":367,"name":"Menacing Pile of Frogs","steam_id":76561198360134800,"connected_time":5600000000000,"state":"active","ping":55},{"user_id":413,"name":"NaCl","steam_id":76561199131136820,"connected_time":2793000000000,"state":"active","ping":76},{"user_id":439,"name":"crabapples","steam_id":76561198075818655,"connected_time":243000000000,"state":"active","ping":71},{"user_id":428,"name":"ma0re","steam_id":76561199231971506,"connected_time":1709000000000,"state":"active","ping":47},{"user_id":429,"name":"bingle fantano 2","steam_id":76561197997139225,"connected_time":1698000000000,"state":"active","ping":47},{"user_id":405,"name":"2003 chevy malibu","steam_id":76561199075669125,"connected_time":2988000000000,"state":"active","ping":56},{"user_id":415,"name":"„ÅÑ„Å°„Åî„Åæ„Çç","steam_id":76561198166100997,"connected_time":2758000000000,"state":"active","ping":67},{"user_id":436,"name":"wwhg","steam_id":76561198140658919,"connected_time":1155000000000,"state":"active","ping":78},{"user_id":440,"name":"Sniper","steam_id":76561199482262282,"connected_time":180000000000,"state":"active","ping":69},{"user_id":368,"name":"Strange Diplomat","steam_id":76561198428191920,"connected_time":5518000000000,"state":"active","ping":48},{"user_id":426,"name":"Dr. drippenstein","steam_id":76561198209380493,"connected_time":1915000000000,"state":"active","ping":46},{"user_id":407,"name":"pee","steam_id":76561198378503656,"connected_time":2897000000000,"state":"active","ping":63}]},{"server_id":14,"name":"Uncletopia | New York City | 2 | All Maps","name_short":"nyc-2","host":"nyc-1.us.uncletopia.com","port":27025,"enabled":true,"region":"us-east","cc":"us","latitude":40.73061,"longitude":-73.93524,"reserved":0,"last_update":"0001-01-01T00:00:00Z","name_a2s":"Uncletopia | New York City | 2 | All Maps","protocol":17,"map":"koth_highpass","folder":"tf","game":"Team Fortress","app_id":440,"player_count":20,"max_players":24,"Bots":0,"server_type":"Dedicated","server_os":"Linux","password":true,"vac":true,"version":"7757534","steam_id":85568392924469994,"keywords":["cp","nocrits","nodmgspread","uncletopia"],"game_id":440,"stv_port":27026,"stv_name":"Uncletopia | New York City | 2 | All Maps | STV","players":[{"user_id":279,"name":"Sausage-San","steam_id":76561198108634276,"connected_time":355000000000,"state":"active","ping":71},{"user_id":280,"name":"penny :]","steam_id":76561198040848362,"connected_time":341000000000,"state":"active","ping":102},{"user_id":291,"name":"Ferguson","steam_id":76561198121349387,"connected_time":38000000000,"state":"spawning","ping":67},{"user_id":283,"name":"Your Wurst Nightmare","steam_id":76561198874531590,"connected_time":266000000000,"state":"active","ping":56},{"user_id":263,"name":"...","steam_id":76561198090287626,"connected_time":1423000000000,"state":"active","ping":33},{"user_id":285,"name":"Jayy","steam_id":76561198073428094,"connected_time":98000000000,"state":"active","ping":58},{"user_id":277,"name":"flat soda","steam_id":76561198074247207,"connected_time":441000000000,"state":"active","ping":51},{"user_id":282,"name":"Suction","steam_id":76561198236786158,"connected_time":309000000000,"state":"active","ping":68},{"user_id":271,"name":"Panckakebro","steam_id":76561198106419992,"connected_time":1117000000000,"state":"active","ping":86},{"user_id":286,"name":"Saturn","steam_id":76561199239752278,"connected_time":95000000000,"state":"active","ping":70},{"user_id":288,"name":".Thomas","steam_id":76561198162759004,"connected_time":91000000000,"state":"active","ping":73},{"user_id":287,"name":"Pathara44","steam_id":76561198048238620,"connected_time":92000000000,"state":"active","ping":82},{"user_id":226,"name":"Broadway Rose","steam_id":76561198046083342,"connected_time":4102000000000,"state":"active","ping":42},{"user_id":289,"name":"carrot cake","steam_id":76561198055174915,"connected_time":68000000000,"state":"active","ping":68},{"user_id":290,"name":"Stauxie","steam_id":76561198255030077,"connected_time":64000000000,"state":"active","ping":85},{"user_id":242,"name":"primordialheath","steam_id":76561199386942638,"connected_time":2883000000000,"state":"active","ping":80},{"user_id":267,"name":"Barlon","steam_id":76561198023717515,"connected_time":1345000000000,"state":"active","ping":54},{"user_id":234,"name":"orcluvr69","steam_id":76561198068712028,"connected_time":4028000000000,"state":"active","ping":61},{"user_id":268,"name":"Dorchito","steam_id":76561198295809145,"connected_time":1328000000000,"state":"active","ping":89},{"user_id":236,"name":"Special","steam_id":76561198070380404,"connected_time":3358000000000,"state":"active","ping":44}]},{"server_id":15,"name":"Uncletopia | New York City | 3 | Stopwatch Beta","name_short":"nyc-3","host":"nyc-1.us.uncletopia.com","port":27035,"enabled":true,"region":"us-east","cc":"us","latitude":40.73061,"longitude":-73.93524,"reserved":0,"last_update":"0001-01-01T00:00:00Z","name_a2s":"Uncletopia | New York City | 3 | Stopwatch Beta","protocol":17,"map":"pl_upward","folder":"tf","game":"Team Fortress","app_id":440,"player_count":0,"max_players":24,"Bots":0,"server_type":"Dedicated","server_os":"Linux","password":true,"vac":true,"version":"7757534","steam_id":85568392924742820,"keywords":["nocrits","nodmgspread","payload","uncletopia"],"game_id":440,"stv_port":27036,"stv_name":"Uncletopia | New York City | 3 | Stopwatch Beta | STV","players":null},{"server_id":16,"name":"Uncletopia | New York City | 4 | Community","name_short":"nyc-4","host":"nyc-1.us.uncletopia.com","port":27045,"enabled":true,"region":"us-east","cc":"us","latitude":40.73061,"longitude":-73.93524,"reserved":0,"last_update":"0001-01-01T00:00:00Z","name_a2s":"Uncletopia | New York City | 4 | Community","protocol":17,"map":"pl_swiftwater_final1","folder":"tf","game":"Team Fortress","app_id":440,"player_count":0,"max_players":24,"Bots":0,"server_type":"Dedicated","server_os":"Linux","password":true,"vac":true,"version":"7757534","steam_id":85568392924742821,"keywords":["nocrits","nodmgspread","payload","uncletopia"],"game_id":440,"stv_port":27046,"stv_name":"Uncletopia | New York City | 4 | Community | STV","players":null},{"server_id":142,"name":"Uncletopia | S√£o Paulo | 1 | All Maps","name_short":"sao-1","host":"sao-1.br.uncletopia.com","port":27015,"enabled":true,"region":"sa","cc":"br","latitude":-23.533773,"longitude":-46.62529,"reserved":0,"last_update":"0001-01-01T00:00:00Z","name_a2s":"Uncletopia | S√£o Paulo | 1 | All Maps","protocol":17,"map":"koth_lakeside_final","folder":"tf","game":"Team Fortress","app_id":440,"player_count":0,"max_players":24,"Bots":0,"server_type":"Dedicated","server_os":"Linux","password":true,"vac":true,"version":"7757534","steam_id":85568392924469996,"keywords":["cp","nocrits","nodmgspread","uncletopia"],"game_id":440,"stv_port":27016,"stv_name":"Uncletopia | S√£o Paulo | 1 | All Maps | STV","players":null},{"server_id":143,"name":"Uncletopia | S√£o Paulo | 2 | All Maps","name_short":"sao-2","host":"sao-2.br.uncletopia.com","port":27015,"enabled":true,"region":"sa","cc":"br","latitude":-23.533773,"longitude":-46.62529,"reserved":0,"last_update":"0001-01-01T00:00:00Z","name_a2s":"Uncletopia | S√£o Paulo | 2 | All Maps","protocol":17,"map":"koth_highpass","folder":"tf","game":"Team Fortress","app_id":440,"player_count":0,"max_players":24,"Bots":0,"server_type":"Dedicated","server_os":"Linux","password":true,"vac":true,"version":"7757534","steam_id":85568392924485349,"keywords":["cp","nocrits","nodmgspread","uncletopia"],"game_id":440,"stv_port":27016,"stv_name":"Uncletopia | S√£o Paulo | 2 | All Maps | STV","players":null},{"server_id":7,"name":"Uncletopia | Seattle | 1 | All Maps","name_short":"sea-1","host":"sea-1.us.uncletopia.com","port":27015,"enabled":true,"region":"us-west","cc":"us","latitude":47.608013,"longitude":-122.33517,"reserved":0,"last_update":"0001-01-01T00:00:00Z","name_a2s":"Uncletopia | Seattle | 1 | All Maps","protocol":17,"map":"pl_badwater","folder":"tf","game":"Team Fortress","app_id":440,"player_count":23,"max_players":24,"Bots":0,"server_type":"Dedicated","server_os":"Linux","password":true,"vac":true,"version":"7757534","steam_id":85568392924469997,"keywords":["nocrits","nodmgspread","payload","uncletopia"],"game_id":440,"stv_port":27016,"stv_name":"Uncletopia | Seattle | 1 | All Maps | STV","players":[{"user_id":449,"name":"Depths","steam_id":76561198343435310,"connected_time":1149000000000,"state":"active","ping":71},{"user_id":447,"name":"DennethThaThinather","steam_id":76561198098121768,"connected_time":1390000000000,"state":"active","ping":60},{"user_id":430,"name":"liliLovesUnicorns83","steam_id":76561199391478575,"connected_time":2997000000000,"state":"active","ping":73},{"user_id":460,"name":"NOT FRIENDLY","steam_id":76561198041327231,"connected_time":57000000000,"state":"active","ping":55},{"user_id":461,"name":"Wso1123","steam_id":76561198048040111,"connected_time":56000000000,"state":"active","ping":46},{"user_id":438,"name":"lpdinobd","steam_id":76561198926251812,"connected_time":2317000000000,"state":"active","ping":116},{"user_id":440,"name":"toes","steam_id":76561198221151676,"connected_time":2006000000000,"state":"active","ping":58},{"user_id":324,"name":"ejschild745","steam_id":76561199013388867,"connected_time":10565000000000,"state":"active","ping":74},{"user_id":441,"name":"gr0tt4 2i2y","steam_id":76561198165567310,"connected_time":1982000000000,"state":"active","ping":118},{"user_id":442,"name":"CulleY Man","steam_id":76561199062966834,"connected_time":1922000000000,"state":"active","ping":63},{"user_id":426,"name":"R.Mop‚Ñ¢","steam_id":76561198082879210,"connected_time":3527000000000,"state":"active","ping":59},{"user_id":443,"name":"mrhazman","steam_id":76561198040467069,"connected_time":1913000000000,"state":"active","ping":58},{"user_id":454,"name":"Cottontail","steam_id":76561198213634567,"connected_time":94000000000,"state":"active","ping":79},{"user_id":414,"name":"Username","steam_id":76561198855586261,"connected_time":4209000000000,"state":"active","ping":62},{"user_id":448,"name":"Skabbety","steam_id":76561198168044257,"connected_time":1311000000000,"state":"active","ping":31},{"user_id":455,"name":"Goat","steam_id":76561198130683707,"connected_time":94000000000,"state":"active","ping":77},{"user_id":450,"name":"‚ô• Milo Stefferson ‚ô• (Soupca","steam_id":76561198056269538,"connected_time":636000000000,"state":"active","ping":56},{"user_id":458,"name":"Fh","steam_id":76561198000903511,"connected_time":81000000000,"state":"active","ping":61},{"user_id":395,"name":"Puppermint Latte","steam_id":76561198076054697,"connected_time":5680000000000,"state":"active","ping":87},{"user_id":456,"name":"Super Perfect Cell","steam_id":76561198271939793,"connected_time":93000000000,"state":"active","ping":46},{"user_id":452,"name":"SirJellyRolls","steam_id":76561198119277244,"connected_time":549000000000,"state":"active","ping":64},{"user_id":435,"name":"Wavelengths (they/it)","steam_id":76561197997621320,"connected_time":2605000000000,"state":"active","ping":98},{"user_id":459,"name":"mega","steam_id":76561198089520959,"connected_time":81000000000,"state":"active","ping":110}]},{"server_id":119,"name":"Uncletopia | Seattle | 2 | All Maps","name_short":"sea-2","host":"sea-1.us.uncletopia.com","port":27025,"enabled":true,"region":"us-west","cc":"us","latitude":47.608013,"longitude":-122.33517,"reserved":0,"last_update":"0001-01-01T00:00:00Z","name_a2s":"Uncletopia | Seattle | 2 | All Maps","protocol":17,"map":"cp_dustbowl","folder":"tf","game":"Team Fortress","app_id":440,"player_count":23,"max_players":24,"Bots":0,"server_type":"Dedicated","server_os":"Linux","password":true,"vac":true,"version":"7757534","steam_id":85568392924469998,"keywords":["cp","nocrits","nodmgspread","uncletopia"],"game_id":440,"stv_port":27026,"stv_name":"Uncletopia | Seattle | 2 | All Maps | STV","players":[{"user_id":203,"name":"fox news goblin","steam_id":76561198167648580,"connected_time":98000000000,"state":"active","ping":75},{"user_id":150,"name":"luiggi (that's me)","steam_id":76561199111418221,"connected_time":3317000000000,"state":"active","ping":31},{"user_id":102,"name":"Bubbamanme","steam_id":76561198119778504,"connected_time":9888000000000,"state":"active","ping":52},{"user_id":175,"name":"Goose","steam_id":76561198036774894,"connected_time":1259000000000,"state":"active","ping":45},{"user_id":167,"name":"sunflowerofwar","steam_id":76561198940058271,"connected_time":2242000000000,"state":"active","ping":99},{"user_id":184,"name":"Cob","steam_id":76561198042518365,"connected_time":1025000000000,"state":"active","ping":61},{"user_id":174,"name":"Agent86","steam_id":76561198046794593,"connected_time":1278000000000,"state":"active","ping":111},{"user_id":204,"name":"arsenic","steam_id":76561198176391550,"connected_time":95000000000,"state":"active","ping":67},{"user_id":201,"name":"blossom","steam_id":76561198042735130,"connected_time":108000000000,"state":"active","ping":60},{"user_id":192,"name":"Festive Bastard (She/her)","steam_id":76561198094512904,"connected_time":411000000000,"state":"active","ping":95},{"user_id":199,"name":"deeply","steam_id":76561199000786530,"connected_time":144000000000,"state":"active","ping":79},{"user_id":194,"name":"OttoDogX","steam_id":76561198042007578,"connected_time":342000000000,"state":"active","ping":76},{"user_id":207,"name":"Stale Bread","steam_id":76561198085618127,"connected_time":13000000000,"state":"spawning","ping":62},{"user_id":190,"name":"Anomalocaris Gay Ming","steam_id":76561198257921898,"connected_time":467000000000,"state":"active","ping":76},{"user_id":198,"name":"Juicy Duce","steam_id":76561198061088803,"connected_time":234000000000,"state":"active","ping":143},{"user_id":188,"name":"Kyna._","steam_id":76561198142758338,"connected_time":604000000000,"state":"active","ping":72},{"user_id":181,"name":"shy guy","steam_id":76561198151246059,"connected_time":1143000000000,"state":"active","ping":101},{"user_id":206,"name":"M9 Shyamalan","steam_id":76561198149425560,"connected_time":76000000000,"state":"active","ping":89},{"user_id":160,"name":"SuperFresh","steam_id":76561198200723198,"connected_time":2768000000000,"state":"active","ping":93},{"user_id":143,"name":"ImChom","steam_id":76561198970425609,"connected_time":4875000000000,"state":"active","ping":65},{"user_id":170,"name":"Naffers","steam_id":76561198195957335,"connected_time":1487000000000,"state":"active","ping":45},{"user_id":162,"name":"Artyom","steam_id":76561198152149679,"connected_time":2732000000000,"state":"active","ping":42},{"user_id":164,"name":"Saint Laurent Don","steam_id":76561198116820706,"connected_time":2541000000000,"state":"active","ping":72}]},{"server_id":406,"name":"Uncletopia | Seattle | 3 | Stopwatch Beta","name_short":"sea-3","host":"sea-1.us.uncletopia.com","port":27035,"enabled":true,"region":"us-west","cc":"us","latitude":47.608013,"longitude":-122.33517,"reserved":0,"last_update":"0001-01-01T00:00:00Z","name_a2s":"Uncletopia | Seattle | 3 | Stopwatch Beta","protocol":17,"map":"workshop/pl_barnblitz_pro7.ugc582280235","folder":"tf","game":"Team Fortress","app_id":440,"player_count":0,"max_players":24,"Bots":0,"server_type":"Dedicated","server_os":"Linux","password":true,"vac":true,"version":"7757534","steam_id":85568392924515217,"keywords":["nocrits","nodmgspread","payload","uncletopia"],"game_id":440,"stv_port":27036,"stv_name":"Uncletopia | Seattle | 3 | Stopwatch Beta | STV","players":null},{"server_id":17,"name":"Uncletopia | San Francisco | 1 | All Maps","name_short":"sfo-1","host":"sfo-1.us.uncletopia.com","port":27015,"enabled":true,"region":"us-west","cc":"us","latitude":37.77397,"longitude":-122.4313,"reserved":0,"last_update":"0001-01-01T00:00:00Z","name_a2s":"Uncletopia | San Francisco | 1 | All Maps","protocol":17,"map":"koth_viaduct","folder":"tf","game":"Team Fortress","app_id":440,"player_count":0,"max_players":24,"Bots":0,"server_type":"Dedicated","server_os":"Linux","password":true,"vac":true,"version":"7757534","steam_id":85568392924469999,"keywords":["cp","nocrits","nodmgspread","uncletopia"],"game_id":440,"stv_port":27016,"stv_name":"Uncletopia | San Francisco | 1 | All Maps | STV","players":null},{"server_id":18,"name":"Uncletopia | San Francisco | 2 | All Maps","name_short":"sfo-2","host":"sfo-1.us.uncletopia.com","port":27025,"enabled":true,"region":"us-west","cc":"us","latitude":37.77397,"longitude":-122.4313,"reserved":0,"last_update":"0001-01-01T00:00:00Z","name_a2s":"Uncletopia | San Francisco | 2 | All Maps","protocol":17,"map":"koth_highpass","folder":"tf","game":"Team Fortress","app_id":440,"player_count":0,"max_players":24,"Bots":0,"server_type":"Dedicated","server_os":"Linux","password":true,"vac":true,"version":"7757534","steam_id":85568392924470000,"keywords":["cp","nocrits","nodmgspread","uncletopia"],"game_id":440,"stv_port":27026,"stv_name":"Uncletopia | San Francisco | 2 | All Maps | STV","players":null},{"server_id":19,"name":"Uncletopia | San Francisco | 3 | Stopwatch Beta","name_short":"sfo-3","host":"sfo-1.us.uncletopia.com","port":27035,"enabled":true,"region":"us-west","cc":"us","latitude":37.77397,"longitude":-122.4313,"reserved":0,"last_update":"0001-01-01T00:00:00Z","name_a2s":"Uncletopia | San Francisco | 3 | Stopwatch Beta","protocol":17,"map":"workshop/pl_barnblitz_pro7.ugc582280235","folder":"tf","game":"Team Fortress","app_id":440,"player_count":0,"max_players":24,"Bots":0,"server_type":"Dedicated","server_os":"Linux","password":true,"vac":true,"version":"7757534","steam_id":85568392924742824,"keywords":["nocrits","nodmgspread","payload","uncletopia"],"game_id":440,"stv_port":27036,"stv_name":"Uncletopia | San Francisco | 3 | Stopwatch Beta | STV","players":null},{"server_id":20,"name":"Uncletopia | San Francisco | 4 | Community","name_short":"sfo-4","host":"sfo-1.us.uncletopia.com","port":27045,"enabled":true,"region":"us-west","cc":"us","latitude":37.77397,"longitude":-122.4313,"reserved":0,"last_update":"0001-01-01T00:00:00Z","name_a2s":"Uncletopia | San Francisco | 4 | Community","protocol":17,"map":"workshop/koth_product_final.ugc454272353","folder":"tf","game":"Team Fortress","app_id":440,"player_count":0,"max_players":24,"Bots":0,"server_type":"Dedicated","server_os":"Linux","password":true,"vac":true,"version":"7757534","steam_id":85568392924742826,"keywords":["cp","nocrits","nodmgspread","uncletopia"],"game_id":440,"stv_port":27046,"stv_name":"Uncletopia | San Francisco | 4 | Community | STV","players":null},{"server_id":141,"name":"Uncletopia | Sydney | 1 | All Maps","name_short":"syd-1","host":"syd-1.au.uncletopia.com","port":27015,"enabled":true,"region":"au","cc":"au","latitude":-33.865143,"longitude":151.2099,"reserved":0,"last_update":"0001-01-01T00:00:00Z","name_a2s":"Uncletopia | Sydney | 1 | All Maps","protocol":17,"map":"cp_altitude","folder":"tf","game":"Team Fortress","app_id":440,"player_count":5,"max_players":24,"Bots":0,"server_type":"Dedicated","server_os":"Linux","password":true,"vac":true,"version":"7757534","steam_id":85568392924470001,"keywords":["cp","nocrits","nodmgspread","uncletopia"],"game_id":440,"stv_port":27016,"stv_name":"Uncletopia | Sydney | 1 | All Maps | STV","players":[{"user_id":8,"name":"FrozenPopcorn24","steam_id":76561199431867051,"connected_time":1755000000000,"state":"active","ping":315},{"user_id":13,"name":"Amphy","steam_id":76561197991162424,"connected_time":1162000000000,"state":"active","ping":51},{"user_id":22,"name":"mc.sleek","steam_id":76561198057602720,"connected_time":267000000000,"state":"active","ping":70},{"user_id":15,"name":"The Bisoneer Tf2","steam_id":76561199446773766,"connected_time":963000000000,"state":"active","ping":91},{"user_id":19,"name":"hlxy","steam_id":76561198010576179,"connected_time":680000000000,"state":"active","ping":66}]},{"server_id":123,"name":"Uncletopia | Sydney | 2 | All Maps","name_short":"syd-2","host":"syd-1.au.uncletopia.com","port":27025,"enabled":true,"region":"au","cc":"au","latitude":-33.865143,"longitude":151.2099,"reserved":0,"last_update":"0001-01-01T00:00:00Z","name_a2s":"Uncletopia | Sydney | 2 | All Maps","protocol":17,"map":"cp_process_final","folder":"tf","game":"Team Fortress","app_id":440,"player_count":0,"max_players":24,"Bots":0,"server_type":"Dedicated","server_os":"Linux","password":true,"vac":true,"version":"7757534","steam_id":85568392924470002,"keywords":["cp","nocrits","nodmgspread","uncletopia"],"game_id":440,"stv_port":27026,"stv_name":"Uncletopia | Sydney | 2 | All Maps | STV","players":null},{"server_id":395,"name":"Uncletopia | Sydney | 3 | All Maps","name_short":"syd-3","host":"syd-1.au.uncletopia.com","port":27035,"enabled":true,"region":"au","cc":"au","latitude":-33.865143,"longitude":151.2099,"reserved":0,"last_update":"0001-01-01T00:00:00Z","name_a2s":"Uncletopia | Sydney | 3 | All Maps","protocol":17,"map":"pl_swiftwater_final1","folder":"tf","game":"Team Fortress","app_id":440,"player_count":0,"max_players":24,"Bots":0,"server_type":"Dedicated","server_os":"Linux","password":true,"vac":true,"version":"7757534","steam_id":85568392925194467,"keywords":["nocrits","nodmgspread","payload","uncletopia"],"game_id":440,"stv_port":27036,"stv_name":"Uncletopia | Sydney | 3 | All Maps | STV","players":null},{"server_id":396,"name":"Uncletopia | Sydney | 4 | All Maps","name_short":"syd-4","host":"syd-1.au.uncletopia.com","port":27045,"enabled":true,"region":"au","cc":"au","latitude":-33.865143,"longitude":151.2099,"reserved":0,"last_update":"0001-01-01T00:00:00Z","name_a2s":"Uncletopia | Sydney | 4 | All Maps","protocol":17,"map":"koth_highpass","folder":"tf","game":"Team Fortress","app_id":440,"player_count":0,"max_players":24,"Bots":0,"server_type":"Dedicated","server_os":"Linux","password":true,"vac":true,"version":"7757534","steam_id":85568392925397958,"keywords":["cp","nocrits","nodmgspread","uncletopia"],"game_id":440,"stv_port":27046,"stv_name":"Uncletopia | Sydney | 4 | All Maps | STV","players":null},{"server_id":58,"name":"Uncletopia | Sydney | 5 | Stopwatch Beta","name_short":"syd-5","host":"syd-1.au.uncletopia.com","port":27055,"enabled":true,"region":"au","cc":"au","latitude":-33.865143,"longitude":151.2099,"reserved":0,"last_update":"0001-01-01T00:00:00Z","name_a2s":"Uncletopia | Sydney | 5 | Stopwatch Beta","protocol":17,"map":"koth_cascade","folder":"tf","game":"Team Fortress","app_id":440,"player_count":0,"max_players":24,"Bots":0,"server_type":"Dedicated","server_os":"Linux","password":true,"vac":true,"version":"7757534","steam_id":85568392925397959,"keywords":["cp","nocrits","nodmgspread","uncletopia"],"game_id":440,"stv_port":27056,"stv_name":"Uncletopia | Sydney | 5 | Stopwatch Beta | STV","players":null},{"server_id":59,"name":"Uncletopia | Sydney | 6 | Community","name_short":"syd-6","host":"syd-1.au.uncletopia.com","port":27065,"enabled":true,"region":"au","cc":"au","latitude":-33.865143,"longitude":151.2099,"reserved":0,"last_update":"0001-01-01T00:00:00Z","name_a2s":"Uncletopia | Sydney | 6 | Community","protocol":17,"map":"workshop/pl_corrode_rc2.ugc546577989","folder":"tf","game":"Team Fortress","app_id":440,"player_count":0,"max_players":24,"Bots":0,"server_type":"Dedicated","server_os":"Linux","password":true,"vac":true,"version":"7757534","steam_id":85568392925397960,"keywords":["nocrits","nodmgspread","payload","uncletopia"],"game_id":440,"stv_port":27066,"stv_name":"Uncletopia | Sydney | 6 | Community | STV","players":null},{"server_id":49,"name":"Uncletopia | Warsaw | 1 | All Maps","name_short":"waw-1","host":"waw-1.pl.uncletopia.com","port":27015,"enabled":true,"region":"eu","cc":"pl","latitude":52.2297,"longitude":21.017532,"reserved":0,"last_update":"0001-01-01T00:00:00Z","name_a2s":"","protocol":0,"map":"","folder":"","game":"","app_id":0,"player_count":0,"max_players":0,"Bots":0,"server_type":"","server_os":"","password":false,"vac":false,"version":"","steam_id":0,"keywords":null,"game_id":0,"stv_port":0,"stv_name":"","players":null},{"server_id":50,"name":"Uncletopia | Warsaw | 2 | All Maps","name_short":"waw-2","host":"waw-1.pl.uncletopia.com","port":27025,"enabled":true,"region":"eu","cc":"pl","latitude":52.2297,"longitude":21.017532,"reserved":0,"last_update":"0001-01-01T00:00:00Z","name_a2s":"Uncletopia | Warsaw | 2 | All Maps","protocol":17,"map":"cp_sunshine","folder":"tf","game":"Team Fortress","app_id":440,"player_count":0,"max_players":24,"Bots":0,"server_type":"Dedicated","server_os":"Linux","password":true,"vac":true,"version":"7757534","steam_id":85568392925397851,"keywords":["cp","nocrits","nodmgspread","uncletopia"],"game_id":440,"stv_port":27026,"stv_name":"Uncletopia | Warsaw | 2 | All Maps | STV","players":null},{"server_id":51,"name":"Uncletopia | Warsaw | 3 | All Maps","name_short":"waw-3","host":"waw-1.pl.uncletopia.com","port":27035,"enabled":true,"region":"eu","cc":"pl","latitude":52.2297,"longitude":21.017532,"reserved":0,"last_update":"0001-01-01T00:00:00Z","name_a2s":"Uncletopia | Warsaw | 3 | All Maps","protocol":17,"map":"koth_cascade","folder":"tf","game":"Team Fortress","app_id":440,"player_count":0,"max_players":24,"Bots":0,"server_type":"Dedicated","server_os":"Linux","password":true,"vac":true,"version":"7757534","steam_id":85568392925397852,"keywords":["cp","nocrits","nodmgspread","uncletopia"],"game_id":440,"stv_port":27036,"stv_name":"Uncletopia | Warsaw | 3 | All Maps | STV","players":null},{"server_id":52,"name":"Uncletopia | Warsaw | 4 | All Maps","name_short":"waw-4","host":"waw-1.pl.uncletopia.com","port":27045,"enabled":true,"region":"eu","cc":"pl","latitude":52.2297,"longitude":21.017532,"reserved":0,"last_update":"0001-01-01T00:00:00Z","name_a2s":"Uncletopia | Warsaw | 4 | All Maps","protocol":17,"map":"koth_lakeside_final","folder":"tf","game":"Team Fortress","app_id":440,"player_count":0,"max_players":24,"Bots":0,"server_type":"Dedicated","server_os":"Linux","password":true,"vac":true,"version":"7757534","steam_id":85568392925397853,"keywords":["cp","nocrits","nodmgspread","uncletopia"],"game_id":440,"stv_port":27046,"stv_name":"Uncletopia | Warsaw | 4 | All Maps | STV","players":null},{"server_id":53,"name":"Uncletopia | Warsaw | 5 | Stopwatch Beta","name_short":"waw-5","host":"waw-1.pl.uncletopia.com","port":27055,"enabled":true,"region":"eu","cc":"pl","latitude":52.2297,"longitude":21.017532,"reserved":0,"last_update":"0001-01-01T00:00:00Z","name_a2s":"Uncletopia | Warsaw | 5 | Stopwatch Beta","protocol":17,"map":"pl_borneo","folder":"tf","game":"Team Fortress","app_id":440,"player_count":0,"max_players":24,"Bots":0,"server_type":"Dedicated","server_os":"Linux","password":true,"vac":true,"version":"7757534","steam_id":85568392925397854,"keywords":["nocrits","nodmgspread","payload","uncletopia"],"game_id":440,"stv_port":27056,"stv_name":"Uncletopia | Warsaw | 5 | Stopwatch Beta | STV","players":null},{"server_id":54,"name":"Uncletopia | Warsaw | 6 | Community","name_short":"waw-6","host":"waw-1.pl.uncletopia.com","port":27065,"enabled":true,"region":"eu","cc":"pl","latitude":52.2297,"longitude":21.017532,"reserved":0,"last_update":"0001-01-01T00:00:00Z","name_a2s":"Uncletopia | Warsaw | 6 | Community","protocol":17,"map":"koth_lakeside_final","folder":"tf","game":"Team Fortress","app_id":440,"player_count":0,"max_players":24,"Bots":0,"server_type":"Dedicated","server_os":"Linux","password":true,"vac":true,"version":"7757534","steam_id":85568392925397856,"keywords":["cp","nocrits","nodmgspread","uncletopia"],"game_id":440,"stv_port":27066,"stv_name":"Uncletopia | Warsaw | 6 | Community | STV","players":null}]}