{"status":true,"message":"","result":[{"server_id":9,"name":"Uncletopia | Atlanta | 1 | All Maps","name_short":"atl-1","host":"atl-1.us.uncletopia.com","port":27015,"enabled":true,"region":"us-east","cc":"us","latitude":33.753746,"longitude":-84.38633,"reserved":0,"last_update":"0001-01-01T00:00:00Z","name_a2s":"Uncletopia | Atlanta | 1 | All Maps","protocol":17,"map":"cp_snakewater_final1","folder":"tf","game":"Team Fortress","app_id":440,"player_count":0,"max_players":24,"Bots":0,"server_type":"Dedicated","server_os":"Linux","password":true,"vac":true,"version":"7757534","steam_id":85568392924469982,"keywords":["cp","nocrits","nodmgspread","uncletopia"],"game_id":440,"stv_port":27016,"stv_name":"Uncletopia | Atlanta | 1 | All Maps | STV","players":null},{"server_id":400,"name":"Uncletopia | Atlanta | 3 | Community","name_short":"atl-3","host":"atl-1.us.uncletopia.com","port":27035,"enabled":true,"region":"us-east","cc":"us","latitude":33.753746,"longitude":-84.38633,"reserved":0,"last_update":"0001-01-01T00:00:00Z","name_a2s":"Uncletopia | Atlanta | 3 | Community","protocol":17,"map":"workshop/pl_cactuscanyon_redux_rc4b.ugc2579644293","folder":"tf","game":"Team Fortress","app_id":440,"player_count":17,"max_players":24,"Bots":0,"server_type":"Dedicated","server_os":"Linux","password":true,"vac":true,"version":"7757534","steam_id":85568392924515187,"keywords":["nocrits","nodmgspread","payload","uncletopia"],"game_id":440,"stv_port":27036,"stv_name":"Uncletopia | Atlanta | 3 | Community | STV","players":[{"user_id":307,"name":"Mr. Boobies","steam_id":76561198095961536,"connected_time":659000000000,"state":"active","ping":46},{"user_id":308,"name":"Laelaps","steam_id":76561198100061416,"connected_time":520000000000,"state":"active","ping":53},{"user_id":295,"name":"Hitlinemoss","steam_id":76561198155435669,"connected_time":1913000000000,"state":"active","ping":71},{"user_id":309,"name":"bad trip jack","steam_id":76561198160521020,"connected_time":451000000000,"state":"active","ping":52},{"user_id":299,"name":"Dzhoshua","steam_id":76561198071915251,"connected_time":1328000000000,"state":"active","ping":86},{"user_id":89,"name":"Calypso","steam_id":76561198082939544,"connected_time":15110000000000,"state":"active","ping":115},{"user_id":300,"name":"Shichinitzi","steam_id":76561198003833732,"connected_time":1270000000000,"state":"active","ping":79},{"user_id":301,"name":"Merry Momo45867","steam_id":76561198190042470,"connected_time":1228000000000,"state":"active","ping":55},{"user_id":274,"name":"promenade","steam_id":76561198060021258,"connected_time":3561000000000,"state":"active","ping":112},{"user_id":282,"name":"AYE","steam_id":76561198181368101,"connected_time":3016000000000,"state":"active","ping":155},{"user_id":312,"name":"Godfinger","steam_id":76561198426346549,"connected_time":251000000000,"state":"active","ping":48},{"user_id":287,"name":"waterdog","steam_id":76561198145791169,"connected_time":2418000000000,"state":"active","ping":78},{"user_id":271,"name":"The Engie","steam_id":76561198049418537,"connected_time":3776000000000,"state":"active","ping":86},{"user_id":315,"name":"Brendan","steam_id":76561198041079914,"connected_time":81000000000,"state":"active","ping":61},{"user_id":277,"name":"Xyvanereth","steam_id":76561198844137326,"connected_time":3520000000000,"state":"active","ping":120},{"user_id":313,"name":"tani","steam_id":76561198137381904,"connected_time":237000000000,"state":"active","ping":120},{"user_id":314,"name":"Spinch","steam_id":76561198296224166,"connected_time":167000000000,"state":"active","ping":76}]},{"server_id":401,"name":"Uncletopia | Atlanta | 4 | No Payload","name_short":"atl-4","host":"atl-1.us.uncletopia.com","port":27045,"enabled":true,"region":"us-east","cc":"us","latitude":33.753746,"longitude":-84.38633,"reserved":0,"last_update":"0001-01-01T00:00:00Z","name_a2s":"","protocol":0,"map":"","folder":"","game":"","app_id":0,"player_count":0,"max_players":0,"Bots":0,"server_type":"","server_os":"","password":false,"vac":false,"version":"","steam_id":0,"keywords":null,"game_id":0,"stv_port":0,"stv_name":"","players":null},{"server_id":2,"name":"Uncletopia | Chicago | 1 | All Maps","name_short":"chi-1","host":"chi-1.us.uncletopia.com","port":27015,"enabled":true,"region":"us-central","cc":"us","latitude":41.881832,"longitude":-87.62318,"reserved":0,"last_update":"0001-01-01T00:00:00Z","name_a2s":"Uncletopia | Chicago | 1 | All Maps","protocol":17,"map":"pl_upward","folder":"tf","game":"Team Fortress","app_id":440,"player_count":25,"max_players":24,"Bots":0,"server_type":"Dedicated","server_os":"Linux","password":true,"vac":true,"version":"7757534","steam_id":85568392924469984,"keywords":["nocrits","nodmgspread","payload","uncletopia"],"game_id":440,"stv_port":27016,"stv_name":"Uncletopia | Chicago | 1 | All Maps | STV","players":[{"user_id":953,"name":"j4miecl4rk","steam_id":76561198404312721,"connected_time":2815000000000,"state":"active","ping":56},{"user_id":1000,"name":"CrossFire","steam_id":76561198005437496,"connected_time":83000000000,"state":"active","ping":98},{"user_id":968,"name":"SCARY MONSTERS","steam_id":76561198042034176,"connected_time":1708000000000,"state":"active","ping":60},{"user_id":990,"name":"Goku","steam_id":76561198064143198,"connected_time":381000000000,"state":"active","ping":52},{"user_id":992,"name":"cart simpson","steam_id":76561198047689205,"connected_time":185000000000,"state":"active","ping":45},{"user_id":988,"name":"Ducter","steam_id":76561198085369908,"connected_time":656000000000,"state":"active","ping":59},{"user_id":993,"name":"meat-case","steam_id":76561198202183768,"connected_time":184000000000,"state":"active","ping":81},{"user_id":994,"name":"CalThePal","steam_id":76561198084842126,"connected_time":184000000000,"state":"active","ping":137},{"user_id":976,"name":"Moffein","steam_id":76561198016739296,"connected_time":1450000000000,"state":"active","ping":97},{"user_id":951,"name":"tj3002rocks","steam_id":76561199017921546,"connected_time":2960000000000,"state":"active","ping":80},{"user_id":999,"name":"Vanny","steam_id":76561198297961039,"connected_time":110000000000,"state":"connecting","ping":0},{"user_id":975,"name":"Jupiter","steam_id":76561198181315681,"connected_time":1510000000000,"state":"active","ping":63},{"user_id":987,"name":"FluttButt","steam_id":76561198218446556,"connected_time":861000000000,"state":"active","ping":87},{"user_id":957,"name":"Antony Bologne","steam_id":76561198249274908,"connected_time":2672000000000,"state":"active","ping":109},{"user_id":958,"name":"Naniko","steam_id":76561198068221609,"connected_time":2662000000000,"state":"active","ping":73},{"user_id":959,"name":"Zae","steam_id":76561198075763406,"connected_time":2602000000000,"state":"active","ping":85},{"user_id":947,"name":"Sakiayuo","steam_id":76561198055408083,"connected_time":3242000000000,"state":"active","ping":71},{"user_id":979,"name":"Monky joe","steam_id":76561197982555224,"connected_time":1314000000000,"state":"active","ping":98},{"user_id":980,"name":"Bob","steam_id":76561198388535122,"connected_time":1310000000000,"state":"active","ping":53},{"user_id":997,"name":"CrabCake","steam_id":76561198347241343,"connected_time":154000000000,"state":"active","ping":68},{"user_id":984,"name":"aaron","steam_id":76561198308883028,"connected_time":1095000000000,"state":"active","ping":109},{"user_id":998,"name":"Jaden W","steam_id":76561198169907225,"connected_time":154000000000,"state":"active","ping":89},{"user_id":986,"name":"i am off oxycontins","steam_id":76561198389005732,"connected_time":1056000000000,"state":"active","ping":94},{"user_id":966,"name":"goblino","steam_id":76561198068260422,"connected_time":2331000000000,"state":"active","ping":50},{"user_id":1001,"name":"ZoranTheBear","steam_id":76561198026500247,"connected_time":73000000000,"state":"active","ping":77}]},{"server_id":106,"name":"Uncletopia | Chicago | 2 | All Maps","name_short":"chi-2","host":"chi-1.us.uncletopia.com","port":27025,"enabled":true,"region":"us-central","cc":"us","latitude":41.881832,"longitude":-87.62318,"reserved":0,"last_update":"0001-01-01T00:00:00Z","name_a2s":"Uncletopia | Chicago | 2 | All Maps","protocol":17,"map":"pl_goldrush","folder":"tf","game":"Team Fortress","app_id":440,"player_count":24,"max_players":24,"Bots":0,"server_type":"Dedicated","server_os":"Linux","password":true,"vac":true,"version":"7757534","steam_id":85568392924469985,"keywords":["nocrits","nodmgspread","payload","uncletopia"],"game_id":440,"stv_port":27026,"stv_name":"Uncletopia | Chicago | 2 | All Maps | STV","players":[{"user_id":579,"name":"AngryBurrito","steam_id":76561197972778702,"connected_time":302000000000,"state":"active","ping":149},{"user_id":564,"name":"-BRH- Tangled up in Bluegrass","steam_id":76561197987181139,"connected_time":1447000000000,"state":"active","ping":67},{"user_id":549,"name":"xMystic_Fire","steam_id":76561198189961543,"connected_time":2560000000000,"state":"active","ping":86},{"user_id":527,"name":"fat little fatty","steam_id":76561198067773904,"connected_time":4081000000000,"state":"active","ping":76},{"user_id":576,"name":"Honest Tunnel Salesman","steam_id":76561198059071100,"connected_time":390000000000,"state":"active","ping":68},{"user_id":534,"name":"『Lemon_AIDS』","steam_id":76561198297523286,"connected_time":3773000000000,"state":"active","ping":54},{"user_id":546,"name":"punaise","steam_id":76561198095105411,"connected_time":3383000000000,"state":"active","ping":71},{"user_id":551,"name":"madverbage","steam_id":76561199465219234,"connected_time":2541000000000,"state":"active","ping":72},{"user_id":570,"name":"Golden Robot","steam_id":76561198149576075,"connected_time":633000000000,"state":"active","ping":85},{"user_id":577,"name":"gNarNar","steam_id":76561197994505205,"connected_time":351000000000,"state":"active","ping":70},{"user_id":553,"name":"ToughGuy311","steam_id":76561198131458027,"connected_time":2403000000000,"state":"active","ping":70},{"user_id":567,"name":"Vulpes","steam_id":76561198038929334,"connected_time":797000000000,"state":"active","ping":56},{"user_id":566,"name":"Fantastic","steam_id":76561198079088978,"connected_time":1257000000000,"state":"active","ping":45},{"user_id":548,"name":"Chemo","steam_id":76561197961308370,"connected_time":2797000000000,"state":"active","ping":69},{"user_id":547,"name":"f1bg","steam_id":76561199107952644,"connected_time":2849000000000,"state":"active","ping":59},{"user_id":556,"name":"Cricket Girl!","steam_id":76561198838054669,"connected_time":2268000000000,"state":"active","ping":66},{"user_id":563,"name":"Yongle","steam_id":76561198068591156,"connected_time":1562000000000,"state":"active","ping":54},{"user_id":516,"name":"Pyro Main(Not a furry)","steam_id":76561199178575029,"connected_time":5073000000000,"state":"active","ping":74},{"user_id":571,"name":"Professor Piper","steam_id":76561198156041205,"connected_time":590000000000,"state":"active","ping":48},{"user_id":562,"name":"Fish-Lord Silvers","steam_id":76561198264722817,"connected_time":1805000000000,"state":"active","ping":65},{"user_id":539,"name":"jalapeno handjob","steam_id":76561198123298824,"connected_time":3618000000000,"state":"active","ping":89},{"user_id":578,"name":"become part of wall","steam_id":76561198421913648,"connected_time":330000000000,"state":"active","ping":112},{"user_id":574,"name":"Mythius","steam_id":76561198401392472,"connected_time":448000000000,"state":"active","ping":76},{"user_id":568,"name":"Yeshie the Dragon Layer","steam_id":76561198080214214,"connected_time":685000000000,"state":"active","ping":41}]},{"server_id":402,"name":"Uncletopia | Chicago | 3 | All Maps","name_short":"chi-3","host":"chi-1.us.uncletopia.com","port":27035,"enabled":true,"region":"us-central","cc":"us","latitude":41.881832,"longitude":-87.62318,"reserved":0,"last_update":"0001-01-01T00:00:00Z","name_a2s":"Uncletopia | Chicago | 3 | All Maps","protocol":17,"map":"pl_swiftwater_final1","folder":"tf","game":"Team Fortress","app_id":440,"player_count":24,"max_players":24,"Bots":0,"server_type":"Dedicated","server_os":"Linux","password":true,"vac":true,"version":"7757534","steam_id":85568392924515191,"keywords":["nocrits","nodmgspread","payload","uncletopia"],"game_id":440,"stv_port":27036,"stv_name":"Uncletopia | Chicago | 3 | All Maps | STV","players":[{"user_id":391,"name":"Araaksa","steam_id":76561198931153864,"connected_time":936000000000,"state":"active","ping":66},{"user_id":392,"name":"KhorneBread ︻デ 一","steam_id":76561198097069958,"connected_time":919000000000,"state":"active","ping":82},{"user_id":332,"name":"Anna","steam_id":76561197999657118,"connected_time":5416000000000,"state":"active","ping":72},{"user_id":381,"name":"I ate those food","steam_id":76561198084614149,"connected_time":2050000000000,"state":"active","ping":57},{"user_id":361,"name":"jade","steam_id":76561198055611029,"connected_time":3950000000000,"state":"active","ping":67},{"user_id":365,"name":"Mahiru Koizumi","steam_id":76561198164782653,"connected_time":3511000000000,"state":"active","ping":63},{"user_id":403,"name":"gristle","steam_id":76561198046815360,"connected_time":359000000000,"state":"active","ping":90},{"user_id":400,"name":"stnuua","steam_id":76561199177896432,"connected_time":543000000000,"state":"active","ping":117},{"user_id":399,"name":"DinK","steam_id":76561198284445667,"connected_time":606000000000,"state":"active","ping":79},{"user_id":366,"name":"gerg","steam_id":76561197997127387,"connected_time":3509000000000,"state":"active","ping":103},{"user_id":322,"name":"Yukon Cornelius","steam_id":76561198261512781,"connected_time":6895000000000,"state":"active","ping":65},{"user_id":374,"name":"social distance warrior","steam_id":76561198128992994,"connected_time":3204000000000,"state":"active","ping":90},{"user_id":342,"name":"Corellius","steam_id":76561198063959574,"connected_time":4703000000000,"state":"active","ping":83},{"user_id":394,"name":"DJ Deoxys","steam_id":76561198322147008,"connected_time":907000000000,"state":"active","ping":94},{"user_id":404,"name":"Takllin","steam_id":76561199289103007,"connected_time":336000000000,"state":"active","ping":88},{"user_id":387,"name":"sweaterfan","steam_id":76561199389567214,"connected_time":1552000000000,"state":"active","ping":67},{"user_id":384,"name":"Unregistered Hypercam 2","steam_id":76561198046895822,"connected_time":1868000000000,"state":"active","ping":89},{"user_id":354,"name":"will","steam_id":76561198170080245,"connected_time":4347000000000,"state":"active","ping":82},{"user_id":395,"name":"Zesty Italian","steam_id":76561198117835053,"connected_time":876000000000,"state":"active","ping":68},{"user_id":375,"name":"Ye ( I Love Caulk ) West","steam_id":76561198068830312,"connected_time":2968000000000,"state":"active","ping":55},{"user_id":405,"name":"Mac is Bac","steam_id":76561198307352761,"connected_time":79000000000,"state":"active","ping":70},{"user_id":385,"name":"creepe","steam_id":76561198372891738,"connected_time":1835000000000,"state":"active","ping":188},{"user_id":401,"name":"onsceler","steam_id":76561198183663605,"connected_time":519000000000,"state":"active","ping":79},{"user_id":397,"name":"Bob the Minion","steam_id":76561197972389354,"connected_time":840000000000,"state":"active","ping":83}]},{"server_id":403,"name":"Uncletopia | Chicago | 4 | All Maps","name_short":"chi-4","host":"chi-1.us.uncletopia.com","port":27045,"enabled":true,"region":"us-central","cc":"us","latitude":41.881832,"longitude":-87.62318,"reserved":0,"last_update":"0001-01-01T00:00:00Z","name_a2s":"Uncletopia | Chicago | 4 | All Maps","protocol":17,"map":"koth_cascade","folder":"tf","game":"Team Fortress","app_id":440,"player_count":0,"max_players":24,"Bots":0,"server_type":"Dedicated","server_os":"Linux","password":true,"vac":true,"version":"7757534","steam_id":85568392924515193,"keywords":["cp","nocrits","nodmgspread","uncletopia"],"game_id":440,"stv_port":27046,"stv_name":"Uncletopia | Chicago | 4 | All Maps | STV","players":null},{"server_id":36,"name":"Uncletopia | Chicago | 5 | All Maps","name_short":"chi-5","host":"chi-2.us.uncletopia.com","port":27015,"enabled":true,"region":"us-central","cc":"us","latitude":41.881832,"longitude":-87.62318,"reserved":0,"last_update":"0001-01-01T00:00:00Z","name_a2s":"Uncletopia | Chicago | 5 | All Maps","protocol":17,"map":"pl_snowycoast","folder":"tf","game":"Team Fortress","app_id":440,"player_count":0,"max_players":24,"Bots":0,"server_type":"Dedicated","server_os":"Linux","password":true,"vac":true,"version":"7757534","steam_id":85568392924866362,"keywords":["nocrits","nodmgspread","payload","uncletopia"],"game_id":440,"stv_port":27016,"stv_name":"Uncletopia | Chicago | 5 | All Maps | STV","players":null},{"server_id":37,"name":"Uncletopia | Chicago | 6 | All Maps","name_short":"chi-6","host":"chi-2.us.uncletopia.com","port":27025,"enabled":true,"region":"us-central","cc":"us","latitude":41.881832,"longitude":-87.62318,"reserved":0,"last_update":"0001-01-01T00:00:00Z","name_a2s":"Uncletopia | Chicago | 6 | All Maps","protocol":17,"map":"pl_snowycoast","folder":"tf","game":"Team Fortress","app_id":440,"player_count":20,"max_players":24,"Bots":0,"server_type":"Dedicated","server_os":"Linux","password":true,"vac":true,"version":"7757534","steam_id":85568392924866363,"keywords":["nocrits","nodmgspread","payload","uncletopia"],"game_id":440,"stv_port":27026,"stv_name":"Uncletopia | Chicago | 6 | All Maps | STV","players":[{"user_id":1019,"name":"Grecki","steam_id":76561198396610691,"connected_time":1165000000000,"state":"active","ping":64},{"user_id":999,"name":"Rein","steam_id":76561198300340427,"connected_time":2620000000000,"state":"active","ping":73},{"user_id":1016,"name":"Resident Thrussy Lender","steam_id":76561198071790583,"connected_time":1421000000000,"state":"active","ping":90},{"user_id":1020,"name":"Humble Leader","steam_id":76561198169966346,"connected_time":1119000000000,"state":"active","ping":98},{"user_id":1025,"name":"dash23™","steam_id":76561198314951185,"connected_time":734000000000,"state":"active","ping":102},{"user_id":989,"name":"ye. Phish","steam_id":76561198218719943,"connected_time":3295000000000,"state":"active","ping":99},{"user_id":994,"name":"Wheat","steam_id":76561198106270789,"connected_time":2849000000000,"state":"active","ping":62},{"user_id":991,"name":"marcus","steam_id":76561198061979880,"connected_time":2962000000000,"state":"active","ping":60},{"user_id":1010,"name":"Haydob13","steam_id":76561198110378191,"connected_time":2202000000000,"state":"active","ping":95},{"user_id":831,"name":"gettysburg","steam_id":76561198016157051,"connected_time":14865000000000,"state":"active","ping":74},{"user_id":995,"name":"zuchima","steam_id":76561198026152104,"connected_time":2848000000000,"state":"active","ping":59},{"user_id":1031,"name":"Rat Gaming","steam_id":76561198319036606,"connected_time":271000000000,"state":"active","ping":111},{"user_id":1023,"name":"hud_saytext_time 0","steam_id":76561198010327228,"connected_time":811000000000,"state":"active","ping":163},{"user_id":1026,"name":"whirlwind","steam_id":76561198168685103,"connected_time":691000000000,"state":"active","ping":75},{"user_id":992,"name":"Poatan","steam_id":76561198081303855,"connected_time":2961000000000,"state":"active","ping":63},{"user_id":966,"name":"discord kitten","steam_id":76561198210322871,"connected_time":5194000000000,"state":"active","ping":112},{"user_id":907,"name":"The Professor","steam_id":76561198113760863,"connected_time":9833000000000,"state":"active","ping":61},{"user_id":1029,"name":"Gunkpump","steam_id":76561197975794806,"connected_time":559000000000,"state":"active","ping":95},{"user_id":1030,"name":"Cdesmondd","steam_id":76561198072774462,"connected_time":544000000000,"state":"active","ping":65},{"user_id":959,"name":"melon","steam_id":76561198041266286,"connected_time":6319000000000,"state":"active","ping":90}]},{"server_id":38,"name":"Uncletopia | Chicago | 7 | Stopwatch Beta","name_short":"chi-7","host":"chi-2.us.uncletopia.com","port":27035,"enabled":true,"region":"us-central","cc":"us","latitude":41.881832,"longitude":-87.62318,"reserved":0,"last_update":"0001-01-01T00:00:00Z","name_a2s":"Uncletopia | Chicago | 7 | Stopwatch Beta","protocol":17,"map":"workshop/pl_vigil_rc9.ugc1266210012","folder":"tf","game":"Team Fortress","app_id":440,"player_count":0,"max_players":24,"Bots":0,"server_type":"Dedicated","server_os":"Linux","password":true,"vac":true,"version":"7757534","steam_id":85568392924866364,"keywords":["nocrits","nodmgspread","payload","uncletopia"],"game_id":440,"stv_port":27036,"stv_name":"Uncletopia | Chicago | 7 | Stopwatch Beta | STV","players":null},{"server_id":39,"name":"Uncletopia | Chicago | 8 | Community","name_short":"chi-8","host":"chi-2.us.uncletopia.com","port":27045,"enabled":true,"region":"us-central","cc":"us","latitude":41.881832,"longitude":-87.62318,"reserved":0,"last_update":"0001-01-01T00:00:00Z","name_a2s":"Uncletopia | Chicago | 8 | Community","protocol":17,"map":"workshop/cp_mannbase_rc2a.ugc1900737467","folder":"tf","game":"Team Fortress","app_id":440,"player_count":0,"max_players":24,"Bots":0,"server_type":"Dedicated","server_os":"Linux","password":true,"vac":true,"version":"7757534","steam_id":85568392924866365,"keywords":["cp","nocrits","nodmgspread","uncletopia"],"game_id":440,"stv_port":27046,"stv_name":"Uncletopia | Chicago | 8 | Community | STV","players":null},{"server_id":8,"name":"Uncletopia | Dallas | 1 | All Maps","name_short":"dal-1","host":"dal-1.us.uncletopia.com","port":27015,"enabled":true,"region":"us-central","cc":"us","latitude":32.779167,"longitude":-96.80889,"reserved":0,"last_update":"0001-01-01T00:00:00Z","name_a2s":"Uncletopia | Dallas | 1 | All Maps","protocol":17,"map":"koth_cascade","folder":"tf","game":"Team Fortress","app_id":440,"player_count":0,"max_players":24,"Bots":0,"server_type":"Dedicated","server_os":"Linux","password":true,"vac":true,"version":"7757534","steam_id":85568392924469986,"keywords":["cp","nocrits","nodmgspread","uncletopia"],"game_id":440,"stv_port":27016,"stv_name":"Uncletopia | Dallas | 1 | All Maps | STV","players":null},{"server_id":108,"name":"Uncletopia | Dallas | 2 | All Maps","name_short":"dal-2","host":"dal-1.us.uncletopia.com","port":27025,"enabled":true,"region":"us-central","cc":"us","latitude":32.779167,"longitude":-96.80889,"reserved":0,"last_update":"0001-01-01T00:00:00Z","name_a2s":"Uncletopia | Dallas | 2 | All Maps","protocol":17,"map":"koth_cascade","folder":"tf","game":"Team Fortress","app_id":440,"player_count":0,"max_players":24,"Bots":0,"server_type":"Dedicated","server_os":"Linux","password":true,"vac":true,"version":"7757534","steam_id":85568392924469988,"keywords":["cp","nocrits","nodmgspread","uncletopia"],"game_id":440,"stv_port":27026,"stv_name":"Uncletopia | Dallas | 2 | All Maps | STV","players":null},{"server_id":5,"name":"Uncletopia | Frankfurt | 1 | All Maps","name_short":"frk-1","host":"frk-1.de.uncletopia.com","port":27015,"enabled":true,"region":"eu","cc":"de","latitude":50.110924,"longitude":8.682127,"reserved":0,"last_update":"0001-01-01T00:00:00Z","name_a2s":"Uncletopia | Frankfurt | 1 | All Maps","protocol":17,"map":"pl_snowycoast","folder":"tf","game":"Team Fortress","app_id":440,"player_count":0,"max_players":24,"Bots":0,"server_type":"Dedicated","server_os":"Linux","password":true,"vac":true,"version":"7757534","steam_id":85568392924469989,"keywords":["nocrits","nodmgspread","payload","uncletopia"],"game_id":440,"stv_port":27016,"stv_name":"Uncletopia | Frankfurt | 1 | All Maps | STV","players":null},{"server_id":110,"name":"Uncletopia | Frankfurt | 2 | All Maps","name_short":"frk-2","host":"frk-1.de.uncletopia.com","port":27025,"enabled":true,"region":"eu","cc":"de","latitude":50.110924,"longitude":8.682127,"reserved":0,"last_update":"0001-01-01T00:00:00Z","name_a2s":"Uncletopia | Frankfurt | 2 | All Maps","protocol":17,"map":"pl_pier","folder":"tf","game":"Team Fortress","app_id":440,"player_count":0,"max_players":24,"Bots":0,"server_type":"Dedicated","server_os":"Linux","password":true,"vac":true,"version":"7757534","steam_id":85568392924469990,"keywords":["nocrits","nodmgspread","payload","uncletopia"],"game_id":440,"stv_port":27026,"stv_name":"Uncletopia | Frankfurt | 2 | All Maps | STV","players":null},{"server_id":308,"name":"Uncletopia | Frankfurt | 3 | All Maps","name_short":"frk-3","host":"frk-1.de.uncletopia.com","port":27035,"enabled":true,"region":"eu","cc":"de","latitude":50.110924,"longitude":8.682127,"reserved":0,"last_update":"0001-01-01T00:00:00Z","name_a2s":"Uncletopia | Frankfurt | 3 | All Maps","protocol":17,"map":"cp_altitude","folder":"tf","game":"Team Fortress","app_id":440,"player_count":0,"max_players":24,"Bots":0,"server_type":"Dedicated","server_os":"Linux","password":true,"vac":true,"version":"7757534","steam_id":85568392924504274,"keywords":["cp","nocrits","nodmgspread","uncletopia"],"game_id":440,"stv_port":27036,"stv_name":"Uncletopia | Frankfurt | 3 | All Maps | STV","players":null},{"server_id":309,"name":"Uncletopia | Frankfurt | 4 | All Maps","name_short":"frk-4","host":"frk-1.de.uncletopia.com","port":27045,"enabled":true,"region":"eu","cc":"de","latitude":50.110924,"longitude":8.682127,"reserved":0,"last_update":"0001-01-01T00:00:00Z","name_a2s":"Uncletopia | Frankfurt | 4 | All Maps","protocol":17,"map":"cp_sunshine","folder":"tf","game":"Team Fortress","app_id":440,"player_count":0,"max_players":24,"Bots":0,"server_type":"Dedicated","server_os":"Linux","password":true,"vac":true,"version":"7757534","steam_id":85568392924504275,"keywords":["cp","nocrits","nodmgspread","uncletopia"],"game_id":440,"stv_port":27046,"stv_name":"Uncletopia | Frankfurt | 4 | All Maps | STV","players":null},{"server_id":310,"name":"Uncletopia | Frankfurt | 5 | All Maps","name_short":"frk-5","host":"frk-1.de.uncletopia.com","port":27055,"enabled":true,"region":"eu","cc":"de","latitude":50.110924,"longitude":8.682127,"reserved":0,"last_update":"0001-01-01T00:00:00Z","name_a2s":"Uncletopia | Frankfurt | 5 | All Maps","protocol":17,"map":"cp_altitude","folder":"tf","game":"Team Fortress","app_id":440,"player_count":0,"max_players":24,"Bots":0,"server_type":"Dedicated","server_os":"Linux","password":true,"vac":true,"version":"7757534","steam_id":85568392924504277,"keywords":["cp","nocrits","nodmgspread","uncletopia"],"game_id":440,"stv_port":27056,"stv_name":"Uncletopia | Frankfurt | 5 | All Maps | STV","players":null},{"server_id":311,"name":"Uncletopia | Frankfurt | 6 | All Maps","name_short":"frk-6","host":"frk-1.de.uncletopia.com","port":27065,"enabled":true,"region":"eu","cc":"de","latitude":50.110924,"longitude":8.682127,"reserved":0,"last_update":"0001-01-01T00:00:00Z","name_a2s":"Uncletopia | Frankfurt | 6 | All Maps","protocol":17,"map":"koth_highpass","folder":"tf","game":"Team Fortress","app_id":440,"player_count":0,"max_players":24,"Bots":0,"server_type":"Dedicated","server_os":"Linux","password":true,"vac":true,"version":"7757534","steam_id":85568392924504278,"keywords":["cp","nocrits","nodmgspread","uncletopia"],"game_id":440,"stv_port":27066,"stv_name":"Uncletopia | Frankfurt | 6 | All Maps | STV","players":null},{"server_id":23,"name":"Uncletopia | Frankfurt | 7 | Stopwatch Beta","name_short":"frk-7","host":"frk-1.de.uncletopia.com","port":27075,"enabled":true,"region":"eu","cc":"de","latitude":50.110924,"longitude":8.682127,"reserved":0,"last_update":"0001-01-01T00:00:00Z","name_a2s":"Uncletopia | Frankfurt | 7 | Stopwatch Beta","protocol":17,"map":"pl_frontier_final","folder":"tf","game":"Team Fortress","app_id":440,"player_count":0,"max_players":24,"Bots":0,"server_type":"Dedicated","server_os":"Linux","password":true,"vac":true,"version":"7757534","steam_id":85568392924742827,"keywords":["nocrits","nodmgspread","payload","uncletopia"],"game_id":440,"stv_port":27076,"stv_name":"Uncletopia | Frankfurt | 7 | Stopwatch Beta | STV","players":null},{"server_id":24,"name":"Uncletopia | Frankfurt | 8 | Community","name_short":"frk-8","host":"frk-1.de.uncletopia.com","port":27085,"enabled":true,"region":"eu","cc":"de","latitude":50.110924,"longitude":8.682127,"reserved":0,"last_update":"0001-01-01T00:00:00Z","name_a2s":"Uncletopia | Frankfurt | 8 | Community","protocol":17,"map":"workshop/pl_badwater_pro_v12.ugc2142942074","folder":"tf","game":"Team Fortress","app_id":440,"player_count":0,"max_players":24,"Bots":0,"server_type":"Dedicated","server_os":"Linux","password":true,"vac":true,"version":"7757534","steam_id":85568392924742828,"keywords":["nocrits","nodmgspread","payload","uncletopia"],"game_id":440,"stv_port":27086,"stv_name":"Uncletopia | Frankfurt | 8 | Community | STV","players":null},{"server_id":202,"name":"Uncletopia | Hong Kong | 1 | All Maps","name_short":"hgk-1","host":"hgk-1.hk.uncletopia.com","port":27015,"enabled":true,"region":"asia","cc":"hk","latitude":22.302711,"longitude":114.177216,"reserved":0,"last_update":"0001-01-01T00:00:00Z","name_a2s":"Uncletopia | Hong Kong | 1 | All Maps","protocol":17,"map":"pl_badwater","folder":"tf","game":"Team Fortress","app_id":440,"player_count":24,"max_players":24,"Bots":0,"server_type":"Dedicated","server_os":"Linux","password":true,"vac":true,"version":"7757534","steam_id":85568392924494504,"keywords":["nocrits","nodmgspread","payload","uncletopia"],"game_id":440,"stv_port":27016,"stv_name":"Uncletopia | Hong Kong | 1 | All Maps | STV","players":[{"user_id":118,"name":"TheObviousNovice","steam_id":76561198292192169,"connected_time":689000000000,"state":"active","ping":75},{"user_id":108,"name":"Telekhine","steam_id":76561198387120618,"connected_time":1910000000000,"state":"active","ping":53},{"user_id":115,"name":"Dropoutクマ","steam_id":76561199092455646,"connected_time":922000000000,"state":"active","ping":77},{"user_id":95,"name":"P","steam_id":76561198304514505,"connected_time":3402000000000,"state":"active","ping":82},{"user_id":101,"name":"cellum95","steam_id":76561198172146871,"connected_time":2703000000000,"state":"active","ping":80},{"user_id":90,"name":"Juju Shortbow","steam_id":76561198349807521,"connected_time":3979000000000,"state":"active","ping":87},{"user_id":42,"name":"why must you treat me this way","steam_id":76561199146847474,"connected_time":8616000000000,"state":"active","ping":54},{"user_id":113,"name":"그리니","steam_id":76561198024666371,"connected_time":1003000000000,"state":"active","ping":87},{"user_id":103,"name":"帕","steam_id":76561198439343999,"connected_time":2319000000000,"state":"active","ping":79},{"user_id":121,"name":"Michael Scott","steam_id":76561198023082794,"connected_time":457000000000,"state":"active","ping":55},{"user_id":53,"name":"17","steam_id":76561198241530712,"connected_time":8209000000000,"state":"active","ping":59},{"user_id":93,"name":"Flying Chair of Death","steam_id":76561198179320563,"connected_time":3925000000000,"state":"active","ping":133},{"user_id":39,"name":"✧BaKa BAzooKA✧(◕▿◕ )","steam_id":76561198061628689,"connected_time":8806000000000,"state":"active","ping":57},{"user_id":117,"name":"Hatred eyes","steam_id":76561199162652759,"connected_time":691000000000,"state":"active","ping":74},{"user_id":122,"name":"Miles Per'Hour","steam_id":76561199000630075,"connected_time":366000000000,"state":"active","ping":121},{"user_id":62,"name":"煙海 | Enkai","steam_id":76561198050460825,"connected_time":7708000000000,"state":"active","ping":77},{"user_id":58,"name":"im_0ff","steam_id":76561198339346695,"connected_time":7924000000000,"state":"active","ping":126},{"user_id":59,"name":"Rephex","steam_id":76561198308185574,"connected_time":7865000000000,"state":"active","ping":123},{"user_id":87,"name":"kiss me on my hot mouth","steam_id":76561199174449723,"connected_time":4251000000000,"state":"active","ping":112},{"user_id":61,"name":"Urotsuki","steam_id":76561198074339034,"connected_time":7747000000000,"state":"active","ping":75},{"user_id":63,"name":"uptriste","steam_id":76561198158666692,"connected_time":7679000000000,"state":"active","ping":39},{"user_id":94,"name":"tiden2000","steam_id":76561198092969425,"connected_time":3898000000000,"state":"active","ping":81},{"user_id":96,"name":"water tastes good","steam_id":76561199375947670,"connected_time":3402000000000,"state":"active","ping":87},{"user_id":107,"name":"Doormann","steam_id":76561199219230108,"connected_time":1993000000000,"state":"active","ping":73}]},{"server_id":1,"name":"Uncletopia | Los Angeles | 1 | All Maps","name_short":"lax-1","host":"lax-1.us.uncletopia.com","port":27015,"enabled":true,"region":"us-west","cc":"us","latitude":33.94279,"longitude":-118.41004,"reserved":0,"last_update":"0001-01-01T00:00:00Z","name_a2s":"Uncletopia | Los Angeles | 1 | All Maps","protocol":17,"map":"ctf_2fort","folder":"tf","game":"Team Fortress","app_id":440,"player_count":0,"max_players":24,"Bots":0,"server_type":"Dedicated","server_os":"Linux","password":true,"vac":true,"version":"7757534","steam_id":85568392924469991,"keywords":["ctf","nocrits","nodmgspread","uncletopia"],"game_id":440,"stv_port":27016,"stv_name":"Uncletopia | Los Angeles | 1 | All Maps | STV","players":null},{"server_id":112,"name":"Uncletopia | Los Angeles | 2 | All Maps","name_short":"lax-2","host":"lax-1.us.uncletopia.com","port":27025,"enabled":true,"region":"us-west","cc":"us","latitude":33.94279,"longitude":-118.41004,"reserved":0,"last_update":"0001-01-01T00:00:00Z","name_a2s":"Uncletopia | Los Angeles | 2 | All Maps","protocol":17,"map":"pl_borneo","folder":"tf","game":"Team Fortress","app_id":440,"player_count":23,"max_players":24,"Bots":0,"server_type":"Dedicated","server_os":"Linux","password":true,"vac":true,"version":"7757534","steam_id":85568392924469992,"keywords":["nocrits","nodmgspread","payload","uncletopia"],"game_id":440,"stv_port":27026,"stv_name":"Uncletopia | Los Angeles | 2 | All Maps | STV","players":[{"user_id":237,"name":"M4 Sherman","steam_id":76561198126990820,"connected_time":4118000000000,"state":"active","ping":106},{"user_id":286,"name":"weed woman","steam_id":76561198052639733,"connected_time":744000000000,"state":"active","ping":135},{"user_id":271,"name":"Barn.Jones1992","steam_id":76561198197981309,"connected_time":2138000000000,"state":"active","ping":49},{"user_id":256,"name":"weed lesbian","steam_id":76561198042263805,"connected_time":3126000000000,"state":"active","ping":81},{"user_id":297,"name":"bliss","steam_id":76561198440145948,"connected_time":434000000000,"state":"active","ping":99},{"user_id":287,"name":"THIRDPIERCE","steam_id":76561198405366314,"connected_time":724000000000,"state":"active","ping":89},{"user_id":267,"name":"[δ] Delta","steam_id":76561198287190116,"connected_time":2533000000000,"state":"active","ping":87},{"user_id":262,"name":"weed wizard","steam_id":76561198121427519,"connected_time":3053000000000,"state":"active","ping":88},{"user_id":281,"name":"TheBrocklobster","steam_id":76561198039682984,"connected_time":1839000000000,"state":"active","ping":66},{"user_id":274,"name":"StarManMatt","steam_id":76561198125513574,"connected_time":2096000000000,"state":"active","ping":119},{"user_id":235,"name":"Feel the bern","steam_id":76561198078824519,"connected_time":4426000000000,"state":"active","ping":64},{"user_id":289,"name":"riri ᗜᴗᗜ","steam_id":76561198055462404,"connected_time":645000000000,"state":"active","ping":41},{"user_id":275,"name":"HeavenHearst","steam_id":76561198066083947,"connected_time":2044000000000,"state":"active","ping":100},{"user_id":299,"name":"shido","steam_id":76561198198194599,"connected_time":192000000000,"state":"active","ping":45},{"user_id":292,"name":"BUGMAN","steam_id":76561199071207065,"connected_time":608000000000,"state":"active","ping":60},{"user_id":247,"name":"Wallewii","steam_id":76561198312178063,"connected_time":3629000000000,"state":"active","ping":48},{"user_id":293,"name":"Kairu","steam_id":76561198263584372,"connected_time":596000000000,"state":"active","ping":84},{"user_id":294,"name":"0xFUL","steam_id":76561198081684676,"connected_time":535000000000,"state":"active","ping":93},{"user_id":265,"name":"Lingo","steam_id":76561198028230064,"connected_time":2848000000000,"state":"active","ping":85},{"user_id":251,"name":"bobtheninjaman","steam_id":76561198066424544,"connected_time":3416000000000,"state":"active","ping":93},{"user_id":295,"name":"Shlartblorf","steam_id":76561198884378616,"connected_time":533000000000,"state":"active","ping":102},{"user_id":282,"name":"Fgtfv567","steam_id":76561198071022525,"connected_time":1834000000000,"state":"active","ping":66},{"user_id":296,"name":"Drowse","steam_id":76561198029794548,"connected_time":523000000000,"state":"active","ping":60}]},{"server_id":324,"name":"Uncletopia | Los Angeles | 3 | All Maps","name_short":"lax-3","host":"lax-1.us.uncletopia.com","port":27035,"enabled":true,"region":"us-west","cc":"us","latitude":33.94279,"longitude":-118.41004,"reserved":0,"last_update":"0001-01-01T00:00:00Z","name_a2s":"Uncletopia | Los Angeles | 3 | All Maps","protocol":17,"map":"cp_dustbowl","folder":"tf","game":"Team Fortress","app_id":440,"player_count":0,"max_players":24,"Bots":0,"server_type":"Dedicated","server_os":"Linux","password":true,"vac":true,"version":"7757534","steam_id":85568392924510198,"keywords":["cp","nocrits","nodmgspread","uncletopia"],"game_id":440,"stv_port":27036,"stv_name":"Uncletopia | Los Angeles | 3 | All Maps | STV","players":null},{"server_id":25,"name":"Uncletopia | Los Angeles | 4 | Stopwatch Beta","name_short":"lax-4","host":"lax-1.us.uncletopia.com","port":27045,"enabled":true,"region":"us-west","cc":"us","latitude":33.94279,"longitude":-118.41004,"reserved":0,"last_update":"0001-01-01T00:00:00Z","name_a2s":"Uncletopia | Los Angeles | 4 | Stopwatch Beta","protocol":17,"map":"pl_frontier_final","folder":"tf","game":"Team Fortress","app_id":440,"player_count":0,"max_players":24,"Bots":0,"server_type":"Dedicated","server_os":"Linux","password":true,"vac":true,"version":"7757534","steam_id":85568392924510199,"keywords":["nocrits","nodmgspread","payload","uncletopia"],"game_id":440,"stv_port":27046,"stv_name":"Uncletopia | Los Angeles | 4 | Stopwatch Beta | STV","players":null},{"server_id":11,"name":"Uncletopia | London | 1 | All Maps","name_short":"lon-1","host":"lon-1.uk.uncletopia.com","port":27015,"enabled":true,"region":"eu","cc":"gb","latitude":51.509865,"longitude":-0.118092,"reserved":0,"last_update":"0001-01-01T00:00:00Z","name_a2s":"Uncletopia | London | 1 | All Maps","protocol":17,"map":"koth_viaduct","folder":"tf","game":"Team Fortress","app_id":440,"player_count":0,"max_players":24,"Bots":0,"server_type":"Dedicated","server_os":"Linux","password":true,"vac":true,"version":"7757534","steam_id":85568392924367362,"keywords":["cp","nocrits","nodmgspread","uncletopia"],"game_id":440,"stv_port":27016,"stv_name":"Uncletopia | London | 1 | All Maps | STV","players":null},{"server_id":114,"name":"Uncletopia | London | 2 | All Maps","name_short":"lon-2","host":"lon-1.uk.uncletopia.com","port":27025,"enabled":true,"region":"eu","cc":"gb","latitude":51.509865,"longitude":-0.118092,"reserved":0,"last_update":"0001-01-01T00:00:00Z","name_a2s":"Uncletopia | London | 2 | All Maps","protocol":17,"map":"cp_dustbowl","folder":"tf","game":"Team Fortress","app_id":440,"player_count":1,"max_players":24,"Bots":0,"server_type":"Dedicated","server_os":"Linux","password":true,"vac":true,"version":"7757534","steam_id":85568392924470941,"keywords":["cp","nocrits","nodmgspread","uncletopia"],"game_id":440,"stv_port":27026,"stv_name":"Uncletopia | London | 2 | All Maps | STV","players":[{"user_id":4,"name":"femboy gaming","steam_id":76561198199789938,"connected_time":461000000000,"state":"active","ping":35}]},{"server_id":320,"name":"Uncletopia | London | 3 | All Maps","name_short":"lon-3","host":"lon-1.uk.uncletopia.com","port":27035,"enabled":true,"region":"eu","cc":"gb","latitude":51.509865,"longitude":-0.118092,"reserved":0,"last_update":"0001-01-01T00:00:00Z","name_a2s":"Uncletopia | London | 3 | All Maps","protocol":17,"map":"pl_barnblitz","folder":"tf","game":"Team Fortress","app_id":440,"player_count":24,"max_players":24,"Bots":0,"server_type":"Dedicated","server_os":"Linux","password":true,"vac":true,"version":"7757534","steam_id":85568392924510192,"keywords":["nocrits","nodmgspread","payload","uncletopia"],"game_id":440,"stv_port":27036,"stv_name":"Uncletopia | London | 3 | All Maps | STV","players":[{"user_id":41,"name":"dafydd","steam_id":76561198052200325,"connected_time":1714000000000,"state":"active","ping":76},{"user_id":4,"name":"posht0 @_@","steam_id":76561198106182078,"connected_time":3693000000000,"state":"active","ping":104},{"user_id":5,"name":"sabaka jebanoia","steam_id":76561198147249160,"connected_time":3683000000000,"state":"active","ping":105},{"user_id":46,"name":"$t@lker_Tim","steam_id":76561198963658042,"connected_time":1186000000000,"state":"active","ping":116},{"user_id":57,"name":"Fbafroguy","steam_id":76561199113010473,"connected_time":225000000000,"state":"active","ping":52},{"user_id":30,"name":"Shun Rosen","steam_id":76561198012823909,"connected_time":2344000000000,"state":"active","ping":125},{"user_id":59,"name":"Clown","steam_id":76561198040785616,"connected_time":106000000000,"state":"active","ping":65},{"user_id":21,"name":"BONK-TEC!","steam_id":76561198272667029,"connected_time":2632000000000,"state":"active","ping":54},{"user_id":43,"name":"барбоскины вы жо\ufffd","steam_id":76561199149307190,"connected_time":1651000000000,"state":"active","ping":86},{"user_id":60,"name":"Fine","steam_id":76561198015551404,"connected_time":99000000000,"state":"active","ping":87},{"user_id":48,"name":"The Black Duckling","steam_id":76561198383394891,"connected_time":933000000000,"state":"active","ping":144},{"user_id":56,"name":"Karma","steam_id":76561198162154135,"connected_time":488000000000,"state":"active","ping":90},{"user_id":39,"name":"OffMilky","steam_id":76561198831440921,"connected_time":1880000000000,"state":"active","ping":25},{"user_id":28,"name":"Jiggie","steam_id":76561198018134884,"connected_time":2383000000000,"state":"active","ping":79},{"user_id":29,"name":"Uncle Motong","steam_id":76561198029093635,"connected_time":2379000000000,"state":"active","ping":64},{"user_id":61,"name":"aperturi","steam_id":76561199416722923,"connected_time":98000000000,"state":"active","ping":142},{"user_id":32,"name":"antlionguard","steam_id":76561198072747143,"connected_time":2230000000000,"state":"active","ping":109},{"user_id":35,"name":".::[SerafeTTiN]::.","steam_id":76561198009471724,"connected_time":2145000000000,"state":"active","ping":96},{"user_id":40,"name":"tealoverr.190","steam_id":76561199028497703,"connected_time":1861000000000,"state":"active","ping":102},{"user_id":44,"name":"hichem","steam_id":76561198056197307,"connected_time":1572000000000,"state":"active","ping":47},{"user_id":45,"name":"waluigi","steam_id":76561198853919591,"connected_time":1492000000000,"state":"active","ping":100},{"user_id":50,"name":"EU GOD","steam_id":76561198001725703,"connected_time":891000000000,"state":"active","ping":75},{"user_id":62,"name":"ef1miykysalreadylmao","steam_id":76561198959501932,"connected_time":98000000000,"state":"active","ping":80},{"user_id":63,"name":"i work in a chinese restaurant","steam_id":76561198027033926,"connected_time":97000000000,"state":"active","ping":53}]},{"server_id":321,"name":"Uncletopia | London | 4 | All Maps","name_short":"lon-4","host":"lon-1.uk.uncletopia.com","port":27045,"enabled":true,"region":"eu","cc":"gb","latitude":51.509865,"longitude":-0.118092,"reserved":0,"last_update":"0001-01-01T00:00:00Z","name_a2s":"Uncletopia | London | 4 | All Maps","protocol":17,"map":"koth_viaduct","folder":"tf","game":"Team Fortress","app_id":440,"player_count":0,"max_players":24,"Bots":0,"server_type":"Dedicated","server_os":"Linux","password":true,"vac":true,"version":"7757534","steam_id":85568392924510193,"keywords":["cp","nocrits","nodmgspread","uncletopia"],"game_id":440,"stv_port":27046,"stv_name":"Uncletopia | London | 4 | All Maps | STV","players":null},{"server_id":21,"name":"Uncletopia | London | 5 | All Maps","name_short":"lon-5","host":"lon-1.uk.uncletopia.com","port":27055,"enabled":true,"region":"eu","cc":"gb","latitude":51.509865,"longitude":-0.118092,"reserved":0,"last_update":"0001-01-01T00:00:00Z","name_a2s":"Uncletopia | London | 5 | All Maps","protocol":17,"map":"cp_snakewater_final1","folder":"tf","game":"Team Fortress","app_id":440,"player_count":0,"max_players":24,"Bots":0,"server_type":"Dedicated","server_os":"Linux","password":true,"vac":true,"version":"7757534","steam_id":85568392924742829,"keywords":["cp","nocrits","nodmgspread","uncletopia"],"game_id":440,"stv_port":27056,"stv_name":"Uncletopia | London | 5 | All Maps | STV","players":null},{"server_id":22,"name":"Uncletopia | London | 6 | All Maps","name_short":"lon-6","host":"lon-1.uk.uncletopia.com","port":27065,"enabled":true,"region":"eu","cc":"gb","latitude":51.509865,"longitude":-0.118092,"reserved":0,"last_update":"0001-01-01T00:00:00Z","name_a2s":"Uncletopia | London | 6 | All Maps","protocol":17,"map":"koth_cascade","folder":"tf","game":"Team Fortress","app_id":440,"player_count":0,"max_players":24,"Bots":0,"server_type":"Dedicated","server_os":"Linux","password":true,"vac":true,"version":"7757534","steam_id":85568392924742830,"keywords":["cp","nocrits","nodmgspread","uncletopia"],"game_id":440,"stv_port":27066,"stv_name":"Uncletopia | London | 6 | All Maps | STV","players":null},{"server_id":40,"name":"Uncletopia | London | 7 | No Payload","name_short":"lon-7","host":"lon-1.uk.uncletopia.com","port":27075,"enabled":true,"region":"eu","cc":"gb","latitude":51.509865,"longitude":-0.118092,"reserved":0,"last_update":"0001-01-01T00:00:00Z","name_a2s":"Uncletopia | London | 7 | No Payload","protocol":17,"map":"cp_process_final","folder":"tf","game":"Team Fortress","app_id":440,"player_count":0,"max_players":24,"Bots":0,"server_type":"Dedicated","server_os":"Linux","password":true,"vac":true,"version":"7757534","steam_id":85568392924964314,"keywords":["cp","nocrits","nodmgspread","uncletopia"],"game_id":440,"stv_port":27076,"stv_name":"Uncletopia | London | 7 | No Payload | STV","players":null},{"server_id":41,"name":"Uncletopia | London | 8 | Community","name_short":"lon-8","host":"lon-1.uk.uncletopia.com","port":27085,"enabled":true,"region":"eu","cc":"gb","latitude":51.509865,"longitude":-0.118092,"reserved":0,"last_update":"0001-01-01T00:00:00Z","name_a2s":"Uncletopia | London | 8 | Community","protocol":17,"map":"workshop/cp_overgrown_rc7b.ugc503939302","folder":"tf","game":"Team Fortress","app_id":440,"player_count":0,"max_players":24,"Bots":0,"server_type":"Dedicated","server_os":"Linux","password":true,"vac":true,"version":"7757534","steam_id":85568392924964315,"keywords":["cp","nocrits","nodmgspread","uncletopia"],"game_id":440,"stv_port":27086,"stv_name":"Uncletopia | London | 8 | Community | STV","players":null},{"server_id":300,"name":"Uncletopia | Montréal | 1 | All Maps","name_short":"mtl-1","host":"mtl-1.ca.uncletopia.com","port":27015,"enabled":true,"region":"us-east","cc":"ca","latitude":45.50889,"longitude":-73.56167,"reserved":0,"last_update":"0001-01-01T00:00:00Z","name_a2s":"Uncletopia | Montréal | 1 | All Maps","protocol":17,"map":"pl_borneo","folder":"tf","game":"Team Fortress","app_id":440,"player_count":0,"max_players":24,"Bots":0,"server_type":"Dedicated","server_os":"Linux","password":true,"vac":true,"version":"7757534","steam_id":85568392924500087,"keywords":["nocrits","nodmgspread","payload","uncletopia"],"game_id":440,"stv_port":27016,"stv_name":"Uncletopia | Montréal | 1 | All Maps | STV","players":null},{"server_id":301,"name":"Uncletopia | Montréal | 2 | All Maps","name_short":"mtl-2","host":"mtl-1.ca.uncletopia.com","port":27025,"enabled":true,"region":"us-east","cc":"ca","latitude":45.50889,"longitude":-73.56167,"reserved":0,"last_update":"0001-01-01T00:00:00Z","name_a2s":"Uncletopia | Montréal | 2 | All Maps","protocol":17,"map":"pl_frontier_final","folder":"tf","game":"Team Fortress","app_id":440,"player_count":0,"max_players":24,"Bots":0,"server_type":"Dedicated","server_os":"Linux","password":true,"vac":true,"version":"7757534","steam_id":85568392924500088,"keywords":["nocrits","nodmgspread","payload","uncletopia"],"game_id":440,"stv_port":27026,"stv_name":"Uncletopia | Montréal | 2 | All Maps | STV","players":null},{"server_id":302,"name":"Uncletopia | Montréal | 3 | All Maps","name_short":"mtl-3","host":"mtl-1.ca.uncletopia.com","port":27035,"enabled":true,"region":"us-east","cc":"ca","latitude":45.50889,"longitude":-73.56167,"reserved":0,"last_update":"0001-01-01T00:00:00Z","name_a2s":"Uncletopia | Montréal | 3 | All Maps","protocol":17,"map":"koth_highpass","folder":"tf","game":"Team Fortress","app_id":440,"player_count":0,"max_players":24,"Bots":0,"server_type":"Dedicated","server_os":"Linux","password":true,"vac":true,"version":"7757534","steam_id":85568392924500089,"keywords":["cp","nocrits","nodmgspread","uncletopia"],"game_id":440,"stv_port":27036,"stv_name":"Uncletopia | Montréal | 3 | All Maps | STV","players":null},{"server_id":303,"name":"Uncletopia | Montréal | 4 | No Payload","name_short":"mtl-4","host":"mtl-1.ca.uncletopia.com","port":27045,"enabled":true,"region":"us-east","cc":"ca","latitude":45.50889,"longitude":-73.56167,"reserved":0,"last_update":"0001-01-01T00:00:00Z","name_a2s":"Uncletopia | Montréal | 4 | No Payload","protocol":17,"map":"pl_borneo","folder":"tf","game":"Team Fortress","app_id":440,"player_count":0,"max_players":24,"Bots":0,"server_type":"Dedicated","server_os":"Linux","password":true,"vac":true,"version":"7757534","steam_id":85568392924500090,"keywords":["nocrits","nodmgspread","payload","uncletopia"],"game_id":440,"stv_port":27046,"stv_name":"Uncletopia | Montréal | 4 | No Payload | STV","players":null},{"server_id":13,"name":"Uncletopia | New York City | 1 | All Maps","name_short":"nyc-1","host":"nyc-1.us.uncletopia.com","port":27015,"enabled":true,"region":"us-east","cc":"us","latitude":40.73061,"longitude":-73.93524,"reserved":0,"last_update":"0001-01-01T00:00:00Z","name_a2s":"Uncletopia | New York City | 1 | All Maps","protocol":17,"map":"koth_highpass","folder":"tf","game":"Team Fortress","app_id":440,"player_count":0,"max_players":24,"Bots":0,"server_type":"Dedicated","server_os":"Linux","password":true,"vac":true,"version":"7757534","steam_id":85568392924469993,"keywords":["cp","nocrits","nodmgspread","uncletopia"],"game_id":440,"stv_port":27016,"stv_name":"Uncletopia | New York City | 1 | All Maps | STV","players":null},{"server_id":14,"name":"Uncletopia | New York City | 2 | All Maps","name_short":"nyc-2","host":"nyc-1.us.uncletopia.com","port":27025,"enabled":true,"region":"us-east","cc":"us","latitude":40.73061,"longitude":-73.93524,"reserved":0,"last_update":"0001-01-01T00:00:00Z","name_a2s":"Uncletopia | New York City | 2 | All Maps","protocol":17,"map":"pl_swiftwater_final1","folder":"tf","game":"Team Fortress","app_id":440,"player_count":0,"max_players":24,"Bots":0,"server_type":"Dedicated","server_os":"Linux","password":true,"vac":true,"version":"7757534","steam_id":85568392924469994,"keywords":["nocrits","nodmgspread","payload","uncletopia"],"game_id":440,"stv_port":27026,"stv_name":"Uncletopia | New York City | 2 | All Maps | STV","players":null},{"server_id":15,"name":"Uncletopia | New York City | 3 | Stopwatch Beta","name_short":"nyc-3","host":"nyc-1.us.uncletopia.com","port":27035,"enabled":true,"region":"us-east","cc":"us","latitude":40.73061,"longitude":-73.93524,"reserved":0,"last_update":"0001-01-01T00:00:00Z","name_a2s":"Uncletopia | New York City | 3 | Stopwatch Beta","protocol":17,"map":"koth_highpass","folder":"tf","game":"Team Fortress","app_id":440,"player_count":0,"max_players":24,"Bots":0,"server_type":"Dedicated","server_os":"Linux","password":true,"vac":true,"version":"7757534","steam_id":85568392924742820,"keywords":["cp","nocrits","nodmgspread","uncletopia"],"game_id":440,"stv_port":27036,"stv_name":"Uncletopia | New York City | 3 | Stopwatch Beta | STV","players":null},{"server_id":16,"name":"Uncletopia | New York City | 4 | Community","name_short":"nyc-4","host":"nyc-1.us.uncletopia.com","port":27045,"enabled":true,"region":"us-east","cc":"us","latitude":40.73061,"longitude":-73.93524,"reserved":0,"last_update":"0001-01-01T00:00:00Z","name_a2s":"Uncletopia | New York City | 4 | Community","protocol":17,"map":"workshop/cp_villa_b19.ugc2113052569","folder":"tf","game":"Team Fortress","app_id":440,"player_count":0,"max_players":24,"Bots":0,"server_type":"Dedicated","server_os":"Linux","password":true,"vac":true,"version":"7757534","steam_id":85568392924742821,"keywords":["cp","nocrits","nodmgspread","uncletopia"],"game_id":440,"stv_port":27046,"stv_name":"Uncletopia | New York City | 4 | Community | STV","players":null},{"server_id":142,"name":"Uncletopia | São Paulo | 1 | All Maps","name_short":"sao-1","host":"sao-1.br.uncletopia.com","port":27015,"enabled":true,"region":"sa","cc":"br","latitude":-23.533773,"longitude":-46.62529,"reserved":0,"last_update":"0001-01-01T00:00:00Z","name_a2s":"Uncletopia | São Paulo | 1 | All Maps","protocol":17,"map":"koth_lakeside_final","folder":"tf","game":"Team Fortress","app_id":440,"player_count":0,"max_players":24,"Bots":0,"server_type":"Dedicated","server_os":"Linux","password":true,"vac":true,"version":"7757534","steam_id":85568392924469996,"keywords":["cp","nocrits","nodmgspread","uncletopia"],"game_id":440,"stv_port":27016,"stv_name":"Uncletopia | São Paulo | 1 | All Maps | STV","players":null},{"server_id":143,"name":"Uncletopia | São Paulo | 2 | All Maps","name_short":"sao-2","host":"sao-2.br.uncletopia.com","port":27015,"enabled":true,"region":"sa","cc":"br","latitude":-23.533773,"longitude":-46.62529,"reserved":0,"last_update":"0001-01-01T00:00:00Z","name_a2s":"Uncletopia | São Paulo | 2 | All Maps","protocol":17,"map":"koth_cascade","folder":"tf","game":"Team Fortress","app_id":440,"player_count":0,"max_players":24,"Bots":0,"server_type":"Dedicated","server_os":"Linux","password":true,"vac":true,"version":"7757534","steam_id":85568392924485349,"keywords":["cp","nocrits","nodmgspread","uncletopia"],"game_id":440,"stv_port":27016,"stv_name":"Uncletopia | São Paulo | 2 | All Maps | STV","players":null},{"server_id":7,"name":"Uncletopia | Seattle | 1 | All Maps","name_short":"sea-1","host":"sea-1.us.uncletopia.com","port":27015,"enabled":true,"region":"us-west","cc":"us","latitude":47.608013,"longitude":-122.33517,"reserved":0,"last_update":"0001-01-01T00:00:00Z","name_a2s":"Uncletopia | Seattle | 1 | All Maps","protocol":17,"map":"pl_upward","folder":"tf","game":"Team Fortress","app_id":440,"player_count":14,"max_players":24,"Bots":0,"server_type":"Dedicated","server_os":"Linux","password":true,"vac":true,"version":"7757534","steam_id":85568392924469997,"keywords":["nocrits","nodmgspread","payload","uncletopia"],"game_id":440,"stv_port":27016,"stv_name":"Uncletopia | Seattle | 1 | All Maps | STV","players":[{"user_id":854,"name":"bjfnfd9909089","steam_id":76561199215268976,"connected_time":275000000000,"state":"active","ping":45},{"user_id":775,"name":"Arsonist Goose","steam_id":76561198147441830,"connected_time":7991000000000,"state":"active","ping":67},{"user_id":855,"name":"Outer","steam_id":76561199121781498,"connected_time":141000000000,"state":"active","ping":95},{"user_id":836,"name":"早上好CHINA#1WARRIOR冰淇\ufffd\ufffd","steam_id":76561198964722163,"connected_time":2418000000000,"state":"active","ping":46},{"user_id":827,"name":"rat gets the cheese","steam_id":76561198031234032,"connected_time":3293000000000,"state":"active","ping":94},{"user_id":848,"name":"Robloxdude4443","steam_id":76561198399370940,"connected_time":1602000000000,"state":"active","ping":84},{"user_id":806,"name":"Kaiga","steam_id":76561198044052046,"connected_time":5319000000000,"state":"active","ping":130},{"user_id":814,"name":"goldhed","steam_id":76561198051751133,"connected_time":4693000000000,"state":"active","ping":55},{"user_id":800,"name":"gorlab","steam_id":76561198025089694,"connected_time":5401000000000,"state":"active","ping":57},{"user_id":815,"name":"Sweets","steam_id":76561198998446307,"connected_time":4305000000000,"state":"active","ping":60},{"user_id":853,"name":"chinto","steam_id":76561198082061316,"connected_time":454000000000,"state":"active","ping":68},{"user_id":772,"name":"Sniff","steam_id":76561198010270922,"connected_time":8215000000000,"state":"active","ping":40},{"user_id":792,"name":"lavender","steam_id":76561199069518286,"connected_time":6498000000000,"state":"active","ping":68},{"user_id":831,"name":"ShredMaan","steam_id":76561198429982138,"connected_time":2670000000000,"state":"active","ping":84}]},{"server_id":119,"name":"Uncletopia | Seattle | 2 | All Maps","name_short":"sea-2","host":"sea-1.us.uncletopia.com","port":27025,"enabled":true,"region":"us-west","cc":"us","latitude":47.608013,"longitude":-122.33517,"reserved":0,"last_update":"0001-01-01T00:00:00Z","name_a2s":"Uncletopia | Seattle | 2 | All Maps","protocol":17,"map":"koth_viaduct","folder":"tf","game":"Team Fortress","app_id":440,"player_count":23,"max_players":24,"Bots":0,"server_type":"Dedicated","server_os":"Linux","password":true,"vac":true,"version":"7757534","steam_id":85568392924469998,"keywords":["cp","nocrits","nodmgspread","uncletopia"],"game_id":440,"stv_port":27026,"stv_name":"Uncletopia | Seattle | 2 | All Maps | STV","players":[{"user_id":509,"name":"Attrition","steam_id":76561197969881916,"connected_time":1086000000000,"state":"active","ping":57},{"user_id":499,"name":"Slippery","steam_id":76561199469441947,"connected_time":2440000000000,"state":"active","ping":109},{"user_id":511,"name":"Villchip","steam_id":76561198198599982,"connected_time":726000000000,"state":"active","ping":46},{"user_id":510,"name":"gwy","steam_id":76561198277458653,"connected_time":890000000000,"state":"active","ping":35},{"user_id":492,"name":"Black Square","steam_id":76561198378724859,"connected_time":2941000000000,"state":"active","ping":129},{"user_id":407,"name":"Iron","steam_id":76561198115269587,"connected_time":9658000000000,"state":"active","ping":116},{"user_id":512,"name":"Quickxdeathx02","steam_id":76561198396771470,"connected_time":699000000000,"state":"active","ping":66},{"user_id":454,"name":"Nobuunga","steam_id":76561198100614981,"connected_time":6406000000000,"state":"active","ping":57},{"user_id":502,"name":"Scout:DefenderOfCP(ControlPoint","steam_id":76561199435609906,"connected_time":2226000000000,"state":"active","ping":112},{"user_id":513,"name":"MxProf","steam_id":76561198044519572,"connected_time":617000000000,"state":"active","ping":55},{"user_id":473,"name":"2 Point Tom","steam_id":76561198087617008,"connected_time":4555000000000,"state":"active","ping":48},{"user_id":493,"name":"Stock Dog","steam_id":76561198070469034,"connected_time":2938000000000,"state":"active","ping":85},{"user_id":506,"name":"Jimmy","steam_id":76561198059948196,"connected_time":2081000000000,"state":"active","ping":73},{"user_id":515,"name":"jerba!","steam_id":76561198878022971,"connected_time":300000000000,"state":"active","ping":152},{"user_id":479,"name":"shiftshock01","steam_id":76561199049488870,"connected_time":4353000000000,"state":"active","ping":66},{"user_id":516,"name":"MyMonkeyBaby","steam_id":76561198046896670,"connected_time":281000000000,"state":"active","ping":55},{"user_id":518,"name":"endo","steam_id":76561197995204381,"connected_time":238000000000,"state":"active","ping":92},{"user_id":508,"name":"Rocketface","steam_id":76561198043679540,"connected_time":1758000000000,"state":"active","ping":93},{"user_id":525,"name":"L a v e n b a k a","steam_id":76561198171261101,"connected_time":66000000000,"state":"active","ping":61},{"user_id":433,"name":"Re-Crix","steam_id":76561198351895601,"connected_time":7915000000000,"state":"active","ping":88},{"user_id":520,"name":"Citizen Toxie","steam_id":76561197961107982,"connected_time":228000000000,"state":"active","ping":87},{"user_id":526,"name":"Hexaveo","steam_id":76561198073612208,"connected_time":25000000000,"state":"active","ping":76},{"user_id":452,"name":"pizzaguy4","steam_id":76561198058821622,"connected_time":7188000000000,"state":"active","ping":90}]},{"server_id":406,"name":"Uncletopia | Seattle | 3 | Stopwatch Beta","name_short":"sea-3","host":"sea-1.us.uncletopia.com","port":27035,"enabled":true,"region":"us-west","cc":"us","latitude":47.608013,"longitude":-122.33517,"reserved":0,"last_update":"0001-01-01T00:00:00Z","name_a2s":"Uncletopia | Seattle | 3 | Stopwatch Beta","protocol":17,"map":"koth_highpass","folder":"tf","game":"Team Fortress","app_id":440,"player_count":0,"max_players":24,"Bots":0,"server_type":"Dedicated","server_os":"Linux","password":true,"vac":true,"version":"7757534","steam_id":85568392924515217,"keywords":["cp","nocrits","nodmgspread","uncletopia"],"game_id":440,"stv_port":27036,"stv_name":"Uncletopia | Seattle | 3 | Stopwatch Beta | STV","players":null},{"server_id":17,"name":"Uncletopia | San Francisco | 1 | All Maps","name_short":"sfo-1","host":"sfo-1.us.uncletopia.com","port":27015,"enabled":true,"region":"us-west","cc":"us","latitude":37.77397,"longitude":-122.4313,"reserved":0,"last_update":"0001-01-01T00:00:00Z","name_a2s":"Uncletopia | San Francisco | 1 | All Maps","protocol":17,"map":"cp_snakewater_final1","folder":"tf","game":"Team Fortress","app_id":440,"player_count":16,"max_players":24,"Bots":0,"server_type":"Dedicated","server_os":"Linux","password":true,"vac":true,"version":"7757534","steam_id":85568392924469999,"keywords":["cp","nocrits","nodmgspread","uncletopia"],"game_id":440,"stv_port":27016,"stv_name":"Uncletopia | San Francisco | 1 | All Maps | STV","players":[{"user_id":770,"name":"EatSomeBEES","steam_id":76561198047334307,"connected_time":415000000000,"state":"active","ping":80},{"user_id":755,"name":"ihavetapeworms","steam_id":76561198357040313,"connected_time":1115000000000,"state":"active","ping":95},{"user_id":743,"name":"TheMadDoctor(He/Him)","steam_id":76561198846198407,"connected_time":1929000000000,"state":"active","ping":60},{"user_id":762,"name":"Jayty07","steam_id":76561198078041126,"connected_time":829000000000,"state":"active","ping":60},{"user_id":774,"name":"El Viejo Paulino","steam_id":76561198211944169,"connected_time":102000000000,"state":"active","ping":69},{"user_id":772,"name":"kiko","steam_id":76561198128901451,"connected_time":138000000000,"state":"active","ping":69},{"user_id":773,"name":"gentleman in paris","steam_id":76561198117839474,"connected_time":126000000000,"state":"active","ping":108},{"user_id":758,"name":"NotAWeeb","steam_id":76561198165530739,"connected_time":1018000000000,"state":"active","ping":46},{"user_id":759,"name":"YoyoMama","steam_id":76561198260113828,"connected_time":934000000000,"state":"active","ping":55},{"user_id":764,"name":"tweet","steam_id":76561198166515735,"connected_time":799000000000,"state":"active","ping":46},{"user_id":746,"name":"BeanieBomber","steam_id":76561198128337215,"connected_time":1722000000000,"state":"active","ping":52},{"user_id":752,"name":"PatheticGherkin","steam_id":76561198073974722,"connected_time":1599000000000,"state":"active","ping":116},{"user_id":771,"name":"FROYO b4nny","steam_id":76561197970669109,"connected_time":241000000000,"state":"active","ping":50},{"user_id":751,"name":"die a phram","steam_id":76561198111644357,"connected_time":1636000000000,"state":"active","ping":108},{"user_id":766,"name":"High Cotton","steam_id":76561197998894854,"connected_time":764000000000,"state":"active","ping":114},{"user_id":767,"name":"Llama","steam_id":76561198075484983,"connected_time":745000000000,"state":"active","ping":69}]},{"server_id":18,"name":"Uncletopia | San Francisco | 2 | All Maps","name_short":"sfo-2","host":"sfo-1.us.uncletopia.com","port":27025,"enabled":true,"region":"us-west","cc":"us","latitude":37.77397,"longitude":-122.4313,"reserved":0,"last_update":"0001-01-01T00:00:00Z","name_a2s":"Uncletopia | San Francisco | 2 | All Maps","protocol":17,"map":"pl_barnblitz","folder":"tf","game":"Team Fortress","app_id":440,"player_count":14,"max_players":24,"Bots":0,"server_type":"Dedicated","server_os":"Linux","password":true,"vac":true,"version":"7757534","steam_id":85568392924470000,"keywords":["nocrits","nodmgspread","payload","uncletopia"],"game_id":440,"stv_port":27026,"stv_name":"Uncletopia | San Francisco | 2 | All Maps | STV","players":[{"user_id":283,"name":"smiley","steam_id":76561198240116276,"connected_time":3380000000000,"state":"active","ping":93},{"user_id":301,"name":"Pilot_TF2","steam_id":76561198244042208,"connected_time":1498000000000,"state":"active","ping":235},{"user_id":304,"name":"Bashful Boi UwU","steam_id":76561198297585031,"connected_time":1297000000000,"state":"active","ping":56},{"user_id":302,"name":"notatrip (l.i.b)","steam_id":76561198046109327,"connected_time":1383000000000,"state":"active","ping":151},{"user_id":298,"name":"M4 Sherman","steam_id":76561198011096132,"connected_time":1863000000000,"state":"active","ping":47},{"user_id":277,"name":"goggyrina","steam_id":76561198428033086,"connected_time":3543000000000,"state":"active","ping":105},{"user_id":310,"name":"Zizen","steam_id":76561199011832069,"connected_time":144000000000,"state":"active","ping":65},{"user_id":285,"name":"brian eno enjoyer","steam_id":76561198056467179,"connected_time":3291000000000,"state":"active","ping":130},{"user_id":308,"name":"Jango","steam_id":76561198121922413,"connected_time":563000000000,"state":"active","ping":57},{"user_id":309,"name":"starrk","steam_id":76561198246066894,"connected_time":236000000000,"state":"active","ping":104},{"user_id":169,"name":"bigman1","steam_id":76561198050225055,"connected_time":12369000000000,"state":"active","ping":56},{"user_id":306,"name":"squigga","steam_id":76561198284013728,"connected_time":846000000000,"state":"active","ping":47},{"user_id":215,"name":"Kalir","steam_id":76561197996125658,"connected_time":9172000000000,"state":"active","ping":79},{"user_id":242,"name":"alenku","steam_id":76561198997139815,"connected_time":6823000000000,"state":"active","ping":62}]},{"server_id":19,"name":"Uncletopia | San Francisco | 3 | Stopwatch Beta","name_short":"sfo-3","host":"sfo-1.us.uncletopia.com","port":27035,"enabled":true,"region":"us-west","cc":"us","latitude":37.77397,"longitude":-122.4313,"reserved":0,"last_update":"0001-01-01T00:00:00Z","name_a2s":"Uncletopia | San Francisco | 3 | Stopwatch Beta","protocol":17,"map":"pl_borneo","folder":"tf","game":"Team Fortress","app_id":440,"player_count":0,"max_players":24,"Bots":0,"server_type":"Dedicated","server_os":"Linux","password":true,"vac":true,"version":"7757534","steam_id":85568392924742824,"keywords":["nocrits","nodmgspread","payload","uncletopia"],"game_id":440,"stv_port":27036,"stv_name":"Uncletopia | San Francisco | 3 | Stopwatch Beta | STV","players":null},{"server_id":20,"name":"Uncletopia | San Francisco | 4 | Community","name_short":"sfo-4","host":"sfo-1.us.uncletopia.com","port":27045,"enabled":true,"region":"us-west","cc":"us","latitude":37.77397,"longitude":-122.4313,"reserved":0,"last_update":"0001-01-01T00:00:00Z","name_a2s":"Uncletopia | San Francisco | 4 | Community","protocol":17,"map":"workshop/koth_ashville_final.ugc2130459942","folder":"tf","game":"Team Fortress","app_id":440,"player_count":0,"max_players":24,"Bots":0,"server_type":"Dedicated","server_os":"Linux","password":true,"vac":true,"version":"7757534","steam_id":85568392924742826,"keywords":["cp","nocrits","nodmgspread","uncletopia"],"game_id":440,"stv_port":27046,"stv_name":"Uncletopia | San Francisco | 4 | Community | STV","players":null},{"server_id":141,"name":"Uncletopia | Sydney | 1 | All Maps","name_short":"syd-1","host":"syd-1.au.uncletopia.com","port":27015,"enabled":true,"region":"au","cc":"au","latitude":-33.865143,"longitude":151.2099,"reserved":0,"last_update":"0001-01-01T00:00:00Z","name_a2s":"Uncletopia | Sydney | 1 | All Maps","protocol":17,"map":"cp_dustbowl","folder":"tf","game":"Team Fortress","app_id":440,"player_count":3,"max_players":24,"Bots":0,"server_type":"Dedicated","server_os":"Linux","password":true,"vac":true,"version":"7757534","steam_id":85568392924470001,"keywords":["cp","nocrits","nodmgspread","uncletopia"],"game_id":440,"stv_port":27016,"stv_name":"Uncletopia | Sydney | 1 | All Maps | STV","players":[{"user_id":115,"name":"scout tf2","steam_id":76561198251386932,"connected_time":521000000000,"state":"active","ping":63},{"user_id":116,"name":"JayTheLlamaKing","steam_id":76561198836354249,"connected_time":519000000000,"state":"active","ping":56},{"user_id":118,"name":"dangerous enemy","steam_id":76561199262196710,"connected_time":168000000000,"state":"active","ping":40}]},{"server_id":123,"name":"Uncletopia | Sydney | 2 | All Maps","name_short":"syd-2","host":"syd-1.au.uncletopia.com","port":27025,"enabled":true,"region":"au","cc":"au","latitude":-33.865143,"longitude":151.2099,"reserved":0,"last_update":"0001-01-01T00:00:00Z","name_a2s":"Uncletopia | Sydney | 2 | All Maps","protocol":17,"map":"pl_upward","folder":"tf","game":"Team Fortress","app_id":440,"player_count":24,"max_players":24,"Bots":0,"server_type":"Dedicated","server_os":"Linux","password":true,"vac":true,"version":"7757534","steam_id":85568392924470002,"keywords":["nocrits","nodmgspread","payload","uncletopia"],"game_id":440,"stv_port":27026,"stv_name":"Uncletopia | Sydney | 2 | All Maps | STV","players":[{"user_id":187,"name":"Empr","steam_id":76561198024387396,"connected_time":3043000000000,"state":"active","ping":57},{"user_id":221,"name":"hazz_mcpie -BvM-","steam_id":76561198092450084,"connected_time":633000000000,"state":"active","ping":80},{"user_id":212,"name":"adammagee","steam_id":76561197972653972,"connected_time":1054000000000,"state":"active","ping":55},{"user_id":232,"name":"in the balls","steam_id":76561199084857134,"connected_time":46000000000,"state":"active","ping":54},{"user_id":165,"name":"Hawk","steam_id":76561198135164277,"connected_time":4150000000000,"state":"active","ping":48},{"user_id":197,"name":"DragRiper","steam_id":76561198050917553,"connected_time":2557000000000,"state":"active","ping":59},{"user_id":188,"name":"Hally","steam_id":76561198045236233,"connected_time":2969000000000,"state":"active","ping":56},{"user_id":220,"name":"boostless mobiler","steam_id":76561198200510138,"connected_time":670000000000,"state":"active","ping":76},{"user_id":189,"name":"until yawn","steam_id":76561198170693338,"connected_time":2881000000000,"state":"active","ping":83},{"user_id":223,"name":"Bostanc","steam_id":76561199125869659,"connected_time":433000000000,"state":"active","ping":53},{"user_id":210,"name":"MR Martian","steam_id":76561198157854561,"connected_time":1231000000000,"state":"active","ping":90},{"user_id":105,"name":"Fatass Yoshi","steam_id":76561198033784848,"connected_time":10640000000000,"state":"active","ping":54},{"user_id":216,"name":"cakey","steam_id":76561198173746761,"connected_time":858000000000,"state":"active","ping":53},{"user_id":224,"name":"Voncrumb","steam_id":76561198054076313,"connected_time":409000000000,"state":"active","ping":50},{"user_id":213,"name":"Matt","steam_id":76561198006791420,"connected_time":1008000000000,"state":"active","ping":101},{"user_id":148,"name":"Del Davis","steam_id":76561199365669004,"connected_time":6298000000000,"state":"active","ping":60},{"user_id":227,"name":"Hertog van Damme","steam_id":76561198152470958,"connected_time":306000000000,"state":"active","ping":59},{"user_id":226,"name":"SaltierThanYou","steam_id":76561198444395188,"connected_time":341000000000,"state":"active","ping":81},{"user_id":228,"name":"natopotato","steam_id":76561198258709848,"connected_time":273000000000,"state":"active","ping":75},{"user_id":191,"name":"Mike","steam_id":76561199009189725,"connected_time":2788000000000,"state":"active","ping":67},{"user_id":198,"name":"Toody","steam_id":76561198212656752,"connected_time":2406000000000,"state":"active","ping":46},{"user_id":214,"name":"Conrad","steam_id":76561199202119910,"connected_time":882000000000,"state":"active","ping":50},{"user_id":229,"name":"RawktLounchr","steam_id":76561198212552527,"connected_time":223000000000,"state":"active","ping":31},{"user_id":231,"name":"Microsoft Edge","steam_id":76561198384235576,"connected_time":58000000000,"state":"active","ping":146}]},{"server_id":395,"name":"Uncletopia | Sydney | 3 | All Maps","name_short":"syd-3","host":"syd-1.au.uncletopia.com","port":27035,"enabled":true,"region":"au","cc":"au","latitude":-33.865143,"longitude":151.2099,"reserved":0,"last_update":"0001-01-01T00:00:00Z","name_a2s":"Uncletopia | Sydney | 3 | All Maps","protocol":17,"map":"koth_lakeside_final","folder":"tf","game":"Team Fortress","app_id":440,"player_count":0,"max_players":24,"Bots":0,"server_type":"Dedicated","server_os":"Linux","password":true,"vac":true,"version":"7757534","steam_id":85568392925194467,"keywords":["cp","nocrits","nodmgspread","uncletopia"],"game_id":440,"stv_port":27036,"stv_name":"Uncletopia | Sydney | 3 | All Maps | STV","players":null},{"server_id":396,"name":"Uncletopia | Sydney | 4 | All Maps","name_short":"syd-4","host":"syd-1.au.uncletopia.com","port":27045,"enabled":true,"region":"au","cc":"au","latitude":-33.865143,"longitude":151.2099,"reserved":0,"last_update":"0001-01-01T00:00:00Z","name_a2s":"Uncletopia | Sydney | 4 | All Maps","protocol":17,"map":"koth_lakeside_final","folder":"tf","game":"Team Fortress","app_id":440,"player_count":0,"max_players":24,"Bots":0,"server_type":"Dedicated","server_os":"Linux","password":true,"vac":true,"version":"7757534","steam_id":85568392925397958,"keywords":["cp","nocrits","nodmgspread","uncletopia"],"game_id":440,"stv_port":27046,"stv_name":"Uncletopia | Sydney | 4 | All Maps | STV","players":null},{"server_id":58,"name":"Uncletopia | Sydney | 5 | Stopwatch Beta","name_short":"syd-5","host":"syd-1.au.uncletopia.com","port":27055,"enabled":true,"region":"au","cc":"au","latitude":-33.865143,"longitude":151.2099,"reserved":0,"last_update":"0001-01-01T00:00:00Z","name_a2s":"Uncletopia | Sydney | 5 | Stopwatch Beta","protocol":17,"map":"koth_highpass","folder":"tf","game":"Team Fortress","app_id":440,"player_count":0,"max_players":24,"Bots":0,"server_type":"Dedicated","server_os":"Linux","password":true,"vac":true,"version":"7757534","steam_id":85568392925397959,"keywords":["cp","nocrits","nodmgspread","uncletopia"],"game_id":440,"stv_port":27056,"stv_name":"Uncletopia | Sydney | 5 | Stopwatch Beta | STV","players":null},{"server_id":59,"name":"Uncletopia | Sydney | 6 | Community","name_short":"syd-6","host":"syd-1.au.uncletopia.com","port":27065,"enabled":true,"region":"au","cc":"au","latitude":-33.865143,"longitude":151.2099,"reserved":0,"last_update":"0001-01-01T00:00:00Z","name_a2s":"Uncletopia | Sydney | 6 | Community","protocol":17,"map":"workshop/cp_villa_b19.ugc2113052569","folder":"tf","game":"Team Fortress","app_id":440,"player_count":0,"max_players":24,"Bots":0,"server_type":"Dedicated","server_os":"Linux","password":true,"vac":true,"version":"7757534","steam_id":85568392925397960,"keywords":["cp","nocrits","nodmgspread","uncletopia"],"game_id":440,"stv_port":27066,"stv_name":"Uncletopia | Sydney | 6 | Community | STV","players":null},{"server_id":49,"name":"Uncletopia | Warsaw | 1 | All Maps","name_short":"waw-1","host":"waw-1.pl.uncletopia.com","port":27015,"enabled":true,"region":"eu","cc":"pl","latitude":52.2297,"longitude":21.017532,"reserved":0,"last_update":"0001-01-01T00:00:00Z","name_a2s":"","protocol":0,"map":"","folder":"","game":"","app_id":0,"player_count":0,"max_players":0,"Bots":0,"server_type":"","server_os":"","password":false,"vac":false,"version":"","steam_id":0,"keywords":null,"game_id":0,"stv_port":0,"stv_name":"","players":null},{"server_id":50,"name":"Uncletopia | Warsaw | 2 | All Maps","name_short":"waw-2","host":"waw-1.pl.uncletopia.com","port":27025,"enabled":true,"region":"eu","cc":"pl","latitude":52.2297,"longitude":21.017532,"reserved":0,"last_update":"0001-01-01T00:00:00Z","name_a2s":"Uncletopia | Warsaw | 2 | All Maps","protocol":17,"map":"cp_process_final","folder":"tf","game":"Team Fortress","app_id":440,"player_count":0,"max_players":24,"Bots":0,"server_type":"Dedicated","server_os":"Linux","password":true,"vac":true,"version":"7757534","steam_id":85568392925397851,"keywords":["cp","nocrits","nodmgspread","uncletopia"],"game_id":440,"stv_port":27026,"stv_name":"Uncletopia | Warsaw | 2 | All Maps | STV","players":null},{"server_id":51,"name":"Uncletopia | Warsaw | 3 | All Maps","name_short":"waw-3","host":"waw-1.pl.uncletopia.com","port":27035,"enabled":true,"region":"eu","cc":"pl","latitude":52.2297,"longitude":21.017532,"reserved":0,"last_update":"0001-01-01T00:00:00Z","name_a2s":"Uncletopia | Warsaw | 3 | All Maps","protocol":17,"map":"pl_barnblitz","folder":"tf","game":"Team Fortress","app_id":440,"player_count":0,"max_players":24,"Bots":0,"server_type":"Dedicated","server_os":"Linux","password":true,"vac":true,"version":"7757534","steam_id":85568392925397852,"keywords":["nocrits","nodmgspread","payload","uncletopia"],"game_id":440,"stv_port":27036,"stv_name":"Uncletopia | Warsaw | 3 | All Maps | STV","players":null},{"server_id":52,"name":"Uncletopia | Warsaw | 4 | All Maps","name_short":"waw-4","host":"waw-1.pl.uncletopia.com","port":27045,"enabled":true,"region":"eu","cc":"pl","latitude":52.2297,"longitude":21.017532,"reserved":0,"last_update":"0001-01-01T00:00:00Z","name_a2s":"Uncletopia | Warsaw | 4 | All Maps","protocol":17,"map":"pl_snowycoast","folder":"tf","game":"Team Fortress","app_id":440,"player_count":0,"max_players":24,"Bots":0,"server_type":"Dedicated","server_os":"Linux","password":true,"vac":true,"version":"7757534","steam_id":85568392925397853,"keywords":["nocrits","nodmgspread","payload","uncletopia"],"game_id":440,"stv_port":27046,"stv_name":"Uncletopia | Warsaw | 4 | All Maps | STV","players":null},{"server_id":53,"name":"Uncletopia | Warsaw | 5 | Stopwatch Beta","name_short":"waw-5","host":"waw-1.pl.uncletopia.com","port":27055,"enabled":true,"region":"eu","cc":"pl","latitude":52.2297,"longitude":21.017532,"reserved":0,"last_update":"0001-01-01T00:00:00Z","name_a2s":"Uncletopia | Warsaw | 5 | Stopwatch Beta","protocol":17,"map":"pl_barnblitz","folder":"tf","game":"Team Fortress","app_id":440,"player_count":0,"max_players":24,"Bots":0,"server_type":"Dedicated","server_os":"Linux","password":true,"vac":true,"version":"7757534","steam_id":85568392925397854,"keywords":["nocrits","nodmgspread","payload","uncletopia"],"game_id":440,"stv_port":27056,"stv_name":"Uncletopia | Warsaw | 5 | Stopwatch Beta | STV","players":null},{"server_id":54,"name":"Uncletopia | Warsaw | 6 | Community","name_short":"waw-6","host":"waw-1.pl.uncletopia.com","port":27065,"enabled":true,"region":"eu","cc":"pl","latitude":52.2297,"longitude":21.017532,"reserved":0,"last_update":"0001-01-01T00:00:00Z","name_a2s":"Uncletopia | Warsaw | 6 | Community","protocol":17,"map":"pl_swiftwater_final1","folder":"tf","game":"Team Fortress","app_id":440,"player_count":0,"max_players":24,"Bots":0,"server_type":"Dedicated","server_os":"Linux","password":true,"vac":true,"version":"7757534","steam_id":85568392925397856,"keywords":["nocrits","nodmgspread","payload","uncletopia"],"game_id":440,"stv_port":27066,"stv_name":"Uncletopia | Warsaw | 6 | Community | STV","players":null}]}