{"status":true,"message":"","result":[{"server_id":9,"name":"Uncletopia | Atlanta | 1 | All Maps","name_short":"atl-1","host":"atl-1.us.uncletopia.com","port":27015,"enabled":true,"region":"us-east","cc":"us","latitude":33.753746,"longitude":-84.38633,"reserved":0,"last_update":"0001-01-01T00:00:00Z","name_a2s":"Uncletopia | Atlanta | 1 | All Maps","protocol":17,"map":"cp_gorge","folder":"tf","game":"Team Fortress","app_id":440,"player_count":24,"max_players":24,"Bots":0,"server_type":"Dedicated","server_os":"Linux","password":true,"vac":true,"version":"7757534","steam_id":85568392924469982,"keywords":["cp","nocrits","nodmgspread","uncletopia"],"game_id":440,"stv_port":27016,"stv_name":"Uncletopia | Atlanta | 1 | All Maps | STV","players":[{"user_id":139,"name":"bogginwater","steam_id":76561198155547142,"connected_time":902000000000,"state":"active","ping":67},{"user_id":170,"name":"Lost Arachnid","steam_id":76561199012943912,"connected_time":54000000000,"state":"spawning","ping":74},{"user_id":110,"name":"floofy","steam_id":76561198389769098,"connected_time":3852000000000,"state":"active","ping":81},{"user_id":113,"name":"Gugulethu Ntombifuthi","steam_id":76561198977893783,"connected_time":3437000000000,"state":"active","ping":47},{"user_id":131,"name":"dlevine0","steam_id":76561198030528211,"connected_time":1760000000000,"state":"active","ping":86},{"user_id":152,"name":"83 DPM medic","steam_id":76561198067994868,"connected_time":462000000000,"state":"active","ping":84},{"user_id":123,"name":"lynt","steam_id":76561198988333976,"connected_time":2408000000000,"state":"active","ping":36},{"user_id":144,"name":"im really bad sorry","steam_id":76561198277163301,"connected_time":553000000000,"state":"active","ping":81},{"user_id":138,"name":"Epifiny","steam_id":76561198027958086,"connected_time":922000000000,"state":"active","ping":87},{"user_id":145,"name":"malconle2010","steam_id":76561198969647366,"connected_time":551000000000,"state":"active","ping":89},{"user_id":147,"name":"Schweppley","steam_id":76561198125036500,"connected_time":512000000000,"state":"active","ping":60},{"user_id":154,"name":"Peenie Genie","steam_id":76561198102234833,"connected_time":402000000000,"state":"active","ping":156},{"user_id":140,"name":"cheeks","steam_id":76561197993371179,"connected_time":898000000000,"state":"active","ping":44},{"user_id":149,"name":"Uncle Garrow","steam_id":76561198044092599,"connected_time":504000000000,"state":"active","ping":84},{"user_id":122,"name":"melancholy","steam_id":76561198024301465,"connected_time":2793000000000,"state":"active","ping":45},{"user_id":127,"name":"Bottom Trans Cowgirl","steam_id":76561198304239680,"connected_time":1993000000000,"state":"active","ping":80},{"user_id":128,"name":"atl1 Quality","steam_id":76561198361132101,"connected_time":1874000000000,"state":"active","ping":98},{"user_id":165,"name":"chexo4","steam_id":76561198150532531,"connected_time":102000000000,"state":"active","ping":49},{"user_id":158,"name":"-π- BakaD","steam_id":76561197960559169,"connected_time":295000000000,"state":"active","ping":53},{"user_id":162,"name":".Eitho","steam_id":76561199036099287,"connected_time":231000000000,"state":"active","ping":55},{"user_id":136,"name":"sansa musa","steam_id":76561198163723555,"connected_time":1207000000000,"state":"active","ping":75},{"user_id":137,"name":"Nyle","steam_id":76561198045652639,"connected_time":1170000000000,"state":"active","ping":118},{"user_id":168,"name":"⇌|ϟtriKer|⇋","steam_id":76561199389089862,"connected_time":77000000000,"state":"active","ping":136},{"user_id":160,"name":"I LOVE CP_STEEL","steam_id":76561198025295263,"connected_time":277000000000,"state":"active","ping":82}]},{"server_id":104,"name":"Uncletopia | Atlanta | 2 | All Maps","name_short":"atl-2","host":"atl-1.us.uncletopia.com","port":27025,"enabled":true,"region":"us-east","cc":"us","latitude":33.753746,"longitude":-84.38633,"reserved":0,"last_update":"0001-01-01T00:00:00Z","name_a2s":"Uncletopia | Atlanta | 2 | All Maps","protocol":17,"map":"pl_borneo","folder":"tf","game":"Team Fortress","app_id":440,"player_count":24,"max_players":24,"Bots":0,"server_type":"Dedicated","server_os":"Linux","password":true,"vac":true,"version":"7757534","steam_id":85568392924469983,"keywords":["nocrits","nodmgspread","payload","uncletopia"],"game_id":440,"stv_port":27026,"stv_name":"Uncletopia | Atlanta | 2 | All Maps | STV","players":[{"user_id":304,"name":"Zenabie","steam_id":76561198088372680,"connected_time":1386000000000,"state":"active","ping":97},{"user_id":320,"name":"Yuri Tarded","steam_id":76561198034339940,"connected_time":196000000000,"state":"active","ping":57},{"user_id":291,"name":"TheGrassMan (He/Him)","steam_id":76561198118984048,"connected_time":2509000000000,"state":"active","ping":81},{"user_id":295,"name":"soy consumer","steam_id":76561198047168548,"connected_time":2338000000000,"state":"active","ping":102},{"user_id":301,"name":"grog","steam_id":76561198273198198,"connected_time":1694000000000,"state":"active","ping":71},{"user_id":296,"name":"Resident Thrussy Lender","steam_id":76561198071790583,"connected_time":2315000000000,"state":"active","ping":43},{"user_id":309,"name":"BeanBag♥♫","steam_id":76561198167002197,"connected_time":790000000000,"state":"active","ping":57},{"user_id":314,"name":"GoldtoothFour","steam_id":76561198055529332,"connected_time":622000000000,"state":"active","ping":71},{"user_id":305,"name":"washed his motorbike","steam_id":76561198140679751,"connected_time":1381000000000,"state":"active","ping":60},{"user_id":297,"name":"the real babytron","steam_id":76561197989627918,"connected_time":2274000000000,"state":"active","ping":78},{"user_id":260,"name":"rustyorion","steam_id":76561198439186347,"connected_time":3898000000000,"state":"active","ping":112},{"user_id":201,"name":"AcenSamurai","steam_id":76561199440038716,"connected_time":7611000000000,"state":"active","ping":73},{"user_id":246,"name":"morgborg","steam_id":76561198350206257,"connected_time":5656000000000,"state":"active","ping":98},{"user_id":252,"name":"Shamrock Shake Oct.10.2020 @8pm","steam_id":76561198833313201,"connected_time":5437000000000,"state":"active","ping":110},{"user_id":290,"name":"kazoo2","steam_id":76561198260473504,"connected_time":2575000000000,"state":"active","ping":100},{"user_id":310,"name":"Trader of Sex","steam_id":76561198368131803,"connected_time":768000000000,"state":"active","ping":139},{"user_id":306,"name":"the dribbly willy","steam_id":76561198190323610,"connected_time":1374000000000,"state":"active","ping":95},{"user_id":303,"name":"Theodore Roosevelt","steam_id":76561197993295656,"connected_time":1411000000000,"state":"active","ping":65},{"user_id":319,"name":"Higglestaff","steam_id":76561198043960257,"connected_time":427000000000,"state":"active","ping":78},{"user_id":313,"name":"Konrad Vilulf","steam_id":76561198111124481,"connected_time":686000000000,"state":"active","ping":69},{"user_id":315,"name":"sweatshirt","steam_id":76561198277477109,"connected_time":604000000000,"state":"active","ping":48},{"user_id":241,"name":"A Shiny Meat Bicycle","steam_id":76561198358757709,"connected_time":6062000000000,"state":"active","ping":70},{"user_id":317,"name":"poop tbh","steam_id":76561198056186750,"connected_time":598000000000,"state":"active","ping":61},{"user_id":318,"name":"Zel | Count Chocula's Toes","steam_id":76561198038249452,"connected_time":589000000000,"state":"active","ping":67}]},{"server_id":400,"name":"Uncletopia | Atlanta | 3 | Community","name_short":"atl-3","host":"atl-1.us.uncletopia.com","port":27035,"enabled":true,"region":"us-east","cc":"us","latitude":33.753746,"longitude":-84.38633,"reserved":0,"last_update":"0001-01-01T00:00:00Z","name_a2s":"Uncletopia | Atlanta | 3 | Community","protocol":17,"map":"workshop/cp_bruhstbowl_b5.ugc2878604990","folder":"tf","game":"Team Fortress","app_id":440,"player_count":17,"max_players":24,"Bots":0,"server_type":"Dedicated","server_os":"Linux","password":true,"vac":true,"version":"7757534","steam_id":85568392924515187,"keywords":["cp","nocrits","nodmgspread","uncletopia"],"game_id":440,"stv_port":27036,"stv_name":"Uncletopia | Atlanta | 3 | Community | STV","players":[{"user_id":8,"name":"bopy","steam_id":76561198845789946,"connected_time":2596000000000,"state":"active","ping":74},{"user_id":9,"name":"Lone Rider","steam_id":76561198091978968,"connected_time":2378000000000,"state":"active","ping":65},{"user_id":10,"name":"Crotonga","steam_id":76561198077178900,"connected_time":2362000000000,"state":"active","ping":71},{"user_id":11,"name":"Personaless","steam_id":76561198060279377,"connected_time":2354000000000,"state":"active","ping":86},{"user_id":12,"name":"Kunai","steam_id":76561198091165171,"connected_time":2243000000000,"state":"active","ping":69},{"user_id":13,"name":"Spiffo Raccoon","steam_id":76561198035667824,"connected_time":2139000000000,"state":"active","ping":47},{"user_id":18,"name":"益代浅黄","steam_id":76561199225554577,"connected_time":1488000000000,"state":"active","ping":71},{"user_id":34,"name":"the pan","steam_id":76561198057305534,"connected_time":778000000000,"state":"active","ping":84},{"user_id":37,"name":"Crack Wizard","steam_id":76561198055463619,"connected_time":401000000000,"state":"active","ping":82},{"user_id":21,"name":"Cheese","steam_id":76561199207081299,"connected_time":1437000000000,"state":"active","ping":98},{"user_id":39,"name":"Foul Tarnished","steam_id":76561198844810081,"connected_time":135000000000,"state":"active","ping":70},{"user_id":40,"name":"oddlyobtuselemon1654","steam_id":76561198877069773,"connected_time":88000000000,"state":"active","ping":58},{"user_id":41,"name":"BOUZENZEL","steam_id":76561198095000722,"connected_time":58000000000,"state":"active","ping":42},{"user_id":42,"name":"Ulrich Stern","steam_id":76561198101739682,"connected_time":32000000000,"state":"spawning","ping":190},{"user_id":43,"name":"Average Guy","steam_id":76561199211257988,"connected_time":28000000000,"state":"active","ping":103},{"user_id":28,"name":"Hemiphix","steam_id":76561198329316429,"connected_time":1268000000000,"state":"active","ping":66},{"user_id":29,"name":"Pot Head Pixie","steam_id":76561198083024504,"connected_time":1251000000000,"state":"active","ping":74}]},{"server_id":401,"name":"Uncletopia | Atlanta | 4 | No Payload","name_short":"atl-4","host":"atl-1.us.uncletopia.com","port":27045,"enabled":true,"region":"us-east","cc":"us","latitude":33.753746,"longitude":-84.38633,"reserved":0,"last_update":"0001-01-01T00:00:00Z","name_a2s":"","protocol":0,"map":"","folder":"","game":"","app_id":0,"player_count":0,"max_players":0,"Bots":0,"server_type":"","server_os":"","password":false,"vac":false,"version":"","steam_id":0,"keywords":null,"game_id":0,"stv_port":0,"stv_name":"","players":null},{"server_id":2,"name":"Uncletopia | Chicago | 1 | All Maps","name_short":"chi-1","host":"chi-1.us.uncletopia.com","port":27015,"enabled":true,"region":"us-central","cc":"us","latitude":41.881832,"longitude":-87.62318,"reserved":0,"last_update":"0001-01-01T00:00:00Z","name_a2s":"Uncletopia | Chicago | 1 | All Maps","protocol":17,"map":"cp_mercenarypark","folder":"tf","game":"Team Fortress","app_id":440,"player_count":23,"max_players":24,"Bots":0,"server_type":"Dedicated","server_os":"Linux","password":true,"vac":true,"version":"7757534","steam_id":85568392924469984,"keywords":["cp","nocrits","nodmgspread","uncletopia"],"game_id":440,"stv_port":27016,"stv_name":"Uncletopia | Chicago | 1 | All Maps | STV","players":[{"user_id":519,"name":"AX0L_","steam_id":76561199008960175,"connected_time":145000000000,"state":"active","ping":47},{"user_id":513,"name":"Onii-chan","steam_id":76561197972195497,"connected_time":283000000000,"state":"active","ping":55},{"user_id":520,"name":"mepng","steam_id":76561199018758598,"connected_time":93000000000,"state":"active","ping":78},{"user_id":485,"name":"Kwizine","steam_id":76561198147999400,"connected_time":1447000000000,"state":"active","ping":144},{"user_id":507,"name":"Acro Banwagon","steam_id":76561198092451804,"connected_time":574000000000,"state":"active","ping":65},{"user_id":514,"name":"[يهودي] Bill Clinton [אל","steam_id":76561198163291190,"connected_time":282000000000,"state":"active","ping":86},{"user_id":413,"name":"TheDapperTaco","steam_id":76561199103076602,"connected_time":8034000000000,"state":"active","ping":90},{"user_id":486,"name":"vv","steam_id":76561198134813102,"connected_time":1442000000000,"state":"active","ping":59},{"user_id":515,"name":"lofile :]","steam_id":76561198083798918,"connected_time":277000000000,"state":"active","ping":60},{"user_id":470,"name":"elevatorboi","steam_id":76561198373691695,"connected_time":2985000000000,"state":"active","ping":69},{"user_id":521,"name":"UNIT 220","steam_id":76561198042243497,"connected_time":78000000000,"state":"active","ping":62},{"user_id":517,"name":"coom","steam_id":76561198078189844,"connected_time":230000000000,"state":"active","ping":62},{"user_id":516,"name":"Draco6257","steam_id":76561199147322448,"connected_time":268000000000,"state":"active","ping":60},{"user_id":518,"name":"Recursive Gamer","steam_id":76561198042102952,"connected_time":217000000000,"state":"active","ping":61},{"user_id":522,"name":"Crunchy","steam_id":76561199065412274,"connected_time":67000000000,"state":"active","ping":74},{"user_id":523,"name":"eepy buppy","steam_id":76561199157846537,"connected_time":44000000000,"state":"active","ping":51},{"user_id":504,"name":"Mr.Pwesident","steam_id":76561198058114703,"connected_time":857000000000,"state":"active","ping":91},{"user_id":501,"name":"Adalwolfa","steam_id":76561198194671218,"connected_time":1012000000000,"state":"active","ping":59},{"user_id":524,"name":"evan_is_sauce","steam_id":76561199086802383,"connected_time":37000000000,"state":"active","ping":88},{"user_id":477,"name":"Gunkpump","steam_id":76561197975794806,"connected_time":2450000000000,"state":"active","ping":88},{"user_id":525,"name":"Tails The Fox uwu","steam_id":76561198999384275,"connected_time":24000000000,"state":"active","ping":196},{"user_id":503,"name":"MayoMateo","steam_id":76561198360809933,"connected_time":865000000000,"state":"active","ping":91},{"user_id":509,"name":"Xete","steam_id":76561198403414092,"connected_time":381000000000,"state":"active","ping":81}]},{"server_id":106,"name":"Uncletopia | Chicago | 2 | All Maps","name_short":"chi-2","host":"chi-1.us.uncletopia.com","port":27025,"enabled":true,"region":"us-central","cc":"us","latitude":41.881832,"longitude":-87.62318,"reserved":0,"last_update":"0001-01-01T00:00:00Z","name_a2s":"Uncletopia | Chicago | 2 | All Maps","protocol":17,"map":"pl_frontier_final","folder":"tf","game":"Team Fortress","app_id":440,"player_count":0,"max_players":24,"Bots":0,"server_type":"Dedicated","server_os":"Linux","password":true,"vac":true,"version":"7757534","steam_id":85568392924469985,"keywords":["nocrits","nodmgspread","payload","uncletopia"],"game_id":440,"stv_port":27026,"stv_name":"Uncletopia | Chicago | 2 | All Maps | STV","players":null},{"server_id":402,"name":"Uncletopia | Chicago | 3 | All Maps","name_short":"chi-3","host":"chi-1.us.uncletopia.com","port":27035,"enabled":true,"region":"us-central","cc":"us","latitude":41.881832,"longitude":-87.62318,"reserved":0,"last_update":"0001-01-01T00:00:00Z","name_a2s":"Uncletopia | Chicago | 3 | All Maps","protocol":17,"map":"pl_snowycoast","folder":"tf","game":"Team Fortress","app_id":440,"player_count":24,"max_players":24,"Bots":0,"server_type":"Dedicated","server_os":"Linux","password":true,"vac":true,"version":"7757534","steam_id":85568392924515191,"keywords":["nocrits","nodmgspread","payload","uncletopia"],"game_id":440,"stv_port":27036,"stv_name":"Uncletopia | Chicago | 3 | All Maps | STV","players":[{"user_id":332,"name":"Dookie","steam_id":76561198354025894,"connected_time":1933000000000,"state":"active","ping":63},{"user_id":297,"name":"momiji fumo","steam_id":76561198066698922,"connected_time":4381000000000,"state":"active","ping":60},{"user_id":326,"name":"Waffle Wannabe","steam_id":76561198064510650,"connected_time":2006000000000,"state":"active","ping":56},{"user_id":325,"name":"Cave","steam_id":76561198263551216,"connected_time":2025000000000,"state":"active","ping":85},{"user_id":221,"name":"merkmywords ttttttv","steam_id":76561198066840152,"connected_time":11338000000000,"state":"active","ping":47},{"user_id":347,"name":"Nemcat.Jr","steam_id":76561198079821706,"connected_time":792000000000,"state":"active","ping":58},{"user_id":303,"name":"LerN","steam_id":76561198083463877,"connected_time":3507000000000,"state":"active","ping":57},{"user_id":341,"name":"Zee","steam_id":76561199229870438,"connected_time":1300000000000,"state":"active","ping":95},{"user_id":328,"name":"smart mort (caffeinated)","steam_id":76561198849711174,"connected_time":1996000000000,"state":"active","ping":83},{"user_id":319,"name":"Vial of Throbb","steam_id":76561198348095996,"connected_time":2691000000000,"state":"active","ping":48},{"user_id":356,"name":"Renota","steam_id":76561198058224488,"connected_time":125000000000,"state":"active","ping":74},{"user_id":354,"name":"bushman","steam_id":76561197996548146,"connected_time":566000000000,"state":"active","ping":62},{"user_id":357,"name":"a table","steam_id":76561198158461279,"connected_time":24000000000,"state":"spawning","ping":97},{"user_id":345,"name":"reanimator","steam_id":76561198085830470,"connected_time":924000000000,"state":"active","ping":65},{"user_id":350,"name":"ur $ subtracting d(-_-b)","steam_id":76561198072179483,"connected_time":724000000000,"state":"active","ping":90},{"user_id":271,"name":"xiii","steam_id":76561198079416036,"connected_time":7215000000000,"state":"active","ping":44},{"user_id":257,"name":"D(b) Hell","steam_id":76561198067869016,"connected_time":8708000000000,"state":"active","ping":45},{"user_id":344,"name":"Maj","steam_id":76561198154203415,"connected_time":984000000000,"state":"active","ping":72},{"user_id":351,"name":"BluCoffee","steam_id":76561198214995967,"connected_time":709000000000,"state":"active","ping":50},{"user_id":250,"name":"Winkrill","steam_id":76561198108515561,"connected_time":9168000000000,"state":"active","ping":75},{"user_id":352,"name":"Cheesemelt","steam_id":76561198008221847,"connected_time":647000000000,"state":"active","ping":53},{"user_id":313,"name":"Donkski","steam_id":76561198406895347,"connected_time":3170000000000,"state":"active","ping":69},{"user_id":283,"name":"Dot.","steam_id":76561198149463984,"connected_time":6454000000000,"state":"active","ping":57},{"user_id":355,"name":"my tomach hurt 100","steam_id":76561198046111695,"connected_time":478000000000,"state":"active","ping":59}]},{"server_id":403,"name":"Uncletopia | Chicago | 4 | All Maps","name_short":"chi-4","host":"chi-1.us.uncletopia.com","port":27045,"enabled":true,"region":"us-central","cc":"us","latitude":41.881832,"longitude":-87.62318,"reserved":0,"last_update":"0001-01-01T00:00:00Z","name_a2s":"Uncletopia | Chicago | 4 | All Maps","protocol":17,"map":"pl_pier","folder":"tf","game":"Team Fortress","app_id":440,"player_count":2,"max_players":24,"Bots":0,"server_type":"Dedicated","server_os":"Linux","password":true,"vac":true,"version":"7757534","steam_id":85568392924515193,"keywords":["nocrits","nodmgspread","payload","uncletopia"],"game_id":440,"stv_port":27046,"stv_name":"Uncletopia | Chicago | 4 | All Maps | STV","players":[{"user_id":199,"name":"Drewey","steam_id":76561199258609863,"connected_time":114000000000,"state":"active","ping":53},{"user_id":180,"name":"ExtremeDucks","steam_id":76561198351756464,"connected_time":2558000000000,"state":"active","ping":70}]},{"server_id":36,"name":"Uncletopia | Chicago | 5 | All Maps","name_short":"chi-5","host":"chi-2.us.uncletopia.com","port":27015,"enabled":true,"region":"us-central","cc":"us","latitude":41.881832,"longitude":-87.62318,"reserved":0,"last_update":"0001-01-01T00:00:00Z","name_a2s":"Uncletopia | Chicago | 5 | All Maps","protocol":17,"map":"koth_nucleus","folder":"tf","game":"Team Fortress","app_id":440,"player_count":23,"max_players":24,"Bots":0,"server_type":"Dedicated","server_os":"Linux","password":true,"vac":true,"version":"7757534","steam_id":85568392924866362,"keywords":["cp","nocrits","nodmgspread","uncletopia"],"game_id":440,"stv_port":27016,"stv_name":"Uncletopia | Chicago | 5 | All Maps | STV","players":[{"user_id":155,"name":"The Cool Man","steam_id":76561198096420556,"connected_time":561000000000,"state":"active","ping":98},{"user_id":147,"name":"Anomet","steam_id":76561198060246255,"connected_time":1422000000000,"state":"active","ping":63},{"user_id":156,"name":"quarterlome000","steam_id":76561199229700757,"connected_time":545000000000,"state":"active","ping":80},{"user_id":169,"name":"Darkfire","steam_id":76561198142201590,"connected_time":261000000000,"state":"active","ping":63},{"user_id":45,"name":"his flatulence","steam_id":76561198799404824,"connected_time":9641000000000,"state":"active","ping":70},{"user_id":172,"name":"BeyondM4d","steam_id":76561197991890558,"connected_time":154000000000,"state":"active","ping":75},{"user_id":160,"name":"motherfucker 2.0","steam_id":76561198141189209,"connected_time":407000000000,"state":"active","ping":64},{"user_id":158,"name":"pool shark","steam_id":76561198130191179,"connected_time":476000000000,"state":"active","ping":68},{"user_id":92,"name":"wolf_71","steam_id":76561198963570945,"connected_time":6044000000000,"state":"active","ping":68},{"user_id":174,"name":"Adawnby","steam_id":76561198103057295,"connected_time":89000000000,"state":"active","ping":79},{"user_id":161,"name":"colossal","steam_id":76561199005039000,"connected_time":382000000000,"state":"active","ping":85},{"user_id":114,"name":"creepycrawler","steam_id":76561198352016831,"connected_time":4125000000000,"state":"active","ping":66},{"user_id":162,"name":"Regice","steam_id":76561198049860998,"connected_time":327000000000,"state":"active","ping":75},{"user_id":163,"name":"Grand Piano Tuna","steam_id":76561198135137213,"connected_time":324000000000,"state":"active","ping":70},{"user_id":164,"name":"Idiot Prince (They/Them)","steam_id":76561198048205270,"connected_time":317000000000,"state":"active","ping":94},{"user_id":173,"name":"aquatic ambiance","steam_id":76561198042788986,"connected_time":138000000000,"state":"active","ping":84},{"user_id":165,"name":"Healing Weapons Guy","steam_id":76561198005608047,"connected_time":307000000000,"state":"active","ping":63},{"user_id":105,"name":"4+1MyriadFuturesCosMo@BousouFC","steam_id":76561198181929019,"connected_time":5377000000000,"state":"active","ping":48},{"user_id":166,"name":"Obama F. Kennedy","steam_id":76561198282499318,"connected_time":298000000000,"state":"active","ping":74},{"user_id":167,"name":"Registeel","steam_id":76561198068516556,"connected_time":294000000000,"state":"active","ping":104},{"user_id":168,"name":"Soul_Intern","steam_id":76561198310238109,"connected_time":283000000000,"state":"active","ping":108},{"user_id":148,"name":"MrPoopy","steam_id":76561199456009540,"connected_time":1330000000000,"state":"active","ping":90},{"user_id":175,"name":"the grunch","steam_id":76561199013160273,"connected_time":70000000000,"state":"active","ping":71}]},{"server_id":37,"name":"Uncletopia | Chicago | 6 | All Maps","name_short":"chi-6","host":"chi-2.us.uncletopia.com","port":27025,"enabled":true,"region":"us-central","cc":"us","latitude":41.881832,"longitude":-87.62318,"reserved":0,"last_update":"0001-01-01T00:00:00Z","name_a2s":"Uncletopia | Chicago | 6 | All Maps","protocol":17,"map":"cp_powerhouse","folder":"tf","game":"Team Fortress","app_id":440,"player_count":17,"max_players":24,"Bots":0,"server_type":"Dedicated","server_os":"Linux","password":true,"vac":true,"version":"7757534","steam_id":85568392924866363,"keywords":["cp","nocrits","nodmgspread","uncletopia"],"game_id":440,"stv_port":27026,"stv_name":"Uncletopia | Chicago | 6 | All Maps | STV","players":[{"user_id":95,"name":"r0zemary","steam_id":76561198128494897,"connected_time":486000000000,"state":"active","ping":79},{"user_id":85,"name":"hud_saytext_time 0","steam_id":76561198010327228,"connected_time":1169000000000,"state":"active","ping":162},{"user_id":97,"name":"Love","steam_id":76561199173445015,"connected_time":111000000000,"state":"active","ping":55},{"user_id":33,"name":"shake","steam_id":76561199064204750,"connected_time":4733000000000,"state":"active","ping":81},{"user_id":74,"name":"Scorpie Doodle","steam_id":76561198021845763,"connected_time":1773000000000,"state":"active","ping":47},{"user_id":99,"name":"onion","steam_id":76561198242311084,"connected_time":66000000000,"state":"active","ping":59},{"user_id":88,"name":"Red_Hatkins","steam_id":76561198214004105,"connected_time":769000000000,"state":"active","ping":85},{"user_id":28,"name":"Auggy","steam_id":76561198041816037,"connected_time":4968000000000,"state":"active","ping":98},{"user_id":29,"name":"Big Jon","steam_id":76561198402285099,"connected_time":4967000000000,"state":"active","ping":107},{"user_id":86,"name":"ClickityShiba","steam_id":76561199381626991,"connected_time":1150000000000,"state":"active","ping":71},{"user_id":100,"name":"exotic.luke","steam_id":76561198126466112,"connected_time":35000000000,"state":"active","ping":51},{"user_id":89,"name":"Breaded","steam_id":76561199006008898,"connected_time":698000000000,"state":"active","ping":73},{"user_id":78,"name":"Sideways Whoopi Goldberg","steam_id":76561198003736560,"connected_time":1525000000000,"state":"active","ping":58},{"user_id":65,"name":"thatguy_luigi","steam_id":76561198968055462,"connected_time":2648000000000,"state":"active","ping":73},{"user_id":94,"name":"Simply_Komeiji","steam_id":76561198354177703,"connected_time":554000000000,"state":"active","ping":85},{"user_id":77,"name":"Patriot Pills","steam_id":76561198381647349,"connected_time":1715000000000,"state":"active","ping":66},{"user_id":90,"name":"snowbird","steam_id":76561197961854666,"connected_time":682000000000,"state":"active","ping":64}]},{"server_id":38,"name":"Uncletopia | Chicago | 7 | Stopwatch Beta","name_short":"chi-7","host":"chi-2.us.uncletopia.com","port":27035,"enabled":true,"region":"us-central","cc":"us","latitude":41.881832,"longitude":-87.62318,"reserved":0,"last_update":"0001-01-01T00:00:00Z","name_a2s":"Uncletopia | Chicago | 7 | Stopwatch Beta","protocol":17,"map":"pl_barnblitz","folder":"tf","game":"Team Fortress","app_id":440,"player_count":0,"max_players":24,"Bots":0,"server_type":"Dedicated","server_os":"Linux","password":true,"vac":true,"version":"7757534","steam_id":85568392924866364,"keywords":["nocrits","nodmgspread","payload","uncletopia"],"game_id":440,"stv_port":27036,"stv_name":"Uncletopia | Chicago | 7 | Stopwatch Beta | STV","players":null},{"server_id":39,"name":"Uncletopia | Chicago | 8 | Community","name_short":"chi-8","host":"chi-2.us.uncletopia.com","port":27045,"enabled":true,"region":"us-central","cc":"us","latitude":41.881832,"longitude":-87.62318,"reserved":0,"last_update":"0001-01-01T00:00:00Z","name_a2s":"Uncletopia | Chicago | 8 | Community","protocol":17,"map":"workshop/cp_propaganda_b18.ugc1603743849","folder":"tf","game":"Team Fortress","app_id":440,"player_count":0,"max_players":24,"Bots":0,"server_type":"Dedicated","server_os":"Linux","password":true,"vac":true,"version":"7757534","steam_id":85568392924866365,"keywords":["cp","nocrits","nodmgspread","uncletopia"],"game_id":440,"stv_port":27046,"stv_name":"Uncletopia | Chicago | 8 | Community | STV","players":null},{"server_id":8,"name":"Uncletopia | Dallas | 1 | All Maps","name_short":"dal-1","host":"dal-1.us.uncletopia.com","port":27015,"enabled":true,"region":"us-central","cc":"us","latitude":32.779167,"longitude":-96.80889,"reserved":0,"last_update":"0001-01-01T00:00:00Z","name_a2s":"Uncletopia | Dallas | 1 | All Maps","protocol":17,"map":"pl_badwater","folder":"tf","game":"Team Fortress","app_id":440,"player_count":24,"max_players":24,"Bots":0,"server_type":"Dedicated","server_os":"Linux","password":true,"vac":true,"version":"7757534","steam_id":85568392924469986,"keywords":["nocrits","nodmgspread","payload","uncletopia"],"game_id":440,"stv_port":27016,"stv_name":"Uncletopia | Dallas | 1 | All Maps | STV","players":[{"user_id":28,"name":"Snoopy","steam_id":76561198273735974,"connected_time":2050000000000,"state":"active","ping":82},{"user_id":14,"name":"Mr.Pan","steam_id":76561198069030613,"connected_time":2738000000000,"state":"active","ping":67},{"user_id":15,"name":"$2.99 Shrimps","steam_id":76561198077272494,"connected_time":2713000000000,"state":"active","ping":67},{"user_id":16,"name":"Outlander","steam_id":76561197998995746,"connected_time":2596000000000,"state":"active","ping":69},{"user_id":68,"name":"Moppo","steam_id":76561198398328018,"connected_time":652000000000,"state":"active","ping":42},{"user_id":31,"name":"Alkimia","steam_id":76561198385763137,"connected_time":1934000000000,"state":"active","ping":257},{"user_id":71,"name":"Drinkable Milk","steam_id":76561199418706430,"connected_time":577000000000,"state":"active","ping":55},{"user_id":26,"name":"Lyn-Z Griffin","steam_id":76561198190257694,"connected_time":2225000000000,"state":"active","ping":71},{"user_id":69,"name":"Stained Drawers","steam_id":76561197991634108,"connected_time":628000000000,"state":"active","ping":85},{"user_id":22,"name":"Ape","steam_id":76561198132535311,"connected_time":2401000000000,"state":"active","ping":113},{"user_id":23,"name":"Blackbird","steam_id":76561198127818333,"connected_time":2396000000000,"state":"active","ping":87},{"user_id":70,"name":"money getter","steam_id":76561199065645094,"connected_time":618000000000,"state":"active","ping":72},{"user_id":29,"name":"capybara","steam_id":76561198182288455,"connected_time":2023000000000,"state":"active","ping":82},{"user_id":33,"name":"Snicksnork18","steam_id":76561198074342600,"connected_time":1837000000000,"state":"active","ping":87},{"user_id":74,"name":"Clyde","steam_id":76561198158206236,"connected_time":165000000000,"state":"active","ping":111},{"user_id":73,"name":"Sup m8","steam_id":76561198081659121,"connected_time":205000000000,"state":"active","ping":43},{"user_id":37,"name":"OldRavensFan","steam_id":76561198043919562,"connected_time":1659000000000,"state":"active","ping":77},{"user_id":38,"name":"cent","steam_id":76561199038072811,"connected_time":1643000000000,"state":"active","ping":74},{"user_id":39,"name":"HeisenBurger","steam_id":76561198040632080,"connected_time":1634000000000,"state":"active","ping":75},{"user_id":40,"name":"Jutsu","steam_id":76561198058671945,"connected_time":1577000000000,"state":"active","ping":76},{"user_id":41,"name":"Twinbear","steam_id":76561198122414857,"connected_time":1576000000000,"state":"active","ping":82},{"user_id":58,"name":"luminary","steam_id":76561198126358045,"connected_time":1327000000000,"state":"active","ping":91},{"user_id":60,"name":"一 デ︻(❛‿❛✿)","steam_id":76561198017686306,"connected_time":1265000000000,"state":"active","ping":175}]},{"server_id":108,"name":"Uncletopia | Dallas | 2 | All Maps","name_short":"dal-2","host":"dal-1.us.uncletopia.com","port":27025,"enabled":true,"region":"us-central","cc":"us","latitude":32.779167,"longitude":-96.80889,"reserved":0,"last_update":"0001-01-01T00:00:00Z","name_a2s":"Uncletopia | Dallas | 2 | All Maps","protocol":17,"map":"pl_borneo","folder":"tf","game":"Team Fortress","app_id":440,"player_count":23,"max_players":24,"Bots":0,"server_type":"Dedicated","server_os":"Linux","password":true,"vac":true,"version":"7757534","steam_id":85568392924469988,"keywords":["nocrits","nodmgspread","payload","uncletopia"],"game_id":440,"stv_port":27026,"stv_name":"Uncletopia | Dallas | 2 | All Maps | STV","players":[{"user_id":447,"name":"Fishstall","steam_id":76561198038126034,"connected_time":40000000000,"state":"active","ping":61},{"user_id":416,"name":"bigman1","steam_id":76561198050225055,"connected_time":1887000000000,"state":"active","ping":74},{"user_id":363,"name":"Pybro","steam_id":76561199019647814,"connected_time":4920000000000,"state":"active","ping":48},{"user_id":418,"name":"GPSYX thedittoguy","steam_id":76561199013129784,"connected_time":1804000000000,"state":"active","ping":47},{"user_id":395,"name":"Cofi","steam_id":76561199026721822,"connected_time":3335000000000,"state":"active","ping":83},{"user_id":319,"name":"Glaceon","steam_id":76561198177715869,"connected_time":8446000000000,"state":"active","ping":68},{"user_id":410,"name":"Cresant Ape","steam_id":76561198127425559,"connected_time":2588000000000,"state":"active","ping":44},{"user_id":430,"name":"mkl","steam_id":76561197986401685,"connected_time":891000000000,"state":"active","ping":59},{"user_id":439,"name":"QueenPinharam","steam_id":76561199015626409,"connected_time":623000000000,"state":"active","ping":65},{"user_id":402,"name":"Michaelpc1","steam_id":76561198088365519,"connected_time":2870000000000,"state":"active","ping":78},{"user_id":442,"name":"NATASCHA SUPREMACY","steam_id":76561198400058665,"connected_time":431000000000,"state":"active","ping":92},{"user_id":407,"name":"Hell's Reindeer","steam_id":76561198065310364,"connected_time":2716000000000,"state":"active","ping":75},{"user_id":440,"name":"scanners","steam_id":76561199183867556,"connected_time":613000000000,"state":"active","ping":113},{"user_id":421,"name":"Mayhem","steam_id":76561197993811868,"connected_time":1721000000000,"state":"active","ping":107},{"user_id":445,"name":"Smart Fella","steam_id":76561198397662124,"connected_time":161000000000,"state":"active","ping":69},{"user_id":444,"name":"Milf atrillerist Jakal","steam_id":76561198098769929,"connected_time":224000000000,"state":"active","ping":94},{"user_id":390,"name":"orange rind (3 cent wifi)","steam_id":76561198130242461,"connected_time":3680000000000,"state":"active","ping":54},{"user_id":434,"name":"Dr. Quack","steam_id":76561198260753684,"connected_time":817000000000,"state":"active","ping":90},{"user_id":408,"name":"spy","steam_id":76561198937717599,"connected_time":2634000000000,"state":"active","ping":39},{"user_id":435,"name":"Dude bro","steam_id":76561198249916746,"connected_time":809000000000,"state":"active","ping":76},{"user_id":436,"name":"jake","steam_id":76561199406261605,"connected_time":736000000000,"state":"active","ping":50},{"user_id":441,"name":"Donk","steam_id":76561198803472441,"connected_time":567000000000,"state":"active","ping":83},{"user_id":124,"name":"Joe Swanson","steam_id":76561199089907740,"connected_time":29300000000000,"state":"active","ping":68}]},{"server_id":5,"name":"Uncletopia | Frankfurt | 1 | All Maps","name_short":"frk-1","host":"frk-1.de.uncletopia.com","port":27015,"enabled":true,"region":"eu","cc":"de","latitude":50.110924,"longitude":8.682127,"reserved":0,"last_update":"0001-01-01T00:00:00Z","name_a2s":"Uncletopia | Frankfurt | 1 | All Maps","protocol":17,"map":"cp_altitude","folder":"tf","game":"Team Fortress","app_id":440,"player_count":22,"max_players":24,"Bots":0,"server_type":"Dedicated","server_os":"Linux","password":true,"vac":true,"version":"7757534","steam_id":85568392924469989,"keywords":["cp","nocrits","nodmgspread","uncletopia"],"game_id":440,"stv_port":27016,"stv_name":"Uncletopia | Frankfurt | 1 | All Maps | STV","players":[{"user_id":179,"name":"buko","steam_id":76561198349648942,"connected_time":1930000000000,"state":"active","ping":84},{"user_id":168,"name":"Matael","steam_id":76561198452200894,"connected_time":2328000000000,"state":"active","ping":65},{"user_id":164,"name":"ASAP","steam_id":76561198322078500,"connected_time":2416000000000,"state":"active","ping":117},{"user_id":207,"name":"somanylostthings","steam_id":76561199042470246,"connected_time":437000000000,"state":"active","ping":62},{"user_id":202,"name":"Fragirl #pizdaaim","steam_id":76561198323411853,"connected_time":796000000000,"state":"active","ping":77},{"user_id":169,"name":"WatchingTriple/Twitch.tv","steam_id":76561198189375493,"connected_time":2311000000000,"state":"active","ping":88},{"user_id":210,"name":"Simoh The Swoob","steam_id":76561198058078322,"connected_time":321000000000,"state":"active","ping":80},{"user_id":116,"name":"Balls","steam_id":76561198086400484,"connected_time":5208000000000,"state":"active","ping":87},{"user_id":211,"name":"Miku","steam_id":76561198041717890,"connected_time":246000000000,"state":"active","ping":76},{"user_id":187,"name":"Average","steam_id":76561198158411479,"connected_time":1750000000000,"state":"active","ping":77},{"user_id":208,"name":"e36 1.8","steam_id":76561198134203031,"connected_time":432000000000,"state":"active","ping":56},{"user_id":212,"name":"Meisnottoad","steam_id":76561198978650303,"connected_time":20000000000,"state":"active","ping":166},{"user_id":188,"name":"MANIFESTING HOGWARTS LEGACY","steam_id":76561198046921199,"connected_time":1616000000000,"state":"active","ping":61},{"user_id":209,"name":"and that's on Gek","steam_id":76561198104896547,"connected_time":412000000000,"state":"active","ping":75},{"user_id":194,"name":"---","steam_id":76561198027463207,"connected_time":1413000000000,"state":"active","ping":58},{"user_id":151,"name":"Flostro","steam_id":76561198259793697,"connected_time":3417000000000,"state":"active","ping":73},{"user_id":213,"name":"Latapi","steam_id":76561198071239933,"connected_time":18000000000,"state":"spawning","ping":76},{"user_id":180,"name":"Merc","steam_id":76561198044864067,"connected_time":1924000000000,"state":"active","ping":67},{"user_id":181,"name":"unnecessary","steam_id":76561197994492154,"connected_time":1917000000000,"state":"active","ping":67},{"user_id":183,"name":"Hookiest Owler","steam_id":76561198872013525,"connected_time":1895000000000,"state":"active","ping":91},{"user_id":200,"name":"Spajro","steam_id":76561198257383813,"connected_time":979000000000,"state":"active","ping":49},{"user_id":193,"name":"CAR DOOR","steam_id":76561198055283295,"connected_time":1466000000000,"state":"active","ping":48}]},{"server_id":110,"name":"Uncletopia | Frankfurt | 2 | All Maps","name_short":"frk-2","host":"frk-1.de.uncletopia.com","port":27025,"enabled":true,"region":"eu","cc":"de","latitude":50.110924,"longitude":8.682127,"reserved":0,"last_update":"0001-01-01T00:00:00Z","name_a2s":"Uncletopia | Frankfurt | 2 | All Maps","protocol":17,"map":"pl_barnblitz","folder":"tf","game":"Team Fortress","app_id":440,"player_count":0,"max_players":24,"Bots":0,"server_type":"Dedicated","server_os":"Linux","password":true,"vac":true,"version":"7757534","steam_id":85568392924469990,"keywords":["nocrits","nodmgspread","payload","uncletopia"],"game_id":440,"stv_port":27026,"stv_name":"Uncletopia | Frankfurt | 2 | All Maps | STV","players":null},{"server_id":308,"name":"Uncletopia | Frankfurt | 3 | All Maps","name_short":"frk-3","host":"frk-1.de.uncletopia.com","port":27035,"enabled":true,"region":"eu","cc":"de","latitude":50.110924,"longitude":8.682127,"reserved":0,"last_update":"0001-01-01T00:00:00Z","name_a2s":"Uncletopia | Frankfurt | 3 | All Maps","protocol":17,"map":"pl_borneo","folder":"tf","game":"Team Fortress","app_id":440,"player_count":24,"max_players":24,"Bots":0,"server_type":"Dedicated","server_os":"Linux","password":true,"vac":true,"version":"7757534","steam_id":85568392924504274,"keywords":["nocrits","nodmgspread","payload","uncletopia"],"game_id":440,"stv_port":27036,"stv_name":"Uncletopia | Frankfurt | 3 | All Maps | STV","players":[{"user_id":607,"name":"flappi","steam_id":76561198072892783,"connected_time":6222000000000,"state":"active","ping":58},{"user_id":673,"name":"Er Pomata","steam_id":76561198133085347,"connected_time":1159000000000,"state":"active","ping":60},{"user_id":683,"name":"Shwal","steam_id":76561198138840448,"connected_time":152000000000,"state":"active","ping":160},{"user_id":647,"name":"Bobirulez","steam_id":76561198009125458,"connected_time":2936000000000,"state":"active","ping":74},{"user_id":592,"name":"Raymus","steam_id":76561198021330407,"connected_time":7720000000000,"state":"active","ping":46},{"user_id":588,"name":"Silent Person","steam_id":76561198107763537,"connected_time":7975000000000,"state":"active","ping":65},{"user_id":666,"name":"jones","steam_id":76561198044434971,"connected_time":1438000000000,"state":"active","ping":58},{"user_id":662,"name":"Adrenaline","steam_id":76561197970852048,"connected_time":1615000000000,"state":"active","ping":63},{"user_id":657,"name":"BAGASSER","steam_id":76561198051283300,"connected_time":2265000000000,"state":"active","ping":75},{"user_id":684,"name":"Mussolini","steam_id":76561198218384865,"connected_time":118000000000,"state":"active","ping":94},{"user_id":677,"name":"mud","steam_id":76561198141497461,"connected_time":924000000000,"state":"active","ping":59},{"user_id":667,"name":"pizza time","steam_id":76561199015899793,"connected_time":1432000000000,"state":"active","ping":66},{"user_id":648,"name":"Hildreth","steam_id":76561197995254867,"connected_time":2337000000000,"state":"active","ping":60},{"user_id":675,"name":"Clitorina","steam_id":76561198077570815,"connected_time":1070000000000,"state":"active","ping":50},{"user_id":656,"name":"Knez","steam_id":76561198043806388,"connected_time":2275000000000,"state":"active","ping":61},{"user_id":678,"name":"tank","steam_id":76561198068027379,"connected_time":880000000000,"state":"active","ping":69},{"user_id":671,"name":"Spenji","steam_id":76561198126634202,"connected_time":1274000000000,"state":"active","ping":75},{"user_id":682,"name":"???","steam_id":76561198136959681,"connected_time":388000000000,"state":"active","ping":46},{"user_id":646,"name":"Udinese Dion","steam_id":76561198067931573,"connected_time":3056000000000,"state":"active","ping":41},{"user_id":685,"name":"hasansaeedifar","steam_id":76561198974563618,"connected_time":88000000000,"state":"active","ping":177},{"user_id":686,"name":"Superiumentarius","steam_id":76561198081642249,"connected_time":86000000000,"state":"active","ping":45},{"user_id":618,"name":"s a i","steam_id":76561197970379754,"connected_time":5567000000000,"state":"active","ping":48},{"user_id":661,"name":"me when im walking into class","steam_id":76561198048250715,"connected_time":2033000000000,"state":"active","ping":45},{"user_id":681,"name":"DECODE END","steam_id":76561198262910410,"connected_time":591000000000,"state":"active","ping":98}]},{"server_id":309,"name":"Uncletopia | Frankfurt | 4 | All Maps","name_short":"frk-4","host":"frk-1.de.uncletopia.com","port":27045,"enabled":true,"region":"eu","cc":"de","latitude":50.110924,"longitude":8.682127,"reserved":0,"last_update":"0001-01-01T00:00:00Z","name_a2s":"Uncletopia | Frankfurt | 4 | All Maps","protocol":17,"map":"koth_cascade","folder":"tf","game":"Team Fortress","app_id":440,"player_count":0,"max_players":24,"Bots":0,"server_type":"Dedicated","server_os":"Linux","password":true,"vac":true,"version":"7757534","steam_id":85568392924504275,"keywords":["cp","nocrits","nodmgspread","uncletopia"],"game_id":440,"stv_port":27046,"stv_name":"Uncletopia | Frankfurt | 4 | All Maps | STV","players":null},{"server_id":310,"name":"Uncletopia | Frankfurt | 5 | All Maps","name_short":"frk-5","host":"frk-1.de.uncletopia.com","port":27055,"enabled":true,"region":"eu","cc":"de","latitude":50.110924,"longitude":8.682127,"reserved":0,"last_update":"0001-01-01T00:00:00Z","name_a2s":"Uncletopia | Frankfurt | 5 | All Maps","protocol":17,"map":"pl_badwater","folder":"tf","game":"Team Fortress","app_id":440,"player_count":23,"max_players":24,"Bots":0,"server_type":"Dedicated","server_os":"Linux","password":true,"vac":true,"version":"7757534","steam_id":85568392924504277,"keywords":["nocrits","nodmgspread","payload","uncletopia"],"game_id":440,"stv_port":27056,"stv_name":"Uncletopia | Frankfurt | 5 | All Maps | STV","players":[{"user_id":667,"name":"outin","steam_id":76561198137734730,"connected_time":1961000000000,"state":"active","ping":73},{"user_id":675,"name":"elijah","steam_id":76561198093936708,"connected_time":1171000000000,"state":"active","ping":66},{"user_id":677,"name":"addicted","steam_id":76561199129801006,"connected_time":1140000000000,"state":"active","ping":46},{"user_id":689,"name":"rabbitface26","steam_id":76561198327540113,"connected_time":577000000000,"state":"active","ping":49},{"user_id":682,"name":"the babadook","steam_id":76561198040168682,"connected_time":1048000000000,"state":"active","ping":51},{"user_id":683,"name":"help","steam_id":76561199056338917,"connected_time":1025000000000,"state":"active","ping":174},{"user_id":673,"name":"badrobot","steam_id":76561198322878356,"connected_time":1471000000000,"state":"active","ping":104},{"user_id":688,"name":"Valentine","steam_id":76561198121343565,"connected_time":594000000000,"state":"active","ping":55},{"user_id":659,"name":"disc0rd","steam_id":76561197985965776,"connected_time":2238000000000,"state":"active","ping":60},{"user_id":679,"name":"adamΔ","steam_id":76561199007826093,"connected_time":1086000000000,"state":"active","ping":80},{"user_id":661,"name":"Captain Slow","steam_id":76561199071095638,"connected_time":2197000000000,"state":"active","ping":86},{"user_id":597,"name":"MAKENTAKEN","steam_id":76561199127359587,"connected_time":6561000000000,"state":"active","ping":94},{"user_id":622,"name":"KorieOne ❣","steam_id":76561197982998663,"connected_time":4199000000000,"state":"active","ping":67},{"user_id":693,"name":"fénix","steam_id":76561198083199151,"connected_time":412000000000,"state":"active","ping":61},{"user_id":670,"name":"koji","steam_id":76561198051636999,"connected_time":1781000000000,"state":"active","ping":48},{"user_id":690,"name":"Aimrow","steam_id":76561198023275245,"connected_time":567000000000,"state":"active","ping":76},{"user_id":692,"name":"Aesthetic Alcoholism","steam_id":76561198044418968,"connected_time":450000000000,"state":"active","ping":51},{"user_id":624,"name":".::[SerafeTTiN]::.","steam_id":76561198009471724,"connected_time":4169000000000,"state":"active","ping":92},{"user_id":691,"name":"a dollop of bird","steam_id":76561198089003514,"connected_time":541000000000,"state":"active","ping":49},{"user_id":665,"name":"lore","steam_id":76561198120984188,"connected_time":2107000000000,"state":"active","ping":61},{"user_id":684,"name":"Syd","steam_id":76561198020515027,"connected_time":996000000000,"state":"active","ping":83},{"user_id":694,"name":"OneLocalHero","steam_id":76561198075302482,"connected_time":307000000000,"state":"active","ping":71},{"user_id":686,"name":"Tomfool","steam_id":76561197993256481,"connected_time":918000000000,"state":"active","ping":76}]},{"server_id":311,"name":"Uncletopia | Frankfurt | 6 | All Maps","name_short":"frk-6","host":"frk-1.de.uncletopia.com","port":27065,"enabled":true,"region":"eu","cc":"de","latitude":50.110924,"longitude":8.682127,"reserved":0,"last_update":"0001-01-01T00:00:00Z","name_a2s":"Uncletopia | Frankfurt | 6 | All Maps","protocol":17,"map":"pl_frontier_final","folder":"tf","game":"Team Fortress","app_id":440,"player_count":24,"max_players":24,"Bots":0,"server_type":"Dedicated","server_os":"Linux","password":true,"vac":true,"version":"7757534","steam_id":85568392924504278,"keywords":["nocrits","nodmgspread","payload","uncletopia"],"game_id":440,"stv_port":27066,"stv_name":"Uncletopia | Frankfurt | 6 | All Maps | STV","players":[{"user_id":367,"name":"♥ Emma ♥","steam_id":76561198046796406,"connected_time":1819000000000,"state":"active","ping":44},{"user_id":339,"name":"texory","steam_id":76561198060339391,"connected_time":3275000000000,"state":"active","ping":45},{"user_id":346,"name":"sex havin'","steam_id":76561198169857427,"connected_time":2734000000000,"state":"active","ping":65},{"user_id":380,"name":"il","steam_id":76561198122662610,"connected_time":838000000000,"state":"active","ping":76},{"user_id":335,"name":"Drekadóttir","steam_id":76561198119979169,"connected_time":3405000000000,"state":"active","ping":72},{"user_id":383,"name":"mp1mp2mp3","steam_id":76561198088967665,"connected_time":516000000000,"state":"active","ping":86},{"user_id":345,"name":"Jack Dickfister","steam_id":76561198145145810,"connected_time":2835000000000,"state":"active","ping":56},{"user_id":360,"name":"finbar","steam_id":76561198056812396,"connected_time":2290000000000,"state":"active","ping":76},{"user_id":393,"name":"andiduude","steam_id":76561198991651632,"connected_time":72000000000,"state":"active","ping":61},{"user_id":386,"name":"let me cook","steam_id":76561198010380786,"connected_time":400000000000,"state":"active","ping":60},{"user_id":363,"name":"rz-/Atomic Punch","steam_id":76561199195508541,"connected_time":2111000000000,"state":"active","ping":80},{"user_id":372,"name":"Gryoss","steam_id":76561197999837111,"connected_time":1672000000000,"state":"active","ping":104},{"user_id":377,"name":"Doctor Marijuana","steam_id":76561198288289879,"connected_time":1493000000000,"state":"active","ping":66},{"user_id":366,"name":"ldshwt","steam_id":76561198090364357,"connected_time":2010000000000,"state":"active","ping":46},{"user_id":387,"name":"Qpangfire","steam_id":76561198094354139,"connected_time":376000000000,"state":"active","ping":45},{"user_id":389,"name":"D_Ink","steam_id":76561198267716662,"connected_time":197000000000,"state":"active","ping":57},{"user_id":364,"name":"Sigma Bale","steam_id":76561198365750503,"connected_time":2099000000000,"state":"active","ping":52},{"user_id":390,"name":"Butt taste tester","steam_id":76561198274105878,"connected_time":120000000000,"state":"active","ping":88},{"user_id":375,"name":"tired","steam_id":76561198046838168,"connected_time":1604000000000,"state":"active","ping":45},{"user_id":365,"name":"ruskie (fake)","steam_id":76561199106215999,"connected_time":2071000000000,"state":"active","ping":139},{"user_id":391,"name":"Nouth","steam_id":76561198027054119,"connected_time":104000000000,"state":"active","ping":66},{"user_id":379,"name":"[T]aKer","steam_id":76561198001778013,"connected_time":1089000000000,"state":"active","ping":54},{"user_id":392,"name":"feed and seed","steam_id":76561199088046420,"connected_time":87000000000,"state":"active","ping":60},{"user_id":382,"name":"I AM THE ONE WHO BUILDS","steam_id":76561199438413886,"connected_time":582000000000,"state":"active","ping":181}]},{"server_id":23,"name":"Uncletopia | Frankfurt | 7 | Stopwatch Beta","name_short":"frk-7","host":"frk-1.de.uncletopia.com","port":27075,"enabled":true,"region":"eu","cc":"de","latitude":50.110924,"longitude":8.682127,"reserved":0,"last_update":"0001-01-01T00:00:00Z","name_a2s":"Uncletopia | Frankfurt | 7 | Stopwatch Beta","protocol":17,"map":"workshop/koth_ramjam_rc1.ugc459778887","folder":"tf","game":"Team Fortress","app_id":440,"player_count":0,"max_players":24,"Bots":0,"server_type":"Dedicated","server_os":"Linux","password":true,"vac":true,"version":"7757534","steam_id":85568392924742827,"keywords":["cp","nocrits","nodmgspread","uncletopia"],"game_id":440,"stv_port":27076,"stv_name":"Uncletopia | Frankfurt | 7 | Stopwatch Beta | STV","players":null},{"server_id":24,"name":"Uncletopia | Frankfurt | 8 | Community","name_short":"frk-8","host":"frk-1.de.uncletopia.com","port":27085,"enabled":true,"region":"eu","cc":"de","latitude":50.110924,"longitude":8.682127,"reserved":0,"last_update":"0001-01-01T00:00:00Z","name_a2s":"Uncletopia | Frankfurt | 8 | Community","protocol":17,"map":"workshop/koth_ashville_final.ugc2130459942","folder":"tf","game":"Team Fortress","app_id":440,"player_count":0,"max_players":24,"Bots":0,"server_type":"Dedicated","server_os":"Linux","password":true,"vac":true,"version":"7757534","steam_id":85568392924742828,"keywords":["cp","nocrits","nodmgspread","uncletopia"],"game_id":440,"stv_port":27086,"stv_name":"Uncletopia | Frankfurt | 8 | Community | STV","players":null},{"server_id":202,"name":"Uncletopia | Hong Kong | 1 | All Maps","name_short":"hgk-1","host":"hgk-1.hk.uncletopia.com","port":27015,"enabled":true,"region":"asia","cc":"hk","latitude":22.302711,"longitude":114.177216,"reserved":0,"last_update":"0001-01-01T00:00:00Z","name_a2s":"Uncletopia | Hong Kong | 1 | All Maps","protocol":17,"map":"pl_borneo","folder":"tf","game":"Team Fortress","app_id":440,"player_count":0,"max_players":24,"Bots":0,"server_type":"Dedicated","server_os":"Linux","password":true,"vac":true,"version":"7757534","steam_id":85568392924494504,"keywords":["nocrits","nodmgspread","payload","uncletopia"],"game_id":440,"stv_port":27016,"stv_name":"Uncletopia | Hong Kong | 1 | All Maps | STV","players":null},{"server_id":1,"name":"Uncletopia | Los Angeles | 1 | All Maps","name_short":"lax-1","host":"lax-1.us.uncletopia.com","port":27015,"enabled":true,"region":"us-west","cc":"us","latitude":33.94279,"longitude":-118.41004,"reserved":0,"last_update":"0001-01-01T00:00:00Z","name_a2s":"Uncletopia | Los Angeles | 1 | All Maps","protocol":17,"map":"pl_pier","folder":"tf","game":"Team Fortress","app_id":440,"player_count":0,"max_players":24,"Bots":0,"server_type":"Dedicated","server_os":"Linux","password":true,"vac":true,"version":"7757534","steam_id":85568392924469991,"keywords":["nocrits","nodmgspread","payload","uncletopia"],"game_id":440,"stv_port":27016,"stv_name":"Uncletopia | Los Angeles | 1 | All Maps | STV","players":null},{"server_id":112,"name":"Uncletopia | Los Angeles | 2 | All Maps","name_short":"lax-2","host":"lax-1.us.uncletopia.com","port":27025,"enabled":true,"region":"us-west","cc":"us","latitude":33.94279,"longitude":-118.41004,"reserved":0,"last_update":"0001-01-01T00:00:00Z","name_a2s":"Uncletopia | Los Angeles | 2 | All Maps","protocol":17,"map":"pl_frontier_final","folder":"tf","game":"Team Fortress","app_id":440,"player_count":0,"max_players":24,"Bots":0,"server_type":"Dedicated","server_os":"Linux","password":true,"vac":true,"version":"7757534","steam_id":85568392924469992,"keywords":["nocrits","nodmgspread","payload","uncletopia"],"game_id":440,"stv_port":27026,"stv_name":"Uncletopia | Los Angeles | 2 | All Maps | STV","players":null},{"server_id":324,"name":"Uncletopia | Los Angeles | 3 | All Maps","name_short":"lax-3","host":"lax-1.us.uncletopia.com","port":27035,"enabled":true,"region":"us-west","cc":"us","latitude":33.94279,"longitude":-118.41004,"reserved":0,"last_update":"0001-01-01T00:00:00Z","name_a2s":"Uncletopia | Los Angeles | 3 | All Maps","protocol":17,"map":"cp_dustbowl","folder":"tf","game":"Team Fortress","app_id":440,"player_count":0,"max_players":24,"Bots":0,"server_type":"Dedicated","server_os":"Linux","password":true,"vac":true,"version":"7757534","steam_id":85568392924510198,"keywords":["cp","nocrits","nodmgspread","uncletopia"],"game_id":440,"stv_port":27036,"stv_name":"Uncletopia | Los Angeles | 3 | All Maps | STV","players":null},{"server_id":25,"name":"Uncletopia | Los Angeles | 4 | Stopwatch Beta","name_short":"lax-4","host":"lax-1.us.uncletopia.com","port":27045,"enabled":true,"region":"us-west","cc":"us","latitude":33.94279,"longitude":-118.41004,"reserved":0,"last_update":"0001-01-01T00:00:00Z","name_a2s":"Uncletopia | Los Angeles | 4 | Stopwatch Beta","protocol":17,"map":"pl_swiftwater_final1","folder":"tf","game":"Team Fortress","app_id":440,"player_count":0,"max_players":24,"Bots":0,"server_type":"Dedicated","server_os":"Linux","password":true,"vac":true,"version":"7757534","steam_id":85568392924510199,"keywords":["nocrits","nodmgspread","payload","uncletopia"],"game_id":440,"stv_port":27046,"stv_name":"Uncletopia | Los Angeles | 4 | Stopwatch Beta | STV","players":null},{"server_id":11,"name":"Uncletopia | London | 1 | All Maps","name_short":"lon-1","host":"lon-1.uk.uncletopia.com","port":27015,"enabled":true,"region":"eu","cc":"gb","latitude":51.509865,"longitude":-0.118092,"reserved":0,"last_update":"0001-01-01T00:00:00Z","name_a2s":"Uncletopia | London | 1 | All Maps","protocol":17,"map":"cp_steel","folder":"tf","game":"Team Fortress","app_id":440,"player_count":24,"max_players":24,"Bots":0,"server_type":"Dedicated","server_os":"Linux","password":true,"vac":true,"version":"7757534","steam_id":85568392924367362,"keywords":["cp","nocrits","nodmgspread","uncletopia"],"game_id":440,"stv_port":27016,"stv_name":"Uncletopia | London | 1 | All Maps | STV","players":[{"user_id":677,"name":"Robr","steam_id":76561198321723252,"connected_time":926000000000,"state":"active","ping":54},{"user_id":691,"name":"AsuX","steam_id":76561197990333289,"connected_time":335000000000,"state":"active","ping":60},{"user_id":694,"name":"another penguin","steam_id":76561198004044899,"connected_time":37000000000,"state":"spawning","ping":101},{"user_id":648,"name":"Kaptin Badrukk","steam_id":76561198048011649,"connected_time":2967000000000,"state":"active","ping":54},{"user_id":678,"name":"Voks_","steam_id":76561198159687785,"connected_time":893000000000,"state":"active","ping":83},{"user_id":660,"name":"teddy","steam_id":76561198007436837,"connected_time":1731000000000,"state":"active","ping":43},{"user_id":671,"name":"Meddler","steam_id":76561198033001402,"connected_time":1241000000000,"state":"active","ping":45},{"user_id":679,"name":"Stabbyratbag","steam_id":76561198119531916,"connected_time":857000000000,"state":"active","ping":44},{"user_id":672,"name":"Slav-matros","steam_id":76561198251977912,"connected_time":1227000000000,"state":"active","ping":63},{"user_id":674,"name":"Garoiop","steam_id":76561198082326459,"connected_time":1135000000000,"state":"active","ping":38},{"user_id":681,"name":"Juiceydough","steam_id":76561197997323419,"connected_time":761000000000,"state":"active","ping":88},{"user_id":693,"name":"GuSkand","steam_id":76561198043775605,"connected_time":247000000000,"state":"active","ping":85},{"user_id":656,"name":"dn4k","steam_id":76561199221755690,"connected_time":2533000000000,"state":"active","ping":89},{"user_id":662,"name":"FoglKotHaufn","steam_id":76561199473192754,"connected_time":1702000000000,"state":"active","ping":84},{"user_id":651,"name":"Gearless","steam_id":76561198362367074,"connected_time":2803000000000,"state":"active","ping":84},{"user_id":659,"name":"Volcyy","steam_id":76561198063979124,"connected_time":2034000000000,"state":"active","ping":57},{"user_id":643,"name":"AYE","steam_id":76561198181368101,"connected_time":3244000000000,"state":"active","ping":64},{"user_id":685,"name":"yasser","steam_id":76561198103973320,"connected_time":655000000000,"state":"active","ping":104},{"user_id":669,"name":"ciliorkun18","steam_id":76561198228942500,"connected_time":1417000000000,"state":"active","ping":94},{"user_id":649,"name":"Hudson Hornet","steam_id":76561198084705501,"connected_time":2905000000000,"state":"active","ping":75},{"user_id":686,"name":"Homosapien","steam_id":76561197972035953,"connected_time":636000000000,"state":"active","ping":60},{"user_id":687,"name":"Tofu'","steam_id":76561197984621343,"connected_time":627000000000,"state":"active","ping":48},{"user_id":690,"name":"HeroOfTime1435","steam_id":76561198414622966,"connected_time":403000000000,"state":"active","ping":129}]},{"server_id":114,"name":"Uncletopia | London | 2 | All Maps","name_short":"lon-2","host":"lon-1.uk.uncletopia.com","port":27025,"enabled":true,"region":"eu","cc":"gb","latitude":51.509865,"longitude":-0.118092,"reserved":0,"last_update":"0001-01-01T00:00:00Z","name_a2s":"Uncletopia | London | 2 | All Maps","protocol":17,"map":"pl_upward","folder":"tf","game":"Team Fortress","app_id":440,"player_count":24,"max_players":24,"Bots":0,"server_type":"Dedicated","server_os":"Linux","password":true,"vac":true,"version":"7757534","steam_id":85568392924470941,"keywords":["nocrits","nodmgspread","payload","uncletopia"],"game_id":440,"stv_port":27026,"stv_name":"Uncletopia | London | 2 | All Maps | STV","players":[{"user_id":411,"name":"Grim the lemon","steam_id":76561199083433988,"connected_time":2033000000000,"state":"active","ping":45},{"user_id":433,"name":"Alice in Rubberland","steam_id":76561198087328346,"connected_time":366000000000,"state":"active","ping":135},{"user_id":440,"name":"MARCEL","steam_id":76561198083122029,"connected_time":99000000000,"state":"active","ping":105},{"user_id":434,"name":"cloud","steam_id":76561198179768931,"connected_time":349000000000,"state":"active","ping":60},{"user_id":406,"name":"Purps","steam_id":76561198053886680,"connected_time":2459000000000,"state":"active","ping":45},{"user_id":344,"name":"Yuzu","steam_id":76561198121694613,"connected_time":8475000000000,"state":"active","ping":46},{"user_id":437,"name":"Peanut","steam_id":76561198018865486,"connected_time":271000000000,"state":"active","ping":73},{"user_id":435,"name":"Benzo Fury","steam_id":76561198025259336,"connected_time":302000000000,"state":"active","ping":41},{"user_id":436,"name":"。。。","steam_id":76561198101624996,"connected_time":293000000000,"state":"active","ping":93},{"user_id":438,"name":"Hoho","steam_id":76561198819835663,"connected_time":203000000000,"state":"active","ping":61},{"user_id":425,"name":"dd","steam_id":76561198257836694,"connected_time":701000000000,"state":"active","ping":45},{"user_id":431,"name":"Dagda","steam_id":76561198871136698,"connected_time":520000000000,"state":"active","ping":40},{"user_id":403,"name":"ELON MUSK","steam_id":76561198132788284,"connected_time":2881000000000,"state":"active","ping":55},{"user_id":439,"name":"Artur ☻","steam_id":76561198264297604,"connected_time":195000000000,"state":"active","ping":70},{"user_id":428,"name":"Boardie","steam_id":76561198215700300,"connected_time":559000000000,"state":"active","ping":54},{"user_id":423,"name":"cool clothes + attitude","steam_id":76561198034955422,"connected_time":806000000000,"state":"active","ping":55},{"user_id":441,"name":"Jooji_000","steam_id":76561199029194496,"connected_time":54000000000,"state":"active","ping":163},{"user_id":426,"name":"heck","steam_id":76561198953767140,"connected_time":656000000000,"state":"active","ping":43},{"user_id":427,"name":"Night Fury","steam_id":76561197995207032,"connected_time":612000000000,"state":"active","ping":107},{"user_id":405,"name":"rummy","steam_id":76561197997573379,"connected_time":2785000000000,"state":"active","ping":43},{"user_id":442,"name":"InsectKing","steam_id":76561199013519071,"connected_time":40000000000,"state":"active","ping":41},{"user_id":443,"name":"lanzer","steam_id":76561198049983016,"connected_time":29000000000,"state":"spawning","ping":119},{"user_id":444,"name":"kie","steam_id":76561198074679933,"connected_time":23000000000,"state":"spawning","ping":125},{"user_id":399,"name":"Well, off to hang myself","steam_id":76561198053374944,"connected_time":3184000000000,"state":"active","ping":93}]},{"server_id":320,"name":"Uncletopia | London | 3 | All Maps","name_short":"lon-3","host":"lon-1.uk.uncletopia.com","port":27035,"enabled":true,"region":"eu","cc":"gb","latitude":51.509865,"longitude":-0.118092,"reserved":0,"last_update":"0001-01-01T00:00:00Z","name_a2s":"Uncletopia | London | 3 | All Maps","protocol":17,"map":"pl_upward","folder":"tf","game":"Team Fortress","app_id":440,"player_count":18,"max_players":24,"Bots":0,"server_type":"Dedicated","server_os":"Linux","password":true,"vac":true,"version":"7757534","steam_id":85568392924510192,"keywords":["nocrits","nodmgspread","payload","uncletopia"],"game_id":440,"stv_port":27036,"stv_name":"Uncletopia | London | 3 | All Maps | STV","players":[{"user_id":565,"name":"fshfkr","steam_id":76561198095979282,"connected_time":2087000000000,"state":"active","ping":38},{"user_id":587,"name":"Danil","steam_id":76561198799249874,"connected_time":958000000000,"state":"active","ping":61},{"user_id":589,"name":"hades","steam_id":76561199435854673,"connected_time":532000000000,"state":"active","ping":45},{"user_id":596,"name":"Dougie","steam_id":76561198072245471,"connected_time":230000000000,"state":"active","ping":41},{"user_id":590,"name":"Janti ❤  #NEWTF2Hunt","steam_id":76561199387238623,"connected_time":517000000000,"state":"active","ping":112},{"user_id":591,"name":"quickfast","steam_id":76561199438900919,"connected_time":444000000000,"state":"active","ping":37},{"user_id":597,"name":"brandoncg04","steam_id":76561199189398427,"connected_time":84000000000,"state":"active","ping":114},{"user_id":563,"name":"Yelowchy","steam_id":76561198199416121,"connected_time":2243000000000,"state":"active","ping":68},{"user_id":579,"name":"Big Al","steam_id":76561198067692439,"connected_time":1557000000000,"state":"active","ping":112},{"user_id":593,"name":"Portello","steam_id":76561198002959134,"connected_time":339000000000,"state":"active","ping":67},{"user_id":594,"name":"rozen","steam_id":76561198119167317,"connected_time":330000000000,"state":"active","ping":50},{"user_id":539,"name":"Unfortunate","steam_id":76561198125500777,"connected_time":3518000000000,"state":"active","ping":94},{"user_id":595,"name":"Definitely J.P. Morgan","steam_id":76561199122376235,"connected_time":263000000000,"state":"active","ping":159},{"user_id":556,"name":"nutlube","steam_id":76561198128831131,"connected_time":2906000000000,"state":"active","ping":65},{"user_id":598,"name":"bachusa1657","steam_id":76561198202175911,"connected_time":43000000000,"state":"active","ping":77},{"user_id":599,"name":"Karvahattu Hemuli","steam_id":76561198118334653,"connected_time":34000000000,"state":"spawning","ping":74},{"user_id":564,"name":"Chaine","steam_id":76561198088660956,"connected_time":2192000000000,"state":"active","ping":78},{"user_id":554,"name":"A Featherless Biped","steam_id":76561198307904901,"connected_time":3059000000000,"state":"active","ping":53}]},{"server_id":321,"name":"Uncletopia | London | 4 | All Maps","name_short":"lon-4","host":"lon-1.uk.uncletopia.com","port":27045,"enabled":true,"region":"eu","cc":"gb","latitude":51.509865,"longitude":-0.118092,"reserved":0,"last_update":"0001-01-01T00:00:00Z","name_a2s":"Uncletopia | London | 4 | All Maps","protocol":17,"map":"koth_viaduct","folder":"tf","game":"Team Fortress","app_id":440,"player_count":0,"max_players":24,"Bots":0,"server_type":"Dedicated","server_os":"Linux","password":true,"vac":true,"version":"7757534","steam_id":85568392924510193,"keywords":["cp","nocrits","nodmgspread","uncletopia"],"game_id":440,"stv_port":27046,"stv_name":"Uncletopia | London | 4 | All Maps | STV","players":null},{"server_id":21,"name":"Uncletopia | London | 5 | All Maps","name_short":"lon-5","host":"lon-1.uk.uncletopia.com","port":27055,"enabled":true,"region":"eu","cc":"gb","latitude":51.509865,"longitude":-0.118092,"reserved":0,"last_update":"0001-01-01T00:00:00Z","name_a2s":"Uncletopia | London | 5 | All Maps","protocol":17,"map":"pl_pier","folder":"tf","game":"Team Fortress","app_id":440,"player_count":4,"max_players":24,"Bots":0,"server_type":"Dedicated","server_os":"Linux","password":true,"vac":true,"version":"7757534","steam_id":85568392924742829,"keywords":["nocrits","nodmgspread","payload","uncletopia"],"game_id":440,"stv_port":27056,"stv_name":"Uncletopia | London | 5 | All Maps | STV","players":[{"user_id":170,"name":"I AM DOT","steam_id":76561198354118090,"connected_time":3045000000000,"state":"active","ping":84},{"user_id":125,"name":"Nox Equites","steam_id":76561198115438449,"connected_time":6965000000000,"state":"active","ping":99},{"user_id":190,"name":"random_player691","steam_id":76561199209946306,"connected_time":1769000000000,"state":"active","ping":49},{"user_id":191,"name":"Arcader","steam_id":76561198109860110,"connected_time":1748000000000,"state":"active","ping":70}]},{"server_id":22,"name":"Uncletopia | London | 6 | All Maps","name_short":"lon-6","host":"lon-1.uk.uncletopia.com","port":27065,"enabled":true,"region":"eu","cc":"gb","latitude":51.509865,"longitude":-0.118092,"reserved":0,"last_update":"0001-01-01T00:00:00Z","name_a2s":"Uncletopia | London | 6 | All Maps","protocol":17,"map":"cp_dustbowl","folder":"tf","game":"Team Fortress","app_id":440,"player_count":0,"max_players":24,"Bots":0,"server_type":"Dedicated","server_os":"Linux","password":true,"vac":true,"version":"7757534","steam_id":85568392924742830,"keywords":["cp","nocrits","nodmgspread","uncletopia"],"game_id":440,"stv_port":27066,"stv_name":"Uncletopia | London | 6 | All Maps | STV","players":null},{"server_id":40,"name":"Uncletopia | London | 7 | No Payload","name_short":"lon-7","host":"lon-1.uk.uncletopia.com","port":27075,"enabled":true,"region":"eu","cc":"gb","latitude":51.509865,"longitude":-0.118092,"reserved":0,"last_update":"0001-01-01T00:00:00Z","name_a2s":"Uncletopia | London | 7 | No Payload","protocol":17,"map":"koth_king","folder":"tf","game":"Team Fortress","app_id":440,"player_count":2,"max_players":24,"Bots":0,"server_type":"Dedicated","server_os":"Linux","password":true,"vac":true,"version":"7757534","steam_id":85568392924964314,"keywords":["cp","nocrits","nodmgspread","uncletopia"],"game_id":440,"stv_port":27076,"stv_name":"Uncletopia | London | 7 | No Payload | STV","players":[{"user_id":148,"name":"Pinkchup","steam_id":76561198106802803,"connected_time":105000000000,"state":"active","ping":76},{"user_id":149,"name":"Minimi","steam_id":76561198873850443,"connected_time":17000000000,"state":"active","ping":40}]},{"server_id":41,"name":"Uncletopia | London | 8 | Community","name_short":"lon-8","host":"lon-1.uk.uncletopia.com","port":27085,"enabled":true,"region":"eu","cc":"gb","latitude":51.509865,"longitude":-0.118092,"reserved":0,"last_update":"0001-01-01T00:00:00Z","name_a2s":"Uncletopia | London | 8 | Community","protocol":17,"map":"workshop/pl_highwood_b13.ugc1769496557","folder":"tf","game":"Team Fortress","app_id":440,"player_count":0,"max_players":24,"Bots":0,"server_type":"Dedicated","server_os":"Linux","password":true,"vac":true,"version":"7757534","steam_id":85568392924964315,"keywords":["nocrits","nodmgspread","payload","uncletopia"],"game_id":440,"stv_port":27086,"stv_name":"Uncletopia | London | 8 | Community | STV","players":null},{"server_id":300,"name":"Uncletopia | Montréal | 1 | All Maps","name_short":"mtl-1","host":"mtl-1.ca.uncletopia.com","port":27015,"enabled":true,"region":"us-east","cc":"ca","latitude":45.50889,"longitude":-73.56167,"reserved":0,"last_update":"0001-01-01T00:00:00Z","name_a2s":"Uncletopia | Montréal | 1 | All Maps","protocol":17,"map":"koth_viaduct","folder":"tf","game":"Team Fortress","app_id":440,"player_count":0,"max_players":24,"Bots":0,"server_type":"Dedicated","server_os":"Linux","password":true,"vac":true,"version":"7757534","steam_id":85568392924500087,"keywords":["cp","nocrits","nodmgspread","uncletopia"],"game_id":440,"stv_port":27016,"stv_name":"Uncletopia | Montréal | 1 | All Maps | STV","players":null},{"server_id":301,"name":"Uncletopia | Montréal | 2 | All Maps","name_short":"mtl-2","host":"mtl-1.ca.uncletopia.com","port":27025,"enabled":true,"region":"us-east","cc":"ca","latitude":45.50889,"longitude":-73.56167,"reserved":0,"last_update":"0001-01-01T00:00:00Z","name_a2s":"Uncletopia | Montréal | 2 | All Maps","protocol":17,"map":"pl_snowycoast","folder":"tf","game":"Team Fortress","app_id":440,"player_count":0,"max_players":24,"Bots":0,"server_type":"Dedicated","server_os":"Linux","password":true,"vac":true,"version":"7757534","steam_id":85568392924500088,"keywords":["nocrits","nodmgspread","payload","uncletopia"],"game_id":440,"stv_port":27026,"stv_name":"Uncletopia | Montréal | 2 | All Maps | STV","players":null},{"server_id":302,"name":"Uncletopia | Montréal | 3 | All Maps","name_short":"mtl-3","host":"mtl-1.ca.uncletopia.com","port":27035,"enabled":true,"region":"us-east","cc":"ca","latitude":45.50889,"longitude":-73.56167,"reserved":0,"last_update":"0001-01-01T00:00:00Z","name_a2s":"Uncletopia | Montréal | 3 | All Maps","protocol":17,"map":"pl_swiftwater_final1","folder":"tf","game":"Team Fortress","app_id":440,"player_count":0,"max_players":24,"Bots":0,"server_type":"Dedicated","server_os":"Linux","password":true,"vac":true,"version":"7757534","steam_id":85568392924500089,"keywords":["nocrits","nodmgspread","payload","uncletopia"],"game_id":440,"stv_port":27036,"stv_name":"Uncletopia | Montréal | 3 | All Maps | STV","players":null},{"server_id":303,"name":"Uncletopia | Montréal | 4 | No Payload","name_short":"mtl-4","host":"mtl-1.ca.uncletopia.com","port":27045,"enabled":true,"region":"us-east","cc":"ca","latitude":45.50889,"longitude":-73.56167,"reserved":0,"last_update":"0001-01-01T00:00:00Z","name_a2s":"Uncletopia | Montréal | 4 | No Payload","protocol":17,"map":"cp_gravelpit","folder":"tf","game":"Team Fortress","app_id":440,"player_count":0,"max_players":24,"Bots":0,"server_type":"Dedicated","server_os":"Linux","password":true,"vac":true,"version":"7757534","steam_id":85568392924500090,"keywords":["cp","nocrits","nodmgspread","uncletopia"],"game_id":440,"stv_port":27046,"stv_name":"Uncletopia | Montréal | 4 | No Payload | STV","players":null},{"server_id":13,"name":"Uncletopia | New York City | 1 | All Maps","name_short":"nyc-1","host":"nyc-1.us.uncletopia.com","port":27015,"enabled":true,"region":"us-east","cc":"us","latitude":40.73061,"longitude":-73.93524,"reserved":0,"last_update":"0001-01-01T00:00:00Z","name_a2s":"Uncletopia | New York City | 1 | All Maps","protocol":17,"map":"pl_snowycoast","folder":"tf","game":"Team Fortress","app_id":440,"player_count":24,"max_players":24,"Bots":0,"server_type":"Dedicated","server_os":"Linux","password":true,"vac":true,"version":"7757534","steam_id":85568392924469993,"keywords":["nocrits","nodmgspread","payload","uncletopia"],"game_id":440,"stv_port":27016,"stv_name":"Uncletopia | New York City | 1 | All Maps | STV","players":[{"user_id":78,"name":"WeegeePJ","steam_id":76561199383362382,"connected_time":5893000000000,"state":"active","ping":63},{"user_id":143,"name":"bink","steam_id":76561198110934401,"connected_time":658000000000,"state":"active","ping":59},{"user_id":150,"name":"Phaser11213","steam_id":76561199187388456,"connected_time":452000000000,"state":"active","ping":94},{"user_id":152,"name":"gamer girl scout","steam_id":76561198929109037,"connected_time":366000000000,"state":"active","ping":67},{"user_id":148,"name":"Bad Rollout","steam_id":76561197971948876,"connected_time":498000000000,"state":"active","ping":74},{"user_id":125,"name":"yer_nerd","steam_id":76561199435454093,"connected_time":2206000000000,"state":"active","ping":59},{"user_id":120,"name":"FS Jorda","steam_id":76561198071421459,"connected_time":3217000000000,"state":"active","ping":30},{"user_id":141,"name":"Hentai Lord","steam_id":76561199030449654,"connected_time":933000000000,"state":"active","ping":66},{"user_id":149,"name":"Coughdrop Addict [F2P]","steam_id":76561199254281550,"connected_time":478000000000,"state":"active","ping":54},{"user_id":153,"name":"Lucille_Bluth","steam_id":76561198206133916,"connected_time":338000000000,"state":"active","ping":65},{"user_id":146,"name":"Roni1213","steam_id":76561198408533295,"connected_time":520000000000,"state":"active","ping":112},{"user_id":154,"name":"Invisible Teammate","steam_id":76561197986477544,"connected_time":337000000000,"state":"active","ping":74},{"user_id":156,"name":"BerzerktCPU","steam_id":76561198212792340,"connected_time":172000000000,"state":"active","ping":81},{"user_id":157,"name":"judesro","steam_id":76561198352244888,"connected_time":161000000000,"state":"active","ping":74},{"user_id":117,"name":"Nice21","steam_id":76561199427548141,"connected_time":3391000000000,"state":"active","ping":78},{"user_id":158,"name":"Dragonsofdra","steam_id":76561198253369292,"connected_time":158000000000,"state":"active","ping":108},{"user_id":159,"name":"Artefaks","steam_id":76561198812132715,"connected_time":152000000000,"state":"active","ping":132},{"user_id":160,"name":"The Gremlin","steam_id":76561198419066993,"connected_time":134000000000,"state":"active","ping":135},{"user_id":164,"name":"asm_ghost","steam_id":76561199205363547,"connected_time":89000000000,"state":"active","ping":133},{"user_id":166,"name":"Bubz","steam_id":76561199013499631,"connected_time":85000000000,"state":"active","ping":83},{"user_id":138,"name":"Scrumpy_06","steam_id":76561199225798705,"connected_time":1126000000000,"state":"active","ping":99},{"user_id":165,"name":"[BBW] Justario","steam_id":76561198016095410,"connected_time":85000000000,"state":"active","ping":46},{"user_id":167,"name":"Gian","steam_id":76561198041434512,"connected_time":63000000000,"state":"active","ping":103},{"user_id":168,"name":"THE LOATHSOME DUNG EATER","steam_id":76561198805375543,"connected_time":22000000000,"state":"spawning","ping":130}]},{"server_id":14,"name":"Uncletopia | New York City | 2 | All Maps","name_short":"nyc-2","host":"nyc-1.us.uncletopia.com","port":27025,"enabled":true,"region":"us-east","cc":"us","latitude":40.73061,"longitude":-73.93524,"reserved":0,"last_update":"0001-01-01T00:00:00Z","name_a2s":"Uncletopia | New York City | 2 | All Maps","protocol":17,"map":"cp_dustbowl","folder":"tf","game":"Team Fortress","app_id":440,"player_count":24,"max_players":24,"Bots":0,"server_type":"Dedicated","server_os":"Linux","password":true,"vac":true,"version":"7757534","steam_id":85568392924469994,"keywords":["cp","nocrits","nodmgspread","uncletopia"],"game_id":440,"stv_port":27026,"stv_name":"Uncletopia | New York City | 2 | All Maps | STV","players":[{"user_id":353,"name":"10KO!","steam_id":76561199134895220,"connected_time":4185000000000,"state":"active","ping":58},{"user_id":387,"name":"you forgot the sauce","steam_id":76561198387016713,"connected_time":1308000000000,"state":"active","ping":56},{"user_id":395,"name":"Certified BigMan","steam_id":76561198095544632,"connected_time":1005000000000,"state":"active","ping":46},{"user_id":389,"name":"ThatGamingKiwi","steam_id":76561199170522237,"connected_time":1263000000000,"state":"active","ping":82},{"user_id":390,"name":"Tangerine","steam_id":76561198373668488,"connected_time":1225000000000,"state":"active","ping":92},{"user_id":405,"name":"Large Charles","steam_id":76561197999663001,"connected_time":113000000000,"state":"active","ping":89},{"user_id":391,"name":"andyiscolorless","steam_id":76561199239870921,"connected_time":1209000000000,"state":"active","ping":141},{"user_id":371,"name":"man behind the slaughter (F2P)","steam_id":76561198854070384,"connected_time":2807000000000,"state":"active","ping":117},{"user_id":392,"name":"Sableye","steam_id":76561198061247147,"connected_time":1196000000000,"state":"active","ping":74},{"user_id":382,"name":"Skullypoo","steam_id":76561198067912022,"connected_time":1586000000000,"state":"active","ping":75},{"user_id":399,"name":"Pyro","steam_id":76561197995003142,"connected_time":852000000000,"state":"active","ping":88},{"user_id":258,"name":"Bozanimal","steam_id":76561198044096897,"connected_time":10053000000000,"state":"active","ping":45},{"user_id":386,"name":"spherewithahat","steam_id":76561199122192660,"connected_time":1374000000000,"state":"active","ping":59},{"user_id":351,"name":"bruh2","steam_id":76561198046055673,"connected_time":4377000000000,"state":"active","ping":63},{"user_id":358,"name":"JPSS","steam_id":76561199239530493,"connected_time":4038000000000,"state":"active","ping":72},{"user_id":318,"name":"heck","steam_id":76561198067898014,"connected_time":6522000000000,"state":"active","ping":33},{"user_id":403,"name":"Winter the Witchie","steam_id":76561198151971178,"connected_time":685000000000,"state":"active","ping":71},{"user_id":397,"name":"MrCalmL.I","steam_id":76561198966598137,"connected_time":963000000000,"state":"active","ping":61},{"user_id":383,"name":"Rat Bastard -{A★T}-","steam_id":76561197979905804,"connected_time":1585000000000,"state":"active","ping":65},{"user_id":400,"name":"Ser Bong - Gentlemen Bandit","steam_id":76561197967964278,"connected_time":822000000000,"state":"active","ping":67},{"user_id":404,"name":"TZ","steam_id":76561198048625241,"connected_time":637000000000,"state":"active","ping":60},{"user_id":402,"name":"MajorSwags","steam_id":76561199013011235,"connected_time":769000000000,"state":"active","ping":96},{"user_id":373,"name":"Blooky","steam_id":76561199193944882,"connected_time":2365000000000,"state":"active","ping":92},{"user_id":378,"name":"Warkeidan","steam_id":76561198118805546,"connected_time":2133000000000,"state":"active","ping":62}]},{"server_id":15,"name":"Uncletopia | New York City | 3 | Stopwatch Beta","name_short":"nyc-3","host":"nyc-1.us.uncletopia.com","port":27035,"enabled":true,"region":"us-east","cc":"us","latitude":40.73061,"longitude":-73.93524,"reserved":0,"last_update":"0001-01-01T00:00:00Z","name_a2s":"Uncletopia | New York City | 3 | Stopwatch Beta","protocol":17,"map":"koth_lakeside_final","folder":"tf","game":"Team Fortress","app_id":440,"player_count":0,"max_players":24,"Bots":0,"server_type":"Dedicated","server_os":"Linux","password":true,"vac":true,"version":"7757534","steam_id":85568392924742820,"keywords":["cp","nocrits","nodmgspread","uncletopia"],"game_id":440,"stv_port":27036,"stv_name":"Uncletopia | New York City | 3 | Stopwatch Beta | STV","players":null},{"server_id":16,"name":"Uncletopia | New York City | 4 | Community","name_short":"nyc-4","host":"nyc-1.us.uncletopia.com","port":27045,"enabled":true,"region":"us-east","cc":"us","latitude":40.73061,"longitude":-73.93524,"reserved":0,"last_update":"0001-01-01T00:00:00Z","name_a2s":"Uncletopia | New York City | 4 | Community","protocol":17,"map":"pl_swiftwater_final1","folder":"tf","game":"Team Fortress","app_id":440,"player_count":0,"max_players":24,"Bots":0,"server_type":"Dedicated","server_os":"Linux","password":true,"vac":true,"version":"7757534","steam_id":85568392924742821,"keywords":["nocrits","nodmgspread","payload","uncletopia"],"game_id":440,"stv_port":27046,"stv_name":"Uncletopia | New York City | 4 | Community | STV","players":null},{"server_id":142,"name":"Uncletopia | São Paulo | 1 | All Maps","name_short":"sao-1","host":"sao-1.br.uncletopia.com","port":27015,"enabled":true,"region":"sa","cc":"br","latitude":-23.533773,"longitude":-46.62529,"reserved":0,"last_update":"0001-01-01T00:00:00Z","name_a2s":"Uncletopia | São Paulo | 1 | All Maps","protocol":17,"map":"koth_lakeside_final","folder":"tf","game":"Team Fortress","app_id":440,"player_count":0,"max_players":24,"Bots":0,"server_type":"Dedicated","server_os":"Linux","password":true,"vac":true,"version":"7757534","steam_id":85568392924469996,"keywords":["cp","nocrits","nodmgspread","uncletopia"],"game_id":440,"stv_port":27016,"stv_name":"Uncletopia | São Paulo | 1 | All Maps | STV","players":null},{"server_id":143,"name":"Uncletopia | São Paulo | 2 | All Maps","name_short":"sao-2","host":"sao-2.br.uncletopia.com","port":27015,"enabled":true,"region":"sa","cc":"br","latitude":-23.533773,"longitude":-46.62529,"reserved":0,"last_update":"0001-01-01T00:00:00Z","name_a2s":"Uncletopia | São Paulo | 2 | All Maps","protocol":17,"map":"koth_cascade","folder":"tf","game":"Team Fortress","app_id":440,"player_count":0,"max_players":24,"Bots":0,"server_type":"Dedicated","server_os":"Linux","password":true,"vac":true,"version":"7757534","steam_id":85568392924485349,"keywords":["cp","nocrits","nodmgspread","uncletopia"],"game_id":440,"stv_port":27016,"stv_name":"Uncletopia | São Paulo | 2 | All Maps | STV","players":null},{"server_id":7,"name":"Uncletopia | Seattle | 1 | All Maps","name_short":"sea-1","host":"sea-1.us.uncletopia.com","port":27015,"enabled":true,"region":"us-west","cc":"us","latitude":47.608013,"longitude":-122.33517,"reserved":0,"last_update":"0001-01-01T00:00:00Z","name_a2s":"Uncletopia | Seattle | 1 | All Maps","protocol":17,"map":"cp_steel","folder":"tf","game":"Team Fortress","app_id":440,"player_count":24,"max_players":24,"Bots":0,"server_type":"Dedicated","server_os":"Linux","password":true,"vac":true,"version":"7757534","steam_id":85568392924469997,"keywords":["cp","nocrits","nodmgspread","uncletopia"],"game_id":440,"stv_port":27016,"stv_name":"Uncletopia | Seattle | 1 | All Maps | STV","players":[{"user_id":333,"name":"Papa Panda","steam_id":76561198159061475,"connected_time":4074000000000,"state":"active","ping":78},{"user_id":373,"name":"my monitor is off","steam_id":76561198074499537,"connected_time":1120000000000,"state":"active","ping":81},{"user_id":359,"name":"Troy Winters","steam_id":76561198051442422,"connected_time":2431000000000,"state":"active","ping":116},{"user_id":385,"name":"Villchip","steam_id":76561198198599982,"connected_time":333000000000,"state":"active","ping":50},{"user_id":382,"name":"Pubby","steam_id":76561198164984732,"connected_time":542000000000,"state":"active","ping":147},{"user_id":361,"name":"J415","steam_id":76561199194276068,"connected_time":2117000000000,"state":"active","ping":85},{"user_id":338,"name":"Rocketface","steam_id":76561198043679540,"connected_time":3656000000000,"state":"active","ping":69},{"user_id":362,"name":"Lazy","steam_id":76561198802747832,"connected_time":2115000000000,"state":"active","ping":52},{"user_id":254,"name":"1dk","steam_id":76561198135104742,"connected_time":8489000000000,"state":"active","ping":45},{"user_id":354,"name":"chanoc","steam_id":76561198026734746,"connected_time":2900000000000,"state":"active","ping":64},{"user_id":250,"name":"lili","steam_id":76561199391478575,"connected_time":9025000000000,"state":"active","ping":82},{"user_id":378,"name":"NéoGothique🕯","steam_id":76561198003467269,"connected_time":918000000000,"state":"active","ping":105},{"user_id":375,"name":"sumo dumplings","steam_id":76561198115553314,"connected_time":1011000000000,"state":"active","ping":107},{"user_id":285,"name":"Drew","steam_id":76561198058893405,"connected_time":6575000000000,"state":"active","ping":93},{"user_id":383,"name":"th1rg","steam_id":76561198380018244,"connected_time":521000000000,"state":"active","ping":61},{"user_id":377,"name":"moose","steam_id":76561198248625526,"connected_time":951000000000,"state":"active","ping":64},{"user_id":300,"name":"Grammaring","steam_id":76561198867366139,"connected_time":5248000000000,"state":"active","ping":80},{"user_id":297,"name":"jawnymac","steam_id":76561198179529599,"connected_time":5368000000000,"state":"active","ping":76},{"user_id":365,"name":"Gaiduk","steam_id":76561198112323877,"connected_time":2023000000000,"state":"active","ping":139},{"user_id":370,"name":"yup","steam_id":76561199190800520,"connected_time":1308000000000,"state":"active","ping":41},{"user_id":360,"name":"Keamy","steam_id":76561199471434875,"connected_time":2209000000000,"state":"active","ping":45},{"user_id":380,"name":"♥ Milo Stefferson ♥","steam_id":76561198056269538,"connected_time":864000000000,"state":"active","ping":55},{"user_id":381,"name":"trackpad gaming | f2p","steam_id":76561198840414371,"connected_time":715000000000,"state":"active","ping":53},{"user_id":369,"name":"toes","steam_id":76561198221151676,"connected_time":1578000000000,"state":"active","ping":59}]},{"server_id":119,"name":"Uncletopia | Seattle | 2 | All Maps","name_short":"sea-2","host":"sea-1.us.uncletopia.com","port":27025,"enabled":true,"region":"us-west","cc":"us","latitude":47.608013,"longitude":-122.33517,"reserved":0,"last_update":"0001-01-01T00:00:00Z","name_a2s":"Uncletopia | Seattle | 2 | All Maps","protocol":17,"map":"pl_badwater","folder":"tf","game":"Team Fortress","app_id":440,"player_count":17,"max_players":24,"Bots":0,"server_type":"Dedicated","server_os":"Linux","password":true,"vac":true,"version":"7757534","steam_id":85568392924469998,"keywords":["nocrits","nodmgspread","payload","uncletopia"],"game_id":440,"stv_port":27026,"stv_name":"Uncletopia | Seattle | 2 | All Maps | STV","players":[{"user_id":49,"name":"This game sucks","steam_id":76561198042007578,"connected_time":3108000000000,"state":"active","ping":75},{"user_id":90,"name":"Mystikkal","steam_id":76561198003949147,"connected_time":13000000000,"state":"spawning","ping":94},{"user_id":87,"name":"profile name","steam_id":76561198990223681,"connected_time":85000000000,"state":"active","ping":59},{"user_id":89,"name":"narca","steam_id":76561198313400099,"connected_time":61000000000,"state":"active","ping":114},{"user_id":74,"name":"Terror","steam_id":76561198188685728,"connected_time":1230000000000,"state":"active","ping":95},{"user_id":80,"name":"T     H     E    PinheadLary","steam_id":76561199091466927,"connected_time":675000000000,"state":"active","ping":98},{"user_id":35,"name":"Nibotshooter","steam_id":76561199284825579,"connected_time":3594000000000,"state":"active","ping":94},{"user_id":66,"name":"worldclass.DEMON","steam_id":76561199467227500,"connected_time":1858000000000,"state":"active","ping":75},{"user_id":81,"name":"Bread","steam_id":76561198320293423,"connected_time":626000000000,"state":"active","ping":57},{"user_id":82,"name":"Cepheid","steam_id":76561198093333511,"connected_time":514000000000,"state":"active","ping":97},{"user_id":69,"name":"Metro City","steam_id":76561198259126316,"connected_time":1712000000000,"state":"active","ping":104},{"user_id":84,"name":"uzr","steam_id":76561198799343084,"connected_time":414000000000,"state":"active","ping":77},{"user_id":54,"name":"DaBeatGoOff?","steam_id":76561198106507400,"connected_time":2538000000000,"state":"active","ping":76},{"user_id":43,"name":"ARGON Soulidity","steam_id":76561198429603550,"connected_time":3222000000000,"state":"active","ping":112},{"user_id":86,"name":"Constipated Barry","steam_id":76561198004482269,"connected_time":277000000000,"state":"active","ping":65},{"user_id":46,"name":"THEDINKY","steam_id":76561198190077399,"connected_time":3182000000000,"state":"active","ping":115},{"user_id":64,"name":"Spy of 83","steam_id":76561199062242958,"connected_time":2097000000000,"state":"active","ping":60}]},{"server_id":406,"name":"Uncletopia | Seattle | 3 | Stopwatch Beta","name_short":"sea-3","host":"sea-1.us.uncletopia.com","port":27035,"enabled":true,"region":"us-west","cc":"us","latitude":47.608013,"longitude":-122.33517,"reserved":0,"last_update":"0001-01-01T00:00:00Z","name_a2s":"Uncletopia | Seattle | 3 | Stopwatch Beta","protocol":17,"map":"cp_dustbowl","folder":"tf","game":"Team Fortress","app_id":440,"player_count":0,"max_players":24,"Bots":0,"server_type":"Dedicated","server_os":"Linux","password":true,"vac":true,"version":"7757534","steam_id":85568392924515217,"keywords":["cp","nocrits","nodmgspread","uncletopia"],"game_id":440,"stv_port":27036,"stv_name":"Uncletopia | Seattle | 3 | Stopwatch Beta | STV","players":null},{"server_id":17,"name":"Uncletopia | San Francisco | 1 | All Maps","name_short":"sfo-1","host":"sfo-1.us.uncletopia.com","port":27015,"enabled":true,"region":"us-west","cc":"us","latitude":37.77397,"longitude":-122.4313,"reserved":0,"last_update":"0001-01-01T00:00:00Z","name_a2s":"Uncletopia | San Francisco | 1 | All Maps","protocol":17,"map":"cp_process_final","folder":"tf","game":"Team Fortress","app_id":440,"player_count":0,"max_players":24,"Bots":0,"server_type":"Dedicated","server_os":"Linux","password":true,"vac":true,"version":"7757534","steam_id":85568392924469999,"keywords":["cp","nocrits","nodmgspread","uncletopia"],"game_id":440,"stv_port":27016,"stv_name":"Uncletopia | San Francisco | 1 | All Maps | STV","players":null},{"server_id":18,"name":"Uncletopia | San Francisco | 2 | All Maps","name_short":"sfo-2","host":"sfo-1.us.uncletopia.com","port":27025,"enabled":true,"region":"us-west","cc":"us","latitude":37.77397,"longitude":-122.4313,"reserved":0,"last_update":"0001-01-01T00:00:00Z","name_a2s":"Uncletopia | San Francisco | 2 | All Maps","protocol":17,"map":"cp_sunshine","folder":"tf","game":"Team Fortress","app_id":440,"player_count":0,"max_players":24,"Bots":0,"server_type":"Dedicated","server_os":"Linux","password":true,"vac":true,"version":"7757534","steam_id":85568392924470000,"keywords":["cp","nocrits","nodmgspread","uncletopia"],"game_id":440,"stv_port":27026,"stv_name":"Uncletopia | San Francisco | 2 | All Maps | STV","players":null},{"server_id":19,"name":"Uncletopia | San Francisco | 3 | Stopwatch Beta","name_short":"sfo-3","host":"sfo-1.us.uncletopia.com","port":27035,"enabled":true,"region":"us-west","cc":"us","latitude":37.77397,"longitude":-122.4313,"reserved":0,"last_update":"0001-01-01T00:00:00Z","name_a2s":"Uncletopia | San Francisco | 3 | Stopwatch Beta","protocol":17,"map":"koth_lakeside_final","folder":"tf","game":"Team Fortress","app_id":440,"player_count":0,"max_players":24,"Bots":0,"server_type":"Dedicated","server_os":"Linux","password":true,"vac":true,"version":"7757534","steam_id":85568392924742824,"keywords":["cp","nocrits","nodmgspread","uncletopia"],"game_id":440,"stv_port":27036,"stv_name":"Uncletopia | San Francisco | 3 | Stopwatch Beta | STV","players":null},{"server_id":20,"name":"Uncletopia | San Francisco | 4 | Community","name_short":"sfo-4","host":"sfo-1.us.uncletopia.com","port":27045,"enabled":true,"region":"us-west","cc":"us","latitude":37.77397,"longitude":-122.4313,"reserved":0,"last_update":"0001-01-01T00:00:00Z","name_a2s":"Uncletopia | San Francisco | 4 | Community","protocol":17,"map":"cp_altitude","folder":"tf","game":"Team Fortress","app_id":440,"player_count":0,"max_players":24,"Bots":0,"server_type":"Dedicated","server_os":"Linux","password":true,"vac":true,"version":"7757534","steam_id":85568392924742826,"keywords":["cp","nocrits","nodmgspread","uncletopia"],"game_id":440,"stv_port":27046,"stv_name":"Uncletopia | San Francisco | 4 | Community | STV","players":null},{"server_id":141,"name":"Uncletopia | Sydney | 1 | All Maps","name_short":"syd-1","host":"syd-1.au.uncletopia.com","port":27015,"enabled":true,"region":"au","cc":"au","latitude":-33.865143,"longitude":151.2099,"reserved":0,"last_update":"0001-01-01T00:00:00Z","name_a2s":"Uncletopia | Sydney | 1 | All Maps","protocol":17,"map":"koth_highpass","folder":"tf","game":"Team Fortress","app_id":440,"player_count":0,"max_players":24,"Bots":0,"server_type":"Dedicated","server_os":"Linux","password":true,"vac":true,"version":"7757534","steam_id":85568392924470001,"keywords":["cp","nocrits","nodmgspread","uncletopia"],"game_id":440,"stv_port":27016,"stv_name":"Uncletopia | Sydney | 1 | All Maps | STV","players":null},{"server_id":123,"name":"Uncletopia | Sydney | 2 | All Maps","name_short":"syd-2","host":"syd-1.au.uncletopia.com","port":27025,"enabled":true,"region":"au","cc":"au","latitude":-33.865143,"longitude":151.2099,"reserved":0,"last_update":"0001-01-01T00:00:00Z","name_a2s":"Uncletopia | Sydney | 2 | All Maps","protocol":17,"map":"cp_dustbowl","folder":"tf","game":"Team Fortress","app_id":440,"player_count":0,"max_players":24,"Bots":0,"server_type":"Dedicated","server_os":"Linux","password":true,"vac":true,"version":"7757534","steam_id":85568392924470002,"keywords":["cp","nocrits","nodmgspread","uncletopia"],"game_id":440,"stv_port":27026,"stv_name":"Uncletopia | Sydney | 2 | All Maps | STV","players":null},{"server_id":395,"name":"Uncletopia | Sydney | 3 | All Maps","name_short":"syd-3","host":"syd-1.au.uncletopia.com","port":27035,"enabled":true,"region":"au","cc":"au","latitude":-33.865143,"longitude":151.2099,"reserved":0,"last_update":"0001-01-01T00:00:00Z","name_a2s":"Uncletopia | Sydney | 3 | All Maps","protocol":17,"map":"pl_swiftwater_final1","folder":"tf","game":"Team Fortress","app_id":440,"player_count":0,"max_players":24,"Bots":0,"server_type":"Dedicated","server_os":"Linux","password":true,"vac":true,"version":"7757534","steam_id":85568392925194467,"keywords":["nocrits","nodmgspread","payload","uncletopia"],"game_id":440,"stv_port":27036,"stv_name":"Uncletopia | Sydney | 3 | All Maps | STV","players":null},{"server_id":396,"name":"Uncletopia | Sydney | 4 | All Maps","name_short":"syd-4","host":"syd-1.au.uncletopia.com","port":27045,"enabled":true,"region":"au","cc":"au","latitude":-33.865143,"longitude":151.2099,"reserved":0,"last_update":"0001-01-01T00:00:00Z","name_a2s":"Uncletopia | Sydney | 4 | All Maps","protocol":17,"map":"koth_highpass","folder":"tf","game":"Team Fortress","app_id":440,"player_count":0,"max_players":24,"Bots":0,"server_type":"Dedicated","server_os":"Linux","password":true,"vac":true,"version":"7757534","steam_id":85568392925397958,"keywords":["cp","nocrits","nodmgspread","uncletopia"],"game_id":440,"stv_port":27046,"stv_name":"Uncletopia | Sydney | 4 | All Maps | STV","players":null},{"server_id":58,"name":"Uncletopia | Sydney | 5 | Stopwatch Beta","name_short":"syd-5","host":"syd-1.au.uncletopia.com","port":27055,"enabled":true,"region":"au","cc":"au","latitude":-33.865143,"longitude":151.2099,"reserved":0,"last_update":"0001-01-01T00:00:00Z","name_a2s":"Uncletopia | Sydney | 5 | Stopwatch Beta","protocol":17,"map":"koth_cascade","folder":"tf","game":"Team Fortress","app_id":440,"player_count":0,"max_players":24,"Bots":0,"server_type":"Dedicated","server_os":"Linux","password":true,"vac":true,"version":"7757534","steam_id":85568392925397959,"keywords":["cp","nocrits","nodmgspread","uncletopia"],"game_id":440,"stv_port":27056,"stv_name":"Uncletopia | Sydney | 5 | Stopwatch Beta | STV","players":null},{"server_id":59,"name":"Uncletopia | Sydney | 6 | Community","name_short":"syd-6","host":"syd-1.au.uncletopia.com","port":27065,"enabled":true,"region":"au","cc":"au","latitude":-33.865143,"longitude":151.2099,"reserved":0,"last_update":"0001-01-01T00:00:00Z","name_a2s":"Uncletopia | Sydney | 6 | Community","protocol":17,"map":"workshop/pl_badwater_pro_v12.ugc2142942074","folder":"tf","game":"Team Fortress","app_id":440,"player_count":0,"max_players":24,"Bots":0,"server_type":"Dedicated","server_os":"Linux","password":true,"vac":true,"version":"7757534","steam_id":85568392925397960,"keywords":["nocrits","nodmgspread","payload","uncletopia"],"game_id":440,"stv_port":27066,"stv_name":"Uncletopia | Sydney | 6 | Community | STV","players":null},{"server_id":49,"name":"Uncletopia | Warsaw | 1 | All Maps","name_short":"waw-1","host":"waw-1.pl.uncletopia.com","port":27015,"enabled":true,"region":"eu","cc":"pl","latitude":52.2297,"longitude":21.017532,"reserved":0,"last_update":"0001-01-01T00:00:00Z","name_a2s":"","protocol":0,"map":"","folder":"","game":"","app_id":0,"player_count":0,"max_players":0,"Bots":0,"server_type":"","server_os":"","password":false,"vac":false,"version":"","steam_id":0,"keywords":null,"game_id":0,"stv_port":0,"stv_name":"","players":null},{"server_id":50,"name":"Uncletopia | Warsaw | 2 | All Maps","name_short":"waw-2","host":"waw-1.pl.uncletopia.com","port":27025,"enabled":true,"region":"eu","cc":"pl","latitude":52.2297,"longitude":21.017532,"reserved":0,"last_update":"0001-01-01T00:00:00Z","name_a2s":"Uncletopia | Warsaw | 2 | All Maps","protocol":17,"map":"koth_viaduct","folder":"tf","game":"Team Fortress","app_id":440,"player_count":0,"max_players":24,"Bots":0,"server_type":"Dedicated","server_os":"Linux","password":true,"vac":true,"version":"7757534","steam_id":85568392925397851,"keywords":["cp","nocrits","nodmgspread","uncletopia"],"game_id":440,"stv_port":27026,"stv_name":"Uncletopia | Warsaw | 2 | All Maps | STV","players":null},{"server_id":51,"name":"Uncletopia | Warsaw | 3 | All Maps","name_short":"waw-3","host":"waw-1.pl.uncletopia.com","port":27035,"enabled":true,"region":"eu","cc":"pl","latitude":52.2297,"longitude":21.017532,"reserved":0,"last_update":"0001-01-01T00:00:00Z","name_a2s":"Uncletopia | Warsaw | 3 | All Maps","protocol":17,"map":"pl_badwater","folder":"tf","game":"Team Fortress","app_id":440,"player_count":0,"max_players":24,"Bots":0,"server_type":"Dedicated","server_os":"Linux","password":true,"vac":true,"version":"7757534","steam_id":85568392925397852,"keywords":["nocrits","nodmgspread","payload","uncletopia"],"game_id":440,"stv_port":27036,"stv_name":"Uncletopia | Warsaw | 3 | All Maps | STV","players":null},{"server_id":52,"name":"Uncletopia | Warsaw | 4 | All Maps","name_short":"waw-4","host":"waw-1.pl.uncletopia.com","port":27045,"enabled":true,"region":"eu","cc":"pl","latitude":52.2297,"longitude":21.017532,"reserved":0,"last_update":"0001-01-01T00:00:00Z","name_a2s":"Uncletopia | Warsaw | 4 | All Maps","protocol":17,"map":"koth_lakeside_final","folder":"tf","game":"Team Fortress","app_id":440,"player_count":0,"max_players":24,"Bots":0,"server_type":"Dedicated","server_os":"Linux","password":true,"vac":true,"version":"7757534","steam_id":85568392925397853,"keywords":["cp","nocrits","nodmgspread","uncletopia"],"game_id":440,"stv_port":27046,"stv_name":"Uncletopia | Warsaw | 4 | All Maps | STV","players":null},{"server_id":53,"name":"Uncletopia | Warsaw | 5 | Stopwatch Beta","name_short":"waw-5","host":"waw-1.pl.uncletopia.com","port":27055,"enabled":true,"region":"eu","cc":"pl","latitude":52.2297,"longitude":21.017532,"reserved":0,"last_update":"0001-01-01T00:00:00Z","name_a2s":"Uncletopia | Warsaw | 5 | Stopwatch Beta","protocol":17,"map":"pl_borneo","folder":"tf","game":"Team Fortress","app_id":440,"player_count":0,"max_players":24,"Bots":0,"server_type":"Dedicated","server_os":"Linux","password":true,"vac":true,"version":"7757534","steam_id":85568392925397854,"keywords":["nocrits","nodmgspread","payload","uncletopia"],"game_id":440,"stv_port":27056,"stv_name":"Uncletopia | Warsaw | 5 | Stopwatch Beta | STV","players":null},{"server_id":54,"name":"Uncletopia | Warsaw | 6 | Community","name_short":"waw-6","host":"waw-1.pl.uncletopia.com","port":27065,"enabled":true,"region":"eu","cc":"pl","latitude":52.2297,"longitude":21.017532,"reserved":0,"last_update":"0001-01-01T00:00:00Z","name_a2s":"Uncletopia | Warsaw | 6 | Community","protocol":17,"map":"koth_lakeside_final","folder":"tf","game":"Team Fortress","app_id":440,"player_count":0,"max_players":24,"Bots":0,"server_type":"Dedicated","server_os":"Linux","password":true,"vac":true,"version":"7757534","steam_id":85568392925397856,"keywords":["cp","nocrits","nodmgspread","uncletopia"],"game_id":440,"stv_port":27066,"stv_name":"Uncletopia | Warsaw | 6 | Community | STV","players":null}]}