{"status":true,"message":"","result":[{"server_id":9,"name":"Uncletopia | Atlanta | 1 | All Maps","name_short":"atl-1","host":"atl-1.us.uncletopia.com","port":27015,"enabled":true,"region":"us-east","cc":"us","latitude":33.753746,"longitude":-84.38633,"reserved":0,"last_update":"0001-01-01T00:00:00Z","name_a2s":"Uncletopia | Atlanta | 1 | All Maps","protocol":17,"map":"pl_upward","folder":"tf","game":"Team Fortress","app_id":440,"player_count":24,"max_players":24,"Bots":0,"server_type":"Dedicated","server_os":"Linux","password":true,"vac":true,"version":"7961495","steam_id":85568392924469982,"keywords":["nocrits","nodmgspread","payload","uncletopia"],"game_id":440,"stv_port":27016,"stv_name":"Uncletopia | Atlanta | 1 | All Maps | STV","players":[{"user_id":641,"name":"chexo4","steam_id":76561198150532531,"connected_time":1585000000000,"state":"active","ping":50},{"user_id":601,"name":"Heathcliff","steam_id":76561198044288534,"connected_time":4123000000000,"state":"active","ping":78},{"user_id":527,"name":"CoffeeZombi","steam_id":76561198172708053,"connected_time":9579000000000,"state":"active","ping":69},{"user_id":563,"name":"ATL 1 | Save your wifi","steam_id":76561198286147372,"connected_time":6012000000000,"state":"active","ping":62},{"user_id":605,"name":"Anthid","steam_id":76561198074493797,"connected_time":4002000000000,"state":"active","ping":84},{"user_id":564,"name":"StudioMania (#SAVETF2)","steam_id":76561198211315795,"connected_time":5995000000000,"state":"active","ping":91},{"user_id":644,"name":"ＥｎｄｅｒＮｅｃｒｏ","steam_id":76561198044304293,"connected_time":1070000000000,"state":"active","ping":167},{"user_id":611,"name":"Maestro #pride","steam_id":76561198157325020,"connected_time":3432000000000,"state":"active","ping":75},{"user_id":646,"name":"voyager","steam_id":76561198169747517,"connected_time":272000000000,"state":"active","ping":105},{"user_id":653,"name":"Psychosis","steam_id":76561198078659070,"connected_time":185000000000,"state":"active","ping":69},{"user_id":631,"name":"twitch.tv/Yoshi21 | TF2Pugs.com","steam_id":76561198002516729,"connected_time":2770000000000,"state":"active","ping":50},{"user_id":622,"name":"She got that strap (on)","steam_id":76561198057745131,"connected_time":3030000000000,"state":"active","ping":35},{"user_id":648,"name":"Shotgun Faery","steam_id":76561198838248225,"connected_time":261000000000,"state":"active","ping":43},{"user_id":634,"name":"DuckMann","steam_id":76561198197058638,"connected_time":2424000000000,"state":"active","ping":39},{"user_id":616,"name":"KexruTv","steam_id":76561198374399876,"connected_time":3085000000000,"state":"active","ping":61},{"user_id":598,"name":"add syrup","steam_id":76561198224614084,"connected_time":4498000000000,"state":"active","ping":44},{"user_id":558,"name":"lu","steam_id":76561198080731872,"connected_time":6773000000000,"state":"active","ping":74},{"user_id":654,"name":"elephantofdoom","steam_id":76561198062436835,"connected_time":79000000000,"state":"active","ping":60},{"user_id":649,"name":"Omlette","steam_id":76561198969911974,"connected_time":236000000000,"state":"active","ping":77},{"user_id":638,"name":"is 78 iq alot?","steam_id":76561197993151595,"connected_time":1935000000000,"state":"active","ping":105},{"user_id":650,"name":"wabba doo","steam_id":76561198867130576,"connected_time":231000000000,"state":"active","ping":92},{"user_id":651,"name":"Saucy Boy","steam_id":76561198178332031,"connected_time":223000000000,"state":"active","ping":90},{"user_id":610,"name":"ATL1 | cola","steam_id":76561198374390458,"connected_time":3596000000000,"state":"active","ping":65},{"user_id":652,"name":"Peter","steam_id":76561198065796300,"connected_time":218000000000,"state":"active","ping":101}]},{"server_id":104,"name":"Uncletopia | Atlanta | 2 | All Maps","name_short":"atl-2","host":"atl-1.us.uncletopia.com","port":27025,"enabled":true,"region":"us-east","cc":"us","latitude":33.753746,"longitude":-84.38633,"reserved":0,"last_update":"0001-01-01T00:00:00Z","name_a2s":"Uncletopia | Atlanta | 2 | All Maps","protocol":17,"map":"cp_dustbowl","folder":"tf","game":"Team Fortress","app_id":440,"player_count":24,"max_players":24,"Bots":0,"server_type":"Dedicated","server_os":"Linux","password":true,"vac":true,"version":"7961495","steam_id":85568392924469983,"keywords":["cp","nocrits","nodmgspread","uncletopia"],"game_id":440,"stv_port":27026,"stv_name":"Uncletopia | Atlanta | 2 | All Maps | STV","players":[{"user_id":560,"name":"APETASTIC","steam_id":76561198092191011,"connected_time":2419000000000,"state":"active","ping":80},{"user_id":470,"name":"Verily","steam_id":76561198200558318,"connected_time":8996000000000,"state":"active","ping":90},{"user_id":557,"name":"dog","steam_id":76561198263873491,"connected_time":2433000000000,"state":"active","ping":55},{"user_id":572,"name":"Mr. Squirt","steam_id":76561198174755679,"connected_time":1531000000000,"state":"active","ping":61},{"user_id":573,"name":"SkkiterSkkater","steam_id":76561198410579054,"connected_time":1508000000000,"state":"active","ping":77},{"user_id":591,"name":"plutonium","steam_id":76561198319442494,"connected_time":204000000000,"state":"active","ping":118},{"user_id":536,"name":"Enforcer","steam_id":76561198326564237,"connected_time":4119000000000,"state":"active","ping":59},{"user_id":585,"name":"Canadian Beb","steam_id":76561198055462395,"connected_time":609000000000,"state":"active","ping":79},{"user_id":584,"name":"Iron Argus","steam_id":76561198181088245,"connected_time":619000000000,"state":"active","ping":79},{"user_id":582,"name":"The Sydney Sleeper Itself","steam_id":76561198180251763,"connected_time":919000000000,"state":"active","ping":70},{"user_id":553,"name":"☣︎T-Virus S\u003ePEnergyKabuto","steam_id":76561198001963208,"connected_time":2715000000000,"state":"active","ping":110},{"user_id":545,"name":"ANuSensation","steam_id":76561198296757260,"connected_time":3570000000000,"state":"active","ping":64},{"user_id":586,"name":"Mothman007","steam_id":76561198074312041,"connected_time":598000000000,"state":"active","ping":122},{"user_id":587,"name":"Adler Rx","steam_id":76561198068767732,"connected_time":592000000000,"state":"active","ping":98},{"user_id":508,"name":"Nibelsnarf (She/They)","steam_id":76561198137642054,"connected_time":5707000000000,"state":"active","ping":44},{"user_id":564,"name":"IchigoDolphin","steam_id":76561198319769482,"connected_time":2339000000000,"state":"active","ping":69},{"user_id":548,"name":"Jango","steam_id":76561198084589742,"connected_time":3283000000000,"state":"active","ping":54},{"user_id":588,"name":"SuperJIVC","steam_id":76561199311734366,"connected_time":585000000000,"state":"active","ping":98},{"user_id":574,"name":"Bimbonito","steam_id":76561198069676563,"connected_time":1476000000000,"state":"active","ping":52},{"user_id":555,"name":"GoGo is a Drunk Slut","steam_id":76561198023080645,"connected_time":2483000000000,"state":"active","ping":82},{"user_id":549,"name":"Ashe is Kiriko main","steam_id":76561198245775974,"connected_time":3264000000000,"state":"active","ping":135},{"user_id":559,"name":"Junowo","steam_id":76561199136179696,"connected_time":2431000000000,"state":"active","ping":106},{"user_id":589,"name":"doop","steam_id":76561198370487545,"connected_time":540000000000,"state":"active","ping":75},{"user_id":590,"name":"Cthulhu's Malewife","steam_id":76561198085888959,"connected_time":512000000000,"state":"active","ping":48}]},{"server_id":400,"name":"Uncletopia | Atlanta | 3 | Stopwatch","name_short":"atl-3","host":"atl-1.us.uncletopia.com","port":27035,"enabled":true,"region":"us-east","cc":"us","latitude":33.753746,"longitude":-84.38633,"reserved":0,"last_update":"0001-01-01T00:00:00Z","name_a2s":"Uncletopia | Atlanta | 3 | Stopwatch","protocol":17,"map":"workshop/koth_jamram_rc1a.ugc2964065613","folder":"tf","game":"Team Fortress","app_id":440,"player_count":0,"max_players":24,"Bots":0,"server_type":"Dedicated","server_os":"Linux","password":true,"vac":true,"version":"7961495","steam_id":85568392924515187,"keywords":["cp","nocrits","nodmgspread","uncletopia"],"game_id":440,"stv_port":27036,"stv_name":"Uncletopia | Atlanta | 3 | Stopwatch | STV","players":null},{"server_id":401,"name":"Uncletopia | Atlanta | 4 | Community","name_short":"atl-4","host":"atl-1.us.uncletopia.com","port":27045,"enabled":true,"region":"us-east","cc":"us","latitude":33.753746,"longitude":-84.38633,"reserved":0,"last_update":"0001-01-01T00:00:00Z","name_a2s":"Uncletopia | Atlanta | 4 | Community","protocol":17,"map":"workshop/cp_glassworks_rc7a.ugc454118349","folder":"tf","game":"Team Fortress","app_id":440,"player_count":0,"max_players":24,"Bots":0,"server_type":"Dedicated","server_os":"Linux","password":true,"vac":true,"version":"7961495","steam_id":85568392924515188,"keywords":["cp","nocrits","nodmgspread","uncletopia"],"game_id":440,"stv_port":27046,"stv_name":"Uncletopia | Atlanta | 4 | Community | STV","players":null},{"server_id":2,"name":"Uncletopia | Chicago | 1 | All Maps","name_short":"chi-1","host":"chi-1.us.uncletopia.com","port":27015,"enabled":true,"region":"us-central","cc":"us","latitude":41.881832,"longitude":-87.62318,"reserved":0,"last_update":"0001-01-01T00:00:00Z","name_a2s":"Uncletopia | Chicago | 1 | All Maps","protocol":17,"map":"koth_lakeside_final","folder":"tf","game":"Team Fortress","app_id":440,"player_count":0,"max_players":24,"Bots":0,"server_type":"Dedicated","server_os":"Linux","password":true,"vac":true,"version":"7961495","steam_id":85568392924469984,"keywords":["cp","nocrits","nodmgspread","uncletopia"],"game_id":440,"stv_port":27016,"stv_name":"Uncletopia | Chicago | 1 | All Maps | STV","players":null},{"server_id":106,"name":"Uncletopia | Chicago | 2 | All Maps","name_short":"chi-2","host":"chi-1.us.uncletopia.com","port":27025,"enabled":true,"region":"us-central","cc":"us","latitude":41.881832,"longitude":-87.62318,"reserved":0,"last_update":"0001-01-01T00:00:00Z","name_a2s":"Uncletopia | Chicago | 2 | All Maps","protocol":17,"map":"cp_dustbowl","folder":"tf","game":"Team Fortress","app_id":440,"player_count":24,"max_players":24,"Bots":0,"server_type":"Dedicated","server_os":"Linux","password":true,"vac":true,"version":"7961495","steam_id":85568392924469985,"keywords":["cp","nocrits","nodmgspread","uncletopia"],"game_id":440,"stv_port":27026,"stv_name":"Uncletopia | Chicago | 2 | All Maps | STV","players":[{"user_id":854,"name":"ThePaleKing","steam_id":76561198376695864,"connected_time":3488000000000,"state":"active","ping":83},{"user_id":889,"name":"coda","steam_id":76561198092052685,"connected_time":2103000000000,"state":"active","ping":63},{"user_id":914,"name":"SanitysEdge","steam_id":76561198130732813,"connected_time":587000000000,"state":"active","ping":100},{"user_id":919,"name":"Fantastic","steam_id":76561198079088978,"connected_time":429000000000,"state":"active","ping":42},{"user_id":899,"name":"Crazy","steam_id":76561198385594829,"connected_time":1695000000000,"state":"active","ping":75},{"user_id":923,"name":"fish","steam_id":76561198401800919,"connected_time":74000000000,"state":"active","ping":88},{"user_id":885,"name":"honked off the bobo","steam_id":76561198123287268,"connected_time":2346000000000,"state":"active","ping":45},{"user_id":905,"name":"Pixel","steam_id":76561198129243055,"connected_time":1041000000000,"state":"active","ping":62},{"user_id":870,"name":"folly","steam_id":76561198133933158,"connected_time":2779000000000,"state":"active","ping":111},{"user_id":875,"name":"☑Juanaco is dead","steam_id":76561198029895630,"connected_time":2647000000000,"state":"active","ping":89},{"user_id":909,"name":"Paco ツ","steam_id":76561198084515903,"connected_time":668000000000,"state":"active","ping":55},{"user_id":900,"name":"Fami","steam_id":76561198193580105,"connected_time":1639000000000,"state":"active","ping":108},{"user_id":910,"name":"Jolyne","steam_id":76561198988918229,"connected_time":667000000000,"state":"active","ping":90},{"user_id":922,"name":"GruntRule","steam_id":76561198039987143,"connected_time":121000000000,"state":"active","ping":78},{"user_id":915,"name":"Belloq","steam_id":76561198060279052,"connected_time":567000000000,"state":"active","ping":46},{"user_id":866,"name":"The Grungler","steam_id":76561198126561438,"connected_time":3087000000000,"state":"active","ping":104},{"user_id":912,"name":"Trashgaming","steam_id":76561199184268442,"connected_time":632000000000,"state":"active","ping":91},{"user_id":890,"name":"big larry","steam_id":76561198073158508,"connected_time":1914000000000,"state":"active","ping":59},{"user_id":913,"name":"Looge","steam_id":76561198155483586,"connected_time":615000000000,"state":"active","ping":53},{"user_id":917,"name":"Ali-B","steam_id":76561198274455701,"connected_time":544000000000,"state":"active","ping":98},{"user_id":884,"name":"unidentified little fucker","steam_id":76561198058998371,"connected_time":2354000000000,"state":"active","ping":67},{"user_id":921,"name":"larguu","steam_id":76561197994336210,"connected_time":398000000000,"state":"active","ping":58},{"user_id":898,"name":"Zulphar","steam_id":76561198083686527,"connected_time":1817000000000,"state":"active","ping":77},{"user_id":887,"name":"dunk","steam_id":76561198132476501,"connected_time":2296000000000,"state":"active","ping":54}]},{"server_id":402,"name":"Uncletopia | Chicago | 3 | All Maps","name_short":"chi-3","host":"chi-1.us.uncletopia.com","port":27035,"enabled":true,"region":"us-central","cc":"us","latitude":41.881832,"longitude":-87.62318,"reserved":0,"last_update":"0001-01-01T00:00:00Z","name_a2s":"Uncletopia | Chicago | 3 | All Maps","protocol":17,"map":"pl_upward","folder":"tf","game":"Team Fortress","app_id":440,"player_count":24,"max_players":24,"Bots":0,"server_type":"Dedicated","server_os":"Linux","password":true,"vac":true,"version":"7961495","steam_id":85568392924515191,"keywords":["nocrits","nodmgspread","payload","uncletopia"],"game_id":440,"stv_port":27036,"stv_name":"Uncletopia | Chicago | 3 | All Maps | STV","players":[{"user_id":423,"name":"Makina","steam_id":76561198057475567,"connected_time":1677000000000,"state":"active","ping":54},{"user_id":448,"name":"Toober","steam_id":76561198018136281,"connected_time":388000000000,"state":"active","ping":74},{"user_id":437,"name":"Styx","steam_id":76561198158334494,"connected_time":1068000000000,"state":"active","ping":49},{"user_id":399,"name":"Mixed Up","steam_id":76561198042570322,"connected_time":2568000000000,"state":"active","ping":56},{"user_id":398,"name":"Lead Licker","steam_id":76561198162668339,"connected_time":2602000000000,"state":"active","ping":78},{"user_id":430,"name":"ZBaldTop","steam_id":76561199396318132,"connected_time":1457000000000,"state":"active","ping":50},{"user_id":439,"name":"tack","steam_id":76561198408477421,"connected_time":1030000000000,"state":"active","ping":80},{"user_id":451,"name":"Strange Child","steam_id":76561198082523009,"connected_time":381000000000,"state":"active","ping":61},{"user_id":425,"name":"FELONIOUS MONK","steam_id":76561198201872929,"connected_time":1643000000000,"state":"active","ping":62},{"user_id":457,"name":"⛧ AlphaSatanOmega ⛧","steam_id":76561198035125511,"connected_time":70000000000,"state":"active","ping":48},{"user_id":449,"name":"supcupman","steam_id":76561198051513866,"connected_time":384000000000,"state":"active","ping":105},{"user_id":450,"name":"JohnnyGitGud","steam_id":76561198401455467,"connected_time":383000000000,"state":"active","ping":120},{"user_id":445,"name":"ÜberBurst inVinci","steam_id":76561198044470684,"connected_time":425000000000,"state":"active","ping":71},{"user_id":447,"name":"Chaos","steam_id":76561199068325065,"connected_time":414000000000,"state":"active","ping":101},{"user_id":343,"name":"Lae","steam_id":76561198185527278,"connected_time":6965000000000,"state":"active","ping":73},{"user_id":456,"name":"Sex Midfielder","steam_id":76561198048918192,"connected_time":169000000000,"state":"active","ping":65},{"user_id":441,"name":"allMAX","steam_id":76561198270980670,"connected_time":977000000000,"state":"active","ping":187},{"user_id":395,"name":"RedBread | Not mad, just Bo3","steam_id":76561197999362370,"connected_time":2710000000000,"state":"active","ping":75},{"user_id":438,"name":"Sarbanes-Oxley","steam_id":76561197975898479,"connected_time":1054000000000,"state":"active","ping":76},{"user_id":452,"name":"Cat doin laundry","steam_id":76561198063895852,"connected_time":378000000000,"state":"active","ping":70},{"user_id":453,"name":"Mannamannaa","steam_id":76561198024438635,"connected_time":365000000000,"state":"active","ping":65},{"user_id":454,"name":"no more fucks to give","steam_id":76561199129974320,"connected_time":363000000000,"state":"active","ping":40},{"user_id":429,"name":"BRONY POWER","steam_id":76561198075510786,"connected_time":1544000000000,"state":"active","ping":75},{"user_id":436,"name":"♥P1Darkie♥","steam_id":76561199508141875,"connected_time":1181000000000,"state":"active","ping":90}]},{"server_id":403,"name":"Uncletopia | Chicago | 4 | All Maps","name_short":"chi-4","host":"chi-1.us.uncletopia.com","port":27045,"enabled":true,"region":"us-central","cc":"us","latitude":41.881832,"longitude":-87.62318,"reserved":0,"last_update":"0001-01-01T00:00:00Z","name_a2s":"Uncletopia | Chicago | 4 | All Maps","protocol":17,"map":"koth_harvest_final","folder":"tf","game":"Team Fortress","app_id":440,"player_count":0,"max_players":24,"Bots":0,"server_type":"Dedicated","server_os":"Linux","password":true,"vac":true,"version":"7961495","steam_id":85568392924515193,"keywords":["cp","nocrits","nodmgspread","uncletopia"],"game_id":440,"stv_port":27046,"stv_name":"Uncletopia | Chicago | 4 | All Maps | STV","players":null},{"server_id":36,"name":"Uncletopia | Chicago | 5 | All Maps","name_short":"chi-5","host":"chi-2.us.uncletopia.com","port":27015,"enabled":true,"region":"us-central","cc":"us","latitude":41.881832,"longitude":-87.62318,"reserved":0,"last_update":"0001-01-01T00:00:00Z","name_a2s":"Uncletopia | Chicago | 5 | All Maps","protocol":17,"map":"cp_powerhouse","folder":"tf","game":"Team Fortress","app_id":440,"player_count":24,"max_players":24,"Bots":0,"server_type":"Dedicated","server_os":"Linux","password":true,"vac":true,"version":"7961495","steam_id":85568392924866362,"keywords":["cp","nocrits","nodmgspread","uncletopia"],"game_id":440,"stv_port":27016,"stv_name":"Uncletopia | Chicago | 5 | All Maps | STV","players":[{"user_id":174,"name":"GLURRIN","steam_id":76561198315690955,"connected_time":1810000000000,"state":"active","ping":54},{"user_id":179,"name":"Joe, Banana","steam_id":76561198077551754,"connected_time":1420000000000,"state":"active","ping":66},{"user_id":187,"name":"gayforgod","steam_id":76561198364882421,"connected_time":984000000000,"state":"active","ping":109},{"user_id":211,"name":"Katy","steam_id":76561198079395814,"connected_time":118000000000,"state":"active","ping":49},{"user_id":183,"name":"puffle fanatic","steam_id":76561198094030685,"connected_time":1247000000000,"state":"active","ping":75},{"user_id":184,"name":"pepe salvia","steam_id":76561198102565842,"connected_time":1242000000000,"state":"active","ping":70},{"user_id":207,"name":"padrooga","steam_id":76561198335292512,"connected_time":548000000000,"state":"active","ping":53},{"user_id":180,"name":"Real Neanderthal Shit","steam_id":76561198086991324,"connected_time":1393000000000,"state":"active","ping":91},{"user_id":190,"name":"93.77 TAC BIO-JESUS LIVE SAND ","steam_id":76561198012126625,"connected_time":911000000000,"state":"active","ping":64},{"user_id":66,"name":"Ferioth","steam_id":76561197997993090,"connected_time":9987000000000,"state":"active","ping":66},{"user_id":182,"name":"Meshric","steam_id":76561198036001091,"connected_time":1283000000000,"state":"active","ping":69},{"user_id":191,"name":"Shorty","steam_id":76561198044873248,"connected_time":906000000000,"state":"active","ping":45},{"user_id":203,"name":"grim","steam_id":76561198257683177,"connected_time":808000000000,"state":"active","ping":60},{"user_id":209,"name":"LsForDays","steam_id":76561198018685698,"connected_time":200000000000,"state":"active","ping":54},{"user_id":193,"name":"press H to change heroes","steam_id":76561198030291655,"connected_time":900000000000,"state":"active","ping":46},{"user_id":204,"name":"JoeFalco","steam_id":76561198064005012,"connected_time":750000000000,"state":"active","ping":89},{"user_id":205,"name":"Scarecrow","steam_id":76561198045870511,"connected_time":700000000000,"state":"active","ping":51},{"user_id":196,"name":"⚢","steam_id":76561199117637890,"connected_time":831000000000,"state":"active","ping":48},{"user_id":197,"name":"Rat_king","steam_id":76561199465689129,"connected_time":830000000000,"state":"active","ping":83},{"user_id":198,"name":"JackToeRip","steam_id":76561198046523256,"connected_time":827000000000,"state":"active","ping":85},{"user_id":208,"name":"feed lips","steam_id":76561197971152439,"connected_time":220000000000,"state":"active","ping":74},{"user_id":201,"name":"nines","steam_id":76561198078992548,"connected_time":818000000000,"state":"active","ping":75},{"user_id":202,"name":"Charlie","steam_id":76561199098209171,"connected_time":817000000000,"state":"active","ping":89},{"user_id":206,"name":"Therapy Goth","steam_id":76561198048448497,"connected_time":629000000000,"state":"active","ping":66}]},{"server_id":37,"name":"Uncletopia | Chicago | 6 | All Maps","name_short":"chi-6","host":"chi-2.us.uncletopia.com","port":27025,"enabled":true,"region":"us-central","cc":"us","latitude":41.881832,"longitude":-87.62318,"reserved":0,"last_update":"0001-01-01T00:00:00Z","name_a2s":"Uncletopia | Chicago | 6 | All Maps","protocol":17,"map":"koth_cascade","folder":"tf","game":"Team Fortress","app_id":440,"player_count":0,"max_players":24,"Bots":0,"server_type":"Dedicated","server_os":"Linux","password":true,"vac":true,"version":"7961495","steam_id":85568392924866363,"keywords":["cp","nocrits","nodmgspread","uncletopia"],"game_id":440,"stv_port":27026,"stv_name":"Uncletopia | Chicago | 6 | All Maps | STV","players":null},{"server_id":38,"name":"Uncletopia | Chicago | 7 | Stopwatch","name_short":"chi-7","host":"chi-2.us.uncletopia.com","port":27035,"enabled":true,"region":"us-central","cc":"us","latitude":41.881832,"longitude":-87.62318,"reserved":0,"last_update":"0001-01-01T00:00:00Z","name_a2s":"Uncletopia | Chicago | 7 | Stopwatch","protocol":17,"map":"workshop/cp_reckoner_rc6.ugc674719999","folder":"tf","game":"Team Fortress","app_id":440,"player_count":0,"max_players":24,"Bots":0,"server_type":"Dedicated","server_os":"Linux","password":true,"vac":true,"version":"7961495","steam_id":85568392924866364,"keywords":["cp","nocrits","nodmgspread","uncletopia"],"game_id":440,"stv_port":27036,"stv_name":"Uncletopia | Chicago | 7 | Stopwatch | STV","players":null},{"server_id":39,"name":"Uncletopia | Chicago | 8 | Community","name_short":"chi-8","host":"chi-2.us.uncletopia.com","port":27045,"enabled":true,"region":"us-central","cc":"us","latitude":41.881832,"longitude":-87.62318,"reserved":0,"last_update":"0001-01-01T00:00:00Z","name_a2s":"Uncletopia | Chicago | 8 | Community","protocol":17,"map":"workshop/pl_phoenix_b4a.ugc2969509359","folder":"tf","game":"Team Fortress","app_id":440,"player_count":24,"max_players":24,"Bots":0,"server_type":"Dedicated","server_os":"Linux","password":true,"vac":true,"version":"7961495","steam_id":85568392924866365,"keywords":["nocrits","nodmgspread","payload","uncletopia"],"game_id":440,"stv_port":27046,"stv_name":"Uncletopia | Chicago | 8 | Community | STV","players":[{"user_id":60,"name":"lellelyep","steam_id":76561198351006780,"connected_time":351000000000,"state":"active","ping":105},{"user_id":61,"name":"Silverkeys","steam_id":76561197986012496,"connected_time":330000000000,"state":"active","ping":63},{"user_id":49,"name":"Lord Scrubling","steam_id":76561198263744445,"connected_time":1281000000000,"state":"active","ping":79},{"user_id":65,"name":"MortGrim","steam_id":76561198027156235,"connected_time":275000000000,"state":"active","ping":60},{"user_id":57,"name":"Adawnby","steam_id":76561198103057295,"connected_time":634000000000,"state":"active","ping":86},{"user_id":66,"name":"Lennu","steam_id":76561198060730154,"connected_time":105000000000,"state":"active","ping":77},{"user_id":15,"name":"Tymera","steam_id":76561198139699097,"connected_time":3654000000000,"state":"active","ping":102},{"user_id":46,"name":"Scoundrel","steam_id":76561198056672372,"connected_time":1478000000000,"state":"active","ping":85},{"user_id":56,"name":"WeeajEw","steam_id":76561198142481010,"connected_time":740000000000,"state":"active","ping":40},{"user_id":52,"name":"water","steam_id":76561198163340882,"connected_time":1187000000000,"state":"active","ping":109},{"user_id":21,"name":"Thx2u","steam_id":76561198122807068,"connected_time":2867000000000,"state":"active","ping":88},{"user_id":41,"name":"him/her","steam_id":76561198122238340,"connected_time":2109000000000,"state":"active","ping":91},{"user_id":23,"name":"NPC","steam_id":76561199220172896,"connected_time":2798000000000,"state":"active","ping":81},{"user_id":24,"name":"rumes","steam_id":76561198349219467,"connected_time":2796000000000,"state":"active","ping":70},{"user_id":25,"name":"Booni","steam_id":76561198386763759,"connected_time":2789000000000,"state":"active","ping":95},{"user_id":39,"name":"naurr","steam_id":76561198117206414,"connected_time":2570000000000,"state":"active","ping":79},{"user_id":54,"name":"SuperEnderGuy","steam_id":76561198352732164,"connected_time":1002000000000,"state":"active","ping":114},{"user_id":44,"name":"Oviraptor Supreme","steam_id":76561198044262534,"connected_time":1687000000000,"state":"active","ping":83},{"user_id":29,"name":"Thelonelypagan","steam_id":76561199473180101,"connected_time":2731000000000,"state":"active","ping":87},{"user_id":58,"name":"GamingJuice42","steam_id":76561198110469437,"connected_time":574000000000,"state":"active","ping":68},{"user_id":34,"name":"friendly salamander","steam_id":76561198888219116,"connected_time":2676000000000,"state":"active","ping":75},{"user_id":53,"name":"Boxcars","steam_id":76561198120978767,"connected_time":1186000000000,"state":"active","ping":103},{"user_id":36,"name":"Blaze","steam_id":76561198043797702,"connected_time":2643000000000,"state":"active","ping":65},{"user_id":42,"name":"frank","steam_id":76561198137777483,"connected_time":2052000000000,"state":"active","ping":74}]},{"server_id":8,"name":"Uncletopia | Dallas | 1 | All Maps","name_short":"dal-1","host":"dal-1.us.uncletopia.com","port":27015,"enabled":true,"region":"us-central","cc":"us","latitude":32.779167,"longitude":-96.80889,"reserved":0,"last_update":"0001-01-01T00:00:00Z","name_a2s":"Uncletopia | Dallas | 1 | All Maps","protocol":17,"map":"koth_harvest_final","folder":"tf","game":"Team Fortress","app_id":440,"player_count":23,"max_players":24,"Bots":0,"server_type":"Dedicated","server_os":"Linux","password":true,"vac":true,"version":"7961495","steam_id":85568392924469986,"keywords":["cp","nocrits","nodmgspread","uncletopia"],"game_id":440,"stv_port":27016,"stv_name":"Uncletopia | Dallas | 1 | All Maps | STV","players":[{"user_id":479,"name":"RockAndRollSteve_1995","steam_id":76561198276332416,"connected_time":3018000000000,"state":"active","ping":93},{"user_id":481,"name":"Tbonetravmo","steam_id":76561198403206617,"connected_time":2938000000000,"state":"active","ping":84},{"user_id":482,"name":"Byan","steam_id":76561198319090131,"connected_time":2902000000000,"state":"active","ping":61},{"user_id":483,"name":"Dynamic","steam_id":76561198204547960,"connected_time":2876000000000,"state":"active","ping":74},{"user_id":521,"name":"I3lasteroid","steam_id":76561197985463901,"connected_time":192000000000,"state":"active","ping":58},{"user_id":491,"name":"JayEffem","steam_id":76561198071256796,"connected_time":2289000000000,"state":"active","ping":79},{"user_id":507,"name":"Cornelius Vanderbelt Jr The 3rd","steam_id":76561199083115222,"connected_time":1591000000000,"state":"active","ping":106},{"user_id":510,"name":"CherryPieRed2023","steam_id":76561198998007496,"connected_time":1282000000000,"state":"active","ping":108},{"user_id":516,"name":"HiddenEgg","steam_id":76561199045105518,"connected_time":569000000000,"state":"active","ping":77},{"user_id":489,"name":"Kepa","steam_id":76561198091975728,"connected_time":2308000000000,"state":"active","ping":72},{"user_id":490,"name":"Trundlini","steam_id":76561198810160534,"connected_time":2299000000000,"state":"active","ping":105},{"user_id":513,"name":"CALL OF DUTY BLACKOPPS","steam_id":76561198262422184,"connected_time":644000000000,"state":"active","ping":48},{"user_id":493,"name":"ClosetBotany","steam_id":76561198088324821,"connected_time":2113000000000,"state":"active","ping":69},{"user_id":494,"name":"odinnn","steam_id":76561198308564076,"connected_time":2090000000000,"state":"active","ping":61},{"user_id":496,"name":"pistachiocookie","steam_id":76561198355916021,"connected_time":2034000000000,"state":"active","ping":92},{"user_id":497,"name":"Immoral Boi","steam_id":76561198069551646,"connected_time":2029000000000,"state":"active","ping":91},{"user_id":499,"name":"what're ya buyin","steam_id":76561199277633460,"connected_time":1884000000000,"state":"active","ping":59},{"user_id":517,"name":"An00bis","steam_id":76561198044084508,"connected_time":566000000000,"state":"active","ping":75},{"user_id":501,"name":"Kriperchito","steam_id":76561198358504992,"connected_time":1878000000000,"state":"active","ping":54},{"user_id":512,"name":"ZemkJval","steam_id":76561198154464008,"connected_time":722000000000,"state":"active","ping":61},{"user_id":519,"name":"ImagineExisting","steam_id":76561198860261731,"connected_time":560000000000,"state":"active","ping":79},{"user_id":511,"name":"vyx","steam_id":76561198088326263,"connected_time":1182000000000,"state":"active","ping":78},{"user_id":506,"name":"Máquina de Fuego","steam_id":76561198119445407,"connected_time":1814000000000,"state":"active","ping":66}]},{"server_id":108,"name":"Uncletopia | Dallas | 2 | All Maps","name_short":"dal-2","host":"dal-1.us.uncletopia.com","port":27025,"enabled":true,"region":"us-central","cc":"us","latitude":32.779167,"longitude":-96.80889,"reserved":0,"last_update":"0001-01-01T00:00:00Z","name_a2s":"Uncletopia | Dallas | 2 | All Maps","protocol":17,"map":"koth_viaduct","folder":"tf","game":"Team Fortress","app_id":440,"player_count":21,"max_players":24,"Bots":0,"server_type":"Dedicated","server_os":"Linux","password":true,"vac":true,"version":"7961495","steam_id":85568392924469988,"keywords":["cp","nocrits","nodmgspread","uncletopia"],"game_id":440,"stv_port":27026,"stv_name":"Uncletopia | Dallas | 2 | All Maps | STV","players":[{"user_id":555,"name":"slammin","steam_id":76561197965022076,"connected_time":1325000000000,"state":"active","ping":83},{"user_id":569,"name":"Elixir","steam_id":76561198154415647,"connected_time":12000000000,"state":"spawning","ping":83},{"user_id":571,"name":"The Final Terminus","steam_id":76561197964985183,"connected_time":2000000000,"state":"spawning","ping":72},{"user_id":567,"name":"Yongle","steam_id":76561198068591156,"connected_time":20000000000,"state":"active","ping":70},{"user_id":549,"name":"EightySix","steam_id":76561198186678831,"connected_time":1700000000000,"state":"active","ping":128},{"user_id":545,"name":"chrischrischris3018@yahoo.com","steam_id":76561198137316053,"connected_time":2015000000000,"state":"active","ping":66},{"user_id":533,"name":"Loamy","steam_id":76561198064183674,"connected_time":3195000000000,"state":"active","ping":70},{"user_id":564,"name":"Pvt. Dimitri Petrenko","steam_id":76561198078040091,"connected_time":40000000000,"state":"active","ping":46},{"user_id":543,"name":"Scremz (Jeffery Bomber)","steam_id":76561198090314229,"connected_time":2105000000000,"state":"active","ping":72},{"user_id":540,"name":"man of the hour","steam_id":76561198264601809,"connected_time":2238000000000,"state":"active","ping":45},{"user_id":550,"name":"tiny","steam_id":76561198010743348,"connected_time":1686000000000,"state":"active","ping":47},{"user_id":570,"name":"smissmas rat","steam_id":76561199005687929,"connected_time":9000000000,"state":"spawning","ping":61},{"user_id":565,"name":"Lain","steam_id":76561198029303534,"connected_time":39000000000,"state":"active","ping":68},{"user_id":561,"name":"canadian birds","steam_id":76561198059466588,"connected_time":592000000000,"state":"spawning","ping":72},{"user_id":525,"name":"Nick","steam_id":76561198043703129,"connected_time":3451000000000,"state":"active","ping":82},{"user_id":572,"name":"`o2","steam_id":76561197992030936,"connected_time":1000000000,"state":"spawning","ping":65},{"user_id":563,"name":"tomfoolery","steam_id":76561198143132686,"connected_time":227000000000,"state":"active","ping":67},{"user_id":553,"name":"Beef Cheeks","steam_id":76561198042327637,"connected_time":1609000000000,"state":"spawning","ping":65},{"user_id":531,"name":"muddy","steam_id":76561198035015260,"connected_time":3214000000000,"state":"spawning","ping":75},{"user_id":568,"name":"ack.awesome676","steam_id":76561199109415958,"connected_time":18000000000,"state":"active","ping":68},{"user_id":554,"name":"awesomegj1","steam_id":76561198354715063,"connected_time":1602000000000,"state":"active","ping":75}]},{"server_id":404,"name":"Uncletopia | Dallas | 3 | All Maps","name_short":"dal-3","host":"dal-1.us.uncletopia.com","port":27035,"enabled":true,"region":"us-central","cc":"us","latitude":32.779167,"longitude":-96.80889,"reserved":0,"last_update":"0001-01-01T00:00:00Z","name_a2s":"Uncletopia | Dallas | 3 | All Maps","protocol":17,"map":"pl_snowycoast","folder":"tf","game":"Team Fortress","app_id":440,"player_count":24,"max_players":24,"Bots":0,"server_type":"Dedicated","server_os":"Linux","password":true,"vac":true,"version":"7961495","steam_id":85568392924515219,"keywords":["nocrits","nodmgspread","payload","uncletopia"],"game_id":440,"stv_port":27036,"stv_name":"Uncletopia | Dallas | 3 | All Maps | STV","players":[{"user_id":164,"name":"King","steam_id":76561198010019214,"connected_time":3402000000000,"state":"active","ping":86},{"user_id":199,"name":"Constipated Barry","steam_id":76561198004482269,"connected_time":1331000000000,"state":"active","ping":91},{"user_id":177,"name":"KazmirlYT","steam_id":76561198116008410,"connected_time":2219000000000,"state":"active","ping":112},{"user_id":208,"name":"tsz","steam_id":76561199246231090,"connected_time":828000000000,"state":"active","ping":168},{"user_id":202,"name":"shromp","steam_id":76561199202787840,"connected_time":1035000000000,"state":"active","ping":103},{"user_id":120,"name":"Friggin_Ponies","steam_id":76561198064379318,"connected_time":6130000000000,"state":"active","ping":83},{"user_id":203,"name":"java","steam_id":76561198030276792,"connected_time":1035000000000,"state":"active","ping":61},{"user_id":200,"name":"ZestyTrev","steam_id":76561198253391039,"connected_time":1313000000000,"state":"active","ping":54},{"user_id":168,"name":"PiolaCat","steam_id":76561199100535345,"connected_time":3111000000000,"state":"active","ping":97},{"user_id":173,"name":"porz","steam_id":76561198195711453,"connected_time":2280000000000,"state":"active","ping":47},{"user_id":165,"name":"lanoc","steam_id":76561198055415367,"connected_time":3234000000000,"state":"active","ping":62},{"user_id":207,"name":"Cinnifox","steam_id":76561198068773971,"connected_time":861000000000,"state":"active","ping":83},{"user_id":217,"name":"RoJ","steam_id":76561198063959574,"connected_time":41000000000,"state":"active","ping":94},{"user_id":215,"name":"MAGBASTARD Jr.","steam_id":76561199071277523,"connected_time":307000000000,"state":"active","ping":55},{"user_id":162,"name":"sithreis","steam_id":76561198000564263,"connected_time":3545000000000,"state":"active","ping":74},{"user_id":205,"name":"Y Dough","steam_id":76561198003827633,"connected_time":1017000000000,"state":"active","ping":88},{"user_id":206,"name":"Enfield","steam_id":76561197961097111,"connected_time":1013000000000,"state":"active","ping":82},{"user_id":216,"name":"AzuriousAlex","steam_id":76561198158026405,"connected_time":306000000000,"state":"active","ping":79},{"user_id":122,"name":"The Nuclear Kitsune","steam_id":76561198004852482,"connected_time":6095000000000,"state":"active","ping":110},{"user_id":166,"name":"AlecTheNefarious","steam_id":76561198035291230,"connected_time":3208000000000,"state":"active","ping":52},{"user_id":193,"name":"yung hoisin","steam_id":76561199122537902,"connected_time":1663000000000,"state":"active","ping":87},{"user_id":211,"name":"DanielGarka","steam_id":76561198302972656,"connected_time":607000000000,"state":"active","ping":145},{"user_id":196,"name":"Junk","steam_id":76561198024382753,"connected_time":1492000000000,"state":"active","ping":63},{"user_id":212,"name":"Limp Pumpo Discography Fan Club","steam_id":76561198145748479,"connected_time":604000000000,"state":"active","ping":113}]},{"server_id":405,"name":"Uncletopia | Dallas | 4 | Community","name_short":"dal-4","host":"dal-1.us.uncletopia.com","port":27045,"enabled":true,"region":"us-central","cc":"us","latitude":32.779167,"longitude":-96.80889,"reserved":0,"last_update":"0001-01-01T00:00:00Z","name_a2s":"Uncletopia | Dallas | 4 | Community","protocol":17,"map":"workshop/koth_rotunda_rc10w.ugc2964421291","folder":"tf","game":"Team Fortress","app_id":440,"player_count":0,"max_players":24,"Bots":0,"server_type":"Dedicated","server_os":"Linux","password":true,"vac":true,"version":"7961495","steam_id":85568392924515220,"keywords":["cp","nocrits","nodmgspread","uncletopia"],"game_id":440,"stv_port":27046,"stv_name":"Uncletopia | Dallas | 4 | Community | STV","players":null},{"server_id":5,"name":"Uncletopia | Frankfurt | 1 | All Maps","name_short":"frk-1","host":"frk-1.de.uncletopia.com","port":27015,"enabled":true,"region":"eu","cc":"de","latitude":50.110924,"longitude":8.682127,"reserved":0,"last_update":"0001-01-01T00:00:00Z","name_a2s":"Uncletopia | Frankfurt | 1 | All Maps","protocol":17,"map":"ctf_doublecross","folder":"tf","game":"Team Fortress","app_id":440,"player_count":0,"max_players":24,"Bots":0,"server_type":"Dedicated","server_os":"Linux","password":true,"vac":true,"version":"7961495","steam_id":85568392924469989,"keywords":["ctf","nocrits","nodmgspread","uncletopia"],"game_id":440,"stv_port":27016,"stv_name":"Uncletopia | Frankfurt | 1 | All Maps | STV","players":null},{"server_id":110,"name":"Uncletopia | Frankfurt | 2 | All Maps","name_short":"frk-2","host":"frk-1.de.uncletopia.com","port":27025,"enabled":true,"region":"eu","cc":"de","latitude":50.110924,"longitude":8.682127,"reserved":0,"last_update":"0001-01-01T00:00:00Z","name_a2s":"Uncletopia | Frankfurt | 2 | All Maps","protocol":17,"map":"ctf_2fort","folder":"tf","game":"Team Fortress","app_id":440,"player_count":11,"max_players":24,"Bots":0,"server_type":"Dedicated","server_os":"Linux","password":true,"vac":true,"version":"7961495","steam_id":85568392924469990,"keywords":["ctf","nocrits","nodmgspread","uncletopia"],"game_id":440,"stv_port":27026,"stv_name":"Uncletopia | Frankfurt | 2 | All Maps | STV","players":[{"user_id":21,"name":"Stinky Whizzleteats","steam_id":76561197968945306,"connected_time":721000000000,"state":"active","ping":74},{"user_id":4,"name":"faker","steam_id":76561199179040672,"connected_time":2010000000000,"state":"active","ping":60},{"user_id":22,"name":"iq drops","steam_id":76561198035795130,"connected_time":537000000000,"state":"active","ping":68},{"user_id":24,"name":"HopeDaGamer","steam_id":76561199487262348,"connected_time":340000000000,"state":"active","ping":89},{"user_id":25,"name":"P","steam_id":76561198399390201,"connected_time":199000000000,"state":"active","ping":78},{"user_id":9,"name":"CumbustiblePunda","steam_id":76561197974274677,"connected_time":2003000000000,"state":"active","ping":60},{"user_id":26,"name":"kasper.perander","steam_id":76561199510847023,"connected_time":168000000000,"state":"active","ping":77},{"user_id":11,"name":"Volodya","steam_id":76561198124484658,"connected_time":1973000000000,"state":"active","ping":115},{"user_id":27,"name":"ThellanM","steam_id":76561199014222387,"connected_time":35000000000,"state":"active","ping":75},{"user_id":28,"name":"Saken","steam_id":76561198049075295,"connected_time":35000000000,"state":"active","ping":53},{"user_id":18,"name":"PENGUN","steam_id":76561199015156956,"connected_time":1728000000000,"state":"active","ping":93}]},{"server_id":308,"name":"Uncletopia | Frankfurt | 3 | All Maps","name_short":"frk-3","host":"frk-1.de.uncletopia.com","port":27035,"enabled":true,"region":"eu","cc":"de","latitude":50.110924,"longitude":8.682127,"reserved":0,"last_update":"0001-01-01T00:00:00Z","name_a2s":"Uncletopia | Frankfurt | 3 | All Maps","protocol":17,"map":"plr_pipeline","folder":"tf","game":"Team Fortress","app_id":440,"player_count":0,"max_players":24,"Bots":0,"server_type":"Dedicated","server_os":"Linux","password":true,"vac":true,"version":"7961495","steam_id":85568392924504274,"keywords":["nocrits","nodmgspread","payload","uncletopia"],"game_id":440,"stv_port":27036,"stv_name":"Uncletopia | Frankfurt | 3 | All Maps | STV","players":null},{"server_id":309,"name":"Uncletopia | Frankfurt | 4 | All Maps","name_short":"frk-4","host":"frk-1.de.uncletopia.com","port":27045,"enabled":true,"region":"eu","cc":"de","latitude":50.110924,"longitude":8.682127,"reserved":0,"last_update":"0001-01-01T00:00:00Z","name_a2s":"Uncletopia | Frankfurt | 4 | All Maps","protocol":17,"map":"koth_lakeside_final","folder":"tf","game":"Team Fortress","app_id":440,"player_count":0,"max_players":24,"Bots":0,"server_type":"Dedicated","server_os":"Linux","password":true,"vac":true,"version":"7961495","steam_id":85568392924504275,"keywords":["cp","nocrits","nodmgspread","uncletopia"],"game_id":440,"stv_port":27046,"stv_name":"Uncletopia | Frankfurt | 4 | All Maps | STV","players":null},{"server_id":310,"name":"Uncletopia | Frankfurt | 5 | All Maps","name_short":"frk-5","host":"frk-1.de.uncletopia.com","port":27055,"enabled":true,"region":"eu","cc":"de","latitude":50.110924,"longitude":8.682127,"reserved":0,"last_update":"0001-01-01T00:00:00Z","name_a2s":"Uncletopia | Frankfurt | 5 | All Maps","protocol":17,"map":"ctf_landfall","folder":"tf","game":"Team Fortress","app_id":440,"player_count":0,"max_players":24,"Bots":0,"server_type":"Dedicated","server_os":"Linux","password":true,"vac":true,"version":"7961495","steam_id":85568392924504277,"keywords":["ctf","nocrits","nodmgspread","uncletopia"],"game_id":440,"stv_port":27056,"stv_name":"Uncletopia | Frankfurt | 5 | All Maps | STV","players":null},{"server_id":311,"name":"Uncletopia | Frankfurt | 6 | All Maps","name_short":"frk-6","host":"frk-1.de.uncletopia.com","port":27065,"enabled":true,"region":"eu","cc":"de","latitude":50.110924,"longitude":8.682127,"reserved":0,"last_update":"0001-01-01T00:00:00Z","name_a2s":"Uncletopia | Frankfurt | 6 | All Maps","protocol":17,"map":"cp_steel","folder":"tf","game":"Team Fortress","app_id":440,"player_count":0,"max_players":24,"Bots":0,"server_type":"Dedicated","server_os":"Linux","password":true,"vac":true,"version":"7961495","steam_id":85568392924504278,"keywords":["cp","nocrits","nodmgspread","uncletopia"],"game_id":440,"stv_port":27066,"stv_name":"Uncletopia | Frankfurt | 6 | All Maps | STV","players":null},{"server_id":23,"name":"Uncletopia | Frankfurt | 7 | Stopwatch","name_short":"frk-7","host":"frk-1.de.uncletopia.com","port":27075,"enabled":true,"region":"eu","cc":"de","latitude":50.110924,"longitude":8.682127,"reserved":0,"last_update":"0001-01-01T00:00:00Z","name_a2s":"Uncletopia | Frankfurt | 7 | Stopwatch","protocol":17,"map":"koth_highpass","folder":"tf","game":"Team Fortress","app_id":440,"player_count":0,"max_players":24,"Bots":0,"server_type":"Dedicated","server_os":"Linux","password":true,"vac":true,"version":"7961495","steam_id":85568392924742827,"keywords":["cp","nocrits","nodmgspread","uncletopia"],"game_id":440,"stv_port":27076,"stv_name":"Uncletopia | Frankfurt | 7 | Stopwatch | STV","players":null},{"server_id":24,"name":"Uncletopia | Frankfurt | 8 | Community","name_short":"frk-8","host":"frk-1.de.uncletopia.com","port":27085,"enabled":true,"region":"eu","cc":"de","latitude":50.110924,"longitude":8.682127,"reserved":0,"last_update":"0001-01-01T00:00:00Z","name_a2s":"Uncletopia | Frankfurt | 8 | Community","protocol":17,"map":"workshop/pl_stallberg_rc3.ugc1849111469","folder":"tf","game":"Team Fortress","app_id":440,"player_count":0,"max_players":24,"Bots":0,"server_type":"Dedicated","server_os":"Linux","password":true,"vac":true,"version":"7961495","steam_id":85568392924742828,"keywords":["nocrits","nodmgspread","payload","uncletopia"],"game_id":440,"stv_port":27086,"stv_name":"Uncletopia | Frankfurt | 8 | Community | STV","players":null},{"server_id":202,"name":"Uncletopia | Hong Kong | 1 | All Maps","name_short":"hgk-1","host":"hgk-1.hk.uncletopia.com","port":27015,"enabled":true,"region":"asia","cc":"hk","latitude":22.302711,"longitude":114.177216,"reserved":0,"last_update":"0001-01-01T00:00:00Z","name_a2s":"Uncletopia | Hong Kong | 1 | All Maps","protocol":17,"map":"cp_altitude","folder":"tf","game":"Team Fortress","app_id":440,"player_count":0,"max_players":24,"Bots":0,"server_type":"Dedicated","server_os":"Linux","password":true,"vac":true,"version":"7961495","steam_id":85568392924494504,"keywords":["cp","nocrits","nodmgspread","uncletopia"],"game_id":440,"stv_port":27016,"stv_name":"Uncletopia | Hong Kong | 1 | All Maps | STV","players":null},{"server_id":1,"name":"Uncletopia | Los Angeles | 1 | All Maps","name_short":"lax-1","host":"lax-1.us.uncletopia.com","port":27015,"enabled":true,"region":"us-west","cc":"us","latitude":33.94279,"longitude":-118.41004,"reserved":0,"last_update":"0001-01-01T00:00:00Z","name_a2s":"Uncletopia | Los Angeles | 1 | All Maps","protocol":17,"map":"pl_frontier_final","folder":"tf","game":"Team Fortress","app_id":440,"player_count":0,"max_players":24,"Bots":0,"server_type":"Dedicated","server_os":"Linux","password":true,"vac":true,"version":"7961495","steam_id":85568392924469991,"keywords":["nocrits","nodmgspread","payload","uncletopia"],"game_id":440,"stv_port":27016,"stv_name":"Uncletopia | Los Angeles | 1 | All Maps | STV","players":null},{"server_id":112,"name":"Uncletopia | Los Angeles | 2 | All Maps","name_short":"lax-2","host":"lax-1.us.uncletopia.com","port":27025,"enabled":true,"region":"us-west","cc":"us","latitude":33.94279,"longitude":-118.41004,"reserved":0,"last_update":"0001-01-01T00:00:00Z","name_a2s":"Uncletopia | Los Angeles | 2 | All Maps","protocol":17,"map":"cp_sunshine","folder":"tf","game":"Team Fortress","app_id":440,"player_count":24,"max_players":24,"Bots":0,"server_type":"Dedicated","server_os":"Linux","password":true,"vac":true,"version":"7961495","steam_id":85568392924469992,"keywords":["cp","nocrits","nodmgspread","uncletopia"],"game_id":440,"stv_port":27026,"stv_name":"Uncletopia | Los Angeles | 2 | All Maps | STV","players":[{"user_id":201,"name":"johnman gooberguy","steam_id":76561199014859764,"connected_time":1269000000000,"state":"active","ping":69},{"user_id":212,"name":"ICLII","steam_id":76561198113279795,"connected_time":421000000000,"state":"active","ping":61},{"user_id":209,"name":"tunaa","steam_id":76561198362763159,"connected_time":582000000000,"state":"active","ping":42},{"user_id":198,"name":"The Broken Lightbulb","steam_id":76561198141566312,"connected_time":1869000000000,"state":"active","ping":61},{"user_id":211,"name":"Mom","steam_id":76561198207936000,"connected_time":479000000000,"state":"active","ping":45},{"user_id":204,"name":"Pocky","steam_id":76561199096774182,"connected_time":780000000000,"state":"active","ping":60},{"user_id":210,"name":"Assassin","steam_id":76561198321410235,"connected_time":567000000000,"state":"active","ping":43},{"user_id":213,"name":"minerkid2004","steam_id":76561198044262827,"connected_time":272000000000,"state":"active","ping":56},{"user_id":207,"name":"Just Juanito","steam_id":76561198241446874,"connected_time":747000000000,"state":"active","ping":75},{"user_id":214,"name":"NightmareOhm","steam_id":76561198338853664,"connected_time":265000000000,"state":"active","ping":76},{"user_id":215,"name":"the Champagnski corks","steam_id":76561198007822150,"connected_time":221000000000,"state":"active","ping":95},{"user_id":216,"name":"Xurtan","steam_id":76561197996705429,"connected_time":207000000000,"state":"active","ping":85},{"user_id":217,"name":"Liam TF2","steam_id":76561198067137160,"connected_time":194000000000,"state":"active","ping":59},{"user_id":223,"name":"Soviet Potato","steam_id":76561198068546113,"connected_time":166000000000,"state":"active","ping":45},{"user_id":219,"name":"Gunboats Soldier (Derogatory)","steam_id":76561198046526036,"connected_time":187000000000,"state":"active","ping":46},{"user_id":220,"name":"terrapieseven","steam_id":76561198072062415,"connected_time":185000000000,"state":"active","ping":120},{"user_id":221,"name":"Sigfig","steam_id":76561198000237899,"connected_time":172000000000,"state":"active","ping":110},{"user_id":222,"name":"Imperial Jenga ✠","steam_id":76561198057256790,"connected_time":172000000000,"state":"active","ping":105},{"user_id":224,"name":"PerKnuckleChuckle","steam_id":76561198023221596,"connected_time":133000000000,"state":"active","ping":88},{"user_id":225,"name":"Caboose","steam_id":76561198215451935,"connected_time":115000000000,"state":"active","ping":87},{"user_id":226,"name":"FangisCat","steam_id":76561198957301047,"connected_time":112000000000,"state":"active","ping":77},{"user_id":227,"name":"Marcus Sillylius","steam_id":76561198192695482,"connected_time":98000000000,"state":"active","ping":62},{"user_id":228,"name":"trash mann","steam_id":76561198326437496,"connected_time":73000000000,"state":"active","ping":160},{"user_id":229,"name":"HAT-WEARING™ Maggot Gamer Cat","steam_id":76561197973992705,"connected_time":16000000000,"state":"spawning","ping":100}]},{"server_id":324,"name":"Uncletopia | Los Angeles | 3 | All Maps","name_short":"lax-3","host":"lax-1.us.uncletopia.com","port":27035,"enabled":true,"region":"us-west","cc":"us","latitude":33.94279,"longitude":-118.41004,"reserved":0,"last_update":"0001-01-01T00:00:00Z","name_a2s":"Uncletopia | Los Angeles | 3 | All Maps","protocol":17,"map":"pl_barnblitz","folder":"tf","game":"Team Fortress","app_id":440,"player_count":0,"max_players":24,"Bots":0,"server_type":"Dedicated","server_os":"Linux","password":true,"vac":true,"version":"7961495","steam_id":85568392924510198,"keywords":["nocrits","nodmgspread","payload","uncletopia"],"game_id":440,"stv_port":27036,"stv_name":"Uncletopia | Los Angeles | 3 | All Maps | STV","players":null},{"server_id":25,"name":"Uncletopia | Los Angeles | 4 | Stopwatch","name_short":"lax-4","host":"lax-1.us.uncletopia.com","port":27045,"enabled":true,"region":"us-west","cc":"us","latitude":33.94279,"longitude":-118.41004,"reserved":0,"last_update":"0001-01-01T00:00:00Z","name_a2s":"Uncletopia | Los Angeles | 4 | Stopwatch","protocol":17,"map":"workshop/pl_badwater_pro_v12.ugc2142942074","folder":"tf","game":"Team Fortress","app_id":440,"player_count":0,"max_players":24,"Bots":0,"server_type":"Dedicated","server_os":"Linux","password":true,"vac":true,"version":"7961495","steam_id":85568392924510199,"keywords":["nocrits","nodmgspread","payload","uncletopia"],"game_id":440,"stv_port":27046,"stv_name":"Uncletopia | Los Angeles | 4 | Stopwatch | STV","players":null},{"server_id":11,"name":"Uncletopia | London | 1 | All Maps","name_short":"lon-1","host":"lon-1.uk.uncletopia.com","port":27015,"enabled":true,"region":"eu","cc":"gb","latitude":51.509865,"longitude":-0.118092,"reserved":0,"last_update":"0001-01-01T00:00:00Z","name_a2s":"Uncletopia | London | 1 | All Maps","protocol":17,"map":"koth_viaduct","folder":"tf","game":"Team Fortress","app_id":440,"player_count":0,"max_players":24,"Bots":0,"server_type":"Dedicated","server_os":"Linux","password":true,"vac":true,"version":"7961495","steam_id":85568392924367362,"keywords":["cp","nocrits","nodmgspread","uncletopia"],"game_id":440,"stv_port":27016,"stv_name":"Uncletopia | London | 1 | All Maps | STV","players":null},{"server_id":114,"name":"Uncletopia | London | 2 | All Maps","name_short":"lon-2","host":"lon-1.uk.uncletopia.com","port":27025,"enabled":true,"region":"eu","cc":"gb","latitude":51.509865,"longitude":-0.118092,"reserved":0,"last_update":"0001-01-01T00:00:00Z","name_a2s":"Uncletopia | London | 2 | All Maps","protocol":17,"map":"koth_highpass","folder":"tf","game":"Team Fortress","app_id":440,"player_count":0,"max_players":24,"Bots":0,"server_type":"Dedicated","server_os":"Linux","password":true,"vac":true,"version":"7961495","steam_id":85568392924470941,"keywords":["cp","nocrits","nodmgspread","uncletopia"],"game_id":440,"stv_port":27026,"stv_name":"Uncletopia | London | 2 | All Maps | STV","players":null},{"server_id":320,"name":"Uncletopia | London | 3 | All Maps","name_short":"lon-3","host":"lon-1.uk.uncletopia.com","port":27035,"enabled":true,"region":"eu","cc":"gb","latitude":51.509865,"longitude":-0.118092,"reserved":0,"last_update":"0001-01-01T00:00:00Z","name_a2s":"Uncletopia | London | 3 | All Maps","protocol":17,"map":"koth_cascade","folder":"tf","game":"Team Fortress","app_id":440,"player_count":0,"max_players":24,"Bots":0,"server_type":"Dedicated","server_os":"Linux","password":true,"vac":true,"version":"7961495","steam_id":85568392924510192,"keywords":["cp","nocrits","nodmgspread","uncletopia"],"game_id":440,"stv_port":27036,"stv_name":"Uncletopia | London | 3 | All Maps | STV","players":null},{"server_id":321,"name":"Uncletopia | London | 4 | All Maps","name_short":"lon-4","host":"lon-1.uk.uncletopia.com","port":27045,"enabled":true,"region":"eu","cc":"gb","latitude":51.509865,"longitude":-0.118092,"reserved":0,"last_update":"0001-01-01T00:00:00Z","name_a2s":"Uncletopia | London | 4 | All Maps","protocol":17,"map":"cp_snakewater_final1","folder":"tf","game":"Team Fortress","app_id":440,"player_count":0,"max_players":24,"Bots":0,"server_type":"Dedicated","server_os":"Linux","password":true,"vac":true,"version":"7961495","steam_id":85568392924510193,"keywords":["cp","nocrits","nodmgspread","uncletopia"],"game_id":440,"stv_port":27046,"stv_name":"Uncletopia | London | 4 | All Maps | STV","players":null},{"server_id":21,"name":"Uncletopia | London | 5 | All Maps","name_short":"lon-5","host":"lon-1.uk.uncletopia.com","port":27055,"enabled":true,"region":"eu","cc":"gb","latitude":51.509865,"longitude":-0.118092,"reserved":0,"last_update":"0001-01-01T00:00:00Z","name_a2s":"Uncletopia | London | 5 | All Maps","protocol":17,"map":"koth_lakeside_final","folder":"tf","game":"Team Fortress","app_id":440,"player_count":0,"max_players":24,"Bots":0,"server_type":"Dedicated","server_os":"Linux","password":true,"vac":true,"version":"7961495","steam_id":85568392924742829,"keywords":["cp","nocrits","nodmgspread","uncletopia"],"game_id":440,"stv_port":27056,"stv_name":"Uncletopia | London | 5 | All Maps | STV","players":null},{"server_id":22,"name":"Uncletopia | London | 6 | All Maps","name_short":"lon-6","host":"lon-1.uk.uncletopia.com","port":27065,"enabled":true,"region":"eu","cc":"gb","latitude":51.509865,"longitude":-0.118092,"reserved":0,"last_update":"0001-01-01T00:00:00Z","name_a2s":"Uncletopia | London | 6 | All Maps","protocol":17,"map":"koth_viaduct","folder":"tf","game":"Team Fortress","app_id":440,"player_count":0,"max_players":24,"Bots":0,"server_type":"Dedicated","server_os":"Linux","password":true,"vac":true,"version":"7961495","steam_id":85568392924742830,"keywords":["cp","nocrits","nodmgspread","uncletopia"],"game_id":440,"stv_port":27066,"stv_name":"Uncletopia | London | 6 | All Maps | STV","players":null},{"server_id":40,"name":"Uncletopia | London | 7 | Stopwatch","name_short":"lon-7","host":"lon-1.uk.uncletopia.com","port":27075,"enabled":true,"region":"eu","cc":"gb","latitude":51.509865,"longitude":-0.118092,"reserved":0,"last_update":"0001-01-01T00:00:00Z","name_a2s":"Uncletopia | London | 7 | Stopwatch","protocol":17,"map":"workshop/koth_ashville_final.ugc2130459942","folder":"tf","game":"Team Fortress","app_id":440,"player_count":0,"max_players":24,"Bots":0,"server_type":"Dedicated","server_os":"Linux","password":true,"vac":true,"version":"7961495","steam_id":85568392924964314,"keywords":["cp","nocrits","nodmgspread","uncletopia"],"game_id":440,"stv_port":27076,"stv_name":"Uncletopia | London | 7 | Stopwatch | STV","players":null},{"server_id":41,"name":"Uncletopia | London | 8 | Community","name_short":"lon-8","host":"lon-1.uk.uncletopia.com","port":27085,"enabled":true,"region":"eu","cc":"gb","latitude":51.509865,"longitude":-0.118092,"reserved":0,"last_update":"0001-01-01T00:00:00Z","name_a2s":"Uncletopia | London | 8 | Community","protocol":17,"map":"workshop/pl_phoenix_b4a.ugc2969509359","folder":"tf","game":"Team Fortress","app_id":440,"player_count":0,"max_players":24,"Bots":0,"server_type":"Dedicated","server_os":"Linux","password":true,"vac":true,"version":"7961495","steam_id":85568392924964315,"keywords":["nocrits","nodmgspread","payload","uncletopia"],"game_id":440,"stv_port":27086,"stv_name":"Uncletopia | London | 8 | Community | STV","players":null},{"server_id":300,"name":"Uncletopia | Montréal | 1 | One Thousand Uncles","name_short":"mtl-1","host":"mtl-1.ca.uncletopia.com","port":27015,"enabled":true,"region":"us-east","cc":"ca","latitude":45.50889,"longitude":-73.56167,"reserved":0,"last_update":"0001-01-01T00:00:00Z","name_a2s":"Uncletopia | Montréal | 1 | One Thousand Uncles","protocol":17,"map":"cp_dustbowl","folder":"tf","game":"Team Fortress","app_id":440,"player_count":27,"max_players":32,"Bots":20,"server_type":"Dedicated","server_os":"Linux","password":true,"vac":true,"version":"7961495","steam_id":85568392924500087,"keywords":["alltalk","bots","cp","danepve","increased_maxplayers","norespawntime","uncletopia"],"game_id":440,"stv_port":0,"stv_name":"","players":[{"user_id":486,"name":"CTHUWU","steam_id":76561198012388926,"connected_time":1566000000000,"state":"active","ping":63},{"user_id":487,"name":"1-800-GHOST-DANCE","steam_id":76561198835430429,"connected_time":1050000000000,"state":"active","ping":87},{"user_id":459,"name":"Yozzoy","steam_id":76561198027920369,"connected_time":3865000000000,"state":"active","ping":74},{"user_id":461,"name":"Just a BLU Toon","steam_id":76561198273199771,"connected_time":2832000000000,"state":"active","ping":85},{"user_id":488,"name":"Lots0","steam_id":76561198043143145,"connected_time":172000000000,"state":"active","ping":105},{"user_id":489,"name":"Breadzzy!","steam_id":76561198275074299,"connected_time":53000000000,"state":"active","ping":52},{"user_id":490,"name":"BEEEEEEEEEEEEEEEES","steam_id":76561199431280503,"connected_time":37000000000,"state":"active","ping":122}]},{"server_id":301,"name":"Uncletopia | Montréal | 2 | One Thousand Uncles","name_short":"mtl-2","host":"mtl-1.ca.uncletopia.com","port":27025,"enabled":true,"region":"us-east","cc":"ca","latitude":45.50889,"longitude":-73.56167,"reserved":0,"last_update":"0001-01-01T00:00:00Z","name_a2s":"Uncletopia | Montréal | 2 | One Thousand Uncles","protocol":17,"map":"cp_mossrock","folder":"tf","game":"Team Fortress","app_id":440,"player_count":0,"max_players":32,"Bots":0,"server_type":"Dedicated","server_os":"Linux","password":true,"vac":true,"version":"7961495","steam_id":85568392924500088,"keywords":["alltalk","cp","danepve","increased_maxplayers","norespawntime","uncletopia"],"game_id":440,"stv_port":0,"stv_name":"","players":null},{"server_id":302,"name":"Uncletopia | Montréal | 3 | One Thousand Uncles","name_short":"mtl-3","host":"mtl-1.ca.uncletopia.com","port":27035,"enabled":true,"region":"us-east","cc":"ca","latitude":45.50889,"longitude":-73.56167,"reserved":0,"last_update":"0001-01-01T00:00:00Z","name_a2s":"Uncletopia | Montréal | 3 | One Thousand Uncles","protocol":17,"map":"pl_pier","folder":"tf","game":"Team Fortress","app_id":440,"player_count":0,"max_players":32,"Bots":0,"server_type":"Dedicated","server_os":"Linux","password":true,"vac":true,"version":"7961495","steam_id":85568392924500089,"keywords":["alltalk","danepve","increased_maxplayers","norespawntime","payload","uncletopia"],"game_id":440,"stv_port":0,"stv_name":"","players":null},{"server_id":13,"name":"Uncletopia | New York City | 1 | All Maps","name_short":"nyc-1","host":"nyc-1.us.uncletopia.com","port":27015,"enabled":true,"region":"us-east","cc":"us","latitude":40.73061,"longitude":-73.93524,"reserved":0,"last_update":"0001-01-01T00:00:00Z","name_a2s":"Uncletopia | New York City | 1 | All Maps","protocol":17,"map":"pl_swiftwater_final1","folder":"tf","game":"Team Fortress","app_id":440,"player_count":24,"max_players":24,"Bots":0,"server_type":"Dedicated","server_os":"Linux","password":true,"vac":true,"version":"7961495","steam_id":85568392924469993,"keywords":["nocrits","nodmgspread","payload","uncletopia"],"game_id":440,"stv_port":27016,"stv_name":"Uncletopia | New York City | 1 | All Maps | STV","players":[{"user_id":637,"name":"shenanigan","steam_id":76561198043452925,"connected_time":136000000000,"state":"active","ping":184},{"user_id":636,"name":"Lambsauce","steam_id":76561198151827926,"connected_time":209000000000,"state":"active","ping":70},{"user_id":604,"name":"Shwartzy","steam_id":76561198073927139,"connected_time":2082000000000,"state":"active","ping":60},{"user_id":621,"name":"Jadeturtle","steam_id":76561198267516604,"connected_time":1213000000000,"state":"active","ping":72},{"user_id":625,"name":"YASAI JUICE","steam_id":76561198131971992,"connected_time":1123000000000,"state":"active","ping":59},{"user_id":631,"name":"Colonel Sanders jr.","steam_id":76561197990168787,"connected_time":960000000000,"state":"active","ping":116},{"user_id":609,"name":"Star_Mann_Jr.","steam_id":76561198071148924,"connected_time":2008000000000,"state":"active","ping":111},{"user_id":634,"name":"Zezzdr","steam_id":76561198135844269,"connected_time":330000000000,"state":"active","ping":72},{"user_id":633,"name":"Tony","steam_id":76561198042257740,"connected_time":342000000000,"state":"active","ping":66},{"user_id":541,"name":"Chanddy","steam_id":76561198058949058,"connected_time":5865000000000,"state":"active","ping":60},{"user_id":586,"name":"Jermaphobe","steam_id":76561198121831789,"connected_time":3337000000000,"state":"active","ping":64},{"user_id":589,"name":"Fat Goblin","steam_id":76561198123211859,"connected_time":3081000000000,"state":"active","ping":61},{"user_id":615,"name":"Primelotus","steam_id":76561198086618284,"connected_time":1666000000000,"state":"active","ping":130},{"user_id":566,"name":"Amiti","steam_id":76561198039521029,"connected_time":4544000000000,"state":"active","ping":89},{"user_id":626,"name":"Entar","steam_id":76561197968661166,"connected_time":1106000000000,"state":"active","ping":80},{"user_id":627,"name":"♦♣Quadric♥♠","steam_id":76561198061003853,"connected_time":1084000000000,"state":"active","ping":48},{"user_id":607,"name":"Tidwell","steam_id":76561198037414410,"connected_time":2034000000000,"state":"active","ping":61},{"user_id":628,"name":"Fart God","steam_id":76561198140177280,"connected_time":1082000000000,"state":"active","ping":50},{"user_id":632,"name":"Bacchus","steam_id":76561198113244990,"connected_time":893000000000,"state":"active","ping":69},{"user_id":610,"name":"BiggFoot","steam_id":76561197998605599,"connected_time":1997000000000,"state":"active","ping":67},{"user_id":635,"name":"xFactr","steam_id":76561198129007422,"connected_time":317000000000,"state":"active","ping":44},{"user_id":629,"name":"Moofins","steam_id":76561198050291949,"connected_time":1071000000000,"state":"active","ping":76},{"user_id":614,"name":"None of that $9.99 bullshit","steam_id":76561198116169903,"connected_time":1738000000000,"state":"active","ping":59},{"user_id":612,"name":"saurhead","steam_id":76561198132937722,"connected_time":1980000000000,"state":"active","ping":45}]},{"server_id":14,"name":"Uncletopia | New York City | 2 | All Maps","name_short":"nyc-2","host":"nyc-1.us.uncletopia.com","port":27025,"enabled":true,"region":"us-east","cc":"us","latitude":40.73061,"longitude":-73.93524,"reserved":0,"last_update":"0001-01-01T00:00:00Z","name_a2s":"Uncletopia | New York City | 2 | All Maps","protocol":17,"map":"cp_dustbowl","folder":"tf","game":"Team Fortress","app_id":440,"player_count":23,"max_players":24,"Bots":0,"server_type":"Dedicated","server_os":"Linux","password":true,"vac":true,"version":"7961495","steam_id":85568392924469994,"keywords":["cp","nocrits","nodmgspread","uncletopia"],"game_id":440,"stv_port":27026,"stv_name":"Uncletopia | New York City | 2 | All Maps | STV","players":[{"user_id":438,"name":"Rein","steam_id":76561198300340427,"connected_time":731000000000,"state":"active","ping":63},{"user_id":367,"name":"NovaSc6ut","steam_id":76561198277163301,"connected_time":5198000000000,"state":"active","ping":75},{"user_id":408,"name":"Saturnalien","steam_id":76561198057056295,"connected_time":3120000000000,"state":"active","ping":81},{"user_id":430,"name":"Uncle Majic the Hip Hop Magicia","steam_id":76561198107924303,"connected_time":1745000000000,"state":"active","ping":50},{"user_id":426,"name":"balls","steam_id":76561198058890821,"connected_time":2032000000000,"state":"active","ping":76},{"user_id":434,"name":"KIKI CURBSTOMP","steam_id":76561198262064871,"connected_time":1520000000000,"state":"active","ping":35},{"user_id":439,"name":"Alice in Rubberland","steam_id":76561198087328346,"connected_time":690000000000,"state":"active","ping":65},{"user_id":440,"name":"Coke Himmy","steam_id":76561198397459211,"connected_time":614000000000,"state":"active","ping":71},{"user_id":396,"name":"SCARED CRAB","steam_id":76561198045038999,"connected_time":4322000000000,"state":"active","ping":44},{"user_id":401,"name":"Pomegranate88","steam_id":76561198056385456,"connected_time":3993000000000,"state":"active","ping":58},{"user_id":402,"name":"Fish Fisherman","steam_id":76561198018656022,"connected_time":3972000000000,"state":"active","ping":45},{"user_id":423,"name":"Bonk223","steam_id":76561198112681419,"connected_time":2469000000000,"state":"active","ping":138},{"user_id":409,"name":"fart rizz","steam_id":76561198044034546,"connected_time":3067000000000,"state":"active","ping":71},{"user_id":418,"name":"Terror-Billy #SaveTF2","steam_id":76561198328141870,"connected_time":2606000000000,"state":"active","ping":68},{"user_id":445,"name":"jneubauer1620","steam_id":76561199228634006,"connected_time":434000000000,"state":"active","ping":72},{"user_id":442,"name":"YanyOol #DoinkDeDoink","steam_id":76561198032871139,"connected_time":567000000000,"state":"active","ping":130},{"user_id":392,"name":"Bottom Trans Cowgirl","steam_id":76561198304239680,"connected_time":4478000000000,"state":"active","ping":114},{"user_id":443,"name":"Wang of Wall St","steam_id":76561198047460598,"connected_time":556000000000,"state":"active","ping":65},{"user_id":447,"name":"Skudge Sister","steam_id":76561198041766766,"connected_time":339000000000,"state":"active","ping":102},{"user_id":416,"name":"Bullahorns","steam_id":76561197997138052,"connected_time":2629000000000,"state":"active","ping":73},{"user_id":425,"name":"single celled organism","steam_id":76561199217620385,"connected_time":2454000000000,"state":"active","ping":60},{"user_id":444,"name":"BootlegMario","steam_id":76561198041504280,"connected_time":554000000000,"state":"active","ping":81},{"user_id":446,"name":"Metamoq","steam_id":76561198064271337,"connected_time":385000000000,"state":"active","ping":60}]},{"server_id":15,"name":"Uncletopia | New York City | 3 | Stopwatch","name_short":"nyc-3","host":"nyc-1.us.uncletopia.com","port":27035,"enabled":true,"region":"us-east","cc":"us","latitude":40.73061,"longitude":-73.93524,"reserved":0,"last_update":"0001-01-01T00:00:00Z","name_a2s":"Uncletopia | New York City | 3 | Stopwatch","protocol":17,"map":"workshop/koth_bagel_rc6.ugc2514036946","folder":"tf","game":"Team Fortress","app_id":440,"player_count":2,"max_players":24,"Bots":0,"server_type":"Dedicated","server_os":"Linux","password":true,"vac":true,"version":"7961495","steam_id":85568392924742820,"keywords":["cp","nocrits","nodmgspread","uncletopia"],"game_id":440,"stv_port":27036,"stv_name":"Uncletopia | New York City | 3 | Stopwatch | STV","players":[{"user_id":40,"name":"Nintendo 2DS","steam_id":76561198273737793,"connected_time":1126000000000,"state":"active","ping":47},{"user_id":41,"name":"Shøgun","steam_id":76561199330279030,"connected_time":1114000000000,"state":"active","ping":278}]},{"server_id":16,"name":"Uncletopia | New York City | 4 | Community","name_short":"nyc-4","host":"nyc-1.us.uncletopia.com","port":27045,"enabled":true,"region":"us-east","cc":"us","latitude":40.73061,"longitude":-73.93524,"reserved":0,"last_update":"0001-01-01T00:00:00Z","name_a2s":"Uncletopia | New York City | 4 | Community","protocol":17,"map":"workshop/koth_ashville_final.ugc2130459942","folder":"tf","game":"Team Fortress","app_id":440,"player_count":0,"max_players":24,"Bots":0,"server_type":"Dedicated","server_os":"Linux","password":true,"vac":true,"version":"7961495","steam_id":85568392924742821,"keywords":["cp","nocrits","nodmgspread","uncletopia"],"game_id":440,"stv_port":27046,"stv_name":"Uncletopia | New York City | 4 | Community | STV","players":null},{"server_id":142,"name":"Uncletopia | São Paulo | 1 | All Maps","name_short":"sao-1","host":"sao-1.br.uncletopia.com","port":27015,"enabled":true,"region":"sa","cc":"br","latitude":-23.533773,"longitude":-46.62529,"reserved":0,"last_update":"0001-01-01T00:00:00Z","name_a2s":"Uncletopia | São Paulo | 1 | All Maps","protocol":17,"map":"koth_cascade","folder":"tf","game":"Team Fortress","app_id":440,"player_count":0,"max_players":24,"Bots":0,"server_type":"Dedicated","server_os":"Linux","password":true,"vac":true,"version":"7961495","steam_id":85568392924469996,"keywords":["cp","nocrits","nodmgspread","uncletopia"],"game_id":440,"stv_port":27016,"stv_name":"Uncletopia | São Paulo | 1 | All Maps | STV","players":null},{"server_id":143,"name":"Uncletopia | São Paulo | 2 | Community","name_short":"sao-2","host":"sao-2.br.uncletopia.com","port":27015,"enabled":true,"region":"sa","cc":"br","latitude":-23.533773,"longitude":-46.62529,"reserved":0,"last_update":"0001-01-01T00:00:00Z","name_a2s":"Uncletopia | São Paulo | 2 | Community","protocol":17,"map":"workshop/cp_sultry_b8.ugc2775471508","folder":"tf","game":"Team Fortress","app_id":440,"player_count":0,"max_players":24,"Bots":0,"server_type":"Dedicated","server_os":"Linux","password":true,"vac":true,"version":"7961495","steam_id":85568392924485349,"keywords":["cp","nocrits","nodmgspread","uncletopia"],"game_id":440,"stv_port":27016,"stv_name":"Uncletopia | São Paulo | 2 | Community | STV","players":null},{"server_id":7,"name":"Uncletopia | Seattle | 1 | All Maps","name_short":"sea-1","host":"sea-1.us.uncletopia.com","port":27015,"enabled":true,"region":"us-west","cc":"us","latitude":47.608013,"longitude":-122.33517,"reserved":0,"last_update":"0001-01-01T00:00:00Z","name_a2s":"Uncletopia | Seattle | 1 | All Maps","protocol":17,"map":"pl_frontier_final","folder":"tf","game":"Team Fortress","app_id":440,"player_count":24,"max_players":24,"Bots":0,"server_type":"Dedicated","server_os":"Linux","password":true,"vac":true,"version":"7961495","steam_id":85568392924469997,"keywords":["nocrits","nodmgspread","payload","uncletopia"],"game_id":440,"stv_port":27016,"stv_name":"Uncletopia | Seattle | 1 | All Maps | STV","players":[{"user_id":715,"name":"HotHead","steam_id":76561198138468982,"connected_time":2398000000000,"state":"active","ping":60},{"user_id":719,"name":"Dr. Insanity","steam_id":76561199039680278,"connected_time":2255000000000,"state":"active","ping":94},{"user_id":735,"name":"💅 tickle tibson 💅","steam_id":76561199086139640,"connected_time":1549000000000,"state":"active","ping":46},{"user_id":739,"name":"laggy mcstab","steam_id":76561198106379962,"connected_time":1463000000000,"state":"active","ping":63},{"user_id":745,"name":"Preston","steam_id":76561198255721392,"connected_time":526000000000,"state":"active","ping":121},{"user_id":713,"name":"BLU3","steam_id":76561198059652670,"connected_time":2406000000000,"state":"active","ping":46},{"user_id":693,"name":"Nom Skirrett","steam_id":76561198014600788,"connected_time":4986000000000,"state":"active","ping":63},{"user_id":701,"name":"Havi","steam_id":76561198197832829,"connected_time":4693000000000,"state":"active","ping":52},{"user_id":742,"name":"gorlab","steam_id":76561198025089694,"connected_time":1172000000000,"state":"active","ping":60},{"user_id":709,"name":"rat gets the cheese","steam_id":76561198031234032,"connected_time":3213000000000,"state":"active","ping":91},{"user_id":733,"name":"William P. Ennis","steam_id":76561198073464877,"connected_time":1580000000000,"state":"active","ping":90},{"user_id":688,"name":"adadadasd","steam_id":76561198346038787,"connected_time":5279000000000,"state":"active","ping":173},{"user_id":740,"name":"november","steam_id":76561198042748172,"connected_time":1311000000000,"state":"active","ping":90},{"user_id":737,"name":"killswitch","steam_id":76561198213385439,"connected_time":1527000000000,"state":"active","ping":72},{"user_id":710,"name":"AveragePhil","steam_id":76561199139836802,"connected_time":3137000000000,"state":"active","ping":48},{"user_id":694,"name":"soup","steam_id":76561198043209046,"connected_time":4815000000000,"state":"active","ping":74},{"user_id":728,"name":"mega","steam_id":76561198089520959,"connected_time":1948000000000,"state":"active","ping":73},{"user_id":649,"name":"ORANGE","steam_id":76561198000401769,"connected_time":9060000000000,"state":"active","ping":46},{"user_id":731,"name":"pog fish","steam_id":76561198054270410,"connected_time":1651000000000,"state":"active","ping":60},{"user_id":738,"name":"jetorp_","steam_id":76561199090542457,"connected_time":1520000000000,"state":"active","ping":74},{"user_id":744,"name":"Attrition","steam_id":76561197969881916,"connected_time":675000000000,"state":"active","ping":58},{"user_id":723,"name":"♥ alixei! ♥","steam_id":76561198014557455,"connected_time":2093000000000,"state":"active","ping":104},{"user_id":700,"name":"dust | it/she","steam_id":76561198045218909,"connected_time":4721000000000,"state":"active","ping":42},{"user_id":747,"name":"lavender","steam_id":76561199069518286,"connected_time":435000000000,"state":"active","ping":75}]},{"server_id":119,"name":"Uncletopia | Seattle | 2 | All Maps","name_short":"sea-2","host":"sea-1.us.uncletopia.com","port":27025,"enabled":true,"region":"us-west","cc":"us","latitude":47.608013,"longitude":-122.33517,"reserved":0,"last_update":"0001-01-01T00:00:00Z","name_a2s":"Uncletopia | Seattle | 2 | All Maps","protocol":17,"map":"pl_borneo","folder":"tf","game":"Team Fortress","app_id":440,"player_count":24,"max_players":24,"Bots":0,"server_type":"Dedicated","server_os":"Linux","password":true,"vac":true,"version":"7961495","steam_id":85568392924469998,"keywords":["nocrits","nodmgspread","payload","uncletopia"],"game_id":440,"stv_port":27026,"stv_name":"Uncletopia | Seattle | 2 | All Maps | STV","players":[{"user_id":368,"name":"𝒯𝒽𝒾𝓇𝓉𝓎 𝒩\ufffd\ufffd","steam_id":76561198111878431,"connected_time":2608000000000,"state":"active","ping":72},{"user_id":394,"name":"The Horny","steam_id":76561198863639459,"connected_time":1284000000000,"state":"active","ping":90},{"user_id":403,"name":"sqwig","steam_id":76561199087353191,"connected_time":366000000000,"state":"active","ping":49},{"user_id":374,"name":"Violet K.","steam_id":76561198062963842,"connected_time":2338000000000,"state":"active","ping":81},{"user_id":399,"name":"Thexx [she/they]","steam_id":76561198113823050,"connected_time":839000000000,"state":"active","ping":45},{"user_id":400,"name":"Day Man","steam_id":76561198067154807,"connected_time":645000000000,"state":"active","ping":40},{"user_id":395,"name":"bemo","steam_id":76561198344331503,"connected_time":1270000000000,"state":"active","ping":43},{"user_id":404,"name":"Scrumfel Nutz","steam_id":76561198123286409,"connected_time":336000000000,"state":"active","ping":56},{"user_id":377,"name":"John Connor","steam_id":76561198110024994,"connected_time":2072000000000,"state":"active","ping":61},{"user_id":360,"name":"Hydroxianchaos","steam_id":76561198043786828,"connected_time":2873000000000,"state":"active","ping":132},{"user_id":406,"name":"Cypress [ +/- ] ✔","steam_id":76561198067164431,"connected_time":302000000000,"state":"active","ping":73},{"user_id":402,"name":"quackedツ","steam_id":76561198874961623,"connected_time":418000000000,"state":"active","ping":134},{"user_id":409,"name":"Red","steam_id":76561198001939529,"connected_time":150000000000,"state":"active","ping":122},{"user_id":378,"name":"Just_Beasty_","steam_id":76561199446196319,"connected_time":2070000000000,"state":"active","ping":104},{"user_id":384,"name":"Boreedom","steam_id":76561198869865648,"connected_time":1798000000000,"state":"active","ping":61},{"user_id":346,"name":"That Guy","steam_id":76561198028499814,"connected_time":3921000000000,"state":"active","ping":57},{"user_id":380,"name":"Sev","steam_id":76561198053971248,"connected_time":1976000000000,"state":"active","ping":45},{"user_id":355,"name":"Ashanti Clan","steam_id":76561198032651105,"connected_time":3079000000000,"state":"active","ping":58},{"user_id":349,"name":"Teckn1cal","steam_id":76561198972914209,"connected_time":3714000000000,"state":"active","ping":56},{"user_id":410,"name":"Bingleton","steam_id":76561197998930473,"connected_time":82000000000,"state":"active","ping":34},{"user_id":408,"name":"Tmiracle","steam_id":76561198052375275,"connected_time":287000000000,"state":"active","ping":76},{"user_id":385,"name":"Good Vibes Only","steam_id":76561198020224062,"connected_time":1735000000000,"state":"active","ping":73},{"user_id":372,"name":"ocean Backwards","steam_id":76561199246614260,"connected_time":2527000000000,"state":"active","ping":59},{"user_id":398,"name":"tomandjerry085","steam_id":76561198800789071,"connected_time":1166000000000,"state":"active","ping":75}]},{"server_id":406,"name":"Uncletopia | Seattle | 3 | Stopwatch","name_short":"sea-3","host":"sea-1.us.uncletopia.com","port":27035,"enabled":true,"region":"us-west","cc":"us","latitude":47.608013,"longitude":-122.33517,"reserved":0,"last_update":"0001-01-01T00:00:00Z","name_a2s":"Uncletopia | Seattle | 3 | Stopwatch","protocol":17,"map":"workshop/koth_jamram_rc1a.ugc2964065613","folder":"tf","game":"Team Fortress","app_id":440,"player_count":0,"max_players":24,"Bots":0,"server_type":"Dedicated","server_os":"Linux","password":true,"vac":true,"version":"7961495","steam_id":85568392924515217,"keywords":["cp","nocrits","nodmgspread","uncletopia"],"game_id":440,"stv_port":27036,"stv_name":"Uncletopia | Seattle | 3 | Stopwatch | STV","players":null},{"server_id":17,"name":"Uncletopia | San Francisco | 1 | All Maps","name_short":"sfo-1","host":"sfo-1.us.uncletopia.com","port":27015,"enabled":true,"region":"us-west","cc":"us","latitude":37.77397,"longitude":-122.4313,"reserved":0,"last_update":"0001-01-01T00:00:00Z","name_a2s":"Uncletopia | San Francisco | 1 | All Maps","protocol":17,"map":"koth_cascade","folder":"tf","game":"Team Fortress","app_id":440,"player_count":0,"max_players":24,"Bots":0,"server_type":"Dedicated","server_os":"Linux","password":true,"vac":true,"version":"7961495","steam_id":85568392924469999,"keywords":["cp","nocrits","nodmgspread","uncletopia"],"game_id":440,"stv_port":27016,"stv_name":"Uncletopia | San Francisco | 1 | All Maps | STV","players":null},{"server_id":18,"name":"Uncletopia | San Francisco | 2 | All Maps","name_short":"sfo-2","host":"sfo-1.us.uncletopia.com","port":27025,"enabled":true,"region":"us-west","cc":"us","latitude":37.77397,"longitude":-122.4313,"reserved":0,"last_update":"0001-01-01T00:00:00Z","name_a2s":"Uncletopia | San Francisco | 2 | All Maps","protocol":17,"map":"cp_steel","folder":"tf","game":"Team Fortress","app_id":440,"player_count":24,"max_players":24,"Bots":0,"server_type":"Dedicated","server_os":"Linux","password":true,"vac":true,"version":"7961495","steam_id":85568392924470000,"keywords":["cp","nocrits","nodmgspread","uncletopia"],"game_id":440,"stv_port":27026,"stv_name":"Uncletopia | San Francisco | 2 | All Maps | STV","players":[{"user_id":163,"name":"johnny","steam_id":76561198050225055,"connected_time":3391000000000,"state":"active","ping":57},{"user_id":168,"name":"kr1tsurf3r","steam_id":76561198076402476,"connected_time":2810000000000,"state":"active","ping":64},{"user_id":199,"name":"Keamy","steam_id":76561199471434875,"connected_time":992000000000,"state":"active","ping":63},{"user_id":187,"name":"Len","steam_id":76561199141913673,"connected_time":2010000000000,"state":"active","ping":74},{"user_id":194,"name":"Walgreens Pharmaceutical","steam_id":76561199006886644,"connected_time":1303000000000,"state":"active","ping":53},{"user_id":190,"name":"SonnyMarsh","steam_id":76561198188103746,"connected_time":1564000000000,"state":"active","ping":58},{"user_id":174,"name":"Whoodie","steam_id":76561198027514565,"connected_time":2648000000000,"state":"active","ping":70},{"user_id":120,"name":"Ulysses","steam_id":76561199274171088,"connected_time":5455000000000,"state":"active","ping":93},{"user_id":202,"name":"goofy","steam_id":76561199072142013,"connected_time":893000000000,"state":"active","ping":78},{"user_id":203,"name":"the pizza","steam_id":76561198221331476,"connected_time":161000000000,"state":"active","ping":41},{"user_id":180,"name":"crazyabe111","steam_id":76561198407686352,"connected_time":2455000000000,"state":"active","ping":119},{"user_id":181,"name":"ketsu","steam_id":76561197966171554,"connected_time":2448000000000,"state":"active","ping":191},{"user_id":157,"name":"SuperSchlong","steam_id":76561197963363115,"connected_time":3885000000000,"state":"active","ping":49},{"user_id":154,"name":"Wabyt","steam_id":76561198068381106,"connected_time":4018000000000,"state":"active","ping":65},{"user_id":196,"name":"Tomoko2001","steam_id":76561198047117990,"connected_time":1168000000000,"state":"active","ping":107},{"user_id":169,"name":"Nüþ","steam_id":76561198043956703,"connected_time":2805000000000,"state":"active","ping":64},{"user_id":62,"name":"Evil Sayori","steam_id":76561198957479336,"connected_time":8997000000000,"state":"active","ping":113},{"user_id":151,"name":"Golddick Lewison","steam_id":76561199203171453,"connected_time":4061000000000,"state":"active","ping":45},{"user_id":152,"name":"｜＾。＾｜","steam_id":76561198847464240,"connected_time":4058000000000,"state":"active","ping":64},{"user_id":186,"name":"cada","steam_id":76561198341189135,"connected_time":2028000000000,"state":"active","ping":87},{"user_id":193,"name":"Leefizzy","steam_id":76561198025759758,"connected_time":1410000000000,"state":"active","ping":61},{"user_id":197,"name":"Toasterduds","steam_id":76561198163477584,"connected_time":1136000000000,"state":"active","ping":73},{"user_id":153,"name":"CaptainMidnight002","steam_id":76561198394463812,"connected_time":4054000000000,"state":"active","ping":113},{"user_id":200,"name":"Lamp","steam_id":76561199140607904,"connected_time":992000000000,"state":"active","ping":69}]},{"server_id":19,"name":"Uncletopia | San Francisco | 3 | Stopwatch","name_short":"sfo-3","host":"sfo-1.us.uncletopia.com","port":27035,"enabled":true,"region":"us-west","cc":"us","latitude":37.77397,"longitude":-122.4313,"reserved":0,"last_update":"0001-01-01T00:00:00Z","name_a2s":"Uncletopia | San Francisco | 3 | Stopwatch","protocol":17,"map":"workshop/koth_clearcut_b15.ugc2107050255","folder":"tf","game":"Team Fortress","app_id":440,"player_count":0,"max_players":24,"Bots":0,"server_type":"Dedicated","server_os":"Linux","password":true,"vac":true,"version":"7961495","steam_id":85568392924742824,"keywords":["cp","nocrits","nodmgspread","uncletopia"],"game_id":440,"stv_port":27036,"stv_name":"Uncletopia | San Francisco | 3 | Stopwatch | STV","players":null},{"server_id":20,"name":"Uncletopia | San Francisco | 4 | Community","name_short":"sfo-4","host":"sfo-1.us.uncletopia.com","port":27045,"enabled":true,"region":"us-west","cc":"us","latitude":37.77397,"longitude":-122.4313,"reserved":0,"last_update":"0001-01-01T00:00:00Z","name_a2s":"Uncletopia | San Francisco | 4 | Community","protocol":17,"map":"workshop/cp_reckoner_rc6.ugc674719999","folder":"tf","game":"Team Fortress","app_id":440,"player_count":0,"max_players":24,"Bots":0,"server_type":"Dedicated","server_os":"Linux","password":true,"vac":true,"version":"7961495","steam_id":85568392924742826,"keywords":["cp","nocrits","nodmgspread","uncletopia"],"game_id":440,"stv_port":27046,"stv_name":"Uncletopia | San Francisco | 4 | Community | STV","players":null},{"server_id":141,"name":"Uncletopia | Sydney | 1 | All Maps","name_short":"syd-1","host":"syd-1.au.uncletopia.com","port":27015,"enabled":true,"region":"au","cc":"au","latitude":-33.865143,"longitude":151.2099,"reserved":0,"last_update":"0001-01-01T00:00:00Z","name_a2s":"Uncletopia | Sydney | 1 | All Maps","protocol":17,"map":"pl_barnblitz","folder":"tf","game":"Team Fortress","app_id":440,"player_count":0,"max_players":24,"Bots":0,"server_type":"Dedicated","server_os":"Linux","password":true,"vac":true,"version":"7961495","steam_id":85568392924470001,"keywords":["nocrits","nodmgspread","payload","uncletopia"],"game_id":440,"stv_port":27016,"stv_name":"Uncletopia | Sydney | 1 | All Maps | STV","players":null},{"server_id":123,"name":"Uncletopia | Sydney | 2 | All Maps","name_short":"syd-2","host":"syd-1.au.uncletopia.com","port":27025,"enabled":true,"region":"au","cc":"au","latitude":-33.865143,"longitude":151.2099,"reserved":0,"last_update":"0001-01-01T00:00:00Z","name_a2s":"Uncletopia | Sydney | 2 | All Maps","protocol":17,"map":"cp_mercenarypark","folder":"tf","game":"Team Fortress","app_id":440,"player_count":0,"max_players":24,"Bots":0,"server_type":"Dedicated","server_os":"Linux","password":true,"vac":true,"version":"7961495","steam_id":85568392924470002,"keywords":["cp","nocrits","nodmgspread","uncletopia"],"game_id":440,"stv_port":27026,"stv_name":"Uncletopia | Sydney | 2 | All Maps | STV","players":null},{"server_id":395,"name":"Uncletopia | Sydney | 3 | All Maps","name_short":"syd-3","host":"syd-1.au.uncletopia.com","port":27035,"enabled":true,"region":"au","cc":"au","latitude":-33.865143,"longitude":151.2099,"reserved":0,"last_update":"0001-01-01T00:00:00Z","name_a2s":"Uncletopia | Sydney | 3 | All Maps","protocol":17,"map":"koth_brazil","folder":"tf","game":"Team Fortress","app_id":440,"player_count":0,"max_players":24,"Bots":0,"server_type":"Dedicated","server_os":"Linux","password":true,"vac":true,"version":"7961495","steam_id":85568392925194467,"keywords":["cp","nocrits","nodmgspread","uncletopia"],"game_id":440,"stv_port":27036,"stv_name":"Uncletopia | Sydney | 3 | All Maps | STV","players":null},{"server_id":396,"name":"Uncletopia | Sydney | 4 | All Maps","name_short":"syd-4","host":"syd-1.au.uncletopia.com","port":27045,"enabled":true,"region":"au","cc":"au","latitude":-33.865143,"longitude":151.2099,"reserved":0,"last_update":"0001-01-01T00:00:00Z","name_a2s":"Uncletopia | Sydney | 4 | All Maps","protocol":17,"map":"cp_standin_final","folder":"tf","game":"Team Fortress","app_id":440,"player_count":0,"max_players":24,"Bots":0,"server_type":"Dedicated","server_os":"Linux","password":true,"vac":true,"version":"7961495","steam_id":85568392925397958,"keywords":["cp","nocrits","nodmgspread","uncletopia"],"game_id":440,"stv_port":27046,"stv_name":"Uncletopia | Sydney | 4 | All Maps | STV","players":null},{"server_id":58,"name":"Uncletopia | Sydney | 5 | Stopwatch","name_short":"syd-5","host":"syd-1.au.uncletopia.com","port":27055,"enabled":true,"region":"au","cc":"au","latitude":-33.865143,"longitude":151.2099,"reserved":0,"last_update":"0001-01-01T00:00:00Z","name_a2s":"Uncletopia | Sydney | 5 | Stopwatch","protocol":17,"map":"koth_highpass","folder":"tf","game":"Team Fortress","app_id":440,"player_count":0,"max_players":24,"Bots":0,"server_type":"Dedicated","server_os":"Linux","password":true,"vac":true,"version":"7961495","steam_id":85568392925397959,"keywords":["cp","nocrits","nodmgspread","uncletopia"],"game_id":440,"stv_port":27056,"stv_name":"Uncletopia | Sydney | 5 | Stopwatch | STV","players":null},{"server_id":59,"name":"Uncletopia | Sydney | 6 | Community","name_short":"syd-6","host":"syd-1.au.uncletopia.com","port":27065,"enabled":true,"region":"au","cc":"au","latitude":-33.865143,"longitude":151.2099,"reserved":0,"last_update":"0001-01-01T00:00:00Z","name_a2s":"Uncletopia | Sydney | 6 | Community","protocol":17,"map":"workshop/koth_soot_final1.ugc2969540689","folder":"tf","game":"Team Fortress","app_id":440,"player_count":0,"max_players":24,"Bots":0,"server_type":"Dedicated","server_os":"Linux","password":true,"vac":true,"version":"7961495","steam_id":85568392925397960,"keywords":["cp","nocrits","nodmgspread","uncletopia"],"game_id":440,"stv_port":27066,"stv_name":"Uncletopia | Sydney | 6 | Community | STV","players":null},{"server_id":49,"name":"Uncletopia | Warsaw | 1 | One Thousand Uncles","name_short":"waw-1","host":"waw-1.pl.uncletopia.com","port":27015,"enabled":true,"region":"eu","cc":"pl","latitude":52.2297,"longitude":21.017532,"reserved":0,"last_update":"0001-01-01T00:00:00Z","name_a2s":"Uncletopia | Warsaw | 1 | One Thousand Uncles","protocol":17,"map":"cp_egypt_final","folder":"tf","game":"Team Fortress","app_id":440,"player_count":0,"max_players":32,"Bots":0,"server_type":"Dedicated","server_os":"Linux","password":true,"vac":true,"version":"7961495","steam_id":85568392925397850,"keywords":["alltalk","cp","danepve","increased_maxplayers","norespawntime","uncletopia"],"game_id":440,"stv_port":0,"stv_name":"","players":null},{"server_id":50,"name":"Uncletopia | Warsaw | 2 | One Thousand Uncles","name_short":"waw-2","host":"waw-1.pl.uncletopia.com","port":27025,"enabled":true,"region":"eu","cc":"pl","latitude":52.2297,"longitude":21.017532,"reserved":0,"last_update":"0001-01-01T00:00:00Z","name_a2s":"Uncletopia | Warsaw | 2 | One Thousand Uncles","protocol":17,"map":"pl_pier","folder":"tf","game":"Team Fortress","app_id":440,"player_count":0,"max_players":32,"Bots":0,"server_type":"Dedicated","server_os":"Linux","password":true,"vac":true,"version":"7961495","steam_id":85568392925397851,"keywords":["alltalk","danepve","increased_maxplayers","norespawntime","payload","uncletopia"],"game_id":440,"stv_port":0,"stv_name":"","players":null},{"server_id":51,"name":"Uncletopia | Warsaw | 3 | All Maps","name_short":"waw-3","host":"waw-1.pl.uncletopia.com","port":27035,"enabled":true,"region":"eu","cc":"pl","latitude":52.2297,"longitude":21.017532,"reserved":0,"last_update":"0001-01-01T00:00:00Z","name_a2s":"Uncletopia | Warsaw | 3 | All Maps","protocol":17,"map":"pl_frontier_final","folder":"tf","game":"Team Fortress","app_id":440,"player_count":0,"max_players":24,"Bots":0,"server_type":"Dedicated","server_os":"Linux","password":true,"vac":true,"version":"7961495","steam_id":85568392925397852,"keywords":["nocrits","nodmgspread","payload","uncletopia"],"game_id":440,"stv_port":27036,"stv_name":"Uncletopia | Warsaw | 3 | All Maps | STV","players":null},{"server_id":52,"name":"Uncletopia | Warsaw | 4 | All Maps","name_short":"waw-4","host":"waw-1.pl.uncletopia.com","port":27045,"enabled":true,"region":"eu","cc":"pl","latitude":52.2297,"longitude":21.017532,"reserved":0,"last_update":"0001-01-01T00:00:00Z","name_a2s":"Uncletopia | Warsaw | 4 | All Maps","protocol":17,"map":"ctf_turbine","folder":"tf","game":"Team Fortress","app_id":440,"player_count":0,"max_players":24,"Bots":0,"server_type":"Dedicated","server_os":"Linux","password":true,"vac":true,"version":"7961495","steam_id":85568392925397853,"keywords":["ctf","nocrits","nodmgspread","uncletopia"],"game_id":440,"stv_port":27046,"stv_name":"Uncletopia | Warsaw | 4 | All Maps | STV","players":null},{"server_id":53,"name":"Uncletopia | Warsaw | 5 | Stopwatch","name_short":"waw-5","host":"waw-1.pl.uncletopia.com","port":27055,"enabled":true,"region":"eu","cc":"pl","latitude":52.2297,"longitude":21.017532,"reserved":0,"last_update":"0001-01-01T00:00:00Z","name_a2s":"Uncletopia | Warsaw | 5 | Stopwatch","protocol":17,"map":"workshop/koth_clearcut_b15.ugc2107050255","folder":"tf","game":"Team Fortress","app_id":440,"player_count":0,"max_players":24,"Bots":0,"server_type":"Dedicated","server_os":"Linux","password":true,"vac":true,"version":"7961495","steam_id":85568392925397854,"keywords":["cp","nocrits","nodmgspread","uncletopia"],"game_id":440,"stv_port":27056,"stv_name":"Uncletopia | Warsaw | 5 | Stopwatch | STV","players":null},{"server_id":54,"name":"Uncletopia | Warsaw | 6 | Community","name_short":"waw-6","host":"waw-1.pl.uncletopia.com","port":27065,"enabled":true,"region":"eu","cc":"pl","latitude":52.2297,"longitude":21.017532,"reserved":0,"last_update":"0001-01-01T00:00:00Z","name_a2s":"Uncletopia | Warsaw | 6 | Community","protocol":17,"map":"workshop/pl_highwood_b19.ugc1769496557","folder":"tf","game":"Team Fortress","app_id":440,"player_count":0,"max_players":24,"Bots":0,"server_type":"Dedicated","server_os":"Linux","password":true,"vac":true,"version":"7961495","steam_id":85568392925397856,"keywords":["nocrits","nodmgspread","payload","uncletopia"],"game_id":440,"stv_port":27066,"stv_name":"Uncletopia | Warsaw | 6 | Community | STV","players":null}]}