{"status":true,"message":"","result":[{"server_id":9,"name":"Uncletopia | Atlanta | 1 | All Maps","name_short":"atl-1","host":"atl-1.us.uncletopia.com","port":27015,"enabled":true,"region":"us-east","cc":"us","latitude":33.753746,"longitude":-84.38633,"reserved":0,"last_update":"0001-01-01T00:00:00Z","name_a2s":"Uncletopia | Atlanta | 1 | All Maps","protocol":17,"map":"pl_swiftwater_final1","folder":"tf","game":"Team Fortress","app_id":440,"player_count":23,"max_players":24,"Bots":0,"server_type":"Dedicated","server_os":"Linux","password":true,"vac":true,"version":"7882260","steam_id":85568392924469982,"keywords":["nocrits","nodmgspread","payload","uncletopia"],"game_id":440,"stv_port":27016,"stv_name":"Uncletopia | Atlanta | 1 | All Maps | STV","players":[{"user_id":278,"name":"Apetometrist","steam_id":76561198045391635,"connected_time":2072000000000,"state":"active","ping":75},{"user_id":266,"name":"FancyBones","steam_id":76561198180198885,"connected_time":3204000000000,"state":"active","ping":86},{"user_id":295,"name":"ballsackfondler9000","steam_id":76561198332667074,"connected_time":505000000000,"state":"active","ping":82},{"user_id":275,"name":"Lilith","steam_id":76561198125102885,"connected_time":2296000000000,"state":"active","ping":61},{"user_id":289,"name":"LUM","steam_id":76561198069976825,"connected_time":898000000000,"state":"active","ping":82},{"user_id":284,"name":"Tue","steam_id":76561198181668501,"connected_time":1392000000000,"state":"active","ping":62},{"user_id":260,"name":"Jabawakai","steam_id":76561198088881254,"connected_time":3542000000000,"state":"active","ping":69},{"user_id":287,"name":"Mr. Sun","steam_id":76561198081338822,"connected_time":956000000000,"state":"active","ping":45},{"user_id":298,"name":"Bale","steam_id":76561198093034439,"connected_time":258000000000,"state":"active","ping":90},{"user_id":297,"name":"Intro Bonito","steam_id":76561198119478838,"connected_time":472000000000,"state":"active","ping":45},{"user_id":250,"name":"Karma","steam_id":76561198030565234,"connected_time":5148000000000,"state":"active","ping":70},{"user_id":300,"name":"RarestGuide","steam_id":76561198050338923,"connected_time":118000000000,"state":"active","ping":73},{"user_id":299,"name":"ColdChillyWilly","steam_id":76561199238046186,"connected_time":243000000000,"state":"active","ping":75},{"user_id":282,"name":"BOTBOT","steam_id":76561198271928618,"connected_time":1596000000000,"state":"active","ping":85},{"user_id":290,"name":"fancysome","steam_id":76561198070635731,"connected_time":889000000000,"state":"active","ping":83},{"user_id":258,"name":"kite","steam_id":76561198346516392,"connected_time":3566000000000,"state":"active","ping":83},{"user_id":294,"name":"Jrock","steam_id":76561198045715996,"connected_time":525000000000,"state":"active","ping":80},{"user_id":267,"name":"V!CT!M","steam_id":76561198962721502,"connected_time":3162000000000,"state":"active","ping":88},{"user_id":281,"name":"Uganda Knuckles lll","steam_id":76561199121276474,"connected_time":1613000000000,"state":"active","ping":82},{"user_id":273,"name":"Mr. Dick‚Ñ¢","steam_id":76561198047309044,"connected_time":2528000000000,"state":"active","ping":42},{"user_id":296,"name":"Person","steam_id":76561198093244204,"connected_time":495000000000,"state":"active","ping":77},{"user_id":301,"name":"Frosty","steam_id":76561198133966219,"connected_time":22000000000,"state":"spawning","ping":44},{"user_id":274,"name":"Pumbloom","steam_id":76561198024481281,"connected_time":2509000000000,"state":"active","ping":44}]},{"server_id":104,"name":"Uncletopia | Atlanta | 2 | All Maps","name_short":"atl-2","host":"atl-1.us.uncletopia.com","port":27025,"enabled":true,"region":"us-east","cc":"us","latitude":33.753746,"longitude":-84.38633,"reserved":0,"last_update":"0001-01-01T00:00:00Z","name_a2s":"Uncletopia | Atlanta | 2 | All Maps","protocol":17,"map":"koth_nucleus","folder":"tf","game":"Team Fortress","app_id":440,"player_count":24,"max_players":24,"Bots":0,"server_type":"Dedicated","server_os":"Linux","password":true,"vac":true,"version":"7882260","steam_id":85568392924469983,"keywords":["cp","nocrits","nodmgspread","uncletopia"],"game_id":440,"stv_port":27026,"stv_name":"Uncletopia | Atlanta | 2 | All Maps | STV","players":[{"user_id":188,"name":"flamingdorit0s","steam_id":76561198869206247,"connected_time":5456000000000,"state":"active","ping":155},{"user_id":225,"name":"join the fifth church today!","steam_id":76561198329087915,"connected_time":1683000000000,"state":"active","ping":93},{"user_id":226,"name":"Zixzs","steam_id":76561198055504126,"connected_time":1665000000000,"state":"active","ping":74},{"user_id":246,"name":"Broadsword","steam_id":76561198011160411,"connected_time":438000000000,"state":"active","ping":115},{"user_id":217,"name":"Walter White","steam_id":76561198265079595,"connected_time":2574000000000,"state":"active","ping":70},{"user_id":227,"name":"n99k","steam_id":76561198203732449,"connected_time":1640000000000,"state":"active","ping":56},{"user_id":242,"name":"beguilingfool","steam_id":76561199128745972,"connected_time":534000000000,"state":"active","ping":117},{"user_id":221,"name":"Frantic Slug","steam_id":76561197995607923,"connected_time":2075000000000,"state":"active","ping":61},{"user_id":235,"name":"smittenkittenmittens","steam_id":76561198130900442,"connected_time":810000000000,"state":"active","ping":115},{"user_id":208,"name":"stozzy","steam_id":76561198085809880,"connected_time":3110000000000,"state":"active","ping":80},{"user_id":219,"name":"schteewpid rat","steam_id":76561199262600666,"connected_time":2410000000000,"state":"active","ping":75},{"user_id":239,"name":"AlcoholicDad454","steam_id":76561198157414556,"connected_time":686000000000,"state":"active","ping":71},{"user_id":228,"name":"me","steam_id":76561198026281887,"connected_time":1636000000000,"state":"active","ping":54},{"user_id":108,"name":"Manchurian Bandit","steam_id":76561198072410042,"connected_time":9344000000000,"state":"active","ping":105},{"user_id":243,"name":"Windamyre","steam_id":76561198183493927,"connected_time":506000000000,"state":"active","ping":59},{"user_id":209,"name":"lexi","steam_id":76561198176299759,"connected_time":3092000000000,"state":"active","ping":107},{"user_id":193,"name":"not fat","steam_id":76561198808192384,"connected_time":4813000000000,"state":"active","ping":76},{"user_id":234,"name":"PaD_Ding","steam_id":76561198831202965,"connected_time":888000000000,"state":"active","ping":157},{"user_id":244,"name":"ThatOneEnder","steam_id":76561198138680309,"connected_time":493000000000,"state":"active","ping":57},{"user_id":247,"name":"Rex","steam_id":76561198138365053,"connected_time":432000000000,"state":"active","ping":108},{"user_id":199,"name":"Smelly Unfortunate","steam_id":76561199014848255,"connected_time":3563000000000,"state":"active","ping":84},{"user_id":212,"name":"aisu","steam_id":76561198043768507,"connected_time":3030000000000,"state":"active","ping":86},{"user_id":237,"name":"Apollo","steam_id":76561198412836049,"connected_time":699000000000,"state":"active","ping":175},{"user_id":245,"name":"hoOmIN","steam_id":76561198334947079,"connected_time":481000000000,"state":"active","ping":94}]},{"server_id":400,"name":"Uncletopia | Atlanta | 3 | Community","name_short":"atl-3","host":"atl-1.us.uncletopia.com","port":27035,"enabled":true,"region":"us-east","cc":"us","latitude":33.753746,"longitude":-84.38633,"reserved":0,"last_update":"0001-01-01T00:00:00Z","name_a2s":"Uncletopia | Atlanta | 3 | Community","protocol":17,"map":"workshop/pl_vigil_rc9.ugc1266210012","folder":"tf","game":"Team Fortress","app_id":440,"player_count":23,"max_players":24,"Bots":0,"server_type":"Dedicated","server_os":"Linux","password":true,"vac":true,"version":"7882260","steam_id":85568392924515187,"keywords":["nocrits","nodmgspread","payload","uncletopia"],"game_id":440,"stv_port":27036,"stv_name":"Uncletopia | Atlanta | 3 | Community | STV","players":[{"user_id":102,"name":"caberknight tf2  (f2p-ish)","steam_id":76561199273882768,"connected_time":161000000000,"state":"active","ping":65},{"user_id":99,"name":"goose","steam_id":76561198027776994,"connected_time":370000000000,"state":"active","ping":58},{"user_id":87,"name":"Yayboo Bear","steam_id":76561197990770266,"connected_time":970000000000,"state":"active","ping":71},{"user_id":103,"name":"devmunk","steam_id":76561198090807130,"connected_time":160000000000,"state":"active","ping":76},{"user_id":74,"name":"Grilled Jizo","steam_id":76561199250875340,"connected_time":2053000000000,"state":"active","ping":115},{"user_id":100,"name":"Brooklyn","steam_id":76561199242737130,"connected_time":360000000000,"state":"active","ping":53},{"user_id":90,"name":"mEch114","steam_id":76561198236936060,"connected_time":821000000000,"state":"active","ping":68},{"user_id":66,"name":"Asanez3","steam_id":76561198037381436,"connected_time":2353000000000,"state":"active","ping":62},{"user_id":104,"name":"Sex Defender","steam_id":76561199123015983,"connected_time":155000000000,"state":"active","ping":177},{"user_id":101,"name":"One of Gods Many Eyes","steam_id":76561198081817135,"connected_time":325000000000,"state":"active","ping":55},{"user_id":105,"name":"Yato","steam_id":76561198084100335,"connected_time":127000000000,"state":"active","ping":84},{"user_id":92,"name":"NamelessBear‚Ñ¢","steam_id":76561198014564006,"connected_time":800000000000,"state":"active","ping":64},{"user_id":106,"name":"Noble","steam_id":76561199013705323,"connected_time":123000000000,"state":"active","ping":64},{"user_id":72,"name":"Artgrenadier","steam_id":76561198063305359,"connected_time":2083000000000,"state":"active","ping":72},{"user_id":98,"name":"Lost CS player","steam_id":76561198892387723,"connected_time":450000000000,"state":"active","ping":71},{"user_id":38,"name":"Mrs.Frizzle","steam_id":76561198117157085,"connected_time":3939000000000,"state":"active","ping":72},{"user_id":80,"name":"nav","steam_id":76561198872608266,"connected_time":1856000000000,"state":"active","ping":73},{"user_id":107,"name":"kazoo2","steam_id":76561198260473504,"connected_time":122000000000,"state":"active","ping":80},{"user_id":33,"name":"Microsoft Excel","steam_id":76561199216713634,"connected_time":4177000000000,"state":"active","ping":62},{"user_id":82,"name":"[_Dr.Scythe_]","steam_id":76561198845245858,"connected_time":1445000000000,"state":"active","ping":82},{"user_id":94,"name":"C papi","steam_id":76561198027779564,"connected_time":765000000000,"state":"active","ping":52},{"user_id":42,"name":"SpectraUnseen","steam_id":76561198073501022,"connected_time":3920000000000,"state":"active","ping":78},{"user_id":97,"name":"Devkid","steam_id":76561199472254358,"connected_time":749000000000,"state":"active","ping":90}]},{"server_id":401,"name":"Uncletopia | Atlanta | 4 | No Payload","name_short":"atl-4","host":"atl-1.us.uncletopia.com","port":27045,"enabled":true,"region":"us-east","cc":"us","latitude":33.753746,"longitude":-84.38633,"reserved":0,"last_update":"0001-01-01T00:00:00Z","name_a2s":"","protocol":0,"map":"","folder":"","game":"","app_id":0,"player_count":0,"max_players":0,"Bots":0,"server_type":"","server_os":"","password":false,"vac":false,"version":"","steam_id":0,"keywords":null,"game_id":0,"stv_port":0,"stv_name":"","players":null},{"server_id":2,"name":"Uncletopia | Chicago | 1 | All Maps","name_short":"chi-1","host":"chi-1.us.uncletopia.com","port":27015,"enabled":true,"region":"us-central","cc":"us","latitude":41.881832,"longitude":-87.62318,"reserved":0,"last_update":"0001-01-01T00:00:00Z","name_a2s":"Uncletopia | Chicago | 1 | All Maps","protocol":17,"map":"cp_sunshine","folder":"tf","game":"Team Fortress","app_id":440,"player_count":24,"max_players":24,"Bots":0,"server_type":"Dedicated","server_os":"Linux","password":true,"vac":true,"version":"7882260","steam_id":85568392924469984,"keywords":["cp","nocrits","nodmgspread","uncletopia"],"game_id":440,"stv_port":27016,"stv_name":"Uncletopia | Chicago | 1 | All Maps | STV","players":[{"user_id":321,"name":"Bomber-Mang","steam_id":76561198123479510,"connected_time":1087000000000,"state":"active","ping":69},{"user_id":333,"name":"Winter the Witchie | B-DAY","steam_id":76561198151971178,"connected_time":538000000000,"state":"active","ping":56},{"user_id":291,"name":"b3afy","steam_id":76561198084208649,"connected_time":3195000000000,"state":"active","ping":90},{"user_id":323,"name":"Konyuna","steam_id":76561198067951988,"connected_time":1012000000000,"state":"active","ping":49},{"user_id":310,"name":"SIN K4RMA","steam_id":76561198869287223,"connected_time":1826000000000,"state":"active","ping":74},{"user_id":319,"name":"Owen","steam_id":76561198025446908,"connected_time":1250000000000,"state":"active","ping":60},{"user_id":293,"name":"Weeb","steam_id":76561198333568146,"connected_time":3159000000000,"state":"active","ping":75},{"user_id":334,"name":"a curved basket","steam_id":76561199192135759,"connected_time":183000000000,"state":"active","ping":78},{"user_id":322,"name":"WALKING GOPRO","steam_id":76561198186928885,"connected_time":1045000000000,"state":"active","ping":70},{"user_id":330,"name":"Cheese_Miser_","steam_id":76561198240011418,"connected_time":726000000000,"state":"active","ping":86},{"user_id":298,"name":"Doromaina","steam_id":76561198118428095,"connected_time":2762000000000,"state":"active","ping":91},{"user_id":336,"name":"Chronos","steam_id":76561198126625623,"connected_time":68000000000,"state":"active","ping":62},{"user_id":62,"name":"TheWumbologist","steam_id":76561198065355069,"connected_time":14353000000000,"state":"active","ping":70},{"user_id":317,"name":"Jexdra","steam_id":76561198154501381,"connected_time":1420000000000,"state":"active","ping":70},{"user_id":327,"name":"s a d b o y s","steam_id":76561198037481669,"connected_time":830000000000,"state":"active","ping":70},{"user_id":306,"name":"Vogel","steam_id":76561198872159697,"connected_time":1886000000000,"state":"active","ping":61},{"user_id":325,"name":"Spacey blue pikmin","steam_id":76561198084289129,"connected_time":900000000000,"state":"active","ping":84},{"user_id":318,"name":"Sone","steam_id":76561198069601032,"connected_time":1368000000000,"state":"active","ping":76},{"user_id":312,"name":"Praise_to_the_Flashlight!","steam_id":76561199001728789,"connected_time":1821000000000,"state":"active","ping":60},{"user_id":275,"name":"Takyon","steam_id":76561198172075186,"connected_time":3415000000000,"state":"active","ping":163},{"user_id":313,"name":"Sneakyflamingo","steam_id":76561199093026056,"connected_time":1820000000000,"state":"active","ping":71},{"user_id":329,"name":"corntent","steam_id":76561198824847948,"connected_time":793000000000,"state":"active","ping":62},{"user_id":281,"name":"MellowBoy-2354","steam_id":76561199080630632,"connected_time":3383000000000,"state":"active","ping":95},{"user_id":212,"name":".JIFF","steam_id":76561198045181760,"connected_time":4905000000000,"state":"active","ping":58}]},{"server_id":106,"name":"Uncletopia | Chicago | 2 | All Maps","name_short":"chi-2","host":"chi-1.us.uncletopia.com","port":27025,"enabled":true,"region":"us-central","cc":"us","latitude":41.881832,"longitude":-87.62318,"reserved":0,"last_update":"0001-01-01T00:00:00Z","name_a2s":"Uncletopia | Chicago | 2 | All Maps","protocol":17,"map":"koth_nucleus","folder":"tf","game":"Team Fortress","app_id":440,"player_count":24,"max_players":24,"Bots":0,"server_type":"Dedicated","server_os":"Linux","password":true,"vac":true,"version":"7882260","steam_id":85568392924469985,"keywords":["cp","nocrits","nodmgspread","uncletopia"],"game_id":440,"stv_port":27026,"stv_name":"Uncletopia | Chicago | 2 | All Maps | STV","players":[{"user_id":439,"name":"elite level gamer","steam_id":76561199244162856,"connected_time":420000000000,"state":"active","ping":75},{"user_id":241,"name":"ThatGamingKiwi","steam_id":76561199170522237,"connected_time":14968000000000,"state":"active","ping":77},{"user_id":419,"name":"dolly","steam_id":76561198440779667,"connected_time":1530000000000,"state":"active","ping":48},{"user_id":400,"name":"Craf227","steam_id":76561198196211121,"connected_time":2766000000000,"state":"active","ping":87},{"user_id":393,"name":"Si1entSn1pa","steam_id":76561198170095479,"connected_time":3417000000000,"state":"active","ping":86},{"user_id":368,"name":"bereddored1","steam_id":76561198847597725,"connected_time":5618000000000,"state":"active","ping":70},{"user_id":413,"name":"Orca?","steam_id":76561198164341099,"connected_time":2286000000000,"state":"active","ping":86},{"user_id":444,"name":"playguy carter","steam_id":76561198080679337,"connected_time":313000000000,"state":"active","ping":49},{"user_id":436,"name":"Poacher","steam_id":76561198867626964,"connected_time":732000000000,"state":"active","ping":115},{"user_id":421,"name":"eloressa","steam_id":76561198120330867,"connected_time":1492000000000,"state":"active","ping":49},{"user_id":401,"name":"‚ô• kiss me ‚ô•","steam_id":76561198014557455,"connected_time":2752000000000,"state":"active","ping":55},{"user_id":405,"name":"chromebookgamer420","steam_id":76561198337692867,"connected_time":2584000000000,"state":"active","ping":66},{"user_id":432,"name":"Gogo","steam_id":76561198172430633,"connected_time":1083000000000,"state":"active","ping":87},{"user_id":423,"name":"crittr","steam_id":76561198014302068,"connected_time":1436000000000,"state":"active","ping":61},{"user_id":396,"name":"Aeris","steam_id":76561198287271028,"connected_time":3113000000000,"state":"active","ping":56},{"user_id":445,"name":"Merpling","steam_id":76561198048272047,"connected_time":192000000000,"state":"active","ping":83},{"user_id":291,"name":"Khaiden","steam_id":76561198104454754,"connected_time":10858000000000,"state":"active","ping":173},{"user_id":424,"name":"KCritical","steam_id":76561198036988728,"connected_time":1433000000000,"state":"active","ping":75},{"user_id":399,"name":"bouncyballs.com","steam_id":76561198236166288,"connected_time":2800000000000,"state":"active","ping":70},{"user_id":442,"name":"Xander","steam_id":76561199100623603,"connected_time":389000000000,"state":"active","ping":56},{"user_id":427,"name":"geeWIZ","steam_id":76561198067909242,"connected_time":1417000000000,"state":"active","ping":72},{"user_id":435,"name":"Logical Lime","steam_id":76561198292540230,"connected_time":919000000000,"state":"active","ping":89},{"user_id":414,"name":"bong water","steam_id":76561198880398499,"connected_time":2187000000000,"state":"active","ping":68},{"user_id":433,"name":"wedwind","steam_id":76561199089931270,"connected_time":1066000000000,"state":"active","ping":105}]},{"server_id":402,"name":"Uncletopia | Chicago | 3 | All Maps","name_short":"chi-3","host":"chi-1.us.uncletopia.com","port":27035,"enabled":true,"region":"us-central","cc":"us","latitude":41.881832,"longitude":-87.62318,"reserved":0,"last_update":"0001-01-01T00:00:00Z","name_a2s":"Uncletopia | Chicago | 3 | All Maps","protocol":17,"map":"pl_snowycoast","folder":"tf","game":"Team Fortress","app_id":440,"player_count":24,"max_players":24,"Bots":0,"server_type":"Dedicated","server_os":"Linux","password":true,"vac":true,"version":"7882260","steam_id":85568392924515191,"keywords":["nocrits","nodmgspread","payload","uncletopia"],"game_id":440,"stv_port":27036,"stv_name":"Uncletopia | Chicago | 3 | All Maps | STV","players":[{"user_id":408,"name":"The Alien","steam_id":76561198185817713,"connected_time":3359000000000,"state":"active","ping":83},{"user_id":389,"name":"Menacing Pile of Frogs","steam_id":76561198360134800,"connected_time":5118000000000,"state":"active","ping":73},{"user_id":337,"name":"the goblin.","steam_id":76561198083276946,"connected_time":8591000000000,"state":"active","ping":65},{"user_id":413,"name":"Rukks","steam_id":76561197993918954,"connected_time":2739000000000,"state":"active","ping":82},{"user_id":405,"name":"MillerWhite","steam_id":76561198076060357,"connected_time":3935000000000,"state":"active","ping":77},{"user_id":414,"name":"That_shroomy_boi","steam_id":76561199107324153,"connected_time":2719000000000,"state":"active","ping":78},{"user_id":254,"name":"MoiMoi","steam_id":76561198873850038,"connected_time":13033000000000,"state":"active","ping":74},{"user_id":397,"name":"Tony Pajamas","steam_id":76561198102299438,"connected_time":4165000000000,"state":"active","ping":58},{"user_id":425,"name":"SteveTheSheep","steam_id":76561198042000402,"connected_time":845000000000,"state":"active","ping":71},{"user_id":394,"name":"chen","steam_id":76561198064872330,"connected_time":4342000000000,"state":"active","ping":74},{"user_id":371,"name":"The Dead Weight","steam_id":76561198056694098,"connected_time":6009000000000,"state":"active","ping":60},{"user_id":415,"name":"86","steam_id":76561198843258044,"connected_time":2683000000000,"state":"active","ping":59},{"user_id":423,"name":"Ejaculation Zach","steam_id":76561198203765200,"connected_time":1209000000000,"state":"active","ping":62},{"user_id":427,"name":"Plinko","steam_id":76561197968530638,"connected_time":819000000000,"state":"active","ping":60},{"user_id":428,"name":"krim","steam_id":76561198880491631,"connected_time":812000000000,"state":"active","ping":102},{"user_id":424,"name":"dansci","steam_id":76561198269530717,"connected_time":1095000000000,"state":"active","ping":64},{"user_id":431,"name":"Mug Moment Gaming","steam_id":76561198233098136,"connected_time":152000000000,"state":"active","ping":58},{"user_id":382,"name":"[GUT] RiDiK¬Æ","steam_id":76561197969756446,"connected_time":5541000000000,"state":"active","ping":55},{"user_id":430,"name":"PDM","steam_id":76561199085932249,"connected_time":521000000000,"state":"active","ping":75},{"user_id":402,"name":"1-800-GHOST-DANCE","steam_id":76561198835430429,"connected_time":3978000000000,"state":"active","ping":76},{"user_id":336,"name":"OlympicChamp_12 | Trade.tf","steam_id":76561198830574526,"connected_time":8734000000000,"state":"active","ping":119},{"user_id":390,"name":"Rockgraham101","steam_id":76561198171740458,"connected_time":4734000000000,"state":"active","ping":66},{"user_id":369,"name":"msgp","steam_id":76561198142756572,"connected_time":6059000000000,"state":"active","ping":67},{"user_id":375,"name":"James","steam_id":76561198081313916,"connected_time":5832000000000,"state":"active","ping":72}]},{"server_id":403,"name":"Uncletopia | Chicago | 4 | All Maps","name_short":"chi-4","host":"chi-1.us.uncletopia.com","port":27045,"enabled":true,"region":"us-central","cc":"us","latitude":41.881832,"longitude":-87.62318,"reserved":0,"last_update":"0001-01-01T00:00:00Z","name_a2s":"Uncletopia | Chicago | 4 | All Maps","protocol":17,"map":"pl_upward","folder":"tf","game":"Team Fortress","app_id":440,"player_count":21,"max_players":24,"Bots":0,"server_type":"Dedicated","server_os":"Linux","password":true,"vac":true,"version":"7882260","steam_id":85568392924515193,"keywords":["nocrits","nodmgspread","payload","uncletopia"],"game_id":440,"stv_port":27046,"stv_name":"Uncletopia | Chicago | 4 | All Maps | STV","players":[{"user_id":17,"name":"The World's Softest Sandwich","steam_id":76561198015577707,"connected_time":8498000000000,"state":"active","ping":78},{"user_id":127,"name":"Bottle","steam_id":76561198044031558,"connected_time":260000000000,"state":"active","ping":64},{"user_id":19,"name":"Fresh Lychee","steam_id":76561198045399559,"connected_time":8327000000000,"state":"active","ping":56},{"user_id":128,"name":"Wan Shi Tong","steam_id":76561198076441225,"connected_time":77000000000,"state":"active","ping":62},{"user_id":104,"name":"anna","steam_id":76561199100831175,"connected_time":1764000000000,"state":"active","ping":59},{"user_id":116,"name":"s0lid BEAR :[","steam_id":76561199090688232,"connected_time":1618000000000,"state":"active","ping":72},{"user_id":32,"name":"Snake Handler","steam_id":76561198027198306,"connected_time":7348000000000,"state":"active","ping":57},{"user_id":105,"name":"Double Dip","steam_id":76561198067483536,"connected_time":1761000000000,"state":"active","ping":46},{"user_id":108,"name":"Faraday","steam_id":76561198089928357,"connected_time":1723000000000,"state":"active","ping":70},{"user_id":60,"name":"Mega","steam_id":76561198121258379,"connected_time":6148000000000,"state":"active","ping":69},{"user_id":31,"name":"DonoC","steam_id":76561198274473338,"connected_time":7378000000000,"state":"active","ping":84},{"user_id":119,"name":"Jo","steam_id":76561198060447015,"connected_time":1454000000000,"state":"active","ping":75},{"user_id":124,"name":"esrever onU","steam_id":76561199010216034,"connected_time":922000000000,"state":"active","ping":75},{"user_id":118,"name":"Moose","steam_id":76561198157175649,"connected_time":1496000000000,"state":"active","ping":49},{"user_id":37,"name":"catboy battery eater","steam_id":76561198067881981,"connected_time":7263000000000,"state":"active","ping":69},{"user_id":126,"name":"Player0x01","steam_id":76561197979240996,"connected_time":611000000000,"state":"active","ping":110},{"user_id":115,"name":"„Éç„Ç≥ Harpako","steam_id":76561198163587660,"connected_time":1624000000000,"state":"active","ping":105},{"user_id":95,"name":"RoFrogle","steam_id":76561199078941377,"connected_time":2595000000000,"state":"active","ping":61},{"user_id":123,"name":"ceres","steam_id":76561198291976960,"connected_time":1049000000000,"state":"active","ping":97},{"user_id":98,"name":"fazaness","steam_id":76561198851525394,"connected_time":2530000000000,"state":"active","ping":83},{"user_id":102,"name":"Bucket","steam_id":76561198816448398,"connected_time":1792000000000,"state":"active","ping":74}]},{"server_id":36,"name":"Uncletopia | Chicago | 5 | All Maps","name_short":"chi-5","host":"chi-2.us.uncletopia.com","port":27015,"enabled":true,"region":"us-central","cc":"us","latitude":41.881832,"longitude":-87.62318,"reserved":0,"last_update":"0001-01-01T00:00:00Z","name_a2s":"Uncletopia | Chicago | 5 | All Maps","protocol":17,"map":"cp_steel","folder":"tf","game":"Team Fortress","app_id":440,"player_count":19,"max_players":24,"Bots":0,"server_type":"Dedicated","server_os":"Linux","password":true,"vac":true,"version":"7882260","steam_id":85568392924866362,"keywords":["cp","nocrits","nodmgspread","uncletopia"],"game_id":440,"stv_port":27016,"stv_name":"Uncletopia | Chicago | 5 | All Maps | STV","players":[{"user_id":300,"name":"SpycyNoodles","steam_id":76561198309439750,"connected_time":1680000000000,"state":"active","ping":71},{"user_id":310,"name":"George","steam_id":76561198020046873,"connected_time":523000000000,"state":"active","ping":62},{"user_id":307,"name":"swag messiah","steam_id":76561198204995668,"connected_time":1351000000000,"state":"active","ping":77},{"user_id":308,"name":"MilkMuncher","steam_id":76561198103055485,"connected_time":880000000000,"state":"active","ping":59},{"user_id":266,"name":"The Poop Dealer","steam_id":76561198141198352,"connected_time":3503000000000,"state":"active","ping":44},{"user_id":324,"name":"MagicNumber9960","steam_id":76561198886603359,"connected_time":24000000000,"state":"active","ping":60},{"user_id":323,"name":"HOTA","steam_id":76561199002778841,"connected_time":107000000000,"state":"active","ping":75},{"user_id":301,"name":"Wounded","steam_id":76561199440954924,"connected_time":1668000000000,"state":"active","ping":158},{"user_id":283,"name":"Calypso","steam_id":76561198082939544,"connected_time":2748000000000,"state":"active","ping":85},{"user_id":309,"name":"EeebyDeeby","steam_id":76561198135736718,"connected_time":588000000000,"state":"active","ping":83},{"user_id":282,"name":"Jel1440","steam_id":76561198179045366,"connected_time":2923000000000,"state":"active","ping":48},{"user_id":325,"name":"Rhutebeer","steam_id":76561198018302761,"connected_time":22000000000,"state":"active","ping":101},{"user_id":263,"name":"Broilovetf2","steam_id":76561199482995411,"connected_time":3764000000000,"state":"active","ping":86},{"user_id":313,"name":"OffKey","steam_id":76561198017660927,"connected_time":475000000000,"state":"active","ping":53},{"user_id":314,"name":"Soju","steam_id":76561198044130442,"connected_time":462000000000,"state":"active","ping":77},{"user_id":315,"name":"B.","steam_id":76561198040445907,"connected_time":424000000000,"state":"active","ping":71},{"user_id":272,"name":"Gentoo Linux Gaming","steam_id":76561197999657118,"connected_time":3380000000000,"state":"active","ping":84},{"user_id":319,"name":"blueturtle96","steam_id":76561198180706950,"connected_time":344000000000,"state":"active","ping":47},{"user_id":321,"name":"just a gamer","steam_id":76561199208833695,"connected_time":217000000000,"state":"active","ping":91}]},{"server_id":37,"name":"Uncletopia | Chicago | 6 | All Maps","name_short":"chi-6","host":"chi-2.us.uncletopia.com","port":27025,"enabled":true,"region":"us-central","cc":"us","latitude":41.881832,"longitude":-87.62318,"reserved":0,"last_update":"0001-01-01T00:00:00Z","name_a2s":"Uncletopia | Chicago | 6 | All Maps","protocol":17,"map":"pl_barnblitz","folder":"tf","game":"Team Fortress","app_id":440,"player_count":24,"max_players":24,"Bots":0,"server_type":"Dedicated","server_os":"Linux","password":true,"vac":true,"version":"7882260","steam_id":85568392924866363,"keywords":["nocrits","nodmgspread","payload","uncletopia"],"game_id":440,"stv_port":27026,"stv_name":"Uncletopia | Chicago | 6 | All Maps | STV","players":[{"user_id":255,"name":"Punkin","steam_id":76561198334301755,"connected_time":172000000000,"state":"active","ping":69},{"user_id":250,"name":"M1ssileT0E","steam_id":76561199052865451,"connected_time":535000000000,"state":"active","ping":57},{"user_id":229,"name":"give me your baby faces blaster","steam_id":76561199013442982,"connected_time":2048000000000,"state":"active","ping":99},{"user_id":198,"name":"A2","steam_id":76561198055910300,"connected_time":3619000000000,"state":"active","ping":89},{"user_id":234,"name":"Goat","steam_id":76561198068447650,"connected_time":1331000000000,"state":"active","ping":66},{"user_id":218,"name":"Protato","steam_id":76561198061182563,"connected_time":3159000000000,"state":"active","ping":76},{"user_id":225,"name":"DEQUAVIS","steam_id":76561198843060075,"connected_time":2488000000000,"state":"active","ping":116},{"user_id":215,"name":"Lace","steam_id":76561198148355711,"connected_time":3285000000000,"state":"active","ping":77},{"user_id":241,"name":"PoisonIvy","steam_id":76561198072384574,"connected_time":1092000000000,"state":"active","ping":58},{"user_id":177,"name":"give ayra a feh alt","steam_id":76561198051928674,"connected_time":4551000000000,"state":"active","ping":55},{"user_id":252,"name":"ùïÆùñÜùñíùñäùñóùñîùñì \ufffd\ufffd","steam_id":76561198045826628,"connected_time":250000000000,"state":"active","ping":119},{"user_id":199,"name":"toewgmo","steam_id":76561198010202089,"connected_time":3575000000000,"state":"active","ping":144},{"user_id":158,"name":"Horse","steam_id":76561198004583631,"connected_time":5414000000000,"state":"active","ping":68},{"user_id":236,"name":"YOUNG UPGRADE","steam_id":76561198035474725,"connected_time":1321000000000,"state":"active","ping":79},{"user_id":237,"name":"Victor Skull","steam_id":76561198352212864,"connected_time":1310000000000,"state":"active","ping":61},{"user_id":179,"name":"not shouleil","steam_id":76561198970370243,"connected_time":4533000000000,"state":"active","ping":53},{"user_id":226,"name":"Nassu","steam_id":76561198147367577,"connected_time":2483000000000,"state":"active","ping":80},{"user_id":240,"name":"ShaggyTax8930","steam_id":76561198880156558,"connected_time":1251000000000,"state":"active","ping":88},{"user_id":139,"name":"„ÅÑ„Å°„Åî„Åæ„Çç","steam_id":76561198166100997,"connected_time":6590000000000,"state":"active","ping":74},{"user_id":227,"name":"TÃµÃíÃ≤HÃ∂ÃêÃ™EÃ¥ÕÇÃäÕâMÃ∂ÃæÕÜ\ufffd","steam_id":76561198091875604,"connected_time":2473000000000,"state":"active","ping":82},{"user_id":253,"name":"Mablinlok","steam_id":76561197992718242,"connected_time":215000000000,"state":"active","ping":79},{"user_id":242,"name":"Scotch Tape","steam_id":76561199389314894,"connected_time":1057000000000,"state":"active","ping":60},{"user_id":256,"name":"Robert","steam_id":76561198133200895,"connected_time":27000000000,"state":"active","ping":61},{"user_id":211,"name":"Mr.noob","steam_id":76561199200442395,"connected_time":3333000000000,"state":"active","ping":178}]},{"server_id":38,"name":"Uncletopia | Chicago | 7 | Stopwatch Beta","name_short":"chi-7","host":"chi-2.us.uncletopia.com","port":27035,"enabled":true,"region":"us-central","cc":"us","latitude":41.881832,"longitude":-87.62318,"reserved":0,"last_update":"0001-01-01T00:00:00Z","name_a2s":"Uncletopia | Chicago | 7 | Stopwatch Beta","protocol":17,"map":"pl_borneo","folder":"tf","game":"Team Fortress","app_id":440,"player_count":0,"max_players":24,"Bots":0,"server_type":"Dedicated","server_os":"Linux","password":true,"vac":true,"version":"7882260","steam_id":85568392924866364,"keywords":["nocrits","nodmgspread","payload","uncletopia"],"game_id":440,"stv_port":27036,"stv_name":"Uncletopia | Chicago | 7 | Stopwatch Beta | STV","players":null},{"server_id":39,"name":"Uncletopia | Chicago | 8 | Community","name_short":"chi-8","host":"chi-2.us.uncletopia.com","port":27045,"enabled":true,"region":"us-central","cc":"us","latitude":41.881832,"longitude":-87.62318,"reserved":0,"last_update":"0001-01-01T00:00:00Z","name_a2s":"Uncletopia | Chicago | 8 | Community","protocol":17,"map":"workshop/koth_trenchfoot_b1a.ugc731436616","folder":"tf","game":"Team Fortress","app_id":440,"player_count":0,"max_players":24,"Bots":0,"server_type":"Dedicated","server_os":"Linux","password":true,"vac":true,"version":"7882260","steam_id":85568392924866365,"keywords":["cp","nocrits","nodmgspread","uncletopia"],"game_id":440,"stv_port":27046,"stv_name":"Uncletopia | Chicago | 8 | Community | STV","players":null},{"server_id":8,"name":"Uncletopia | Dallas | 1 | All Maps","name_short":"dal-1","host":"dal-1.us.uncletopia.com","port":27015,"enabled":true,"region":"us-central","cc":"us","latitude":32.779167,"longitude":-96.80889,"reserved":0,"last_update":"0001-01-01T00:00:00Z","name_a2s":"Uncletopia | Dallas | 1 | All Maps","protocol":17,"map":"pl_frontier_final","folder":"tf","game":"Team Fortress","app_id":440,"player_count":24,"max_players":24,"Bots":0,"server_type":"Dedicated","server_os":"Linux","password":true,"vac":true,"version":"7882260","steam_id":85568392924469986,"keywords":["nocrits","nodmgspread","payload","uncletopia"],"game_id":440,"stv_port":27016,"stv_name":"Uncletopia | Dallas | 1 | All Maps | STV","players":[{"user_id":268,"name":"Alkimia","steam_id":76561198385763137,"connected_time":562000000000,"state":"active","ping":113},{"user_id":240,"name":"„Åµ„Çè„Åµ„ÇèÊØõÂ∏É","steam_id":76561198088403016,"connected_time":2851000000000,"state":"active","ping":180},{"user_id":265,"name":"Humphrey D. Jaquavious","steam_id":76561198846466835,"connected_time":792000000000,"state":"active","ping":68},{"user_id":264,"name":"pipeline","steam_id":76561198212263380,"connected_time":1026000000000,"state":"active","ping":46},{"user_id":223,"name":"Chunk Stuffer","steam_id":76561198856508573,"connected_time":5026000000000,"state":"active","ping":44},{"user_id":259,"name":"Stick","steam_id":76561198001509374,"connected_time":1524000000000,"state":"active","ping":71},{"user_id":262,"name":"hank suckle","steam_id":76561198122622916,"connected_time":1320000000000,"state":"active","ping":75},{"user_id":219,"name":"E404","steam_id":76561198204499316,"connected_time":5317000000000,"state":"active","ping":64},{"user_id":241,"name":"aeon","steam_id":76561198068654532,"connected_time":2823000000000,"state":"active","ping":97},{"user_id":179,"name":"Smug","steam_id":76561198448205229,"connected_time":7113000000000,"state":"active","ping":74},{"user_id":187,"name":"slurdydurdy","steam_id":76561198101494591,"connected_time":6933000000000,"state":"active","ping":86},{"user_id":242,"name":"iluvtoust","steam_id":76561198869269207,"connected_time":2819000000000,"state":"active","ping":49},{"user_id":263,"name":"Phillip Jeffries","steam_id":76561198064052174,"connected_time":1302000000000,"state":"active","ping":89},{"user_id":269,"name":"‚ù§ Ashley ‚ù§","steam_id":76561198056428303,"connected_time":363000000000,"state":"active","ping":76},{"user_id":266,"name":"reymundo","steam_id":76561197989412830,"connected_time":732000000000,"state":"active","ping":90},{"user_id":180,"name":"Kenji","steam_id":76561198089630547,"connected_time":7079000000000,"state":"active","ping":74},{"user_id":260,"name":"Kneft","steam_id":76561199027993248,"connected_time":1496000000000,"state":"active","ping":45},{"user_id":230,"name":"floofy","steam_id":76561198389769098,"connected_time":3854000000000,"state":"active","ping":83},{"user_id":252,"name":"meo ‚ô•","steam_id":76561197992719272,"connected_time":2219000000000,"state":"active","ping":79},{"user_id":267,"name":"woot ivan","steam_id":76561198339929050,"connected_time":727000000000,"state":"active","ping":74},{"user_id":261,"name":"Wigl","steam_id":76561198019324464,"connected_time":1486000000000,"state":"active","ping":88},{"user_id":246,"name":"OverPowered64","steam_id":76561198291027287,"connected_time":2727000000000,"state":"active","ping":54},{"user_id":251,"name":"Korota","steam_id":76561198095891641,"connected_time":2390000000000,"state":"active","ping":62},{"user_id":237,"name":"TrashMann","steam_id":76561198040969743,"connected_time":2928000000000,"state":"active","ping":75}]},{"server_id":108,"name":"Uncletopia | Dallas | 2 | All Maps","name_short":"dal-2","host":"dal-1.us.uncletopia.com","port":27025,"enabled":true,"region":"us-central","cc":"us","latitude":32.779167,"longitude":-96.80889,"reserved":0,"last_update":"0001-01-01T00:00:00Z","name_a2s":"Uncletopia | Dallas | 2 | All Maps","protocol":17,"map":"koth_sawmill","folder":"tf","game":"Team Fortress","app_id":440,"player_count":24,"max_players":24,"Bots":0,"server_type":"Dedicated","server_os":"Linux","password":true,"vac":true,"version":"7882260","steam_id":85568392924469988,"keywords":["cp","nocrits","nodmgspread","uncletopia"],"game_id":440,"stv_port":27026,"stv_name":"Uncletopia | Dallas | 2 | All Maps | STV","players":[{"user_id":157,"name":"QuackCoyote","steam_id":76561198127255950,"connected_time":2847000000000,"state":"active","ping":98},{"user_id":176,"name":"CtrlAlt","steam_id":76561198024191112,"connected_time":1567000000000,"state":"active","ping":60},{"user_id":186,"name":"Yes","steam_id":76561198175329038,"connected_time":1018000000000,"state":"active","ping":64},{"user_id":158,"name":"Mr. Owmew","steam_id":76561199032490400,"connected_time":2814000000000,"state":"active","ping":65},{"user_id":172,"name":"Picard","steam_id":76561197993530161,"connected_time":2104000000000,"state":"active","ping":60},{"user_id":202,"name":"‚ù§ùïµùñéùñíùï¥ùñäùñä‚ù§","steam_id":76561199120656064,"connected_time":82000000000,"state":"active","ping":70},{"user_id":183,"name":"Humon Player","steam_id":76561198013593178,"connected_time":1035000000000,"state":"active","ping":59},{"user_id":194,"name":"C4K3","steam_id":76561197996963285,"connected_time":762000000000,"state":"active","ping":71},{"user_id":196,"name":"Splash","steam_id":76561198271994269,"connected_time":597000000000,"state":"active","ping":63},{"user_id":178,"name":"Mels","steam_id":76561198144468740,"connected_time":1496000000000,"state":"active","ping":74},{"user_id":163,"name":"sal","steam_id":76561198814096380,"connected_time":2427000000000,"state":"active","ping":84},{"user_id":179,"name":"Frenemy \u003e:D","steam_id":76561198011363677,"connected_time":1491000000000,"state":"active","ping":65},{"user_id":189,"name":"Spud","steam_id":76561197998053634,"connected_time":993000000000,"state":"active","ping":88},{"user_id":143,"name":"Scrux","steam_id":76561198129763115,"connected_time":3565000000000,"state":"active","ping":85},{"user_id":121,"name":"james may","steam_id":76561198043857339,"connected_time":4790000000000,"state":"active","ping":82},{"user_id":182,"name":"GLG.Liz","steam_id":76561198021957956,"connected_time":1046000000000,"state":"active","ping":51},{"user_id":198,"name":"FunGi","steam_id":76561198881418662,"connected_time":477000000000,"state":"active","ping":88},{"user_id":170,"name":"Lucy Lou!","steam_id":76561198078209088,"connected_time":2267000000000,"state":"active","ping":63},{"user_id":150,"name":"canakblasteran","steam_id":76561199472518822,"connected_time":3159000000000,"state":"active","ping":90},{"user_id":200,"name":"Chimpanzee","steam_id":76561198850387282,"connected_time":129000000000,"state":"active","ping":79},{"user_id":112,"name":"Pib","steam_id":76561197994926573,"connected_time":5894000000000,"state":"active","ping":106},{"user_id":201,"name":"dinky little beanie baby","steam_id":76561197999318398,"connected_time":106000000000,"state":"active","ping":110},{"user_id":197,"name":"Unspoken Rizz","steam_id":76561199019647814,"connected_time":581000000000,"state":"active","ping":52},{"user_id":173,"name":"The Cyber Police","steam_id":76561198062763756,"connected_time":2054000000000,"state":"active","ping":76}]},{"server_id":5,"name":"Uncletopia | Frankfurt | 1 | All Maps","name_short":"frk-1","host":"frk-1.de.uncletopia.com","port":27015,"enabled":true,"region":"eu","cc":"de","latitude":50.110924,"longitude":8.682127,"reserved":0,"last_update":"0001-01-01T00:00:00Z","name_a2s":"Uncletopia | Frankfurt | 1 | All Maps","protocol":17,"map":"pl_badwater","folder":"tf","game":"Team Fortress","app_id":440,"player_count":24,"max_players":24,"Bots":0,"server_type":"Dedicated","server_os":"Linux","password":true,"vac":true,"version":"7882260","steam_id":85568392924469989,"keywords":["nocrits","nodmgspread","payload","uncletopia"],"game_id":440,"stv_port":27016,"stv_name":"Uncletopia | Frankfurt | 1 | All Maps | STV","players":[{"user_id":488,"name":"Toasty5050","steam_id":76561198073540881,"connected_time":4697000000000,"state":"active","ping":45},{"user_id":531,"name":"Flint","steam_id":76561197995920776,"connected_time":1353000000000,"state":"active","ping":41},{"user_id":518,"name":"Repa24","steam_id":76561198033016390,"connected_time":2392000000000,"state":"active","ping":71},{"user_id":548,"name":"Habemus papam","steam_id":76561198182661759,"connected_time":154000000000,"state":"active","ping":73},{"user_id":490,"name":"Finnish Farmer","steam_id":76561198205366043,"connected_time":4621000000000,"state":"active","ping":91},{"user_id":543,"name":"Rastalin","steam_id":76561198037374081,"connected_time":589000000000,"state":"active","ping":105},{"user_id":546,"name":"Dag!","steam_id":76561198030147941,"connected_time":437000000000,"state":"active","ping":60},{"user_id":532,"name":"The.Real.Genesis","steam_id":76561198999652040,"connected_time":1270000000000,"state":"active","ping":36},{"user_id":547,"name":"matto","steam_id":76561198204488876,"connected_time":266000000000,"state":"active","ping":64},{"user_id":483,"name":"Mr. Gaming","steam_id":76561198159360685,"connected_time":4792000000000,"state":"active","ping":76},{"user_id":549,"name":"RandomGuy","steam_id":76561198082851075,"connected_time":149000000000,"state":"active","ping":60},{"user_id":550,"name":"BL4CKPL4T3","steam_id":76561198983185163,"connected_time":142000000000,"state":"active","ping":66},{"user_id":437,"name":"Ar|es","steam_id":76561198819160313,"connected_time":7917000000000,"state":"active","ping":85},{"user_id":540,"name":"Atse","steam_id":76561199019974513,"connected_time":712000000000,"state":"active","ping":120},{"user_id":489,"name":"Rimx","steam_id":76561198053034840,"connected_time":4691000000000,"state":"active","ping":93},{"user_id":551,"name":"vurtun","steam_id":76561198857395274,"connected_time":142000000000,"state":"active","ping":55},{"user_id":555,"name":"Hann√º","steam_id":76561197969886128,"connected_time":30000000000,"state":"active","ping":71},{"user_id":508,"name":"Hey, I¬¥m Andy!","steam_id":76561198060337777,"connected_time":3190000000000,"state":"active","ping":77},{"user_id":553,"name":"Jude!","steam_id":76561197983597798,"connected_time":128000000000,"state":"active","ping":48},{"user_id":554,"name":"Ë™∞„Åã„ÅåË¶ã„Å¶„ÅÑ„Çã","steam_id":76561198834913692,"connected_time":125000000000,"state":"active","ping":74},{"user_id":536,"name":"madman hesus","steam_id":76561198159702599,"connected_time":1227000000000,"state":"active","ping":84},{"user_id":545,"name":"KHEY","steam_id":76561198035380064,"connected_time":557000000000,"state":"active","ping":60},{"user_id":510,"name":"Penis Contortionist","steam_id":76561198073663784,"connected_time":3151000000000,"state":"active","ping":47},{"user_id":528,"name":"SDCK! GardenFungus tf2easy.com","steam_id":76561198054894337,"connected_time":2113000000000,"state":"active","ping":59}]},{"server_id":110,"name":"Uncletopia | Frankfurt | 2 | All Maps","name_short":"frk-2","host":"frk-1.de.uncletopia.com","port":27025,"enabled":true,"region":"eu","cc":"de","latitude":50.110924,"longitude":8.682127,"reserved":0,"last_update":"0001-01-01T00:00:00Z","name_a2s":"Uncletopia | Frankfurt | 2 | All Maps","protocol":17,"map":"ctf_doublecross","folder":"tf","game":"Team Fortress","app_id":440,"player_count":24,"max_players":24,"Bots":0,"server_type":"Dedicated","server_os":"Linux","password":true,"vac":true,"version":"7882260","steam_id":85568392924469990,"keywords":["ctf","nocrits","nodmgspread","uncletopia"],"game_id":440,"stv_port":27026,"stv_name":"Uncletopia | Frankfurt | 2 | All Maps | STV","players":[{"user_id":387,"name":"peter griffin be like","steam_id":76561198149476240,"connected_time":3884000000000,"state":"active","ping":78},{"user_id":454,"name":"faze girldick","steam_id":76561199044306780,"connected_time":159000000000,"state":"active","ping":78},{"user_id":377,"name":"stefanbejenari","steam_id":76561199466718294,"connected_time":4142000000000,"state":"active","ping":74},{"user_id":447,"name":"HerrMyrddin","steam_id":76561198045778215,"connected_time":330000000000,"state":"active","ping":63},{"user_id":424,"name":"ÔΩå ÔΩè ÔΩò ÔΩè ÔΩî ÔΩâ ÔΩÉ","steam_id":76561198202785963,"connected_time":1752000000000,"state":"active","ping":73},{"user_id":414,"name":"bossievossie","steam_id":76561198836337543,"connected_time":2138000000000,"state":"active","ping":86},{"user_id":448,"name":"adiyn","steam_id":76561198840230708,"connected_time":287000000000,"state":"active","ping":57},{"user_id":451,"name":"deepnotic","steam_id":76561199154324805,"connected_time":256000000000,"state":"active","ping":76},{"user_id":450,"name":"loukritia","steam_id":76561199041313603,"connected_time":267000000000,"state":"active","ping":77},{"user_id":439,"name":"·≤º","steam_id":76561198245726582,"connected_time":980000000000,"state":"active","ping":73},{"user_id":416,"name":"jeff","steam_id":76561198025815509,"connected_time":2116000000000,"state":"active","ping":58},{"user_id":383,"name":"Poland Doge","steam_id":76561198280605135,"connected_time":4024000000000,"state":"active","ping":63},{"user_id":430,"name":"Arcader","steam_id":76561198109860110,"connected_time":1575000000000,"state":"active","ping":56},{"user_id":452,"name":"niandits","steam_id":76561198419798900,"connected_time":251000000000,"state":"active","ping":142},{"user_id":443,"name":"Gromov","steam_id":76561198407644131,"connected_time":763000000000,"state":"active","ping":68},{"user_id":444,"name":"Peen","steam_id":76561198124862665,"connected_time":668000000000,"state":"active","ping":96},{"user_id":453,"name":"Dr. Sir Knight","steam_id":76561198146313878,"connected_time":177000000000,"state":"active","ping":70},{"user_id":405,"name":"gaycion","steam_id":76561198053937781,"connected_time":3450000000000,"state":"active","ping":62},{"user_id":456,"name":"Kestrel","steam_id":76561198144033005,"connected_time":137000000000,"state":"active","ping":64},{"user_id":457,"name":"PenQuill","steam_id":76561198077915071,"connected_time":86000000000,"state":"active","ping":66},{"user_id":418,"name":"Remyie","steam_id":76561198131031404,"connected_time":2044000000000,"state":"active","ping":104},{"user_id":458,"name":"pablo","steam_id":76561198089285014,"connected_time":30000000000,"state":"active","ping":84},{"user_id":407,"name":"Ratatatatatatouille","steam_id":76561198182267098,"connected_time":3378000000000,"state":"active","ping":86},{"user_id":293,"name":"Yannik28","steam_id":76561198137070786,"connected_time":8670000000000,"state":"active","ping":45}]},{"server_id":308,"name":"Uncletopia | Frankfurt | 3 | All Maps","name_short":"frk-3","host":"frk-1.de.uncletopia.com","port":27035,"enabled":true,"region":"eu","cc":"de","latitude":50.110924,"longitude":8.682127,"reserved":0,"last_update":"0001-01-01T00:00:00Z","name_a2s":"Uncletopia | Frankfurt | 3 | All Maps","protocol":17,"map":"pl_swiftwater_final1","folder":"tf","game":"Team Fortress","app_id":440,"player_count":24,"max_players":24,"Bots":0,"server_type":"Dedicated","server_os":"Linux","password":true,"vac":true,"version":"7882260","steam_id":85568392924504274,"keywords":["nocrits","nodmgspread","payload","uncletopia"],"game_id":440,"stv_port":27036,"stv_name":"Uncletopia | Frankfurt | 3 | All Maps | STV","players":[{"user_id":414,"name":"I am bad in TF2 (not bot)","steam_id":76561199214000895,"connected_time":1519000000000,"state":"active","ping":79},{"user_id":402,"name":"etc","steam_id":76561197998394797,"connected_time":2898000000000,"state":"active","ping":51},{"user_id":426,"name":"minespweper","steam_id":76561199096919345,"connected_time":861000000000,"state":"active","ping":74},{"user_id":408,"name":"unnam3d","steam_id":76561198286257338,"connected_time":2251000000000,"state":"active","ping":60},{"user_id":406,"name":"   „Éá Ô∏ªÍßÅ‡ºíRigby","steam_id":76561198021552128,"connected_time":2677000000000,"state":"active","ping":95},{"user_id":422,"name":"Combat Wombat","steam_id":76561197994720068,"connected_time":992000000000,"state":"active","ping":70},{"user_id":367,"name":"R","steam_id":76561199379233899,"connected_time":4388000000000,"state":"active","ping":91},{"user_id":413,"name":"PutteG[A]ngster","steam_id":76561198018721751,"connected_time":1681000000000,"state":"active","ping":91},{"user_id":424,"name":"goblinninja110","steam_id":76561198269159354,"connected_time":952000000000,"state":"active","ping":72},{"user_id":425,"name":"\u003c blank \u003e","steam_id":76561198059375315,"connected_time":911000000000,"state":"active","ping":61},{"user_id":405,"name":"Sayu","steam_id":76561198395421637,"connected_time":2715000000000,"state":"active","ping":53},{"user_id":427,"name":"normii","steam_id":76561198301332732,"connected_time":557000000000,"state":"active","ping":51},{"user_id":412,"name":"cazador","steam_id":76561198123096922,"connected_time":1723000000000,"state":"active","ping":94},{"user_id":421,"name":"Solymr ibn Wali Barad","steam_id":76561198044008976,"connected_time":1101000000000,"state":"active","ping":71},{"user_id":378,"name":"Pilaarius","steam_id":76561198120273212,"connected_time":4057000000000,"state":"active","ping":92},{"user_id":379,"name":"Cosmetic brain","steam_id":76561198055936410,"connected_time":4018000000000,"state":"active","ping":77},{"user_id":380,"name":"modavak","steam_id":76561198946290908,"connected_time":4011000000000,"state":"active","ping":92},{"user_id":381,"name":"big poo","steam_id":76561199088284199,"connected_time":3953000000000,"state":"active","ping":61},{"user_id":389,"name":"Ecton","steam_id":76561198025103720,"connected_time":3791000000000,"state":"active","ping":61},{"user_id":430,"name":"Rarky","steam_id":76561198054398642,"connected_time":214000000000,"state":"active","ping":109},{"user_id":398,"name":"____________","steam_id":76561198153488940,"connected_time":3107000000000,"state":"active","ping":78},{"user_id":397,"name":"Gen","steam_id":76561198021775885,"connected_time":3242000000000,"state":"active","ping":54},{"user_id":392,"name":"Kahvi","steam_id":76561198723244199,"connected_time":3661000000000,"state":"active","ping":89},{"user_id":429,"name":"DobreStarachowickie","steam_id":76561198027126737,"connected_time":331000000000,"state":"active","ping":68}]},{"server_id":309,"name":"Uncletopia | Frankfurt | 4 | All Maps","name_short":"frk-4","host":"frk-1.de.uncletopia.com","port":27045,"enabled":true,"region":"eu","cc":"de","latitude":50.110924,"longitude":8.682127,"reserved":0,"last_update":"0001-01-01T00:00:00Z","name_a2s":"Uncletopia | Frankfurt | 4 | All Maps","protocol":17,"map":"cp_dustbowl","folder":"tf","game":"Team Fortress","app_id":440,"player_count":19,"max_players":24,"Bots":0,"server_type":"Dedicated","server_os":"Linux","password":true,"vac":true,"version":"7882260","steam_id":85568392924504275,"keywords":["cp","nocrits","nodmgspread","uncletopia"],"game_id":440,"stv_port":27046,"stv_name":"Uncletopia | Frankfurt | 4 | All Maps | STV","players":[{"user_id":357,"name":"dotdotdot","steam_id":76561198057628751,"connected_time":3714000000000,"state":"active","ping":63},{"user_id":397,"name":"Yva","steam_id":76561198957013489,"connected_time":498000000000,"state":"active","ping":90},{"user_id":394,"name":"autism's strongest sodlier.","steam_id":76561198317434881,"connected_time":561000000000,"state":"active","ping":52},{"user_id":389,"name":"iron__shaddow","steam_id":76561198087057163,"connected_time":595000000000,"state":"active","ping":64},{"user_id":405,"name":"DeCypher \u003c3","steam_id":76561198171992619,"connected_time":72000000000,"state":"active","ping":91},{"user_id":381,"name":"—Ç–æ–ª—è","steam_id":76561199098518615,"connected_time":1990000000000,"state":"active","ping":72},{"user_id":396,"name":"St√ºmpy","steam_id":76561198255904077,"connected_time":519000000000,"state":"active","ping":58},{"user_id":387,"name":"Prole","steam_id":76561198049837199,"connected_time":1313000000000,"state":"active","ping":136},{"user_id":398,"name":"r06u3","steam_id":76561198254099253,"connected_time":493000000000,"state":"active","ping":168},{"user_id":364,"name":"Suetolog","steam_id":76561199053090212,"connected_time":3271000000000,"state":"active","ping":54},{"user_id":291,"name":"Ewelinka Zniszczenia","steam_id":76561198307374456,"connected_time":7646000000000,"state":"active","ping":67},{"user_id":377,"name":"2BCD","steam_id":76561198178254946,"connected_time":2495000000000,"state":"active","ping":64},{"user_id":388,"name":"–¢–æ—Ç —Å–∞–º—ã–π –∫–æ—Ç–æ—Ä—ã\ufffd","steam_id":76561198214926087,"connected_time":878000000000,"state":"active","ping":93},{"user_id":366,"name":"weaselmeister","steam_id":76561199059841173,"connected_time":3195000000000,"state":"active","ping":56},{"user_id":292,"name":".:Mr. SnipeR:.","steam_id":76561198070091899,"connected_time":7634000000000,"state":"active","ping":59},{"user_id":403,"name":"an idiot","steam_id":76561198172542535,"connected_time":343000000000,"state":"active","ping":71},{"user_id":401,"name":"Plep","steam_id":76561198840259819,"connected_time":453000000000,"state":"active","ping":46},{"user_id":358,"name":"Uber","steam_id":76561198036528206,"connected_time":3713000000000,"state":"active","ping":76},{"user_id":386,"name":"Void","steam_id":76561198810434231,"connected_time":1423000000000,"state":"active","ping":64}]},{"server_id":310,"name":"Uncletopia | Frankfurt | 5 | All Maps","name_short":"frk-5","host":"frk-1.de.uncletopia.com","port":27055,"enabled":true,"region":"eu","cc":"de","latitude":50.110924,"longitude":8.682127,"reserved":0,"last_update":"0001-01-01T00:00:00Z","name_a2s":"Uncletopia | Frankfurt | 5 | All Maps","protocol":17,"map":"koth_cascade","folder":"tf","game":"Team Fortress","app_id":440,"player_count":0,"max_players":24,"Bots":0,"server_type":"Dedicated","server_os":"Linux","password":true,"vac":true,"version":"7882260","steam_id":85568392924504277,"keywords":["cp","nocrits","nodmgspread","uncletopia"],"game_id":440,"stv_port":27056,"stv_name":"Uncletopia | Frankfurt | 5 | All Maps | STV","players":null},{"server_id":311,"name":"Uncletopia | Frankfurt | 6 | All Maps","name_short":"frk-6","host":"frk-1.de.uncletopia.com","port":27065,"enabled":true,"region":"eu","cc":"de","latitude":50.110924,"longitude":8.682127,"reserved":0,"last_update":"0001-01-01T00:00:00Z","name_a2s":"Uncletopia | Frankfurt | 6 | All Maps","protocol":17,"map":"pl_frontier_final","folder":"tf","game":"Team Fortress","app_id":440,"player_count":24,"max_players":24,"Bots":0,"server_type":"Dedicated","server_os":"Linux","password":true,"vac":true,"version":"7882260","steam_id":85568392924504278,"keywords":["nocrits","nodmgspread","payload","uncletopia"],"game_id":440,"stv_port":27066,"stv_name":"Uncletopia | Frankfurt | 6 | All Maps | STV","players":[{"user_id":317,"name":"cold","steam_id":76561198068081430,"connected_time":188000000000,"state":"active","ping":52},{"user_id":301,"name":"copium addict","steam_id":76561199401665282,"connected_time":1545000000000,"state":"active","ping":100},{"user_id":318,"name":"BELADIT","steam_id":76561198011911501,"connected_time":186000000000,"state":"active","ping":67},{"user_id":281,"name":"Pigeon¬≤","steam_id":76561198955113575,"connected_time":2602000000000,"state":"active","ping":61},{"user_id":313,"name":"MatesThePlayer","steam_id":76561198066156449,"connected_time":339000000000,"state":"active","ping":53},{"user_id":296,"name":"FanFish","steam_id":76561199389558024,"connected_time":1655000000000,"state":"active","ping":66},{"user_id":297,"name":"NUKAHOLIC","steam_id":76561198095051652,"connected_time":1636000000000,"state":"active","ping":45},{"user_id":308,"name":"i like questions","steam_id":76561198179392402,"connected_time":763000000000,"state":"active","ping":54},{"user_id":303,"name":"Huru_mies30","steam_id":76561199240991587,"connected_time":1410000000000,"state":"active","ping":59},{"user_id":246,"name":"StingyLettuce","steam_id":76561199010337406,"connected_time":4989000000000,"state":"active","ping":109},{"user_id":307,"name":"PashaVerti","steam_id":76561199013963024,"connected_time":816000000000,"state":"active","ping":71},{"user_id":311,"name":"Dr. Blair Chao","steam_id":76561198146027518,"connected_time":638000000000,"state":"active","ping":148},{"user_id":305,"name":"Zero (Orbital Gear Mastermind)","steam_id":76561198017416816,"connected_time":1018000000000,"state":"active","ping":60},{"user_id":310,"name":"bodul","steam_id":76561198189553021,"connected_time":666000000000,"state":"active","ping":64},{"user_id":320,"name":"Conan","steam_id":76561198158321202,"connected_time":124000000000,"state":"active","ping":68},{"user_id":319,"name":"Joashie","steam_id":76561198245170822,"connected_time":184000000000,"state":"active","ping":58},{"user_id":240,"name":"Underground - Hard Rock R1700G","steam_id":76561198215986979,"connected_time":5345000000000,"state":"active","ping":60},{"user_id":309,"name":"Krefa12","steam_id":76561198268375393,"connected_time":690000000000,"state":"active","ping":75},{"user_id":306,"name":"oRang3_","steam_id":76561198841009476,"connected_time":850000000000,"state":"active","ping":75},{"user_id":315,"name":"HelwiiHill","steam_id":76561198066730552,"connected_time":295000000000,"state":"active","ping":87},{"user_id":263,"name":"Baton De Leon","steam_id":76561198353944785,"connected_time":3878000000000,"state":"active","ping":77},{"user_id":321,"name":"mp1mp2mp3","steam_id":76561198088967665,"connected_time":119000000000,"state":"active","ping":107},{"user_id":285,"name":"Master Of Noob","steam_id":76561198217926783,"connected_time":2560000000000,"state":"active","ping":69},{"user_id":304,"name":"marvs","steam_id":76561198851777617,"connected_time":1157000000000,"state":"active","ping":58}]},{"server_id":23,"name":"Uncletopia | Frankfurt | 7 | Stopwatch Beta","name_short":"frk-7","host":"frk-1.de.uncletopia.com","port":27075,"enabled":true,"region":"eu","cc":"de","latitude":50.110924,"longitude":8.682127,"reserved":0,"last_update":"0001-01-01T00:00:00Z","name_a2s":"Uncletopia | Frankfurt | 7 | Stopwatch Beta","protocol":17,"map":"workshop/koth_ashville_final.ugc2130459942","folder":"tf","game":"Team Fortress","app_id":440,"player_count":0,"max_players":24,"Bots":0,"server_type":"Dedicated","server_os":"Linux","password":true,"vac":true,"version":"7882260","steam_id":85568392924742827,"keywords":["cp","nocrits","nodmgspread","uncletopia"],"game_id":440,"stv_port":27076,"stv_name":"Uncletopia | Frankfurt | 7 | Stopwatch Beta | STV","players":null},{"server_id":24,"name":"Uncletopia | Frankfurt | 8 | Community","name_short":"frk-8","host":"frk-1.de.uncletopia.com","port":27085,"enabled":true,"region":"eu","cc":"de","latitude":50.110924,"longitude":8.682127,"reserved":0,"last_update":"0001-01-01T00:00:00Z","name_a2s":"Uncletopia | Frankfurt | 8 | Community","protocol":17,"map":"workshop/pl_emerge_rc2.ugc888027758","folder":"tf","game":"Team Fortress","app_id":440,"player_count":0,"max_players":24,"Bots":0,"server_type":"Dedicated","server_os":"Linux","password":true,"vac":true,"version":"7882260","steam_id":85568392924742828,"keywords":["nocrits","nodmgspread","payload","uncletopia"],"game_id":440,"stv_port":27086,"stv_name":"Uncletopia | Frankfurt | 8 | Community | STV","players":null},{"server_id":202,"name":"Uncletopia | Hong Kong | 1 | All Maps","name_short":"hgk-1","host":"hgk-1.hk.uncletopia.com","port":27015,"enabled":true,"region":"asia","cc":"hk","latitude":22.302711,"longitude":114.177216,"reserved":0,"last_update":"0001-01-01T00:00:00Z","name_a2s":"Uncletopia | Hong Kong | 1 | All Maps","protocol":17,"map":"cp_snakewater_final1","folder":"tf","game":"Team Fortress","app_id":440,"player_count":0,"max_players":24,"Bots":0,"server_type":"Dedicated","server_os":"Linux","password":true,"vac":true,"version":"7882260","steam_id":85568392924494504,"keywords":["cp","nocrits","nodmgspread","uncletopia"],"game_id":440,"stv_port":27016,"stv_name":"Uncletopia | Hong Kong | 1 | All Maps | STV","players":null},{"server_id":1,"name":"Uncletopia | Los Angeles | 1 | All Maps","name_short":"lax-1","host":"lax-1.us.uncletopia.com","port":27015,"enabled":true,"region":"us-west","cc":"us","latitude":33.94279,"longitude":-118.41004,"reserved":0,"last_update":"0001-01-01T00:00:00Z","name_a2s":"Uncletopia | Los Angeles | 1 | All Maps","protocol":17,"map":"cp_steel","folder":"tf","game":"Team Fortress","app_id":440,"player_count":22,"max_players":24,"Bots":0,"server_type":"Dedicated","server_os":"Linux","password":true,"vac":true,"version":"7882260","steam_id":85568392924469991,"keywords":["cp","nocrits","nodmgspread","uncletopia"],"game_id":440,"stv_port":27016,"stv_name":"Uncletopia | Los Angeles | 1 | All Maps | STV","players":[{"user_id":96,"name":"Overmeme","steam_id":76561199455124144,"connected_time":1703000000000,"state":"active","ping":82},{"user_id":97,"name":"rollypollyolie","steam_id":76561198039539380,"connected_time":1466000000000,"state":"active","ping":117},{"user_id":98,"name":"Black Chan","steam_id":76561198053355299,"connected_time":1449000000000,"state":"active","ping":110},{"user_id":123,"name":"Enderpanda24","steam_id":76561199461170521,"connected_time":424000000000,"state":"active","ping":183},{"user_id":101,"name":"big fish","steam_id":76561198186479818,"connected_time":1134000000000,"state":"active","ping":57},{"user_id":126,"name":"themadlad67","steam_id":76561199309554436,"connected_time":255000000000,"state":"active","ping":77},{"user_id":124,"name":"Ôº≤Ôº•Ôº§","steam_id":76561198030282308,"connected_time":309000000000,"state":"active","ping":61},{"user_id":130,"name":"grom","steam_id":76561199097594818,"connected_time":153000000000,"state":"active","ping":70},{"user_id":110,"name":"Dr. Bubs","steam_id":76561198011696595,"connected_time":601000000000,"state":"active","ping":61},{"user_id":120,"name":"vampitch","steam_id":76561199474203158,"connected_time":480000000000,"state":"active","ping":75},{"user_id":122,"name":"stboncho","steam_id":76561198172275301,"connected_time":468000000000,"state":"active","ping":64},{"user_id":127,"name":"Excrement","steam_id":76561198167740127,"connected_time":238000000000,"state":"active","ping":69},{"user_id":128,"name":"Goofballin","steam_id":76561198839383806,"connected_time":170000000000,"state":"active","ping":63},{"user_id":116,"name":"Scorpianswag","steam_id":76561198260651036,"connected_time":521000000000,"state":"active","ping":31},{"user_id":129,"name":"redbrite","steam_id":76561198389370871,"connected_time":168000000000,"state":"active","ping":63},{"user_id":131,"name":"Unwavering Flavor","steam_id":76561198053306065,"connected_time":110000000000,"state":"active","ping":75},{"user_id":132,"name":"jBracko","steam_id":76561198019261602,"connected_time":91000000000,"state":"active","ping":45},{"user_id":133,"name":"moe","steam_id":76561198929586245,"connected_time":65000000000,"state":"active","ping":44},{"user_id":134,"name":"Optic","steam_id":76561199067312416,"connected_time":10000000000,"state":"spawning","ping":74},{"user_id":135,"name":"Coolshroomish","steam_id":76561199109440924,"connected_time":10000000000,"state":"spawning","ping":78},{"user_id":136,"name":"Strange Potato","steam_id":76561199059013304,"connected_time":7000000000,"state":"spawning","ping":58},{"user_id":137,"name":"dudescore","steam_id":76561199091453555,"connected_time":3000000000,"state":"spawning","ping":68}]},{"server_id":112,"name":"Uncletopia | Los Angeles | 2 | All Maps","name_short":"lax-2","host":"lax-1.us.uncletopia.com","port":27025,"enabled":true,"region":"us-west","cc":"us","latitude":33.94279,"longitude":-118.41004,"reserved":0,"last_update":"0001-01-01T00:00:00Z","name_a2s":"Uncletopia | Los Angeles | 2 | All Maps","protocol":17,"map":"pl_snowycoast","folder":"tf","game":"Team Fortress","app_id":440,"player_count":21,"max_players":24,"Bots":0,"server_type":"Dedicated","server_os":"Linux","password":true,"vac":true,"version":"7882260","steam_id":85568392924469992,"keywords":["nocrits","nodmgspread","payload","uncletopia"],"game_id":440,"stv_port":27026,"stv_name":"Uncletopia | Los Angeles | 2 | All Maps | STV","players":[{"user_id":42,"name":"firestabber","steam_id":76561198057055577,"connected_time":7705000000000,"state":"active","ping":74},{"user_id":86,"name":"Esteban Delsin","steam_id":76561198433519639,"connected_time":3337000000000,"state":"active","ping":109},{"user_id":120,"name":"thumb","steam_id":76561198353762582,"connected_time":1206000000000,"state":"active","ping":70},{"user_id":158,"name":"KellyKapoor","steam_id":76561198040828123,"connected_time":335000000000,"state":"active","ping":70},{"user_id":85,"name":"Communist Killing Candy Cactus\ufffd","steam_id":76561198074980635,"connected_time":3414000000000,"state":"active","ping":68},{"user_id":105,"name":"Pinecone","steam_id":76561198180131575,"connected_time":1605000000000,"state":"active","ping":49},{"user_id":132,"name":"SomeRandomBetaFish","steam_id":76561198827731399,"connected_time":821000000000,"state":"active","ping":145},{"user_id":155,"name":"Sad Sapling","steam_id":76561198075612150,"connected_time":428000000000,"state":"active","ping":51},{"user_id":148,"name":"Î©çÏ≤≠Ìïú ÎØ∏Íµ≠Ïù∏","steam_id":76561198041986461,"connected_time":533000000000,"state":"active","ping":68},{"user_id":95,"name":"Selenddron","steam_id":76561198130341338,"connected_time":2851000000000,"state":"active","ping":100},{"user_id":133,"name":"Bubster3020 tera.gg","steam_id":76561198405350609,"connected_time":811000000000,"state":"active","ping":67},{"user_id":159,"name":"Reyloko","steam_id":76561198172480913,"connected_time":323000000000,"state":"active","ping":105},{"user_id":157,"name":"BUSY","steam_id":76561198047532250,"connected_time":382000000000,"state":"active","ping":77},{"user_id":101,"name":"1738 gecs","steam_id":76561198058617608,"connected_time":2216000000000,"state":"active","ping":102},{"user_id":168,"name":"Gary P","steam_id":76561198149108488,"connected_time":189000000000,"state":"active","ping":86},{"user_id":109,"name":"HunterTW","steam_id":76561198124141856,"connected_time":1551000000000,"state":"active","ping":72},{"user_id":144,"name":"JawnyMac","steam_id":76561198179529599,"connected_time":619000000000,"state":"active","ping":61},{"user_id":111,"name":"milf (real)","steam_id":76561198045926594,"connected_time":1517000000000,"state":"active","ping":59},{"user_id":175,"name":"Void","steam_id":76561198308290211,"connected_time":77000000000,"state":"active","ping":110},{"user_id":124,"name":"Old Man Tricks","steam_id":76561197984526216,"connected_time":1060000000000,"state":"active","ping":109},{"user_id":143,"name":"delight","steam_id":76561197980280272,"connected_time":674000000000,"state":"active","ping":72}]},{"server_id":324,"name":"Uncletopia | Los Angeles | 3 | All Maps","name_short":"lax-3","host":"lax-1.us.uncletopia.com","port":27035,"enabled":true,"region":"us-west","cc":"us","latitude":33.94279,"longitude":-118.41004,"reserved":0,"last_update":"0001-01-01T00:00:00Z","name_a2s":"Uncletopia | Los Angeles | 3 | All Maps","protocol":17,"map":"koth_highpass","folder":"tf","game":"Team Fortress","app_id":440,"player_count":21,"max_players":24,"Bots":0,"server_type":"Dedicated","server_os":"Linux","password":true,"vac":true,"version":"7882260","steam_id":85568392924510198,"keywords":["cp","nocrits","nodmgspread","uncletopia"],"game_id":440,"stv_port":27036,"stv_name":"Uncletopia | Los Angeles | 3 | All Maps | STV","players":[{"user_id":53,"name":"cringe_#abandontf2","steam_id":76561199074872253,"connected_time":1371000000000,"state":"active","ping":120},{"user_id":68,"name":"Jomdac","steam_id":76561198150447896,"connected_time":450000000000,"state":"active","ping":54},{"user_id":64,"name":"coolbust carti","steam_id":76561198065384345,"connected_time":589000000000,"state":"active","ping":54},{"user_id":22,"name":"Duds","steam_id":76561199231052134,"connected_time":3143000000000,"state":"active","ping":55},{"user_id":63,"name":"Rockaedward","steam_id":76561198172090530,"connected_time":681000000000,"state":"active","ping":59},{"user_id":56,"name":"tacofever","steam_id":76561198010966507,"connected_time":873000000000,"state":"active","ping":47},{"user_id":72,"name":"Huntpk","steam_id":76561198340591674,"connected_time":53000000000,"state":"active","ping":91},{"user_id":18,"name":"BrightOrangeMango","steam_id":76561198023144607,"connected_time":3957000000000,"state":"active","ping":59},{"user_id":71,"name":"Zobozo","steam_id":76561198028954297,"connected_time":215000000000,"state":"active","ping":45},{"user_id":61,"name":"VampWolfDoll (She/Her)","steam_id":76561198102301491,"connected_time":701000000000,"state":"active","ping":113},{"user_id":32,"name":"‚åûpizzaguy‚åù","steam_id":76561197963710485,"connected_time":2417000000000,"state":"active","ping":85},{"user_id":65,"name":"Xenophile","steam_id":76561198044772435,"connected_time":554000000000,"state":"active","ping":45},{"user_id":46,"name":"Kung fu Mungus","steam_id":76561198069281556,"connected_time":1961000000000,"state":"active","ping":86},{"user_id":37,"name":"d4ngerd4n","steam_id":76561198043758735,"connected_time":2141000000000,"state":"active","ping":62},{"user_id":59,"name":"CyMeryy/TTV","steam_id":76561197984986540,"connected_time":718000000000,"state":"active","ping":90},{"user_id":39,"name":"Imitation Caucasian","steam_id":76561198320536166,"connected_time":2132000000000,"state":"active","ping":66},{"user_id":40,"name":"WesyUWU (The mini crit pig)","steam_id":76561198069188177,"connected_time":2115000000000,"state":"active","ping":76},{"user_id":41,"name":"HUMBY","steam_id":76561198065045867,"connected_time":2107000000000,"state":"active","ping":90},{"user_id":60,"name":"pandoRA","steam_id":76561198075490385,"connected_time":718000000000,"state":"active","ping":44},{"user_id":52,"name":"neer","steam_id":76561198044130354,"connected_time":1624000000000,"state":"active","ping":40},{"user_id":62,"name":"Sidequest NPC","steam_id":76561198817048682,"connected_time":695000000000,"state":"active","ping":44}]},{"server_id":25,"name":"Uncletopia | Los Angeles | 4 | Stopwatch Beta","name_short":"lax-4","host":"lax-1.us.uncletopia.com","port":27045,"enabled":true,"region":"us-west","cc":"us","latitude":33.94279,"longitude":-118.41004,"reserved":0,"last_update":"0001-01-01T00:00:00Z","name_a2s":"Uncletopia | Los Angeles | 4 | Stopwatch Beta","protocol":17,"map":"koth_lakeside_final","folder":"tf","game":"Team Fortress","app_id":440,"player_count":0,"max_players":24,"Bots":0,"server_type":"Dedicated","server_os":"Linux","password":true,"vac":true,"version":"7882260","steam_id":85568392924510199,"keywords":["cp","nocrits","nodmgspread","uncletopia"],"game_id":440,"stv_port":27046,"stv_name":"Uncletopia | Los Angeles | 4 | Stopwatch Beta | STV","players":null},{"server_id":11,"name":"Uncletopia | London | 1 | All Maps","name_short":"lon-1","host":"lon-1.uk.uncletopia.com","port":27015,"enabled":true,"region":"eu","cc":"gb","latitude":51.509865,"longitude":-0.118092,"reserved":0,"last_update":"0001-01-01T00:00:00Z","name_a2s":"Uncletopia | London | 1 | All Maps","protocol":17,"map":"pl_borneo","folder":"tf","game":"Team Fortress","app_id":440,"player_count":24,"max_players":24,"Bots":0,"server_type":"Dedicated","server_os":"Linux","password":true,"vac":true,"version":"7882260","steam_id":85568392924367362,"keywords":["nocrits","nodmgspread","payload","uncletopia"],"game_id":440,"stv_port":27016,"stv_name":"Uncletopia | London | 1 | All Maps | STV","players":[{"user_id":649,"name":"Aroo","steam_id":76561198132601368,"connected_time":1550000000000,"state":"active","ping":77},{"user_id":638,"name":"Jam","steam_id":76561198090409013,"connected_time":1911000000000,"state":"active","ping":88},{"user_id":651,"name":"anti","steam_id":76561198313440475,"connected_time":1514000000000,"state":"active","ping":92},{"user_id":666,"name":"Meddler","steam_id":76561198033001402,"connected_time":30000000000,"state":"active","ping":46},{"user_id":634,"name":"Mirage","steam_id":76561199013190566,"connected_time":2100000000000,"state":"active","ping":50},{"user_id":648,"name":"JohkupohkuXD","steam_id":76561198391108762,"connected_time":1601000000000,"state":"active","ping":94},{"user_id":652,"name":"Mr.Schnittlauch","steam_id":76561198295868113,"connected_time":1490000000000,"state":"active","ping":72},{"user_id":620,"name":"unconditional love","steam_id":76561199026097466,"connected_time":2889000000000,"state":"active","ping":73},{"user_id":667,"name":"WHUSSKEY","steam_id":76561198137827441,"connected_time":9000000000,"state":"spawning","ping":68},{"user_id":640,"name":"dripstein","steam_id":76561198059598696,"connected_time":1781000000000,"state":"active","ping":68},{"user_id":657,"name":"„ÉÜ„Ç§„É´„Çπ","steam_id":76561198022403271,"connected_time":1442000000000,"state":"active","ping":50},{"user_id":662,"name":"walking plane","steam_id":76561198146779559,"connected_time":437000000000,"state":"active","ping":90},{"user_id":659,"name":"boofing prozac","steam_id":76561198851157897,"connected_time":999000000000,"state":"active","ping":63},{"user_id":661,"name":"hardway","steam_id":76561198272529254,"connected_time":440000000000,"state":"active","ping":60},{"user_id":653,"name":"Medeaz","steam_id":76561197984426403,"connected_time":1478000000000,"state":"active","ping":39},{"user_id":658,"name":"| UwU |","steam_id":76561199169607968,"connected_time":1261000000000,"state":"active","ping":51},{"user_id":665,"name":"Providence","steam_id":76561198003920270,"connected_time":298000000000,"state":"active","ping":78},{"user_id":630,"name":"Laxslow","steam_id":76561198065361846,"connected_time":2319000000000,"state":"active","ping":64},{"user_id":663,"name":"gfjhsdf","steam_id":76561198136736426,"connected_time":393000000000,"state":"active","ping":73},{"user_id":642,"name":"quentu-","steam_id":76561198087457220,"connected_time":1764000000000,"state":"active","ping":80},{"user_id":656,"name":"Thors","steam_id":76561197968739075,"connected_time":1452000000000,"state":"active","ping":42},{"user_id":664,"name":"live t.tv/imflavo","steam_id":76561198336661918,"connected_time":367000000000,"state":"active","ping":56},{"user_id":647,"name":"TheGrayGamer","steam_id":76561198862727465,"connected_time":1714000000000,"state":"active","ping":58}]},{"server_id":114,"name":"Uncletopia | London | 2 | All Maps","name_short":"lon-2","host":"lon-1.uk.uncletopia.com","port":27025,"enabled":true,"region":"eu","cc":"gb","latitude":51.509865,"longitude":-0.118092,"reserved":0,"last_update":"0001-01-01T00:00:00Z","name_a2s":"Uncletopia | London | 2 | All Maps","protocol":17,"map":"pl_borneo","folder":"tf","game":"Team Fortress","app_id":440,"player_count":23,"max_players":24,"Bots":0,"server_type":"Dedicated","server_os":"Linux","password":true,"vac":true,"version":"7882260","steam_id":85568392924470941,"keywords":["nocrits","nodmgspread","payload","uncletopia"],"game_id":440,"stv_port":27026,"stv_name":"Uncletopia | London | 2 | All Maps | STV","players":[{"user_id":527,"name":"Acey","steam_id":76561198114457284,"connected_time":119000000000,"state":"active","ping":78},{"user_id":495,"name":"Borat","steam_id":76561198122226417,"connected_time":3034000000000,"state":"active","ping":38},{"user_id":477,"name":"MaRo","steam_id":76561198992286676,"connected_time":3681000000000,"state":"active","ping":59},{"user_id":523,"name":"Milosz52","steam_id":76561199060940204,"connected_time":745000000000,"state":"active","ping":90},{"user_id":512,"name":"Dope","steam_id":76561198318858892,"connected_time":1276000000000,"state":"active","ping":65},{"user_id":522,"name":"Zizman","steam_id":76561198446562910,"connected_time":812000000000,"state":"active","ping":139},{"user_id":505,"name":"DrExplosive 30fps gaming","steam_id":76561198063678579,"connected_time":2596000000000,"state":"active","ping":48},{"user_id":529,"name":"quickfast","steam_id":76561199438900919,"connected_time":22000000000,"state":"active","ping":45},{"user_id":530,"name":"Rizz","steam_id":76561198192135953,"connected_time":7000000000,"state":"active","ping":139},{"user_id":508,"name":"mkwii","steam_id":76561198062507768,"connected_time":2267000000000,"state":"active","ping":65},{"user_id":517,"name":"After8","steam_id":76561198090750865,"connected_time":904000000000,"state":"active","ping":71},{"user_id":519,"name":"SlowKeKS","steam_id":76561199030279091,"connected_time":881000000000,"state":"active","ping":97},{"user_id":503,"name":"Wardruna96","steam_id":76561199057083828,"connected_time":2743000000000,"state":"active","ping":75},{"user_id":507,"name":"Ludwig","steam_id":76561198148359093,"connected_time":2343000000000,"state":"active","ping":42},{"user_id":526,"name":"Crackbean","steam_id":76561199115082856,"connected_time":625000000000,"state":"active","ping":93},{"user_id":461,"name":"Rappin' Sebastian","steam_id":76561198453928256,"connected_time":4274000000000,"state":"active","ping":60},{"user_id":489,"name":"veke","steam_id":76561198888816007,"connected_time":3423000000000,"state":"active","ping":87},{"user_id":445,"name":"British Disapproval","steam_id":76561198001375260,"connected_time":5034000000000,"state":"active","ping":57},{"user_id":509,"name":"Valgon","steam_id":76561197999163871,"connected_time":2159000000000,"state":"active","ping":42},{"user_id":520,"name":"fredu","steam_id":76561198107605938,"connected_time":857000000000,"state":"active","ping":98},{"user_id":443,"name":"Flal","steam_id":76561198453819816,"connected_time":5153000000000,"state":"active","ping":70},{"user_id":514,"name":"Thing","steam_id":76561197997904403,"connected_time":1238000000000,"state":"active","ping":103},{"user_id":475,"name":"Cinek","steam_id":76561198146494944,"connected_time":3747000000000,"state":"active","ping":87}]},{"server_id":320,"name":"Uncletopia | London | 3 | All Maps","name_short":"lon-3","host":"lon-1.uk.uncletopia.com","port":27035,"enabled":true,"region":"eu","cc":"gb","latitude":51.509865,"longitude":-0.118092,"reserved":0,"last_update":"0001-01-01T00:00:00Z","name_a2s":"Uncletopia | London | 3 | All Maps","protocol":17,"map":"cp_altitude","folder":"tf","game":"Team Fortress","app_id":440,"player_count":15,"max_players":24,"Bots":0,"server_type":"Dedicated","server_os":"Linux","password":true,"vac":true,"version":"7882260","steam_id":85568392924510192,"keywords":["cp","nocrits","nodmgspread","uncletopia"],"game_id":440,"stv_port":27036,"stv_name":"Uncletopia | London | 3 | All Maps | STV","players":[{"user_id":428,"name":"B52 stealth bomber","steam_id":76561198878274997,"connected_time":2497000000000,"state":"active","ping":184},{"user_id":448,"name":"nop 21","steam_id":76561198331641220,"connected_time":258000000000,"state":"spawning","ping":32},{"user_id":430,"name":"piss man (real)","steam_id":76561198839843428,"connected_time":1792000000000,"state":"spawning","ping":125},{"user_id":432,"name":"ran is running","steam_id":76561199443185667,"connected_time":1677000000000,"state":"active","ping":122},{"user_id":433,"name":"63756d","steam_id":76561198808699024,"connected_time":1571000000000,"state":"active","ping":71},{"user_id":436,"name":"Spich","steam_id":76561199017245962,"connected_time":1132000000000,"state":"active","ping":90},{"user_id":437,"name":"Szeregowy LowiRyb","steam_id":76561198855967762,"connected_time":986000000000,"state":"active","ping":132},{"user_id":439,"name":"Weeb exterminator","steam_id":76561198078964973,"connected_time":668000000000,"state":"active","ping":67},{"user_id":440,"name":"Ray Lilith","steam_id":76561198133946866,"connected_time":585000000000,"state":"active","ping":76},{"user_id":441,"name":"Mabert","steam_id":76561198436058407,"connected_time":560000000000,"state":"active","ping":148},{"user_id":449,"name":"kel584","steam_id":76561199484115378,"connected_time":165000000000,"state":"active","ping":75},{"user_id":450,"name":"erectile dysfunction","steam_id":76561198187770103,"connected_time":129000000000,"state":"active","ping":104},{"user_id":445,"name":"Mr.Cupcake","steam_id":76561198152711174,"connected_time":392000000000,"state":"spawning","ping":72},{"user_id":446,"name":"Cataleptic","steam_id":76561197997966949,"connected_time":363000000000,"state":"active","ping":102},{"user_id":451,"name":"Spirwer","steam_id":76561198128951479,"connected_time":119000000000,"state":"active","ping":154}]},{"server_id":321,"name":"Uncletopia | London | 4 | All Maps","name_short":"lon-4","host":"lon-1.uk.uncletopia.com","port":27045,"enabled":true,"region":"eu","cc":"gb","latitude":51.509865,"longitude":-0.118092,"reserved":0,"last_update":"0001-01-01T00:00:00Z","name_a2s":"Uncletopia | London | 4 | All Maps","protocol":17,"map":"pl_frontier_final","folder":"tf","game":"Team Fortress","app_id":440,"player_count":0,"max_players":24,"Bots":0,"server_type":"Dedicated","server_os":"Linux","password":true,"vac":true,"version":"7882260","steam_id":85568392924510193,"keywords":["nocrits","nodmgspread","payload","uncletopia"],"game_id":440,"stv_port":27046,"stv_name":"Uncletopia | London | 4 | All Maps | STV","players":null},{"server_id":21,"name":"Uncletopia | London | 5 | All Maps","name_short":"lon-5","host":"lon-1.uk.uncletopia.com","port":27055,"enabled":true,"region":"eu","cc":"gb","latitude":51.509865,"longitude":-0.118092,"reserved":0,"last_update":"0001-01-01T00:00:00Z","name_a2s":"Uncletopia | London | 5 | All Maps","protocol":17,"map":"pl_frontier_final","folder":"tf","game":"Team Fortress","app_id":440,"player_count":17,"max_players":24,"Bots":0,"server_type":"Dedicated","server_os":"Linux","password":true,"vac":true,"version":"7882260","steam_id":85568392924742829,"keywords":["nocrits","nodmgspread","payload","uncletopia"],"game_id":440,"stv_port":27056,"stv_name":"Uncletopia | London | 5 | All Maps | STV","players":[{"user_id":322,"name":"The sex of men","steam_id":76561198819871606,"connected_time":4444000000000,"state":"active","ping":104},{"user_id":385,"name":"Mr. Enjoy da money","steam_id":76561198152681460,"connected_time":659000000000,"state":"active","ping":74},{"user_id":365,"name":"socaramel","steam_id":76561197984480336,"connected_time":2453000000000,"state":"active","ping":91},{"user_id":359,"name":"Neco-arc Astolfo","steam_id":76561198989682540,"connected_time":3015000000000,"state":"active","ping":53},{"user_id":383,"name":"TheWerelizard","steam_id":76561198060638325,"connected_time":727000000000,"state":"active","ping":49},{"user_id":378,"name":"kreeekz","steam_id":76561198014431602,"connected_time":1251000000000,"state":"active","ping":83},{"user_id":386,"name":"pyromaniac","steam_id":76561198292781255,"connected_time":633000000000,"state":"active","ping":76},{"user_id":369,"name":"Wdfrodo","steam_id":76561198985647263,"connected_time":1939000000000,"state":"active","ping":54},{"user_id":395,"name":"Sambucone Molinari","steam_id":76561199105854514,"connected_time":276000000000,"state":"active","ping":68},{"user_id":375,"name":"VolcanicArts","steam_id":76561198063453246,"connected_time":1701000000000,"state":"active","ping":58},{"user_id":380,"name":"KubachaCZ","steam_id":76561198209972968,"connected_time":1113000000000,"state":"active","ping":66},{"user_id":300,"name":"Mr.Duck","steam_id":76561197983710667,"connected_time":6039000000000,"state":"active","ping":86},{"user_id":372,"name":"Wanker","steam_id":76561198017519697,"connected_time":1907000000000,"state":"active","ping":74},{"user_id":390,"name":"=flashpoint=","steam_id":76561197976774456,"connected_time":531000000000,"state":"active","ping":42},{"user_id":392,"name":"svantezch","steam_id":76561198373831657,"connected_time":516000000000,"state":"active","ping":91},{"user_id":354,"name":"Urfangonultasadana","steam_id":76561199389286151,"connected_time":3211000000000,"state":"active","ping":98},{"user_id":343,"name":"Ozald","steam_id":76561199092019322,"connected_time":3819000000000,"state":"active","ping":139}]},{"server_id":22,"name":"Uncletopia | London | 6 | All Maps","name_short":"lon-6","host":"lon-1.uk.uncletopia.com","port":27065,"enabled":true,"region":"eu","cc":"gb","latitude":51.509865,"longitude":-0.118092,"reserved":0,"last_update":"0001-01-01T00:00:00Z","name_a2s":"Uncletopia | London | 6 | All Maps","protocol":17,"map":"pl_goldrush","folder":"tf","game":"Team Fortress","app_id":440,"player_count":23,"max_players":24,"Bots":0,"server_type":"Dedicated","server_os":"Linux","password":true,"vac":true,"version":"7882260","steam_id":85568392924742830,"keywords":["nocrits","nodmgspread","payload","uncletopia"],"game_id":440,"stv_port":27066,"stv_name":"Uncletopia | London | 6 | All Maps | STV","players":[{"user_id":647,"name":"The Appleguy","steam_id":76561198444982569,"connected_time":2683000000000,"state":"active","ping":83},{"user_id":670,"name":"Jackie Chan","steam_id":76561199378865926,"connected_time":87000000000,"state":"active","ping":89},{"user_id":656,"name":"Benny Harvey RIP","steam_id":76561198386373871,"connected_time":822000000000,"state":"active","ping":63},{"user_id":660,"name":"schorschili.bauer","steam_id":76561198060422037,"connected_time":695000000000,"state":"active","ping":68},{"user_id":658,"name":"ztrs6","steam_id":76561198314853803,"connected_time":706000000000,"state":"active","ping":98},{"user_id":608,"name":"taterwaffles","steam_id":76561198034968060,"connected_time":5288000000000,"state":"active","ping":128},{"user_id":653,"name":"Rat King","steam_id":76561198256783599,"connected_time":2248000000000,"state":"active","ping":54},{"user_id":673,"name":"The Serious One","steam_id":76561198011357450,"connected_time":12000000000,"state":"spawning","ping":80},{"user_id":671,"name":"I Can Look Into Your Thoughts","steam_id":76561198027033926,"connected_time":61000000000,"state":"active","ping":51},{"user_id":662,"name":"Mommy O.","steam_id":76561198122933193,"connected_time":688000000000,"state":"active","ping":88},{"user_id":592,"name":"Komorebi","steam_id":76561198207157679,"connected_time":6464000000000,"state":"active","ping":61},{"user_id":620,"name":"Marmac","steam_id":76561198120033210,"connected_time":4616000000000,"state":"active","ping":76},{"user_id":664,"name":"Yeets3er","steam_id":76561199137127757,"connected_time":537000000000,"state":"active","ping":58},{"user_id":659,"name":"literallyjasonx","steam_id":76561198835895387,"connected_time":704000000000,"state":"active","ping":62},{"user_id":663,"name":"I am the one who donks","steam_id":76561198419583460,"connected_time":664000000000,"state":"active","ping":63},{"user_id":654,"name":"++Old_M@N++","steam_id":76561197994792094,"connected_time":1722000000000,"state":"active","ping":80},{"user_id":672,"name":"ChefBev","steam_id":76561198189448113,"connected_time":22000000000,"state":"active","ping":119},{"user_id":628,"name":"gebycoks","steam_id":76561199259198472,"connected_time":4309000000000,"state":"active","ping":82},{"user_id":617,"name":"DelaNo","steam_id":76561199125086655,"connected_time":5067000000000,"state":"active","ping":42},{"user_id":600,"name":"Mr_Pulse_","steam_id":76561198095001602,"connected_time":5890000000000,"state":"active","ping":105},{"user_id":668,"name":"Saucy Jack","steam_id":76561198894525288,"connected_time":316000000000,"state":"active","ping":48},{"user_id":642,"name":"dilpil","steam_id":76561199125789943,"connected_time":3345000000000,"state":"active","ping":62},{"user_id":629,"name":"Tea","steam_id":76561198799243030,"connected_time":4255000000000,"state":"active","ping":63}]},{"server_id":40,"name":"Uncletopia | London | 7 | No Payload","name_short":"lon-7","host":"lon-1.uk.uncletopia.com","port":27075,"enabled":true,"region":"eu","cc":"gb","latitude":51.509865,"longitude":-0.118092,"reserved":0,"last_update":"0001-01-01T00:00:00Z","name_a2s":"Uncletopia | London | 7 | No Payload","protocol":17,"map":"koth_lakeside_final","folder":"tf","game":"Team Fortress","app_id":440,"player_count":12,"max_players":24,"Bots":0,"server_type":"Dedicated","server_os":"Linux","password":true,"vac":true,"version":"7882260","steam_id":85568392924964314,"keywords":["cp","nocrits","nodmgspread","uncletopia"],"game_id":440,"stv_port":27076,"stv_name":"Uncletopia | London | 7 | No Payload | STV","players":[{"user_id":651,"name":"A55lick3rd1ckfac3","steam_id":76561198843668698,"connected_time":608000000000,"state":"active","ping":58},{"user_id":640,"name":"Same mouse still shit","steam_id":76561198125649544,"connected_time":887000000000,"state":"active","ping":48},{"user_id":654,"name":"FliturbiousRex","steam_id":76561199217583334,"connected_time":53000000000,"state":"active","ping":147},{"user_id":647,"name":"audiofall","steam_id":76561198208814216,"connected_time":766000000000,"state":"active","ping":48},{"user_id":644,"name":"Space","steam_id":76561198021572167,"connected_time":827000000000,"state":"active","ping":44},{"user_id":641,"name":"Benpl","steam_id":76561198084890757,"connected_time":855000000000,"state":"active","ping":53},{"user_id":646,"name":"enjoyer of men","steam_id":76561198358728442,"connected_time":805000000000,"state":"active","ping":65},{"user_id":649,"name":"GOD DAMNIT","steam_id":76561198061039574,"connected_time":673000000000,"state":"active","ping":69},{"user_id":650,"name":"Bilbo Ballbaggins","steam_id":76561198070593514,"connected_time":668000000000,"state":"active","ping":45},{"user_id":653,"name":"P I S S","steam_id":76561199197497757,"connected_time":553000000000,"state":"active","ping":126},{"user_id":616,"name":"M2rtRa","steam_id":76561198111036466,"connected_time":2655000000000,"state":"active","ping":72},{"user_id":631,"name":"dobrapozitiva","steam_id":76561198023258411,"connected_time":1618000000000,"state":"active","ping":110}]},{"server_id":41,"name":"Uncletopia | London | 8 | Community","name_short":"lon-8","host":"lon-1.uk.uncletopia.com","port":27085,"enabled":true,"region":"eu","cc":"gb","latitude":51.509865,"longitude":-0.118092,"reserved":0,"last_update":"0001-01-01T00:00:00Z","name_a2s":"Uncletopia | London | 8 | Community","protocol":17,"map":"workshop/cp_croissant_final.ugc458840209","folder":"tf","game":"Team Fortress","app_id":440,"player_count":24,"max_players":24,"Bots":0,"server_type":"Dedicated","server_os":"Linux","password":true,"vac":true,"version":"7882260","steam_id":85568392924964315,"keywords":["cp","nocrits","nodmgspread","uncletopia"],"game_id":440,"stv_port":27086,"stv_name":"Uncletopia | London | 8 | Community | STV","players":[{"user_id":45,"name":"wieto","steam_id":76561198050626427,"connected_time":5501000000000,"state":"active","ping":60},{"user_id":93,"name":"Guzzle Gutz","steam_id":76561197967091131,"connected_time":1012000000000,"state":"active","ping":62},{"user_id":102,"name":"and i'm javert!","steam_id":76561198117033273,"connected_time":687000000000,"state":"active","ping":51},{"user_id":80,"name":"EMESIS BLUE by TF Films enjoyer","steam_id":76561198133834262,"connected_time":2102000000000,"state":"active","ping":152},{"user_id":76,"name":"Akira","steam_id":76561198323636432,"connected_time":2304000000000,"state":"active","ping":61},{"user_id":103,"name":"Ch4bby","steam_id":76561198058792875,"connected_time":564000000000,"state":"active","ping":57},{"user_id":60,"name":"Purps","steam_id":76561198053886680,"connected_time":3245000000000,"state":"active","ping":32},{"user_id":55,"name":"Pan Pan","steam_id":76561199074670515,"connected_time":4088000000000,"state":"active","ping":88},{"user_id":56,"name":"The‚òÜCops","steam_id":76561198146358073,"connected_time":3496000000000,"state":"active","ping":105},{"user_id":57,"name":"funny moments in gaming","steam_id":76561198404802175,"connected_time":3447000000000,"state":"active","ping":134},{"user_id":98,"name":"flr","steam_id":76561198249327786,"connected_time":824000000000,"state":"active","ping":75},{"user_id":90,"name":"wibe","steam_id":76561198002519060,"connected_time":1395000000000,"state":"active","ping":75},{"user_id":99,"name":"vargoozyr","steam_id":76561198010185662,"connected_time":789000000000,"state":"active","ping":118},{"user_id":62,"name":"xd","steam_id":76561198103583326,"connected_time":2980000000000,"state":"active","ping":61},{"user_id":96,"name":"Doctor racism (OFFICIAL)","steam_id":76561199196316280,"connected_time":943000000000,"state":"active","ping":94},{"user_id":66,"name":"Noba","steam_id":76561198171440255,"connected_time":2796000000000,"state":"active","ping":64},{"user_id":92,"name":"[FP] Shiken","steam_id":76561198257905663,"connected_time":1017000000000,"state":"active","ping":66},{"user_id":91,"name":"Willy Barankin","steam_id":76561198089988085,"connected_time":1388000000000,"state":"active","ping":129},{"user_id":69,"name":"Sir.Lucky","steam_id":76561198019470171,"connected_time":2588000000000,"state":"active","ping":60},{"user_id":71,"name":"silicon based life form","steam_id":76561199127121346,"connected_time":2503000000000,"state":"active","ping":58},{"user_id":81,"name":"Dezsni","steam_id":76561198082255928,"connected_time":2069000000000,"state":"active","ping":79},{"user_id":87,"name":"Jugg","steam_id":76561198384417257,"connected_time":1583000000000,"state":"active","ping":61},{"user_id":97,"name":"Spinyapickle","steam_id":76561198086653667,"connected_time":920000000000,"state":"active","ping":64},{"user_id":104,"name":"eepy kitty","steam_id":76561198106313563,"connected_time":539000000000,"state":"active","ping":135}]},{"server_id":300,"name":"Uncletopia | Montr√©al | 1 | All Maps","name_short":"mtl-1","host":"mtl-1.ca.uncletopia.com","port":27015,"enabled":true,"region":"us-east","cc":"ca","latitude":45.50889,"longitude":-73.56167,"reserved":0,"last_update":"0001-01-01T00:00:00Z","name_a2s":"Uncletopia | Montr√©al | 1 | All Maps","protocol":17,"map":"pl_upward","folder":"tf","game":"Team Fortress","app_id":440,"player_count":23,"max_players":24,"Bots":0,"server_type":"Dedicated","server_os":"Linux","password":true,"vac":true,"version":"7882260","steam_id":85568392924500087,"keywords":["nocrits","nodmgspread","payload","uncletopia"],"game_id":440,"stv_port":27016,"stv_name":"Uncletopia | Montr√©al | 1 | All Maps | STV","players":[{"user_id":6,"name":"Tortoise01Swe","steam_id":76561198118673227,"connected_time":5948000000000,"state":"active","ping":159},{"user_id":7,"name":"KOROMARU","steam_id":76561199007431828,"connected_time":5924000000000,"state":"active","ping":184},{"user_id":53,"name":"Dr. Enforcicle (real)","steam_id":76561198964471859,"connected_time":1454000000000,"state":"active","ping":72},{"user_id":19,"name":"WOW i'm dead","steam_id":76561199082267619,"connected_time":4405000000000,"state":"active","ping":165},{"user_id":51,"name":"emseaeye","steam_id":76561198161499803,"connected_time":1965000000000,"state":"active","ping":49},{"user_id":28,"name":"ZerCroix","steam_id":76561198199523226,"connected_time":3787000000000,"state":"active","ping":139},{"user_id":18,"name":"jun.","steam_id":76561198820058199,"connected_time":4578000000000,"state":"active","ping":72},{"user_id":66,"name":"Ripley","steam_id":76561198080766916,"connected_time":557000000000,"state":"active","ping":60},{"user_id":27,"name":"chiswola","steam_id":76561198046920142,"connected_time":3953000000000,"state":"active","ping":87},{"user_id":43,"name":"Your Local NPR Station","steam_id":76561198143830279,"connected_time":2226000000000,"state":"active","ping":60},{"user_id":72,"name":"NoGamePat","steam_id":76561198170196705,"connected_time":149000000000,"state":"active","ping":75},{"user_id":26,"name":"red rosaaAAAH","steam_id":76561198800068699,"connected_time":4087000000000,"state":"active","ping":64},{"user_id":45,"name":"Ginger","steam_id":76561198074381106,"connected_time":2083000000000,"state":"active","ping":65},{"user_id":46,"name":"Five Nights at Walter's","steam_id":76561198328127582,"connected_time":2082000000000,"state":"active","ping":47},{"user_id":58,"name":"Dazzleberry","steam_id":76561198030369150,"connected_time":1126000000000,"state":"active","ping":59},{"user_id":48,"name":"ASSEMBLED UNUSUALLY","steam_id":76561198120331818,"connected_time":2042000000000,"state":"active","ping":64},{"user_id":67,"name":"Spring Beans","steam_id":76561197978546259,"connected_time":524000000000,"state":"active","ping":71},{"user_id":60,"name":"The Bluefin Atlantic Tuna Gamin","steam_id":76561198216089067,"connected_time":1036000000000,"state":"active","ping":133},{"user_id":61,"name":"moonage72","steam_id":76561199187008629,"connected_time":1026000000000,"state":"active","ping":58},{"user_id":62,"name":"Raven Kell","steam_id":76561198164003933,"connected_time":985000000000,"state":"active","ping":132},{"user_id":63,"name":"izzydex","steam_id":76561199101531034,"connected_time":967000000000,"state":"active","ping":79},{"user_id":64,"name":"GardenOfStone","steam_id":76561199069870534,"connected_time":919000000000,"state":"active","ping":110},{"user_id":65,"name":"BANGARANG","steam_id":76561198816597453,"connected_time":919000000000,"state":"active","ping":67}]},{"server_id":301,"name":"Uncletopia | Montr√©al | 2 | All Maps","name_short":"mtl-2","host":"mtl-1.ca.uncletopia.com","port":27025,"enabled":true,"region":"us-east","cc":"ca","latitude":45.50889,"longitude":-73.56167,"reserved":0,"last_update":"0001-01-01T00:00:00Z","name_a2s":"Uncletopia | Montr√©al | 2 | All Maps","protocol":17,"map":"koth_cascade","folder":"tf","game":"Team Fortress","app_id":440,"player_count":0,"max_players":24,"Bots":0,"server_type":"Dedicated","server_os":"Linux","password":true,"vac":true,"version":"7882260","steam_id":85568392924500088,"keywords":["cp","nocrits","nodmgspread","uncletopia"],"game_id":440,"stv_port":27026,"stv_name":"Uncletopia | Montr√©al | 2 | All Maps | STV","players":null},{"server_id":302,"name":"Uncletopia | Montr√©al | 3 | All Maps","name_short":"mtl-3","host":"mtl-1.ca.uncletopia.com","port":27035,"enabled":true,"region":"us-east","cc":"ca","latitude":45.50889,"longitude":-73.56167,"reserved":0,"last_update":"0001-01-01T00:00:00Z","name_a2s":"Uncletopia | Montr√©al | 3 | All Maps","protocol":17,"map":"pl_swiftwater_final1","folder":"tf","game":"Team Fortress","app_id":440,"player_count":0,"max_players":24,"Bots":0,"server_type":"Dedicated","server_os":"Linux","password":true,"vac":true,"version":"7882260","steam_id":85568392924500089,"keywords":["nocrits","nodmgspread","payload","uncletopia"],"game_id":440,"stv_port":27036,"stv_name":"Uncletopia | Montr√©al | 3 | All Maps | STV","players":null},{"server_id":303,"name":"Uncletopia | Montr√©al | 4 | No Payload","name_short":"mtl-4","host":"mtl-1.ca.uncletopia.com","port":27045,"enabled":true,"region":"us-east","cc":"ca","latitude":45.50889,"longitude":-73.56167,"reserved":0,"last_update":"0001-01-01T00:00:00Z","name_a2s":"Uncletopia | Montr√©al | 4 | No Payload","protocol":17,"map":"cp_altitude","folder":"tf","game":"Team Fortress","app_id":440,"player_count":0,"max_players":24,"Bots":0,"server_type":"Dedicated","server_os":"Linux","password":true,"vac":true,"version":"7882260","steam_id":85568392924500090,"keywords":["cp","nocrits","nodmgspread","uncletopia"],"game_id":440,"stv_port":27046,"stv_name":"Uncletopia | Montr√©al | 4 | No Payload | STV","players":null},{"server_id":13,"name":"Uncletopia | New York City | 1 | All Maps","name_short":"nyc-1","host":"nyc-1.us.uncletopia.com","port":27015,"enabled":true,"region":"us-east","cc":"us","latitude":40.73061,"longitude":-73.93524,"reserved":0,"last_update":"0001-01-01T00:00:00Z","name_a2s":"Uncletopia | New York City | 1 | All Maps","protocol":17,"map":"cp_gorge","folder":"tf","game":"Team Fortress","app_id":440,"player_count":22,"max_players":24,"Bots":0,"server_type":"Dedicated","server_os":"Linux","password":true,"vac":true,"version":"7882260","steam_id":85568392924469993,"keywords":["cp","nocrits","nodmgspread","uncletopia"],"game_id":440,"stv_port":27016,"stv_name":"Uncletopia | New York City | 1 | All Maps | STV","players":[{"user_id":412,"name":"you forgot the sauce","steam_id":76561198387016713,"connected_time":2070000000000,"state":"active","ping":58},{"user_id":358,"name":"agert","steam_id":76561199028751406,"connected_time":5199000000000,"state":"active","ping":110},{"user_id":413,"name":"sky_guy","steam_id":76561198058668342,"connected_time":2066000000000,"state":"active","ping":61},{"user_id":401,"name":"Ian","steam_id":76561199078852180,"connected_time":3108000000000,"state":"active","ping":51},{"user_id":375,"name":"Kyzer","steam_id":76561198048034600,"connected_time":4200000000000,"state":"active","ping":74},{"user_id":441,"name":"Bat_guy","steam_id":76561198392839369,"connected_time":375000000000,"state":"active","ping":66},{"user_id":431,"name":"Verschlimmbesserung","steam_id":76561198024991137,"connected_time":499000000000,"state":"active","ping":57},{"user_id":424,"name":"Periculosum PhD in Funny","steam_id":76561198123370914,"connected_time":928000000000,"state":"active","ping":86},{"user_id":435,"name":"Wallet","steam_id":76561198081067377,"connected_time":486000000000,"state":"active","ping":42},{"user_id":398,"name":"tydogzilla","steam_id":76561198054254518,"connected_time":3309000000000,"state":"active","ping":43},{"user_id":442,"name":"Bj√∂rk","steam_id":76561197972682826,"connected_time":319000000000,"state":"active","ping":56},{"user_id":445,"name":"Poi","steam_id":76561198176914898,"connected_time":18000000000,"state":"active","ping":75},{"user_id":425,"name":"Junkan","steam_id":76561198127676420,"connected_time":926000000000,"state":"active","ping":51},{"user_id":426,"name":"FLORAL COMPUTING","steam_id":76561199056492130,"connected_time":924000000000,"state":"active","ping":47},{"user_id":418,"name":"scarecrow (evil)","steam_id":76561198082979347,"connected_time":1763000000000,"state":"active","ping":56},{"user_id":430,"name":"Maddog#savetf2","steam_id":76561198148783614,"connected_time":526000000000,"state":"active","ping":66},{"user_id":362,"name":"water bottle","steam_id":76561198096860013,"connected_time":4920000000000,"state":"active","ping":42},{"user_id":440,"name":"the quest","steam_id":76561198236343140,"connected_time":437000000000,"state":"active","ping":67},{"user_id":444,"name":"PenguinJack","steam_id":76561198120680312,"connected_time":41000000000,"state":"active","ping":119},{"user_id":443,"name":"Kirbs","steam_id":76561198970654800,"connected_time":242000000000,"state":"active","ping":44},{"user_id":397,"name":"the relayer","steam_id":76561198089430717,"connected_time":3574000000000,"state":"active","ping":90},{"user_id":433,"name":"seljum","steam_id":76561198188021354,"connected_time":498000000000,"state":"active","ping":45}]},{"server_id":14,"name":"Uncletopia | New York City | 2 | All Maps","name_short":"nyc-2","host":"nyc-1.us.uncletopia.com","port":27025,"enabled":true,"region":"us-east","cc":"us","latitude":40.73061,"longitude":-73.93524,"reserved":0,"last_update":"0001-01-01T00:00:00Z","name_a2s":"Uncletopia | New York City | 2 | All Maps","protocol":17,"map":"koth_viaduct","folder":"tf","game":"Team Fortress","app_id":440,"player_count":16,"max_players":24,"Bots":0,"server_type":"Dedicated","server_os":"Linux","password":true,"vac":true,"version":"7882260","steam_id":85568392924469994,"keywords":["cp","nocrits","nodmgspread","uncletopia"],"game_id":440,"stv_port":27026,"stv_name":"Uncletopia | New York City | 2 | All Maps | STV","players":[{"user_id":34,"name":"get me out of detroit","steam_id":76561198961456618,"connected_time":1947000000000,"state":"active","ping":55},{"user_id":58,"name":"PinguEnjoyer6","steam_id":76561199186723516,"connected_time":45000000000,"state":"active","ping":104},{"user_id":38,"name":"linkin park fan","steam_id":76561198070380404,"connected_time":856000000000,"state":"active","ping":45},{"user_id":57,"name":"Mooksie","steam_id":76561198073074064,"connected_time":93000000000,"state":"active","ping":75},{"user_id":59,"name":"Pizza the Hut","steam_id":76561197970450546,"connected_time":27000000000,"state":"active","ping":119},{"user_id":41,"name":"dishsoap","steam_id":76561198849284832,"connected_time":669000000000,"state":"active","ping":125},{"user_id":42,"name":"erf","steam_id":76561198078203677,"connected_time":653000000000,"state":"active","ping":53},{"user_id":52,"name":"Chaotic Rushu","steam_id":76561198170054407,"connected_time":242000000000,"state":"connecting","ping":73},{"user_id":44,"name":"sauce","steam_id":76561198068430673,"connected_time":528000000000,"state":"active","ping":58},{"user_id":46,"name":"Mr. Call You Back","steam_id":76561198025172811,"connected_time":469000000000,"state":"active","ping":39},{"user_id":47,"name":"SkyOnPC","steam_id":76561198077900044,"connected_time":456000000000,"state":"active","ping":42},{"user_id":49,"name":"Maryam","steam_id":76561198128969186,"connected_time":412000000000,"state":"active","ping":46},{"user_id":50,"name":"Cluckimus Prime","steam_id":76561198051346739,"connected_time":403000000000,"state":"active","ping":80},{"user_id":51,"name":"Pepsiman","steam_id":76561198436946165,"connected_time":399000000000,"state":"active","ping":72},{"user_id":54,"name":"Spectrilis","steam_id":76561198816047324,"connected_time":157000000000,"state":"active","ping":79},{"user_id":55,"name":"ÔΩ°‚óï‚Äø‚óïÔΩ°","steam_id":76561198294013916,"connected_time":155000000000,"state":"active","ping":44}]},{"server_id":15,"name":"Uncletopia | New York City | 3 | Stopwatch Beta","name_short":"nyc-3","host":"nyc-1.us.uncletopia.com","port":27035,"enabled":true,"region":"us-east","cc":"us","latitude":40.73061,"longitude":-73.93524,"reserved":0,"last_update":"0001-01-01T00:00:00Z","name_a2s":"Uncletopia | New York City | 3 | Stopwatch Beta","protocol":17,"map":"cp_metalworks","folder":"tf","game":"Team Fortress","app_id":440,"player_count":0,"max_players":24,"Bots":0,"server_type":"Dedicated","server_os":"Linux","password":true,"vac":true,"version":"7882260","steam_id":85568392924742820,"keywords":["cp","nocrits","nodmgspread","uncletopia"],"game_id":440,"stv_port":27036,"stv_name":"Uncletopia | New York City | 3 | Stopwatch Beta | STV","players":null},{"server_id":16,"name":"Uncletopia | New York City | 4 | Community","name_short":"nyc-4","host":"nyc-1.us.uncletopia.com","port":27045,"enabled":true,"region":"us-east","cc":"us","latitude":40.73061,"longitude":-73.93524,"reserved":0,"last_update":"0001-01-01T00:00:00Z","name_a2s":"Uncletopia | New York City | 4 | Community","protocol":17,"map":"workshop/koth_product_final.ugc454272353","folder":"tf","game":"Team Fortress","app_id":440,"player_count":0,"max_players":24,"Bots":0,"server_type":"Dedicated","server_os":"Linux","password":true,"vac":true,"version":"7882260","steam_id":85568392924742821,"keywords":["cp","nocrits","nodmgspread","uncletopia"],"game_id":440,"stv_port":27046,"stv_name":"Uncletopia | New York City | 4 | Community | STV","players":null},{"server_id":142,"name":"Uncletopia | S√£o Paulo | 1 | All Maps","name_short":"sao-1","host":"sao-1.br.uncletopia.com","port":27015,"enabled":true,"region":"sa","cc":"br","latitude":-23.533773,"longitude":-46.62529,"reserved":0,"last_update":"0001-01-01T00:00:00Z","name_a2s":"Uncletopia | S√£o Paulo | 1 | All Maps","protocol":17,"map":"pl_frontier_final","folder":"tf","game":"Team Fortress","app_id":440,"player_count":0,"max_players":24,"Bots":0,"server_type":"Dedicated","server_os":"Linux","password":true,"vac":true,"version":"7882260","steam_id":85568392924469996,"keywords":["nocrits","nodmgspread","payload","uncletopia"],"game_id":440,"stv_port":27016,"stv_name":"Uncletopia | S√£o Paulo | 1 | All Maps | STV","players":null},{"server_id":143,"name":"Uncletopia | S√£o Paulo | 2 | All Maps","name_short":"sao-2","host":"sao-2.br.uncletopia.com","port":27015,"enabled":true,"region":"sa","cc":"br","latitude":-23.533773,"longitude":-46.62529,"reserved":0,"last_update":"0001-01-01T00:00:00Z","name_a2s":"Uncletopia | S√£o Paulo | 2 | All Maps","protocol":17,"map":"koth_highpass","folder":"tf","game":"Team Fortress","app_id":440,"player_count":23,"max_players":24,"Bots":0,"server_type":"Dedicated","server_os":"Linux","password":true,"vac":true,"version":"7882260","steam_id":85568392924485349,"keywords":["cp","nocrits","nodmgspread","uncletopia"],"game_id":440,"stv_port":27016,"stv_name":"Uncletopia | S√£o Paulo | 2 | All Maps | STV","players":[{"user_id":120,"name":"flamingo","steam_id":76561198854099251,"connected_time":2839000000000,"state":"active","ping":80},{"user_id":149,"name":"lk","steam_id":76561198055176612,"connected_time":1629000000000,"state":"active","ping":62},{"user_id":170,"name":"Daisy Le Nerd","steam_id":76561198149350087,"connected_time":297000000000,"state":"active","ping":39},{"user_id":157,"name":"jr_","steam_id":76561198313937899,"connected_time":1315000000000,"state":"active","ping":76},{"user_id":138,"name":"vacaloca25","steam_id":76561198082683352,"connected_time":1931000000000,"state":"active","ping":60},{"user_id":158,"name":"simonjohna646","steam_id":76561199403481880,"connected_time":1002000000000,"state":"active","ping":183},{"user_id":175,"name":"[CWB] junior75hz","steam_id":76561198259077410,"connected_time":120000000000,"state":"active","ping":47},{"user_id":160,"name":"victourino (F2P)","steam_id":76561199058995595,"connected_time":940000000000,"state":"active","ping":80},{"user_id":21,"name":"eDot","steam_id":76561199076298530,"connected_time":9554000000000,"state":"active","ping":52},{"user_id":142,"name":"anaheisenberg","steam_id":76561198304847307,"connected_time":1905000000000,"state":"active","ping":59},{"user_id":88,"name":"Brawmario","steam_id":76561198025313430,"connected_time":5179000000000,"state":"active","ping":40},{"user_id":121,"name":".fnord","steam_id":76561198119754613,"connected_time":2783000000000,"state":"active","ping":47},{"user_id":156,"name":"RenStar","steam_id":76561198064561176,"connected_time":1365000000000,"state":"active","ping":50},{"user_id":161,"name":"HeadShotGamerBR","steam_id":76561198116856702,"connected_time":898000000000,"state":"active","ping":69},{"user_id":162,"name":"Joacum","steam_id":76561198130605832,"connected_time":725000000000,"state":"active","ping":76},{"user_id":122,"name":"Aust","steam_id":76561198067966650,"connected_time":2499000000000,"state":"active","ping":50},{"user_id":110,"name":"RafaelMRC","steam_id":76561198403003580,"connected_time":3540000000000,"state":"active","ping":41},{"user_id":119,"name":"El Guas√≥n","steam_id":76561198129640271,"connected_time":2864000000000,"state":"active","ping":71},{"user_id":123,"name":"El-niix","steam_id":76561198044253373,"connected_time":2496000000000,"state":"active","ping":104},{"user_id":163,"name":"Ruke","steam_id":76561198284416558,"connected_time":710000000000,"state":"active","ping":132},{"user_id":126,"name":"The heavie is a spy","steam_id":76561199005981558,"connected_time":2444000000000,"state":"active","ping":69},{"user_id":173,"name":"‚òÖÂΩ°Ôº≤Ôº©Ôº£Ôº´ ÂΩ°‚òÖ","steam_id":76561199217456295,"connected_time":168000000000,"state":"active","ping":52},{"user_id":165,"name":"Maik","steam_id":76561199185115295,"connected_time":593000000000,"state":"active","ping":56}]},{"server_id":7,"name":"Uncletopia | Seattle | 1 | All Maps","name_short":"sea-1","host":"sea-1.us.uncletopia.com","port":27015,"enabled":true,"region":"us-west","cc":"us","latitude":47.608013,"longitude":-122.33517,"reserved":0,"last_update":"0001-01-01T00:00:00Z","name_a2s":"Uncletopia | Seattle | 1 | All Maps","protocol":17,"map":"pl_upward","folder":"tf","game":"Team Fortress","app_id":440,"player_count":24,"max_players":24,"Bots":0,"server_type":"Dedicated","server_os":"Linux","password":true,"vac":true,"version":"7882260","steam_id":85568392924469997,"keywords":["nocrits","nodmgspread","payload","uncletopia"],"game_id":440,"stv_port":27016,"stv_name":"Uncletopia | Seattle | 1 | All Maps | STV","players":[{"user_id":258,"name":"Neptune *:ÔΩ•Ôæü‚úß*:ÔΩ•Ôæü","steam_id":76561199054203198,"connected_time":2335000000000,"state":"active","ping":125},{"user_id":254,"name":"Ducks","steam_id":76561198130038345,"connected_time":3187000000000,"state":"active","ping":69},{"user_id":196,"name":"secio5","steam_id":76561198189746963,"connected_time":8652000000000,"state":"active","ping":42},{"user_id":265,"name":"Daz","steam_id":76561198041431938,"connected_time":1911000000000,"state":"active","ping":46},{"user_id":262,"name":"Mega Weeb 0617","steam_id":76561198852600255,"connected_time":2177000000000,"state":"active","ping":93},{"user_id":215,"name":"\u003c3Elise\u003c3","steam_id":76561198146435005,"connected_time":6890000000000,"state":"active","ping":68},{"user_id":228,"name":"Peachy","steam_id":76561198355191810,"connected_time":5224000000000,"state":"active","ping":46},{"user_id":270,"name":"5392vin","steam_id":76561198880493511,"connected_time":1302000000000,"state":"active","ping":62},{"user_id":234,"name":"SolarusD","steam_id":76561198029279861,"connected_time":4832000000000,"state":"active","ping":64},{"user_id":264,"name":"Dr. Eduardo","steam_id":76561198865808161,"connected_time":2138000000000,"state":"active","ping":86},{"user_id":272,"name":"C.A.S.S.I.E (real)","steam_id":76561199040892651,"connected_time":1210000000000,"state":"active","ping":85},{"user_id":246,"name":"Mignyanne :3","steam_id":76561198048754056,"connected_time":4018000000000,"state":"active","ping":58},{"user_id":273,"name":"Solidus Joe","steam_id":76561198452540197,"connected_time":1077000000000,"state":"active","ping":43},{"user_id":255,"name":"forest (italian)","steam_id":76561198157960257,"connected_time":2958000000000,"state":"active","ping":43},{"user_id":252,"name":"rat gets the cheese","steam_id":76561198031234032,"connected_time":3491000000000,"state":"active","ping":98},{"user_id":275,"name":"RainboomCrash","steam_id":76561198065612273,"connected_time":900000000000,"state":"active","ping":46},{"user_id":260,"name":"WACKY JIM","steam_id":76561198961641122,"connected_time":2325000000000,"state":"active","ping":60},{"user_id":224,"name":"HaphazardHazel","steam_id":76561198316812693,"connected_time":5545000000000,"state":"active","ping":137},{"user_id":253,"name":"DanceBunny","steam_id":76561198243610560,"connected_time":3395000000000,"state":"active","ping":77},{"user_id":276,"name":"Wafflemuscle","steam_id":76561198868628982,"connected_time":793000000000,"state":"active","ping":50},{"user_id":256,"name":"Tuba","steam_id":76561198209166329,"connected_time":2884000000000,"state":"active","ping":85},{"user_id":268,"name":"greens beans","steam_id":76561198153611491,"connected_time":1530000000000,"state":"active","ping":34},{"user_id":225,"name":"dust | she/it","steam_id":76561198045218909,"connected_time":5482000000000,"state":"active","ping":41},{"user_id":269,"name":"Rowmaster","steam_id":76561198271659574,"connected_time":1529000000000,"state":"active","ping":80}]},{"server_id":119,"name":"Uncletopia | Seattle | 2 | All Maps","name_short":"sea-2","host":"sea-1.us.uncletopia.com","port":27025,"enabled":true,"region":"us-west","cc":"us","latitude":47.608013,"longitude":-122.33517,"reserved":0,"last_update":"0001-01-01T00:00:00Z","name_a2s":"Uncletopia | Seattle | 2 | All Maps","protocol":17,"map":"pl_swiftwater_final1","folder":"tf","game":"Team Fortress","app_id":440,"player_count":24,"max_players":24,"Bots":0,"server_type":"Dedicated","server_os":"Linux","password":true,"vac":true,"version":"7882260","steam_id":85568392924469998,"keywords":["nocrits","nodmgspread","payload","uncletopia"],"game_id":440,"stv_port":27026,"stv_name":"Uncletopia | Seattle | 2 | All Maps | STV","players":[{"user_id":39,"name":"cassielee13","steam_id":76561198272718759,"connected_time":4467000000000,"state":"active","ping":64},{"user_id":108,"name":"zwz","steam_id":76561197999666480,"connected_time":20000000000,"state":"active","ping":73},{"user_id":98,"name":"The King of Piss World","steam_id":76561198082806956,"connected_time":1204000000000,"state":"active","ping":110},{"user_id":110,"name":"Strikerbolt","steam_id":76561199095622897,"connected_time":3000000000,"state":"spawning","ping":65},{"user_id":24,"name":"Tibetan Pop Star","steam_id":76561198844903984,"connected_time":5400000000000,"state":"active","ping":77},{"user_id":30,"name":"knot quite","steam_id":76561198042913843,"connected_time":4891000000000,"state":"active","ping":49},{"user_id":40,"name":"Bendidy","steam_id":76561198041964300,"connected_time":4348000000000,"state":"active","ping":71},{"user_id":95,"name":"Caspar","steam_id":76561198202378258,"connected_time":1535000000000,"state":"active","ping":45},{"user_id":77,"name":"Upijijis","steam_id":76561198185344153,"connected_time":3101000000000,"state":"active","ping":107},{"user_id":91,"name":"ultraDiViNe","steam_id":76561198109084485,"connected_time":2301000000000,"state":"active","ping":70},{"user_id":97,"name":"gmagnum","steam_id":76561199034260371,"connected_time":1269000000000,"state":"active","ping":87},{"user_id":105,"name":"shoebill bird","steam_id":76561198183266525,"connected_time":677000000000,"state":"active","ping":39},{"user_id":38,"name":"Qas","steam_id":76561198067564482,"connected_time":4474000000000,"state":"active","ping":67},{"user_id":102,"name":"River Rat","steam_id":76561198116383976,"connected_time":768000000000,"state":"active","ping":69},{"user_id":104,"name":"dougrocks421","steam_id":76561198165063918,"connected_time":689000000000,"state":"active","ping":37},{"user_id":109,"name":"DoctorHa","steam_id":76561198044026008,"connected_time":14000000000,"state":"spawning","ping":185},{"user_id":103,"name":"Jack\u0026Coke","steam_id":76561198045199164,"connected_time":703000000000,"state":"active","ping":43},{"user_id":106,"name":"Rhymloh","steam_id":76561198056788413,"connected_time":570000000000,"state":"active","ping":59},{"user_id":66,"name":"Haydob13","steam_id":76561198110378191,"connected_time":3557000000000,"state":"active","ping":46},{"user_id":68,"name":"Training Arc","steam_id":76561198038832034,"connected_time":3479000000000,"state":"active","ping":59},{"user_id":107,"name":"Captain Underbelly","steam_id":76561198811270935,"connected_time":141000000000,"state":"active","ping":71},{"user_id":74,"name":"Noxitril_Enjoyer","steam_id":76561198870649125,"connected_time":3238000000000,"state":"active","ping":77},{"user_id":92,"name":"Cursed Dog","steam_id":76561198090785078,"connected_time":2174000000000,"state":"active","ping":123},{"user_id":100,"name":"ExplosiveGoose","steam_id":76561197971562966,"connected_time":934000000000,"state":"active","ping":81}]},{"server_id":406,"name":"Uncletopia | Seattle | 3 | Stopwatch Beta","name_short":"sea-3","host":"sea-1.us.uncletopia.com","port":27035,"enabled":true,"region":"us-west","cc":"us","latitude":47.608013,"longitude":-122.33517,"reserved":0,"last_update":"0001-01-01T00:00:00Z","name_a2s":"Uncletopia | Seattle | 3 | Stopwatch Beta","protocol":17,"map":"workshop/koth_ramjam_rc1.ugc459778887","folder":"tf","game":"Team Fortress","app_id":440,"player_count":0,"max_players":24,"Bots":0,"server_type":"Dedicated","server_os":"Linux","password":true,"vac":true,"version":"7882260","steam_id":85568392924515217,"keywords":["cp","nocrits","nodmgspread","uncletopia"],"game_id":440,"stv_port":27036,"stv_name":"Uncletopia | Seattle | 3 | Stopwatch Beta | STV","players":null},{"server_id":17,"name":"Uncletopia | San Francisco | 1 | All Maps","name_short":"sfo-1","host":"sfo-1.us.uncletopia.com","port":27015,"enabled":true,"region":"us-west","cc":"us","latitude":37.77397,"longitude":-122.4313,"reserved":0,"last_update":"0001-01-01T00:00:00Z","name_a2s":"Uncletopia | San Francisco | 1 | All Maps","protocol":17,"map":"koth_lakeside_final","folder":"tf","game":"Team Fortress","app_id":440,"player_count":0,"max_players":24,"Bots":0,"server_type":"Dedicated","server_os":"Linux","password":true,"vac":true,"version":"7882260","steam_id":85568392924469999,"keywords":["cp","nocrits","nodmgspread","uncletopia"],"game_id":440,"stv_port":27016,"stv_name":"Uncletopia | San Francisco | 1 | All Maps | STV","players":null},{"server_id":18,"name":"Uncletopia | San Francisco | 2 | All Maps","name_short":"sfo-2","host":"sfo-1.us.uncletopia.com","port":27025,"enabled":true,"region":"us-west","cc":"us","latitude":37.77397,"longitude":-122.4313,"reserved":0,"last_update":"0001-01-01T00:00:00Z","name_a2s":"Uncletopia | San Francisco | 2 | All Maps","protocol":17,"map":"pl_badwater","folder":"tf","game":"Team Fortress","app_id":440,"player_count":0,"max_players":24,"Bots":0,"server_type":"Dedicated","server_os":"Linux","password":true,"vac":true,"version":"7882260","steam_id":85568392924470000,"keywords":["nocrits","nodmgspread","payload","uncletopia"],"game_id":440,"stv_port":27026,"stv_name":"Uncletopia | San Francisco | 2 | All Maps | STV","players":null},{"server_id":19,"name":"Uncletopia | San Francisco | 3 | Stopwatch Beta","name_short":"sfo-3","host":"sfo-1.us.uncletopia.com","port":27035,"enabled":true,"region":"us-west","cc":"us","latitude":37.77397,"longitude":-122.4313,"reserved":0,"last_update":"0001-01-01T00:00:00Z","name_a2s":"Uncletopia | San Francisco | 3 | Stopwatch Beta","protocol":17,"map":"pl_frontier_final","folder":"tf","game":"Team Fortress","app_id":440,"player_count":0,"max_players":24,"Bots":0,"server_type":"Dedicated","server_os":"Linux","password":true,"vac":true,"version":"7882260","steam_id":85568392924742824,"keywords":["nocrits","nodmgspread","payload","uncletopia"],"game_id":440,"stv_port":27036,"stv_name":"Uncletopia | San Francisco | 3 | Stopwatch Beta | STV","players":null},{"server_id":20,"name":"Uncletopia | San Francisco | 4 | Community","name_short":"sfo-4","host":"sfo-1.us.uncletopia.com","port":27045,"enabled":true,"region":"us-west","cc":"us","latitude":37.77397,"longitude":-122.4313,"reserved":0,"last_update":"0001-01-01T00:00:00Z","name_a2s":"Uncletopia | San Francisco | 4 | Community","protocol":17,"map":"workshop/cp_propaganda_b18.ugc1603743849","folder":"tf","game":"Team Fortress","app_id":440,"player_count":0,"max_players":24,"Bots":0,"server_type":"Dedicated","server_os":"Linux","password":true,"vac":true,"version":"7882260","steam_id":85568392924742826,"keywords":["cp","nocrits","nodmgspread","uncletopia"],"game_id":440,"stv_port":27046,"stv_name":"Uncletopia | San Francisco | 4 | Community | STV","players":null},{"server_id":141,"name":"Uncletopia | Sydney | 1 | All Maps","name_short":"syd-1","host":"syd-1.au.uncletopia.com","port":27015,"enabled":true,"region":"au","cc":"au","latitude":-33.865143,"longitude":151.2099,"reserved":0,"last_update":"0001-01-01T00:00:00Z","name_a2s":"Uncletopia | Sydney | 1 | All Maps","protocol":17,"map":"cp_mountainlab","folder":"tf","game":"Team Fortress","app_id":440,"player_count":0,"max_players":24,"Bots":0,"server_type":"Dedicated","server_os":"Linux","password":true,"vac":true,"version":"7882260","steam_id":85568392924470001,"keywords":["cp","nocrits","nodmgspread","uncletopia"],"game_id":440,"stv_port":27016,"stv_name":"Uncletopia | Sydney | 1 | All Maps | STV","players":null},{"server_id":123,"name":"Uncletopia | Sydney | 2 | All Maps","name_short":"syd-2","host":"syd-1.au.uncletopia.com","port":27025,"enabled":true,"region":"au","cc":"au","latitude":-33.865143,"longitude":151.2099,"reserved":0,"last_update":"0001-01-01T00:00:00Z","name_a2s":"Uncletopia | Sydney | 2 | All Maps","protocol":17,"map":"pl_barnblitz","folder":"tf","game":"Team Fortress","app_id":440,"player_count":0,"max_players":24,"Bots":0,"server_type":"Dedicated","server_os":"Linux","password":true,"vac":true,"version":"7882260","steam_id":85568392924470002,"keywords":["nocrits","nodmgspread","payload","uncletopia"],"game_id":440,"stv_port":27026,"stv_name":"Uncletopia | Sydney | 2 | All Maps | STV","players":null},{"server_id":395,"name":"Uncletopia | Sydney | 3 | All Maps","name_short":"syd-3","host":"syd-1.au.uncletopia.com","port":27035,"enabled":true,"region":"au","cc":"au","latitude":-33.865143,"longitude":151.2099,"reserved":0,"last_update":"0001-01-01T00:00:00Z","name_a2s":"Uncletopia | Sydney | 3 | All Maps","protocol":17,"map":"pl_badwater","folder":"tf","game":"Team Fortress","app_id":440,"player_count":0,"max_players":24,"Bots":0,"server_type":"Dedicated","server_os":"Linux","password":true,"vac":true,"version":"7882260","steam_id":85568392925194467,"keywords":["nocrits","nodmgspread","payload","uncletopia"],"game_id":440,"stv_port":27036,"stv_name":"Uncletopia | Sydney | 3 | All Maps | STV","players":null},{"server_id":396,"name":"Uncletopia | Sydney | 4 | All Maps","name_short":"syd-4","host":"syd-1.au.uncletopia.com","port":27045,"enabled":true,"region":"au","cc":"au","latitude":-33.865143,"longitude":151.2099,"reserved":0,"last_update":"0001-01-01T00:00:00Z","name_a2s":"Uncletopia | Sydney | 4 | All Maps","protocol":17,"map":"cp_dustbowl","folder":"tf","game":"Team Fortress","app_id":440,"player_count":0,"max_players":24,"Bots":0,"server_type":"Dedicated","server_os":"Linux","password":true,"vac":true,"version":"7882260","steam_id":85568392925397958,"keywords":["cp","nocrits","nodmgspread","uncletopia"],"game_id":440,"stv_port":27046,"stv_name":"Uncletopia | Sydney | 4 | All Maps | STV","players":null},{"server_id":58,"name":"Uncletopia | Sydney | 5 | Stopwatch Beta","name_short":"syd-5","host":"syd-1.au.uncletopia.com","port":27055,"enabled":true,"region":"au","cc":"au","latitude":-33.865143,"longitude":151.2099,"reserved":0,"last_update":"0001-01-01T00:00:00Z","name_a2s":"Uncletopia | Sydney | 5 | Stopwatch Beta","protocol":17,"map":"cp_snakewater_final1","folder":"tf","game":"Team Fortress","app_id":440,"player_count":0,"max_players":24,"Bots":0,"server_type":"Dedicated","server_os":"Linux","password":true,"vac":true,"version":"7882260","steam_id":85568392925397959,"keywords":["cp","nocrits","nodmgspread","uncletopia"],"game_id":440,"stv_port":27056,"stv_name":"Uncletopia | Sydney | 5 | Stopwatch Beta | STV","players":null},{"server_id":59,"name":"Uncletopia | Sydney | 6 | Community","name_short":"syd-6","host":"syd-1.au.uncletopia.com","port":27065,"enabled":true,"region":"au","cc":"au","latitude":-33.865143,"longitude":151.2099,"reserved":0,"last_update":"0001-01-01T00:00:00Z","name_a2s":"Uncletopia | Sydney | 6 | Community","protocol":17,"map":"pl_snowycoast","folder":"tf","game":"Team Fortress","app_id":440,"player_count":0,"max_players":24,"Bots":0,"server_type":"Dedicated","server_os":"Linux","password":true,"vac":true,"version":"7882260","steam_id":85568392925397960,"keywords":["nocrits","nodmgspread","payload","uncletopia"],"game_id":440,"stv_port":27066,"stv_name":"Uncletopia | Sydney | 6 | Community | STV","players":null},{"server_id":49,"name":"Uncletopia | Warsaw | 1 | All Maps","name_short":"waw-1","host":"waw-1.pl.uncletopia.com","port":27015,"enabled":true,"region":"eu","cc":"pl","latitude":52.2297,"longitude":21.017532,"reserved":0,"last_update":"0001-01-01T00:00:00Z","name_a2s":"","protocol":0,"map":"","folder":"","game":"","app_id":0,"player_count":0,"max_players":0,"Bots":0,"server_type":"","server_os":"","password":false,"vac":false,"version":"","steam_id":0,"keywords":null,"game_id":0,"stv_port":0,"stv_name":"","players":null},{"server_id":50,"name":"Uncletopia | Warsaw | 2 | All Maps","name_short":"waw-2","host":"waw-1.pl.uncletopia.com","port":27025,"enabled":true,"region":"eu","cc":"pl","latitude":52.2297,"longitude":21.017532,"reserved":0,"last_update":"0001-01-01T00:00:00Z","name_a2s":"Uncletopia | Warsaw | 2 | All Maps","protocol":17,"map":"cp_process_final","folder":"tf","game":"Team Fortress","app_id":440,"player_count":0,"max_players":24,"Bots":0,"server_type":"Dedicated","server_os":"Linux","password":true,"vac":true,"version":"7882260","steam_id":85568392925397851,"keywords":["cp","nocrits","nodmgspread","uncletopia"],"game_id":440,"stv_port":27026,"stv_name":"Uncletopia | Warsaw | 2 | All Maps | STV","players":null},{"server_id":51,"name":"Uncletopia | Warsaw | 3 | All Maps","name_short":"waw-3","host":"waw-1.pl.uncletopia.com","port":27035,"enabled":true,"region":"eu","cc":"pl","latitude":52.2297,"longitude":21.017532,"reserved":0,"last_update":"0001-01-01T00:00:00Z","name_a2s":"Uncletopia | Warsaw | 3 | All Maps","protocol":17,"map":"koth_viaduct","folder":"tf","game":"Team Fortress","app_id":440,"player_count":0,"max_players":24,"Bots":0,"server_type":"Dedicated","server_os":"Linux","password":true,"vac":true,"version":"7882260","steam_id":85568392925397852,"keywords":["cp","nocrits","nodmgspread","uncletopia"],"game_id":440,"stv_port":27036,"stv_name":"Uncletopia | Warsaw | 3 | All Maps | STV","players":null},{"server_id":52,"name":"Uncletopia | Warsaw | 4 | All Maps","name_short":"waw-4","host":"waw-1.pl.uncletopia.com","port":27045,"enabled":true,"region":"eu","cc":"pl","latitude":52.2297,"longitude":21.017532,"reserved":0,"last_update":"0001-01-01T00:00:00Z","name_a2s":"Uncletopia | Warsaw | 4 | All Maps","protocol":17,"map":"koth_cascade","folder":"tf","game":"Team Fortress","app_id":440,"player_count":0,"max_players":24,"Bots":0,"server_type":"Dedicated","server_os":"Linux","password":true,"vac":true,"version":"7882260","steam_id":85568392925397853,"keywords":["cp","nocrits","nodmgspread","uncletopia"],"game_id":440,"stv_port":27046,"stv_name":"Uncletopia | Warsaw | 4 | All Maps | STV","players":null},{"server_id":53,"name":"Uncletopia | Warsaw | 5 | Stopwatch Beta","name_short":"waw-5","host":"waw-1.pl.uncletopia.com","port":27055,"enabled":true,"region":"eu","cc":"pl","latitude":52.2297,"longitude":21.017532,"reserved":0,"last_update":"0001-01-01T00:00:00Z","name_a2s":"Uncletopia | Warsaw | 5 | Stopwatch Beta","protocol":17,"map":"cp_mountainlab","folder":"tf","game":"Team Fortress","app_id":440,"player_count":0,"max_players":24,"Bots":0,"server_type":"Dedicated","server_os":"Linux","password":true,"vac":true,"version":"7882260","steam_id":85568392925397854,"keywords":["cp","nocrits","nodmgspread","uncletopia"],"game_id":440,"stv_port":27056,"stv_name":"Uncletopia | Warsaw | 5 | Stopwatch Beta | STV","players":null},{"server_id":54,"name":"Uncletopia | Warsaw | 6 | Community","name_short":"waw-6","host":"waw-1.pl.uncletopia.com","port":27065,"enabled":true,"region":"eu","cc":"pl","latitude":52.2297,"longitude":21.017532,"reserved":0,"last_update":"0001-01-01T00:00:00Z","name_a2s":"Uncletopia | Warsaw | 6 | Community","protocol":17,"map":"koth_viaduct","folder":"tf","game":"Team Fortress","app_id":440,"player_count":0,"max_players":24,"Bots":0,"server_type":"Dedicated","server_os":"Linux","password":true,"vac":true,"version":"7882260","steam_id":85568392925397856,"keywords":["cp","nocrits","nodmgspread","uncletopia"],"game_id":440,"stv_port":27066,"stv_name":"Uncletopia | Warsaw | 6 | Community | STV","players":null}]}