{"status":true,"message":"","result":[{"server_id":9,"name":"Uncletopia | Atlanta | 1 | All Maps","name_short":"atl-1","host":"atl-1.us.uncletopia.com","port":27015,"enabled":true,"region":"us-east","cc":"us","latitude":33.753746,"longitude":-84.38633,"reserved":0,"last_update":"0001-01-01T00:00:00Z","name_a2s":"Uncletopia | Atlanta | 1 | All Maps","protocol":17,"map":"cp_snakewater_final1","folder":"tf","game":"Team Fortress","app_id":440,"player_count":0,"max_players":24,"Bots":0,"server_type":"Dedicated","server_os":"Linux","password":false,"vac":true,"version":"7961495","steam_id":85568392924469982,"keywords":["cp","nocrits","nodmgspread","uncletopia"],"game_id":440,"stv_port":27016,"stv_name":"Uncletopia | Atlanta | 1 | All Maps | STV","players":null},{"server_id":104,"name":"Uncletopia | Atlanta | 2 | All Maps","name_short":"atl-2","host":"atl-1.us.uncletopia.com","port":27025,"enabled":true,"region":"us-east","cc":"us","latitude":33.753746,"longitude":-84.38633,"reserved":0,"last_update":"0001-01-01T00:00:00Z","name_a2s":"Uncletopia | Atlanta | 2 | All Maps","protocol":17,"map":"cp_mountainlab","folder":"tf","game":"Team Fortress","app_id":440,"player_count":0,"max_players":24,"Bots":0,"server_type":"Dedicated","server_os":"Linux","password":false,"vac":true,"version":"7961495","steam_id":85568392924469983,"keywords":["cp","nocrits","nodmgspread","uncletopia"],"game_id":440,"stv_port":27026,"stv_name":"Uncletopia | Atlanta | 2 | All Maps | STV","players":null},{"server_id":400,"name":"Uncletopia | Atlanta | 3 | All Maps","name_short":"atl-3","host":"atl-1.us.uncletopia.com","port":27035,"enabled":true,"region":"us-east","cc":"us","latitude":33.753746,"longitude":-84.38633,"reserved":0,"last_update":"0001-01-01T00:00:00Z","name_a2s":"Uncletopia | Atlanta | 3 | All Maps","protocol":17,"map":"cp_process_final","folder":"tf","game":"Team Fortress","app_id":440,"player_count":0,"max_players":24,"Bots":0,"server_type":"Dedicated","server_os":"Linux","password":false,"vac":true,"version":"7961495","steam_id":85568392924515187,"keywords":["cp","nocrits","nodmgspread","uncletopia"],"game_id":440,"stv_port":27036,"stv_name":"Uncletopia | Atlanta | 3 | All Maps | STV","players":null},{"server_id":401,"name":"Uncletopia | Atlanta | 4 | Community","name_short":"atl-4","host":"atl-1.us.uncletopia.com","port":27045,"enabled":true,"region":"us-east","cc":"us","latitude":33.753746,"longitude":-84.38633,"reserved":0,"last_update":"0001-01-01T00:00:00Z","name_a2s":"Uncletopia | Atlanta | 4 | Community","protocol":17,"map":"koth_lakeside_final","folder":"tf","game":"Team Fortress","app_id":440,"player_count":0,"max_players":24,"Bots":0,"server_type":"Dedicated","server_os":"Linux","password":false,"vac":true,"version":"7961495","steam_id":85568392924515188,"keywords":["cp","nocrits","nodmgspread","uncletopia"],"game_id":440,"stv_port":27046,"stv_name":"Uncletopia | Atlanta | 4 | Community | STV","players":null},{"server_id":2,"name":"Uncletopia | Chicago | 1 | All Maps","name_short":"chi-1","host":"chi-1.us.uncletopia.com","port":27015,"enabled":true,"region":"us-central","cc":"us","latitude":41.881832,"longitude":-87.62318,"reserved":0,"last_update":"0001-01-01T00:00:00Z","name_a2s":"Uncletopia | Chicago | 1 | All Maps","protocol":17,"map":"pl_badwater","folder":"tf","game":"Team Fortress","app_id":440,"player_count":24,"max_players":24,"Bots":0,"server_type":"Dedicated","server_os":"Linux","password":true,"vac":true,"version":"7961495","steam_id":85568392924469984,"keywords":["nocrits","nodmgspread","payload","uncletopia"],"game_id":440,"stv_port":27016,"stv_name":"Uncletopia | Chicago | 1 | All Maps | STV","players":[{"user_id":320,"name":"pancake ●","steam_id":76561198999217575,"connected_time":2014000000000,"state":"active","ping":59},{"user_id":315,"name":"Snugboo","steam_id":76561198147970327,"connected_time":2188000000000,"state":"active","ping":51},{"user_id":318,"name":"catboy","steam_id":76561198298140571,"connected_time":2081000000000,"state":"active","ping":115},{"user_id":330,"name":"ATL1 | SparkStorm","steam_id":76561198095817025,"connected_time":696000000000,"state":"active","ping":48},{"user_id":306,"name":"Mank","steam_id":76561198189421005,"connected_time":2818000000000,"state":"active","ping":47},{"user_id":313,"name":"C Papi","steam_id":76561198027779564,"connected_time":2200000000000,"state":"active","ping":56},{"user_id":278,"name":"Maverick","steam_id":76561198322829814,"connected_time":5403000000000,"state":"active","ping":78},{"user_id":256,"name":"Bodhi (she/they)","steam_id":76561198103230995,"connected_time":7855000000000,"state":"active","ping":75},{"user_id":304,"name":"DinkleBerg","steam_id":76561198891626233,"connected_time":2862000000000,"state":"active","ping":65},{"user_id":285,"name":"Soulidity","steam_id":76561198429603550,"connected_time":4675000000000,"state":"active","ping":70},{"user_id":335,"name":"Rappitor","steam_id":76561198105613110,"connected_time":590000000000,"state":"active","ping":49},{"user_id":292,"name":"Garfield Expert","steam_id":76561198092452824,"connected_time":3734000000000,"state":"active","ping":70},{"user_id":305,"name":"--_Cook_--","steam_id":76561198080855748,"connected_time":2857000000000,"state":"active","ping":46},{"user_id":322,"name":"Ichthyology Enthusiast","steam_id":76561198854662187,"connected_time":1353000000000,"state":"active","ping":71},{"user_id":286,"name":"Ashes!","steam_id":76561197998475441,"connected_time":4173000000000,"state":"active","ping":90},{"user_id":312,"name":"Your Local Queer Librarian","steam_id":76561198013077080,"connected_time":2232000000000,"state":"active","ping":57},{"user_id":323,"name":"gary","steam_id":76561198140226890,"connected_time":1089000000000,"state":"active","ping":84},{"user_id":317,"name":"SCOTLAND FOREVER","steam_id":76561199151371479,"connected_time":2172000000000,"state":"active","ping":50},{"user_id":314,"name":"Oopsie Daisy ❋","steam_id":76561198042144492,"connected_time":2199000000000,"state":"active","ping":79},{"user_id":316,"name":"King's Disease","steam_id":76561198076639682,"connected_time":2187000000000,"state":"active","ping":73},{"user_id":283,"name":"ATL1 | Krissy","steam_id":76561197960848174,"connected_time":5215000000000,"state":"active","ping":69},{"user_id":327,"name":"aphexjh","steam_id":76561197985854658,"connected_time":701000000000,"state":"active","ping":57},{"user_id":328,"name":"F1uunt","steam_id":76561198156242052,"connected_time":701000000000,"state":"active","ping":55},{"user_id":339,"name":"ItsLordyn","steam_id":76561198076192471,"connected_time":241000000000,"state":"active","ping":76}]},{"server_id":106,"name":"Uncletopia | Chicago | 2 | All Maps","name_short":"chi-2","host":"chi-1.us.uncletopia.com","port":27025,"enabled":true,"region":"us-central","cc":"us","latitude":41.881832,"longitude":-87.62318,"reserved":0,"last_update":"0001-01-01T00:00:00Z","name_a2s":"Uncletopia | Chicago | 2 | All Maps","protocol":17,"map":"cp_dustbowl","folder":"tf","game":"Team Fortress","app_id":440,"player_count":24,"max_players":24,"Bots":0,"server_type":"Dedicated","server_os":"Linux","password":true,"vac":true,"version":"7961495","steam_id":85568392924469985,"keywords":["cp","nocrits","nodmgspread","uncletopia"],"game_id":440,"stv_port":27026,"stv_name":"Uncletopia | Chicago | 2 | All Maps | STV","players":[{"user_id":484,"name":"Ibrahim","steam_id":76561198028320625,"connected_time":2852000000000,"state":"active","ping":68},{"user_id":504,"name":"james may","steam_id":76561198043857339,"connected_time":1202000000000,"state":"active","ping":100},{"user_id":496,"name":"lili","steam_id":76561199391478575,"connected_time":1268000000000,"state":"active","ping":111},{"user_id":485,"name":"stormfoam","steam_id":76561198936871387,"connected_time":2806000000000,"state":"active","ping":60},{"user_id":516,"name":"winneryay","steam_id":76561198078731479,"connected_time":687000000000,"state":"active","ping":57},{"user_id":512,"name":"[NAME-REDACTED]","steam_id":76561198035682975,"connected_time":1082000000000,"state":"active","ping":65},{"user_id":513,"name":"Jill the Owl","steam_id":76561197999210583,"connected_time":769000000000,"state":"active","ping":83},{"user_id":498,"name":"♿","steam_id":76561198296145819,"connected_time":1253000000000,"state":"active","ping":85},{"user_id":492,"name":"Soladach","steam_id":76561198091616441,"connected_time":1303000000000,"state":"active","ping":80},{"user_id":499,"name":"tooru_hagakure, exhibitionism","steam_id":76561198097330521,"connected_time":1243000000000,"state":"active","ping":151},{"user_id":443,"name":"Harrier \"Harry\" du Bois","steam_id":76561198435876131,"connected_time":5175000000000,"state":"active","ping":65},{"user_id":494,"name":"HOTA","steam_id":76561199002778841,"connected_time":1295000000000,"state":"active","ping":75},{"user_id":520,"name":"the rizzler","steam_id":76561198012917426,"connected_time":27000000000,"state":"active","ping":71},{"user_id":510,"name":"jc71777","steam_id":76561199124210364,"connected_time":1091000000000,"state":"active","ping":115},{"user_id":500,"name":"󠁳 ⁧Argo","steam_id":76561198353725622,"connected_time":1235000000000,"state":"active","ping":84},{"user_id":491,"name":"An Erect Penis :)","steam_id":76561198086477485,"connected_time":1326000000000,"state":"active","ping":43},{"user_id":517,"name":"popular loner","steam_id":76561198353975792,"connected_time":392000000000,"state":"active","ping":84},{"user_id":519,"name":"kite","steam_id":76561198346516392,"connected_time":90000000000,"state":"active","ping":64},{"user_id":471,"name":"Mook-a-Matic 5000","steam_id":76561198000840947,"connected_time":3760000000000,"state":"active","ping":67},{"user_id":511,"name":"woozy55","steam_id":76561198047854179,"connected_time":1085000000000,"state":"active","ping":96},{"user_id":507,"name":"Librinox / Irrith","steam_id":76561198008996805,"connected_time":1171000000000,"state":"active","ping":95},{"user_id":515,"name":"beyond","steam_id":76561198051009126,"connected_time":716000000000,"state":"active","ping":71},{"user_id":505,"name":"moe","steam_id":76561198929586245,"connected_time":1201000000000,"state":"active","ping":92},{"user_id":467,"name":"igotmail","steam_id":76561198070631899,"connected_time":4016000000000,"state":"active","ping":68}]},{"server_id":402,"name":"Uncletopia | Chicago | 3 | All Maps","name_short":"chi-3","host":"chi-1.us.uncletopia.com","port":27035,"enabled":true,"region":"us-central","cc":"us","latitude":41.881832,"longitude":-87.62318,"reserved":0,"last_update":"0001-01-01T00:00:00Z","name_a2s":"Uncletopia | Chicago | 3 | All Maps","protocol":17,"map":"pl_badwater","folder":"tf","game":"Team Fortress","app_id":440,"player_count":24,"max_players":24,"Bots":0,"server_type":"Dedicated","server_os":"Linux","password":true,"vac":true,"version":"7961495","steam_id":85568392924515191,"keywords":["nocrits","nodmgspread","payload","uncletopia"],"game_id":440,"stv_port":27036,"stv_name":"Uncletopia | Chicago | 3 | All Maps | STV","players":[{"user_id":809,"name":"Peppino","steam_id":76561198189176634,"connected_time":2605000000000,"state":"active","ping":70},{"user_id":849,"name":"EvilMrPotoo ｡◕‿◕｡","steam_id":76561198012566870,"connected_time":593000000000,"state":"active","ping":55},{"user_id":818,"name":"㋛ countblanc","steam_id":76561197993171771,"connected_time":2289000000000,"state":"active","ping":45},{"user_id":855,"name":"GuyDudeBroChief","steam_id":76561197995790442,"connected_time":382000000000,"state":"active","ping":59},{"user_id":857,"name":"Sunfly","steam_id":76561198034307439,"connected_time":314000000000,"state":"active","ping":98},{"user_id":850,"name":"Warpy","steam_id":76561198055852599,"connected_time":589000000000,"state":"active","ping":93},{"user_id":807,"name":"Butters495","steam_id":76561197998689042,"connected_time":2676000000000,"state":"active","ping":78},{"user_id":845,"name":"Letters","steam_id":76561198035508148,"connected_time":1004000000000,"state":"active","ping":99},{"user_id":730,"name":"Pizza","steam_id":76561198118748364,"connected_time":8731000000000,"state":"active","ping":79},{"user_id":632,"name":"Makina","steam_id":76561198057475567,"connected_time":14665000000000,"state":"active","ping":69},{"user_id":854,"name":"the gerogerigegege","steam_id":76561198057116531,"connected_time":398000000000,"state":"active","ping":59},{"user_id":851,"name":"daemonZERA","steam_id":76561198045599872,"connected_time":422000000000,"state":"active","ping":75},{"user_id":846,"name":"SleepyDew","steam_id":76561198839429098,"connected_time":825000000000,"state":"active","ping":69},{"user_id":843,"name":"Architect","steam_id":76561198015242016,"connected_time":1231000000000,"state":"active","ping":41},{"user_id":840,"name":"big steve","steam_id":76561199037050183,"connected_time":1375000000000,"state":"active","ping":144},{"user_id":817,"name":"peepleus","steam_id":76561198013830903,"connected_time":2310000000000,"state":"active","ping":60},{"user_id":842,"name":"anotherl2","steam_id":76561198354418895,"connected_time":1278000000000,"state":"active","ping":92},{"user_id":852,"name":"JetZ","steam_id":76561199122488957,"connected_time":417000000000,"state":"active","ping":64},{"user_id":837,"name":"pilot914","steam_id":76561199146198862,"connected_time":1563000000000,"state":"active","ping":75},{"user_id":813,"name":"Thy Stupid Rat","steam_id":76561198272075712,"connected_time":2387000000000,"state":"active","ping":80},{"user_id":844,"name":"No Chance of Pearly Gates","steam_id":76561198042570322,"connected_time":1062000000000,"state":"active","ping":58},{"user_id":856,"name":"heck","steam_id":76561198308547958,"connected_time":374000000000,"state":"active","ping":59},{"user_id":811,"name":"Gustavo","steam_id":76561198190288063,"connected_time":2433000000000,"state":"active","ping":70},{"user_id":824,"name":"Ahhpple","steam_id":76561197993322448,"connected_time":1906000000000,"state":"active","ping":77}]},{"server_id":403,"name":"Uncletopia | Chicago | 4 | All Maps","name_short":"chi-4","host":"chi-1.us.uncletopia.com","port":27045,"enabled":true,"region":"us-central","cc":"us","latitude":41.881832,"longitude":-87.62318,"reserved":0,"last_update":"0001-01-01T00:00:00Z","name_a2s":"Uncletopia | Chicago | 4 | All Maps","protocol":17,"map":"cp_process_final","folder":"tf","game":"Team Fortress","app_id":440,"player_count":24,"max_players":24,"Bots":0,"server_type":"Dedicated","server_os":"Linux","password":true,"vac":true,"version":"7961495","steam_id":85568392924515193,"keywords":["cp","nocrits","nodmgspread","uncletopia"],"game_id":440,"stv_port":27046,"stv_name":"Uncletopia | Chicago | 4 | All Maps | STV","players":[{"user_id":775,"name":"Matches_                       ","steam_id":76561198048925904,"connected_time":2119000000000,"state":"active","ping":105},{"user_id":805,"name":"Rein","steam_id":76561198300340427,"connected_time":131000000000,"state":"active","ping":63},{"user_id":769,"name":"black ops 2 hank hill trolling","steam_id":76561198095313463,"connected_time":2332000000000,"state":"active","ping":61},{"user_id":794,"name":"Cyndaquil (REAL)","steam_id":76561198062956313,"connected_time":996000000000,"state":"active","ping":77},{"user_id":745,"name":"jolo","steam_id":76561198042831480,"connected_time":3216000000000,"state":"active","ping":67},{"user_id":803,"name":"feliser","steam_id":76561198084336096,"connected_time":214000000000,"state":"active","ping":52},{"user_id":778,"name":"scrich scrich","steam_id":76561198123287268,"connected_time":2049000000000,"state":"active","ping":47},{"user_id":777,"name":"[㏈] Bumpercars","steam_id":76561198061591743,"connected_time":2088000000000,"state":"active","ping":68},{"user_id":731,"name":"katryna","steam_id":76561198023440304,"connected_time":4366000000000,"state":"active","ping":57},{"user_id":793,"name":"Sky Tree","steam_id":76561198027103242,"connected_time":1048000000000,"state":"active","ping":45},{"user_id":633,"name":"mika ultra","steam_id":76561198139802458,"connected_time":9343000000000,"state":"active","ping":68},{"user_id":772,"name":"cat","steam_id":76561198096347625,"connected_time":2225000000000,"state":"active","ping":76},{"user_id":789,"name":"Candy Sparkles","steam_id":76561198126871264,"connected_time":1332000000000,"state":"active","ping":86},{"user_id":798,"name":"GojoPreto","steam_id":76561198979348045,"connected_time":567000000000,"state":"active","ping":87},{"user_id":790,"name":"Elena Manetta","steam_id":76561197998344054,"connected_time":1327000000000,"state":"active","ping":60},{"user_id":740,"name":"IMM0RTAL","steam_id":76561198013747901,"connected_time":3952000000000,"state":"active","ping":75},{"user_id":804,"name":"hej","steam_id":76561197996366940,"connected_time":196000000000,"state":"active","ping":60},{"user_id":780,"name":"Forevershooting","steam_id":76561198124213574,"connected_time":2016000000000,"state":"active","ping":85},{"user_id":799,"name":"MedRed™ #IATAH","steam_id":76561198002962970,"connected_time":515000000000,"state":"active","ping":104},{"user_id":781,"name":"[S]Mr. X [No Monitor]","steam_id":76561197963746035,"connected_time":1990000000000,"state":"active","ping":126},{"user_id":667,"name":"pele","steam_id":76561198021224745,"connected_time":6487000000000,"state":"active","ping":59},{"user_id":783,"name":"GUINNESS ANYONE?","steam_id":76561197985970131,"connected_time":1724000000000,"state":"active","ping":74},{"user_id":753,"name":"Kev","steam_id":76561198310880776,"connected_time":3150000000000,"state":"active","ping":76},{"user_id":792,"name":"Lemon","steam_id":76561198119362095,"connected_time":1112000000000,"state":"active","ping":59}]},{"server_id":36,"name":"Uncletopia | Chicago | 5 | All Maps","name_short":"chi-5","host":"chi-2.us.uncletopia.com","port":27015,"enabled":true,"region":"us-central","cc":"us","latitude":41.881832,"longitude":-87.62318,"reserved":0,"last_update":"0001-01-01T00:00:00Z","name_a2s":"Uncletopia | Chicago | 5 | All Maps","protocol":17,"map":"pl_goldrush","folder":"tf","game":"Team Fortress","app_id":440,"player_count":24,"max_players":24,"Bots":0,"server_type":"Dedicated","server_os":"Linux","password":true,"vac":true,"version":"7961495","steam_id":85568392924866362,"keywords":["nocrits","nodmgspread","payload","uncletopia"],"game_id":440,"stv_port":27016,"stv_name":"Uncletopia | Chicago | 5 | All Maps | STV","players":[{"user_id":259,"name":"[DATS➡] Sugar Meowth","steam_id":76561197995251793,"connected_time":362000000000,"state":"active","ping":93},{"user_id":243,"name":"drdonutman","steam_id":76561197998488821,"connected_time":1468000000000,"state":"active","ping":76},{"user_id":258,"name":"Loaf","steam_id":76561198446378419,"connected_time":381000000000,"state":"active","ping":81},{"user_id":225,"name":"el wiwi","steam_id":76561198857304367,"connected_time":3063000000000,"state":"active","ping":82},{"user_id":268,"name":"Limitless","steam_id":76561198057139998,"connected_time":8000000000,"state":"spawning","ping":112},{"user_id":241,"name":"Urbanzpinapple","steam_id":76561198115426938,"connected_time":1706000000000,"state":"active","ping":57},{"user_id":255,"name":"OmniMoto","steam_id":76561198091298557,"connected_time":620000000000,"state":"active","ping":68},{"user_id":240,"name":"Sorry","steam_id":76561198040722720,"connected_time":1856000000000,"state":"active","ping":87},{"user_id":263,"name":"AXZIOM","steam_id":76561198255074952,"connected_time":332000000000,"state":"active","ping":89},{"user_id":159,"name":"Living Room Set - $799","steam_id":76561199215798445,"connected_time":7609000000000,"state":"active","ping":60},{"user_id":266,"name":"average manicotti enjoyer","steam_id":76561198059535856,"connected_time":192000000000,"state":"active","ping":92},{"user_id":232,"name":"Uncle Majic the Hip Hop Magicia","steam_id":76561198107924303,"connected_time":2460000000000,"state":"active","ping":54},{"user_id":226,"name":"Propaniac Gaming ☑","steam_id":76561198133963270,"connected_time":2983000000000,"state":"active","ping":60},{"user_id":261,"name":"Phantis_Squid","steam_id":76561199428864090,"connected_time":357000000000,"state":"active","ping":71},{"user_id":262,"name":"Chucklin","steam_id":76561198010823579,"connected_time":355000000000,"state":"active","ping":91},{"user_id":264,"name":"L0udM0uth","steam_id":76561198195994694,"connected_time":329000000000,"state":"active","ping":58},{"user_id":176,"name":"chiswola","steam_id":76561198046920142,"connected_time":6002000000000,"state":"active","ping":85},{"user_id":245,"name":"Fiendish Frog","steam_id":76561198029478821,"connected_time":1432000000000,"state":"active","ping":75},{"user_id":265,"name":"Flowers","steam_id":76561198031669899,"connected_time":323000000000,"state":"active","ping":83},{"user_id":254,"name":"TheShoveler","steam_id":76561198043794548,"connected_time":692000000000,"state":"active","ping":85},{"user_id":238,"name":"Space⭐Taffy","steam_id":76561198002271720,"connected_time":2011000000000,"state":"active","ping":70},{"user_id":267,"name":"gnarly","steam_id":76561198253744092,"connected_time":170000000000,"state":"active","ping":56},{"user_id":248,"name":"DragonHaert","steam_id":76561198132516061,"connected_time":1418000000000,"state":"active","ping":65},{"user_id":192,"name":"-π- BakaD","steam_id":76561197960559169,"connected_time":5225000000000,"state":"active","ping":60}]},{"server_id":37,"name":"Uncletopia | Chicago | 6 | All Maps","name_short":"chi-6","host":"chi-2.us.uncletopia.com","port":27025,"enabled":true,"region":"us-central","cc":"us","latitude":41.881832,"longitude":-87.62318,"reserved":0,"last_update":"0001-01-01T00:00:00Z","name_a2s":"Uncletopia | Chicago | 6 | All Maps","protocol":17,"map":"pl_enclosure_final","folder":"tf","game":"Team Fortress","app_id":440,"player_count":19,"max_players":24,"Bots":0,"server_type":"Dedicated","server_os":"Linux","password":true,"vac":true,"version":"7961495","steam_id":85568392924866363,"keywords":["nocrits","nodmgspread","payload","uncletopia"],"game_id":440,"stv_port":27026,"stv_name":"Uncletopia | Chicago | 6 | All Maps | STV","players":[{"user_id":175,"name":"Dagoth","steam_id":76561198100896443,"connected_time":70000000000,"state":"active","ping":129},{"user_id":176,"name":"Løst","steam_id":76561198035677801,"connected_time":70000000000,"state":"active","ping":67},{"user_id":177,"name":"darkerogamer","steam_id":76561198341101156,"connected_time":67000000000,"state":"active","ping":113},{"user_id":129,"name":"Aaron","steam_id":76561198091157802,"connected_time":3660000000000,"state":"active","ping":81},{"user_id":173,"name":"Grundle Thunder","steam_id":76561197960790338,"connected_time":430000000000,"state":"active","ping":84},{"user_id":182,"name":"TheUnknownBoss","steam_id":76561198799169882,"connected_time":15000000000,"state":"spawning","ping":77},{"user_id":132,"name":"ColdTooth","steam_id":76561197994963901,"connected_time":3078000000000,"state":"active","ping":72},{"user_id":144,"name":"Walkiing","steam_id":76561198074473413,"connected_time":2687000000000,"state":"active","ping":36},{"user_id":166,"name":"Saki","steam_id":76561198202762589,"connected_time":956000000000,"state":"active","ping":70},{"user_id":180,"name":"Harpua","steam_id":76561197988020228,"connected_time":48000000000,"state":"active","ping":61},{"user_id":181,"name":"Quiet Kid Wit A Rlly Large BP","steam_id":76561198106147222,"connected_time":46000000000,"state":"active","ping":74},{"user_id":183,"name":"CUBENSiS","steam_id":76561199138699358,"connected_time":5000000000,"state":"spawning","ping":70},{"user_id":151,"name":"phantom","steam_id":76561197963860777,"connected_time":1632000000000,"state":"active","ping":59},{"user_id":153,"name":"I have no idea what I am doing?","steam_id":76561198093152207,"connected_time":1218000000000,"state":"active","ping":74},{"user_id":137,"name":"Sunflower","steam_id":76561198081223793,"connected_time":2958000000000,"state":"active","ping":59},{"user_id":163,"name":"Robin","steam_id":76561198121165149,"connected_time":1093000000000,"state":"active","ping":36},{"user_id":174,"name":"jT","steam_id":76561198053353148,"connected_time":385000000000,"state":"active","ping":52},{"user_id":168,"name":"BirBinGo","steam_id":76561198356529600,"connected_time":882000000000,"state":"active","ping":73},{"user_id":169,"name":"Asparagee","steam_id":76561198093051650,"connected_time":881000000000,"state":"active","ping":72}]},{"server_id":38,"name":"Uncletopia | Chicago | 7 | Stopwatch Beta","name_short":"chi-7","host":"chi-2.us.uncletopia.com","port":27035,"enabled":true,"region":"us-central","cc":"us","latitude":41.881832,"longitude":-87.62318,"reserved":0,"last_update":"0001-01-01T00:00:00Z","name_a2s":"Uncletopia | Chicago | 7 | Stopwatch Beta","protocol":17,"map":"pl_badwater","folder":"tf","game":"Team Fortress","app_id":440,"player_count":0,"max_players":24,"Bots":0,"server_type":"Dedicated","server_os":"Linux","password":true,"vac":true,"version":"7961495","steam_id":85568392924866364,"keywords":["nocrits","nodmgspread","payload","uncletopia"],"game_id":440,"stv_port":27036,"stv_name":"Uncletopia | Chicago | 7 | Stopwatch Beta | STV","players":null},{"server_id":39,"name":"Uncletopia | Chicago | 8 | Community","name_short":"chi-8","host":"chi-2.us.uncletopia.com","port":27045,"enabled":true,"region":"us-central","cc":"us","latitude":41.881832,"longitude":-87.62318,"reserved":0,"last_update":"0001-01-01T00:00:00Z","name_a2s":"Uncletopia | Chicago | 8 | Community","protocol":17,"map":"workshop/koth_ramjam_rc1.ugc459778887","folder":"tf","game":"Team Fortress","app_id":440,"player_count":24,"max_players":24,"Bots":0,"server_type":"Dedicated","server_os":"Linux","password":true,"vac":true,"version":"7961495","steam_id":85568392924866365,"keywords":["cp","nocrits","nodmgspread","uncletopia"],"game_id":440,"stv_port":27046,"stv_name":"Uncletopia | Chicago | 8 | Community | STV","players":[{"user_id":268,"name":"alset333","steam_id":76561198405345260,"connected_time":914000000000,"state":"active","ping":59},{"user_id":199,"name":"123","steam_id":76561198106308056,"connected_time":6085000000000,"state":"active","ping":134},{"user_id":216,"name":"TheJosiahTurner","steam_id":76561198235740776,"connected_time":4550000000000,"state":"active","ping":71},{"user_id":269,"name":"BiggsyBoy","steam_id":76561198119656147,"connected_time":893000000000,"state":"active","ping":59},{"user_id":285,"name":"Toasted","steam_id":76561198981232201,"connected_time":118000000000,"state":"active","ping":84},{"user_id":286,"name":"Pachimari","steam_id":76561198114464970,"connected_time":92000000000,"state":"active","ping":257},{"user_id":239,"name":"OrangeSodaMachine","steam_id":76561198079230156,"connected_time":3381000000000,"state":"active","ping":80},{"user_id":254,"name":"Lifial","steam_id":76561198271885819,"connected_time":2174000000000,"state":"active","ping":74},{"user_id":213,"name":"Little Drunked Owl","steam_id":76561198336737684,"connected_time":4650000000000,"state":"active","ping":97},{"user_id":267,"name":"Ranch on Everything","steam_id":76561199471211107,"connected_time":1122000000000,"state":"active","ping":126},{"user_id":275,"name":"Tom Crúaich","steam_id":76561197999439911,"connected_time":790000000000,"state":"active","ping":74},{"user_id":266,"name":"EpicNGamerz","steam_id":76561198304292582,"connected_time":1150000000000,"state":"active","ping":147},{"user_id":276,"name":"Jacaroni","steam_id":76561199122050305,"connected_time":660000000000,"state":"active","ping":71},{"user_id":273,"name":"VidzCMC","steam_id":76561198848142973,"connected_time":810000000000,"state":"active","ping":48},{"user_id":242,"name":"JACOB","steam_id":76561198211874895,"connected_time":3363000000000,"state":"active","ping":71},{"user_id":257,"name":"press H to change heroes","steam_id":76561198030291655,"connected_time":2091000000000,"state":"active","ping":47},{"user_id":283,"name":"SCraig64","steam_id":76561198171251965,"connected_time":167000000000,"state":"active","ping":64},{"user_id":263,"name":"Gay Loogi Gang","steam_id":76561198097031529,"connected_time":1839000000000,"state":"active","ping":82},{"user_id":265,"name":"Punished Shitster","steam_id":76561198150452857,"connected_time":1579000000000,"state":"active","ping":73},{"user_id":277,"name":"Smalstro","steam_id":76561199227819604,"connected_time":655000000000,"state":"active","ping":83},{"user_id":250,"name":"THIRDPIERCE","steam_id":76561198405366314,"connected_time":2222000000000,"state":"active","ping":84},{"user_id":264,"name":"CoffeeZombee","steam_id":76561198172708053,"connected_time":1837000000000,"state":"active","ping":87},{"user_id":261,"name":"Magnet Dood","steam_id":76561198364178746,"connected_time":1975000000000,"state":"active","ping":61},{"user_id":262,"name":"Ritzy","steam_id":76561198381955342,"connected_time":1919000000000,"state":"active","ping":146}]},{"server_id":8,"name":"Uncletopia | Dallas | 1 | All Maps","name_short":"dal-1","host":"dal-1.us.uncletopia.com","port":27015,"enabled":true,"region":"us-central","cc":"us","latitude":32.779167,"longitude":-96.80889,"reserved":0,"last_update":"0001-01-01T00:00:00Z","name_a2s":"Uncletopia | Dallas | 1 | All Maps","protocol":17,"map":"koth_viaduct","folder":"tf","game":"Team Fortress","app_id":440,"player_count":24,"max_players":24,"Bots":0,"server_type":"Dedicated","server_os":"Linux","password":true,"vac":true,"version":"7961495","steam_id":85568392924469986,"keywords":["cp","nocrits","nodmgspread","uncletopia"],"game_id":440,"stv_port":27016,"stv_name":"Uncletopia | Dallas | 1 | All Maps | STV","players":[{"user_id":713,"name":"Chaplin the grinch that stole c","steam_id":76561198160369788,"connected_time":560000000000,"state":"active","ping":104},{"user_id":699,"name":"Bullwinkle J. Moose","steam_id":76561198075977196,"connected_time":1468000000000,"state":"active","ping":58},{"user_id":720,"name":"WishedFuzzball","steam_id":76561198055642827,"connected_time":94000000000,"state":"active","ping":72},{"user_id":702,"name":"An Axe Man With An Axe Plan","steam_id":76561199031265293,"connected_time":1390000000000,"state":"active","ping":57},{"user_id":710,"name":"Cappy","steam_id":76561197990593889,"connected_time":593000000000,"state":"active","ping":59},{"user_id":712,"name":"schmuck","steam_id":76561198143789773,"connected_time":569000000000,"state":"active","ping":56},{"user_id":656,"name":"Bree-chan","steam_id":76561198025193389,"connected_time":4709000000000,"state":"active","ping":120},{"user_id":711,"name":"The Owlchemist","steam_id":76561198010239032,"connected_time":577000000000,"state":"active","ping":64},{"user_id":715,"name":"brim","steam_id":76561198108685037,"connected_time":504000000000,"state":"active","ping":62},{"user_id":721,"name":"Fish","steam_id":76561199016308078,"connected_time":93000000000,"state":"active","ping":91},{"user_id":718,"name":"Nibelsnarf","steam_id":76561198137642054,"connected_time":385000000000,"state":"active","ping":56},{"user_id":716,"name":"Wheaty","steam_id":76561198003553412,"connected_time":504000000000,"state":"active","ping":100},{"user_id":703,"name":"SilverLife25","steam_id":76561198392015722,"connected_time":1389000000000,"state":"active","ping":58},{"user_id":675,"name":"SLOSHY MEAT MISSILE","steam_id":76561198023361567,"connected_time":3611000000000,"state":"active","ping":77},{"user_id":669,"name":"UNIT 220","steam_id":76561198042243497,"connected_time":3817000000000,"state":"active","ping":86},{"user_id":717,"name":"Cyberwulph","steam_id":76561198297412789,"connected_time":497000000000,"state":"active","ping":96},{"user_id":653,"name":"flippercurve","steam_id":76561199238295034,"connected_time":4723000000000,"state":"active","ping":70},{"user_id":670,"name":"jaqalope","steam_id":76561198152144009,"connected_time":3806000000000,"state":"active","ping":70},{"user_id":671,"name":"my mom","steam_id":76561199225201569,"connected_time":3729000000000,"state":"active","ping":93},{"user_id":672,"name":"Mephistopheles","steam_id":76561198253731826,"connected_time":3719000000000,"state":"active","ping":91},{"user_id":719,"name":"Importality","steam_id":76561198049943127,"connected_time":259000000000,"state":"active","ping":96},{"user_id":695,"name":"VaL-ASROC","steam_id":76561198886493635,"connected_time":1812000000000,"state":"active","ping":74},{"user_id":658,"name":"RAWRWAIFU","steam_id":76561198032118386,"connected_time":4682000000000,"state":"active","ping":72},{"user_id":708,"name":"Hydra","steam_id":76561197983856163,"connected_time":1251000000000,"state":"active","ping":90}]},{"server_id":108,"name":"Uncletopia | Dallas | 2 | All Maps","name_short":"dal-2","host":"dal-1.us.uncletopia.com","port":27025,"enabled":true,"region":"us-central","cc":"us","latitude":32.779167,"longitude":-96.80889,"reserved":0,"last_update":"0001-01-01T00:00:00Z","name_a2s":"Uncletopia | Dallas | 2 | All Maps","protocol":17,"map":"pl_badwater","folder":"tf","game":"Team Fortress","app_id":440,"player_count":24,"max_players":24,"Bots":0,"server_type":"Dedicated","server_os":"Linux","password":true,"vac":true,"version":"7961495","steam_id":85568392924469988,"keywords":["nocrits","nodmgspread","payload","uncletopia"],"game_id":440,"stv_port":27026,"stv_name":"Uncletopia | Dallas | 2 | All Maps | STV","players":[{"user_id":569,"name":"StealthGirl","steam_id":76561198024760666,"connected_time":773000000000,"state":"active","ping":60},{"user_id":574,"name":"A new medic(F2p)","steam_id":76561199388826335,"connected_time":522000000000,"state":"active","ping":101},{"user_id":565,"name":"MR. BEEEEEEEEEEEEEAAAAAAAAAAST","steam_id":76561198205346760,"connected_time":1557000000000,"state":"active","ping":72},{"user_id":579,"name":"Per My Last Email","steam_id":76561197970096950,"connected_time":328000000000,"state":"active","ping":50},{"user_id":558,"name":"Mail Delivery","steam_id":76561198290046318,"connected_time":2184000000000,"state":"active","ping":60},{"user_id":580,"name":"HanakoToast","steam_id":76561198045233131,"connected_time":274000000000,"state":"active","ping":76},{"user_id":567,"name":"Bacon","steam_id":76561199078407152,"connected_time":788000000000,"state":"active","ping":87},{"user_id":573,"name":"nonagon infinity","steam_id":76561198397662124,"connected_time":561000000000,"state":"active","ping":64},{"user_id":578,"name":"uheggwhite","steam_id":76561199199795741,"connected_time":346000000000,"state":"active","ping":95},{"user_id":572,"name":"mollusk_obliteration","steam_id":76561198085388962,"connected_time":716000000000,"state":"active","ping":74},{"user_id":581,"name":"muffinoos","steam_id":76561199063285268,"connected_time":102000000000,"state":"active","ping":90},{"user_id":570,"name":"kermitcreeper(ZAZA)","steam_id":76561199222829972,"connected_time":772000000000,"state":"active","ping":64},{"user_id":463,"name":"Liebesträume","steam_id":76561198038862034,"connected_time":9854000000000,"state":"active","ping":70},{"user_id":575,"name":"Grand Piano Tuna","steam_id":76561198135137213,"connected_time":520000000000,"state":"active","ping":44},{"user_id":534,"name":"paypur -rng","steam_id":76561198214370515,"connected_time":4983000000000,"state":"active","ping":87},{"user_id":518,"name":"Blake...","steam_id":76561198064090974,"connected_time":6009000000000,"state":"active","ping":90},{"user_id":554,"name":"Terminally Ill Downie Brownie","steam_id":76561198356484354,"connected_time":2373000000000,"state":"active","ping":119},{"user_id":557,"name":"Mei Hatsume","steam_id":76561198110243186,"connected_time":2218000000000,"state":"active","ping":70},{"user_id":547,"name":"MrManlet","steam_id":76561198148597989,"connected_time":3424000000000,"state":"active","ping":124},{"user_id":571,"name":"The Horselords and Animal Gods","steam_id":76561197975094050,"connected_time":771000000000,"state":"active","ping":89},{"user_id":531,"name":"LeopoldVR","steam_id":76561198041597869,"connected_time":5105000000000,"state":"active","ping":58},{"user_id":530,"name":"hot pants™","steam_id":76561198033652282,"connected_time":5132000000000,"state":"active","ping":57},{"user_id":576,"name":"drunk driver","steam_id":76561198400058665,"connected_time":362000000000,"state":"active","ping":97},{"user_id":577,"name":"Navysealdemoman","steam_id":76561199048625312,"connected_time":359000000000,"state":"active","ping":89}]},{"server_id":404,"name":"Uncletopia | Dallas | 3 | All Maps","name_short":"dal-3","host":"dal-1.us.uncletopia.com","port":27035,"enabled":true,"region":"us-central","cc":"us","latitude":32.779167,"longitude":-96.80889,"reserved":0,"last_update":"0001-01-01T00:00:00Z","name_a2s":"Uncletopia | Dallas | 3 | All Maps","protocol":17,"map":"pl_snowycoast","folder":"tf","game":"Team Fortress","app_id":440,"player_count":24,"max_players":24,"Bots":0,"server_type":"Dedicated","server_os":"Linux","password":true,"vac":true,"version":"7961495","steam_id":85568392924515219,"keywords":["nocrits","nodmgspread","payload","uncletopia"],"game_id":440,"stv_port":27036,"stv_name":"Uncletopia | Dallas | 3 | All Maps | STV","players":[{"user_id":497,"name":"skooma_consuma","steam_id":76561197974009843,"connected_time":2899000000000,"state":"active","ping":76},{"user_id":598,"name":"⌞pizzaguy⌝","steam_id":76561197963710485,"connected_time":1113000000000,"state":"active","ping":101},{"user_id":593,"name":"nachotaco101","steam_id":76561198272387316,"connected_time":1140000000000,"state":"active","ping":88},{"user_id":619,"name":"oomper","steam_id":76561199189982701,"connected_time":500000000000,"state":"active","ping":74},{"user_id":392,"name":"ApertureCity","steam_id":76561198004153607,"connected_time":7105000000000,"state":"active","ping":101},{"user_id":399,"name":"Sup m8","steam_id":76561198081659121,"connected_time":6366000000000,"state":"active","ping":42},{"user_id":591,"name":"TheRamboBambi","steam_id":76561198105235064,"connected_time":1148000000000,"state":"active","ping":97},{"user_id":613,"name":"harley","steam_id":76561198799384110,"connected_time":713000000000,"state":"active","ping":113},{"user_id":514,"name":"Forge","steam_id":76561198042751067,"connected_time":2500000000000,"state":"active","ping":83},{"user_id":592,"name":"monkeycake","steam_id":76561198272061915,"connected_time":1144000000000,"state":"active","ping":64},{"user_id":499,"name":"Kdash","steam_id":76561198043829155,"connected_time":2815000000000,"state":"active","ping":59},{"user_id":463,"name":"smooth brain","steam_id":76561198049253541,"connected_time":3975000000000,"state":"active","ping":68},{"user_id":417,"name":"EL JEFE","steam_id":76561198077618439,"connected_time":4876000000000,"state":"active","ping":67},{"user_id":542,"name":"shitass | troutsupply.net","steam_id":76561198210572481,"connected_time":1928000000000,"state":"active","ping":72},{"user_id":594,"name":"Tuvok Shakur","steam_id":76561198018875334,"connected_time":1136000000000,"state":"active","ping":80},{"user_id":618,"name":"DuckMann","steam_id":76561198197058638,"connected_time":522000000000,"state":"active","ping":60},{"user_id":620,"name":"Stoopnagle","steam_id":76561198011942560,"connected_time":495000000000,"state":"active","ping":161},{"user_id":543,"name":"chaffy","steam_id":76561198021754567,"connected_time":1901000000000,"state":"active","ping":60},{"user_id":597,"name":"DDMM5008","steam_id":76561198013373274,"connected_time":1120000000000,"state":"active","ping":102},{"user_id":622,"name":"Ludography","steam_id":76561198046354069,"connected_time":361000000000,"state":"active","ping":52},{"user_id":599,"name":"beefmachine","steam_id":76561198001196512,"connected_time":1111000000000,"state":"active","ping":71},{"user_id":523,"name":"Tax evader","steam_id":76561199062081467,"connected_time":2274000000000,"state":"active","ping":104},{"user_id":609,"name":"Useless Goddess","steam_id":76561198092063256,"connected_time":837000000000,"state":"active","ping":76},{"user_id":559,"name":"TechnoBear2099","steam_id":76561198238863596,"connected_time":1554000000000,"state":"active","ping":51}]},{"server_id":405,"name":"Uncletopia | Dallas | 4 | Community","name_short":"dal-4","host":"dal-1.us.uncletopia.com","port":27045,"enabled":true,"region":"us-central","cc":"us","latitude":32.779167,"longitude":-96.80889,"reserved":0,"last_update":"0001-01-01T00:00:00Z","name_a2s":"Uncletopia | Dallas | 4 | Community","protocol":17,"map":"workshop/pl_barnblitz_pro7.ugc582280235","folder":"tf","game":"Team Fortress","app_id":440,"player_count":24,"max_players":24,"Bots":0,"server_type":"Dedicated","server_os":"Linux","password":true,"vac":true,"version":"7961495","steam_id":85568392924515220,"keywords":["nocrits","nodmgspread","payload","uncletopia"],"game_id":440,"stv_port":27046,"stv_name":"Uncletopia | Dallas | 4 | Community | STV","players":[{"user_id":155,"name":"barker bill","steam_id":76561198018451994,"connected_time":331000000000,"state":"active","ping":61},{"user_id":147,"name":"MutatedOnion","steam_id":76561198239096480,"connected_time":1048000000000,"state":"active","ping":91},{"user_id":97,"name":"Jezzus","steam_id":76561199289676387,"connected_time":4198000000000,"state":"active","ping":63},{"user_id":92,"name":"Papy_rat","steam_id":76561198088207937,"connected_time":4501000000000,"state":"active","ping":99},{"user_id":149,"name":"king of eblock","steam_id":76561198800324957,"connected_time":896000000000,"state":"active","ping":50},{"user_id":127,"name":"Silly Shark","steam_id":76561198130714378,"connected_time":2144000000000,"state":"active","ping":116},{"user_id":44,"name":"Soldier","steam_id":76561199030207481,"connected_time":6367000000000,"state":"active","ping":53},{"user_id":150,"name":"Nodspine","steam_id":76561198253579994,"connected_time":884000000000,"state":"active","ping":129},{"user_id":61,"name":"Klip","steam_id":76561198316254429,"connected_time":5875000000000,"state":"active","ping":59},{"user_id":115,"name":"Lee-Ch","steam_id":76561198164980622,"connected_time":2593000000000,"state":"active","ping":85},{"user_id":111,"name":"!!","steam_id":76561198042937036,"connected_time":2698000000000,"state":"active","ping":86},{"user_id":141,"name":"WOKEALOID Hatsugay Miku V4X","steam_id":76561198062263639,"connected_time":1454000000000,"state":"active","ping":51},{"user_id":142,"name":"StoneBigMan","steam_id":76561199216782092,"connected_time":1293000000000,"state":"active","ping":96},{"user_id":133,"name":"Lezabel","steam_id":76561198970753261,"connected_time":1807000000000,"state":"active","ping":75},{"user_id":98,"name":"Monkey Mode","steam_id":76561197961267543,"connected_time":4096000000000,"state":"active","ping":76},{"user_id":102,"name":"blobb","steam_id":76561198950448488,"connected_time":3511000000000,"state":"active","ping":78},{"user_id":73,"name":"Skiddy","steam_id":76561198125942665,"connected_time":5495000000000,"state":"active","ping":101},{"user_id":143,"name":"SquirrelAway™","steam_id":76561197998828619,"connected_time":1291000000000,"state":"active","ping":72},{"user_id":131,"name":"Tarnish DeBoot","steam_id":76561198148031251,"connected_time":1909000000000,"state":"active","ping":104},{"user_id":154,"name":"sebjzy ♥","steam_id":76561198009959034,"connected_time":435000000000,"state":"active","ping":60},{"user_id":129,"name":"Unwavering Flavor","steam_id":76561198053306065,"connected_time":2024000000000,"state":"active","ping":56},{"user_id":146,"name":"Nyx","steam_id":76561198073976333,"connected_time":1134000000000,"state":"active","ping":82},{"user_id":140,"name":"sentry food","steam_id":76561198042926224,"connected_time":1564000000000,"state":"active","ping":81},{"user_id":153,"name":"uzr","steam_id":76561198799343084,"connected_time":663000000000,"state":"active","ping":86}]},{"server_id":5,"name":"Uncletopia | Frankfurt | 1 | All Maps","name_short":"frk-1","host":"frk-1.de.uncletopia.com","port":27015,"enabled":true,"region":"eu","cc":"de","latitude":50.110924,"longitude":8.682127,"reserved":0,"last_update":"0001-01-01T00:00:00Z","name_a2s":"Uncletopia | Frankfurt | 1 | All Maps","protocol":17,"map":"pl_badwater","folder":"tf","game":"Team Fortress","app_id":440,"player_count":0,"max_players":24,"Bots":0,"server_type":"Dedicated","server_os":"Linux","password":true,"vac":true,"version":"7961495","steam_id":85568392924469989,"keywords":["nocrits","nodmgspread","payload","uncletopia"],"game_id":440,"stv_port":27016,"stv_name":"Uncletopia | Frankfurt | 1 | All Maps | STV","players":null},{"server_id":110,"name":"Uncletopia | Frankfurt | 2 | All Maps","name_short":"frk-2","host":"frk-1.de.uncletopia.com","port":27025,"enabled":true,"region":"eu","cc":"de","latitude":50.110924,"longitude":8.682127,"reserved":0,"last_update":"0001-01-01T00:00:00Z","name_a2s":"Uncletopia | Frankfurt | 2 | All Maps","protocol":17,"map":"koth_lakeside_final","folder":"tf","game":"Team Fortress","app_id":440,"player_count":0,"max_players":24,"Bots":0,"server_type":"Dedicated","server_os":"Linux","password":true,"vac":true,"version":"7961495","steam_id":85568392924469990,"keywords":["cp","nocrits","nodmgspread","uncletopia"],"game_id":440,"stv_port":27026,"stv_name":"Uncletopia | Frankfurt | 2 | All Maps | STV","players":null},{"server_id":308,"name":"Uncletopia | Frankfurt | 3 | All Maps","name_short":"frk-3","host":"frk-1.de.uncletopia.com","port":27035,"enabled":true,"region":"eu","cc":"de","latitude":50.110924,"longitude":8.682127,"reserved":0,"last_update":"0001-01-01T00:00:00Z","name_a2s":"Uncletopia | Frankfurt | 3 | All Maps","protocol":17,"map":"cp_sunshine","folder":"tf","game":"Team Fortress","app_id":440,"player_count":0,"max_players":24,"Bots":0,"server_type":"Dedicated","server_os":"Linux","password":true,"vac":true,"version":"7961495","steam_id":85568392924504274,"keywords":["cp","nocrits","nodmgspread","uncletopia"],"game_id":440,"stv_port":27036,"stv_name":"Uncletopia | Frankfurt | 3 | All Maps | STV","players":null},{"server_id":309,"name":"Uncletopia | Frankfurt | 4 | All Maps","name_short":"frk-4","host":"frk-1.de.uncletopia.com","port":27045,"enabled":true,"region":"eu","cc":"de","latitude":50.110924,"longitude":8.682127,"reserved":0,"last_update":"0001-01-01T00:00:00Z","name_a2s":"Uncletopia | Frankfurt | 4 | All Maps","protocol":17,"map":"pl_pier","folder":"tf","game":"Team Fortress","app_id":440,"player_count":0,"max_players":24,"Bots":0,"server_type":"Dedicated","server_os":"Linux","password":true,"vac":true,"version":"7961495","steam_id":85568392924504275,"keywords":["nocrits","nodmgspread","payload","uncletopia"],"game_id":440,"stv_port":27046,"stv_name":"Uncletopia | Frankfurt | 4 | All Maps | STV","players":null},{"server_id":310,"name":"Uncletopia | Frankfurt | 5 | All Maps","name_short":"frk-5","host":"frk-1.de.uncletopia.com","port":27055,"enabled":true,"region":"eu","cc":"de","latitude":50.110924,"longitude":8.682127,"reserved":0,"last_update":"0001-01-01T00:00:00Z","name_a2s":"Uncletopia | Frankfurt | 5 | All Maps","protocol":17,"map":"cp_process_final","folder":"tf","game":"Team Fortress","app_id":440,"player_count":0,"max_players":24,"Bots":0,"server_type":"Dedicated","server_os":"Linux","password":true,"vac":true,"version":"7961495","steam_id":85568392924504277,"keywords":["cp","nocrits","nodmgspread","uncletopia"],"game_id":440,"stv_port":27056,"stv_name":"Uncletopia | Frankfurt | 5 | All Maps | STV","players":null},{"server_id":311,"name":"Uncletopia | Frankfurt | 6 | All Maps","name_short":"frk-6","host":"frk-1.de.uncletopia.com","port":27065,"enabled":true,"region":"eu","cc":"de","latitude":50.110924,"longitude":8.682127,"reserved":0,"last_update":"0001-01-01T00:00:00Z","name_a2s":"Uncletopia | Frankfurt | 6 | All Maps","protocol":17,"map":"pl_barnblitz","folder":"tf","game":"Team Fortress","app_id":440,"player_count":0,"max_players":24,"Bots":0,"server_type":"Dedicated","server_os":"Linux","password":true,"vac":true,"version":"7961495","steam_id":85568392924504278,"keywords":["nocrits","nodmgspread","payload","uncletopia"],"game_id":440,"stv_port":27066,"stv_name":"Uncletopia | Frankfurt | 6 | All Maps | STV","players":null},{"server_id":23,"name":"Uncletopia | Frankfurt | 7 | Stopwatch Beta","name_short":"frk-7","host":"frk-1.de.uncletopia.com","port":27075,"enabled":true,"region":"eu","cc":"de","latitude":50.110924,"longitude":8.682127,"reserved":0,"last_update":"0001-01-01T00:00:00Z","name_a2s":"Uncletopia | Frankfurt | 7 | Stopwatch Beta","protocol":17,"map":"koth_cascade","folder":"tf","game":"Team Fortress","app_id":440,"player_count":0,"max_players":24,"Bots":0,"server_type":"Dedicated","server_os":"Linux","password":true,"vac":true,"version":"7961495","steam_id":85568392924742827,"keywords":["cp","nocrits","nodmgspread","uncletopia"],"game_id":440,"stv_port":27076,"stv_name":"Uncletopia | Frankfurt | 7 | Stopwatch Beta | STV","players":null},{"server_id":24,"name":"Uncletopia | Frankfurt | 8 | Community","name_short":"frk-8","host":"frk-1.de.uncletopia.com","port":27085,"enabled":true,"region":"eu","cc":"de","latitude":50.110924,"longitude":8.682127,"reserved":0,"last_update":"0001-01-01T00:00:00Z","name_a2s":"Uncletopia | Frankfurt | 8 | Community","protocol":17,"map":"cp_dustbowl","folder":"tf","game":"Team Fortress","app_id":440,"player_count":0,"max_players":24,"Bots":0,"server_type":"Dedicated","server_os":"Linux","password":true,"vac":true,"version":"7961495","steam_id":85568392924742828,"keywords":["cp","nocrits","nodmgspread","uncletopia"],"game_id":440,"stv_port":27086,"stv_name":"Uncletopia | Frankfurt | 8 | Community | STV","players":null},{"server_id":202,"name":"Uncletopia | Hong Kong | 1 | All Maps","name_short":"hgk-1","host":"hgk-1.hk.uncletopia.com","port":27015,"enabled":true,"region":"asia","cc":"hk","latitude":22.302711,"longitude":114.177216,"reserved":0,"last_update":"0001-01-01T00:00:00Z","name_a2s":"Uncletopia | Hong Kong | 1 | All Maps","protocol":17,"map":"koth_cascade","folder":"tf","game":"Team Fortress","app_id":440,"player_count":0,"max_players":24,"Bots":0,"server_type":"Dedicated","server_os":"Linux","password":true,"vac":true,"version":"7961495","steam_id":85568392924494504,"keywords":["cp","nocrits","nodmgspread","uncletopia"],"game_id":440,"stv_port":27016,"stv_name":"Uncletopia | Hong Kong | 1 | All Maps | STV","players":null},{"server_id":1,"name":"Uncletopia | Los Angeles | 1 | All Maps","name_short":"lax-1","host":"lax-1.us.uncletopia.com","port":27015,"enabled":true,"region":"us-west","cc":"us","latitude":33.94279,"longitude":-118.41004,"reserved":0,"last_update":"0001-01-01T00:00:00Z","name_a2s":"Uncletopia | Los Angeles | 1 | All Maps","protocol":17,"map":"pl_borneo","folder":"tf","game":"Team Fortress","app_id":440,"player_count":22,"max_players":24,"Bots":0,"server_type":"Dedicated","server_os":"Linux","password":true,"vac":true,"version":"7961495","steam_id":85568392924469991,"keywords":["nocrits","nodmgspread","payload","uncletopia"],"game_id":440,"stv_port":27016,"stv_name":"Uncletopia | Los Angeles | 1 | All Maps | STV","players":[{"user_id":262,"name":"Preston","steam_id":76561198335444084,"connected_time":120000000000,"state":"active","ping":132},{"user_id":205,"name":"Ockulus","steam_id":76561199069638460,"connected_time":3970000000000,"state":"active","ping":57},{"user_id":254,"name":"Mr. DeLarge","steam_id":76561198336820066,"connected_time":596000000000,"state":"active","ping":83},{"user_id":230,"name":"Kng","steam_id":76561198993248203,"connected_time":2013000000000,"state":"active","ping":102},{"user_id":197,"name":"Apetometrist","steam_id":76561198045391635,"connected_time":5581000000000,"state":"active","ping":125},{"user_id":256,"name":"1000 Ping","steam_id":76561198098330939,"connected_time":363000000000,"state":"active","ping":68},{"user_id":261,"name":"Paps Burr","steam_id":76561198015202342,"connected_time":158000000000,"state":"active","ping":63},{"user_id":238,"name":"DELTRON ZERO","steam_id":76561198081123470,"connected_time":1677000000000,"state":"active","ping":82},{"user_id":252,"name":"sp♠de","steam_id":76561198213837649,"connected_time":927000000000,"state":"active","ping":75},{"user_id":225,"name":"tim","steam_id":76561198003187590,"connected_time":2140000000000,"state":"active","ping":110},{"user_id":257,"name":"Skribbles","steam_id":76561198373073766,"connected_time":337000000000,"state":"active","ping":57},{"user_id":253,"name":"Eugene Thaddeus Hinkle V","steam_id":76561198821535846,"connected_time":790000000000,"state":"active","ping":106},{"user_id":264,"name":"Rose","steam_id":76561198955581861,"connected_time":85000000000,"state":"active","ping":47},{"user_id":265,"name":"Subject Delta","steam_id":76561199109118980,"connected_time":74000000000,"state":"active","ping":48},{"user_id":266,"name":"walt jizzney","steam_id":76561198168621580,"connected_time":63000000000,"state":"active","ping":238},{"user_id":258,"name":"Booba Feet","steam_id":76561198072094942,"connected_time":294000000000,"state":"active","ping":93},{"user_id":267,"name":"Acolyte of Goatse","steam_id":76561198046526036,"connected_time":50000000000,"state":"active","ping":47},{"user_id":220,"name":"BJ","steam_id":76561198004307563,"connected_time":2899000000000,"state":"active","ping":157},{"user_id":268,"name":"PhaserLazer","steam_id":76561198407341298,"connected_time":37000000000,"state":"spawning","ping":70},{"user_id":249,"name":"F2P nob","steam_id":76561198224841384,"connected_time":1068000000000,"state":"active","ping":115},{"user_id":241,"name":"grapefruit bandit","steam_id":76561198074687094,"connected_time":1659000000000,"state":"active","ping":101},{"user_id":233,"name":"Hindmost","steam_id":76561199081837220,"connected_time":1949000000000,"state":"active","ping":95}]},{"server_id":112,"name":"Uncletopia | Los Angeles | 2 | All Maps","name_short":"lax-2","host":"lax-1.us.uncletopia.com","port":27025,"enabled":true,"region":"us-west","cc":"us","latitude":33.94279,"longitude":-118.41004,"reserved":0,"last_update":"0001-01-01T00:00:00Z","name_a2s":"Uncletopia | Los Angeles | 2 | All Maps","protocol":17,"map":"cp_altitude","folder":"tf","game":"Team Fortress","app_id":440,"player_count":3,"max_players":24,"Bots":0,"server_type":"Dedicated","server_os":"Linux","password":true,"vac":true,"version":"7961495","steam_id":85568392924469992,"keywords":["cp","nocrits","nodmgspread","uncletopia"],"game_id":440,"stv_port":27026,"stv_name":"Uncletopia | Los Angeles | 2 | All Maps | STV","players":[{"user_id":16,"name":"Lorelord","steam_id":76561199443152879,"connected_time":1355000000000,"state":"active","ping":114},{"user_id":19,"name":"Yackaboi","steam_id":76561199444911765,"connected_time":318000000000,"state":"active","ping":87},{"user_id":20,"name":"filthycasual","steam_id":76561199138226238,"connected_time":145000000000,"state":"active","ping":81}]},{"server_id":324,"name":"Uncletopia | Los Angeles | 3 | All Maps","name_short":"lax-3","host":"lax-1.us.uncletopia.com","port":27035,"enabled":true,"region":"us-west","cc":"us","latitude":33.94279,"longitude":-118.41004,"reserved":0,"last_update":"0001-01-01T00:00:00Z","name_a2s":"Uncletopia | Los Angeles | 3 | All Maps","protocol":17,"map":"pl_badwater","folder":"tf","game":"Team Fortress","app_id":440,"player_count":24,"max_players":24,"Bots":0,"server_type":"Dedicated","server_os":"Linux","password":true,"vac":true,"version":"7961495","steam_id":85568392924510198,"keywords":["nocrits","nodmgspread","payload","uncletopia"],"game_id":440,"stv_port":27036,"stv_name":"Uncletopia | Los Angeles | 3 | All Maps | STV","players":[{"user_id":200,"name":"Wizard02","steam_id":76561198178293623,"connected_time":741000000000,"state":"active","ping":118},{"user_id":207,"name":"Ralph Kramden (Slim Charles)","steam_id":76561197981687895,"connected_time":386000000000,"state":"active","ping":62},{"user_id":164,"name":"Pink Tooth Bob","steam_id":76561198142122915,"connected_time":3907000000000,"state":"active","ping":86},{"user_id":196,"name":"JonBoy","steam_id":76561198082052480,"connected_time":1066000000000,"state":"active","ping":90},{"user_id":208,"name":"chunkysquare","steam_id":76561199076468383,"connected_time":356000000000,"state":"active","ping":43},{"user_id":148,"name":"Kirby","steam_id":76561199161858008,"connected_time":4513000000000,"state":"active","ping":102},{"user_id":179,"name":"Axel Beoulve","steam_id":76561198126511231,"connected_time":2388000000000,"state":"active","ping":79},{"user_id":203,"name":"GreenApples","steam_id":76561198120559543,"connected_time":690000000000,"state":"active","ping":52},{"user_id":198,"name":"Apex","steam_id":76561199058954656,"connected_time":817000000000,"state":"active","ping":64},{"user_id":206,"name":"Justinio","steam_id":76561199012167657,"connected_time":436000000000,"state":"active","ping":71},{"user_id":182,"name":"Quigi","steam_id":76561198144645874,"connected_time":2130000000000,"state":"active","ping":79},{"user_id":178,"name":"10HourNaps","steam_id":76561199082304859,"connected_time":2497000000000,"state":"active","ping":88},{"user_id":204,"name":"Dullahan","steam_id":76561198119668908,"connected_time":682000000000,"state":"active","ping":56},{"user_id":159,"name":"prospike569","steam_id":76561199491903111,"connected_time":4266000000000,"state":"active","ping":118},{"user_id":210,"name":"Idk","steam_id":76561198971629959,"connected_time":88000000000,"state":"active","ping":163},{"user_id":194,"name":"Rabid Ham","steam_id":76561198154931014,"connected_time":1323000000000,"state":"active","ping":73},{"user_id":175,"name":"Samercam","steam_id":76561198189403190,"connected_time":2904000000000,"state":"active","ping":104},{"user_id":209,"name":"The Comedian","steam_id":76561198037780226,"connected_time":321000000000,"state":"active","ping":45},{"user_id":189,"name":"Toastedtoast222","steam_id":76561198120756409,"connected_time":1841000000000,"state":"active","ping":98},{"user_id":153,"name":"triph","steam_id":76561198067196509,"connected_time":4505000000000,"state":"active","ping":45},{"user_id":211,"name":"𝖋𝖑𝖎𝖕𝖉𝖔𝖌","steam_id":76561197999648153,"connected_time":47000000000,"state":"active","ping":56},{"user_id":160,"name":"hyzaZzzZZzz (VERY silly (;  :)","steam_id":76561199100342013,"connected_time":4246000000000,"state":"active","ping":46},{"user_id":195,"name":"Maid 'n' China","steam_id":76561198423392976,"connected_time":1105000000000,"state":"active","ping":59},{"user_id":197,"name":"Kimba","steam_id":76561199092078325,"connected_time":1054000000000,"state":"active","ping":130}]},{"server_id":25,"name":"Uncletopia | Los Angeles | 4 | Stopwatch Beta","name_short":"lax-4","host":"lax-1.us.uncletopia.com","port":27045,"enabled":true,"region":"us-west","cc":"us","latitude":33.94279,"longitude":-118.41004,"reserved":0,"last_update":"0001-01-01T00:00:00Z","name_a2s":"Uncletopia | Los Angeles | 4 | Stopwatch Beta","protocol":17,"map":"pl_upward","folder":"tf","game":"Team Fortress","app_id":440,"player_count":0,"max_players":24,"Bots":0,"server_type":"Dedicated","server_os":"Linux","password":true,"vac":true,"version":"7961495","steam_id":85568392924510199,"keywords":["nocrits","nodmgspread","payload","uncletopia"],"game_id":440,"stv_port":27046,"stv_name":"Uncletopia | Los Angeles | 4 | Stopwatch Beta | STV","players":null},{"server_id":11,"name":"Uncletopia | London | 1 | All Maps","name_short":"lon-1","host":"lon-1.uk.uncletopia.com","port":27015,"enabled":true,"region":"eu","cc":"gb","latitude":51.509865,"longitude":-0.118092,"reserved":0,"last_update":"0001-01-01T00:00:00Z","name_a2s":"Uncletopia | London | 1 | All Maps","protocol":17,"map":"pl_snowycoast","folder":"tf","game":"Team Fortress","app_id":440,"player_count":5,"max_players":24,"Bots":0,"server_type":"Dedicated","server_os":"Linux","password":true,"vac":true,"version":"7961495","steam_id":85568392924367362,"keywords":["nocrits","nodmgspread","payload","uncletopia"],"game_id":440,"stv_port":27016,"stv_name":"Uncletopia | London | 1 | All Maps | STV","players":[{"user_id":640,"name":"yuno appreciator","steam_id":76561198083286511,"connected_time":3304000000000,"state":"active","ping":39},{"user_id":661,"name":"sniper monke","steam_id":76561199388444096,"connected_time":147000000000,"state":"active","ping":335},{"user_id":648,"name":"GeoJumper","steam_id":76561198391022888,"connected_time":2768000000000,"state":"active","ping":47},{"user_id":660,"name":"Jinxie","steam_id":76561198008762303,"connected_time":1339000000000,"state":"active","ping":64},{"user_id":649,"name":"PinkDino©™","steam_id":76561198189874406,"connected_time":2705000000000,"state":"active","ping":53}]},{"server_id":114,"name":"Uncletopia | London | 2 | All Maps","name_short":"lon-2","host":"lon-1.uk.uncletopia.com","port":27025,"enabled":true,"region":"eu","cc":"gb","latitude":51.509865,"longitude":-0.118092,"reserved":0,"last_update":"0001-01-01T00:00:00Z","name_a2s":"Uncletopia | London | 2 | All Maps","protocol":17,"map":"koth_viaduct","folder":"tf","game":"Team Fortress","app_id":440,"player_count":0,"max_players":24,"Bots":0,"server_type":"Dedicated","server_os":"Linux","password":true,"vac":true,"version":"7961495","steam_id":85568392924470941,"keywords":["cp","nocrits","nodmgspread","uncletopia"],"game_id":440,"stv_port":27026,"stv_name":"Uncletopia | London | 2 | All Maps | STV","players":null},{"server_id":320,"name":"Uncletopia | London | 3 | All Maps","name_short":"lon-3","host":"lon-1.uk.uncletopia.com","port":27035,"enabled":true,"region":"eu","cc":"gb","latitude":51.509865,"longitude":-0.118092,"reserved":0,"last_update":"0001-01-01T00:00:00Z","name_a2s":"Uncletopia | London | 3 | All Maps","protocol":17,"map":"pl_frontier_final","folder":"tf","game":"Team Fortress","app_id":440,"player_count":19,"max_players":24,"Bots":0,"server_type":"Dedicated","server_os":"Linux","password":true,"vac":true,"version":"7961495","steam_id":85568392924510192,"keywords":["nocrits","nodmgspread","payload","uncletopia"],"game_id":440,"stv_port":27036,"stv_name":"Uncletopia | London | 3 | All Maps | STV","players":[{"user_id":613,"name":"Icarus300","steam_id":76561198015125766,"connected_time":1435000000000,"state":"active","ping":90},{"user_id":595,"name":"jones","steam_id":76561198044434971,"connected_time":2775000000000,"state":"active","ping":60},{"user_id":634,"name":"MewZe","steam_id":76561198293664673,"connected_time":35000000000,"state":"connecting","ping":50},{"user_id":635,"name":"puppy","steam_id":76561198056158882,"connected_time":35000000000,"state":"active","ping":134},{"user_id":617,"name":"sHIFTINGvORTEX","steam_id":76561198231648332,"connected_time":1189000000000,"state":"active","ping":66},{"user_id":605,"name":"Tell me why","steam_id":76561198132080983,"connected_time":2073000000000,"state":"active","ping":82},{"user_id":614,"name":"[\u003e\u003c] OTP Uncle Sam","steam_id":76561198186666399,"connected_time":1417000000000,"state":"active","ping":60},{"user_id":615,"name":"Gunvald","steam_id":76561198020195322,"connected_time":1403000000000,"state":"active","ping":77},{"user_id":629,"name":"saltysagan","steam_id":76561197981854067,"connected_time":415000000000,"state":"active","ping":147},{"user_id":630,"name":"Ze CandyMan (CashMoney)","steam_id":76561198108389190,"connected_time":353000000000,"state":"active","ping":61},{"user_id":608,"name":"Труп Володя","steam_id":76561198035718457,"connected_time":1889000000000,"state":"spawning","ping":85},{"user_id":622,"name":"Commander DM","steam_id":76561198059236770,"connected_time":950000000000,"state":"active","ping":75},{"user_id":633,"name":"Rainforest 2007","steam_id":76561198328824242,"connected_time":119000000000,"state":"active","ping":72},{"user_id":632,"name":"Kanny","steam_id":76561198058810184,"connected_time":211000000000,"state":"active","ping":53},{"user_id":624,"name":"BlackCameBack","steam_id":76561198349877397,"connected_time":905000000000,"state":"active","ping":79},{"user_id":610,"name":"Knague","steam_id":76561198154332955,"connected_time":1652000000000,"state":"spawning","ping":51},{"user_id":599,"name":"Teathling","steam_id":76561198061580505,"connected_time":2542000000000,"state":"active","ping":50},{"user_id":588,"name":"Amayuri","steam_id":76561198068666784,"connected_time":3536000000000,"state":"active","ping":52},{"user_id":607,"name":"Gooby","steam_id":76561198383937031,"connected_time":1940000000000,"state":"active","ping":47}]},{"server_id":321,"name":"Uncletopia | London | 4 | All Maps","name_short":"lon-4","host":"lon-1.uk.uncletopia.com","port":27045,"enabled":true,"region":"eu","cc":"gb","latitude":51.509865,"longitude":-0.118092,"reserved":0,"last_update":"0001-01-01T00:00:00Z","name_a2s":"Uncletopia | London | 4 | All Maps","protocol":17,"map":"koth_highpass","folder":"tf","game":"Team Fortress","app_id":440,"player_count":0,"max_players":24,"Bots":0,"server_type":"Dedicated","server_os":"Linux","password":true,"vac":true,"version":"7961495","steam_id":85568392924510193,"keywords":["cp","nocrits","nodmgspread","uncletopia"],"game_id":440,"stv_port":27046,"stv_name":"Uncletopia | London | 4 | All Maps | STV","players":null},{"server_id":21,"name":"Uncletopia | London | 5 | All Maps","name_short":"lon-5","host":"lon-1.uk.uncletopia.com","port":27055,"enabled":true,"region":"eu","cc":"gb","latitude":51.509865,"longitude":-0.118092,"reserved":0,"last_update":"0001-01-01T00:00:00Z","name_a2s":"Uncletopia | London | 5 | All Maps","protocol":17,"map":"cp_steel","folder":"tf","game":"Team Fortress","app_id":440,"player_count":24,"max_players":24,"Bots":0,"server_type":"Dedicated","server_os":"Linux","password":true,"vac":true,"version":"7961495","steam_id":85568392924742829,"keywords":["cp","nocrits","nodmgspread","uncletopia"],"game_id":440,"stv_port":27056,"stv_name":"Uncletopia | London | 5 | All Maps | STV","players":[{"user_id":452,"name":"Gang Garrison 2","steam_id":76561197983908081,"connected_time":382000000000,"state":"active","ping":52},{"user_id":445,"name":"Flashback","steam_id":76561197973978552,"connected_time":581000000000,"state":"active","ping":54},{"user_id":421,"name":"Miss Bari (epik gamer)","steam_id":76561198365286092,"connected_time":3287000000000,"state":"active","ping":45},{"user_id":432,"name":"Valfezant","steam_id":76561199063983797,"connected_time":1784000000000,"state":"active","ping":73},{"user_id":449,"name":"Dante","steam_id":76561198867107032,"connected_time":471000000000,"state":"active","ping":125},{"user_id":448,"name":"Borat","steam_id":76561198122226417,"connected_time":536000000000,"state":"active","ping":44},{"user_id":450,"name":"Schdevve","steam_id":76561198827461664,"connected_time":430000000000,"state":"active","ping":48},{"user_id":451,"name":"skele","steam_id":76561198799726010,"connected_time":414000000000,"state":"active","ping":149},{"user_id":428,"name":"Frag \"Frag Johnson\" Johnson","steam_id":76561197970114051,"connected_time":2957000000000,"state":"active","ping":45},{"user_id":453,"name":"Beef Wellington","steam_id":76561199120854992,"connected_time":319000000000,"state":"active","ping":158},{"user_id":454,"name":"the boi","steam_id":76561198813451249,"connected_time":288000000000,"state":"active","ping":141},{"user_id":394,"name":"Etheros' Favourite Sentry Buste","steam_id":76561198206522056,"connected_time":5768000000000,"state":"active","ping":74},{"user_id":455,"name":"Le Meilleur","steam_id":76561198054581325,"connected_time":234000000000,"state":"active","ping":188},{"user_id":420,"name":"dd","steam_id":76561198257836694,"connected_time":3358000000000,"state":"active","ping":33},{"user_id":456,"name":"Qdarks","steam_id":76561198013391340,"connected_time":220000000000,"state":"active","ping":142},{"user_id":435,"name":"crazy CHEAPwm1CRITS","steam_id":76561198061502797,"connected_time":1693000000000,"state":"active","ping":174},{"user_id":340,"name":"fence_","steam_id":76561198150386379,"connected_time":9476000000000,"state":"active","ping":45},{"user_id":397,"name":"Jizzy the Jizzster","steam_id":76561198977666346,"connected_time":5750000000000,"state":"active","ping":57},{"user_id":439,"name":"Skůtris","steam_id":76561199109908666,"connected_time":1338000000000,"state":"active","ping":60},{"user_id":457,"name":"Sicko Mode (Chris Pratt Cover)","steam_id":76561198315786174,"connected_time":65000000000,"state":"active","ping":136},{"user_id":438,"name":"Terry Bogard's beefin 12 inch","steam_id":76561198371133385,"connected_time":1645000000000,"state":"active","ping":173},{"user_id":459,"name":"⛧ UnholyLily ⛧","steam_id":76561197961554542,"connected_time":27000000000,"state":"active","ping":41},{"user_id":402,"name":"xXx_神々の消費者_xXx","steam_id":76561198382668057,"connected_time":5720000000000,"state":"active","ping":73}]},{"server_id":22,"name":"Uncletopia | London | 6 | All Maps","name_short":"lon-6","host":"lon-1.uk.uncletopia.com","port":27065,"enabled":true,"region":"eu","cc":"gb","latitude":51.509865,"longitude":-0.118092,"reserved":0,"last_update":"0001-01-01T00:00:00Z","name_a2s":"Uncletopia | London | 6 | All Maps","protocol":17,"map":"koth_lakeside_final","folder":"tf","game":"Team Fortress","app_id":440,"player_count":0,"max_players":24,"Bots":0,"server_type":"Dedicated","server_os":"Linux","password":true,"vac":true,"version":"7961495","steam_id":85568392924742830,"keywords":["cp","nocrits","nodmgspread","uncletopia"],"game_id":440,"stv_port":27066,"stv_name":"Uncletopia | London | 6 | All Maps | STV","players":null},{"server_id":40,"name":"Uncletopia | London | 7 | No Payload","name_short":"lon-7","host":"lon-1.uk.uncletopia.com","port":27075,"enabled":true,"region":"eu","cc":"gb","latitude":51.509865,"longitude":-0.118092,"reserved":0,"last_update":"0001-01-01T00:00:00Z","name_a2s":"Uncletopia | London | 7 | No Payload","protocol":17,"map":"cp_badlands","folder":"tf","game":"Team Fortress","app_id":440,"player_count":0,"max_players":24,"Bots":0,"server_type":"Dedicated","server_os":"Linux","password":true,"vac":true,"version":"7961495","steam_id":85568392924964314,"keywords":["cp","nocrits","nodmgspread","uncletopia"],"game_id":440,"stv_port":27076,"stv_name":"Uncletopia | London | 7 | No Payload | STV","players":null},{"server_id":41,"name":"Uncletopia | London | 8 | Community","name_short":"lon-8","host":"lon-1.uk.uncletopia.com","port":27085,"enabled":true,"region":"eu","cc":"gb","latitude":51.509865,"longitude":-0.118092,"reserved":0,"last_update":"0001-01-01T00:00:00Z","name_a2s":"Uncletopia | London | 8 | Community","protocol":17,"map":"workshop/koth_ashville_final.ugc2130459942","folder":"tf","game":"Team Fortress","app_id":440,"player_count":0,"max_players":24,"Bots":0,"server_type":"Dedicated","server_os":"Linux","password":true,"vac":true,"version":"7961495","steam_id":85568392924964315,"keywords":["cp","nocrits","nodmgspread","uncletopia"],"game_id":440,"stv_port":27086,"stv_name":"Uncletopia | London | 8 | Community | STV","players":null},{"server_id":300,"name":"Uncletopia | Montréal | 1 | All Maps","name_short":"mtl-1","host":"mtl-1.ca.uncletopia.com","port":27015,"enabled":true,"region":"us-east","cc":"ca","latitude":45.50889,"longitude":-73.56167,"reserved":0,"last_update":"0001-01-01T00:00:00Z","name_a2s":"Uncletopia | Montréal | 1 | All Maps","protocol":17,"map":"koth_cascade","folder":"tf","game":"Team Fortress","app_id":440,"player_count":0,"max_players":24,"Bots":0,"server_type":"Dedicated","server_os":"Linux","password":true,"vac":true,"version":"7961495","steam_id":85568392924500087,"keywords":["nocrits","nodmgspread","payload","uncletopia"],"game_id":440,"stv_port":27016,"stv_name":"Uncletopia | Montréal | 1 | All Maps | STV","players":null},{"server_id":301,"name":"Uncletopia | Montréal | 2 | All Maps","name_short":"mtl-2","host":"mtl-1.ca.uncletopia.com","port":27025,"enabled":true,"region":"us-east","cc":"ca","latitude":45.50889,"longitude":-73.56167,"reserved":0,"last_update":"0001-01-01T00:00:00Z","name_a2s":"Uncletopia | Montréal | 2 | All Maps","protocol":17,"map":"cp_altitude","folder":"tf","game":"Team Fortress","app_id":440,"player_count":0,"max_players":24,"Bots":0,"server_type":"Dedicated","server_os":"Linux","password":true,"vac":true,"version":"7961495","steam_id":85568392924500088,"keywords":["cp","nocrits","nodmgspread","uncletopia"],"game_id":440,"stv_port":27026,"stv_name":"Uncletopia | Montréal | 2 | All Maps | STV","players":null},{"server_id":302,"name":"Uncletopia | Montréal | 3 | All Maps","name_short":"mtl-3","host":"mtl-1.ca.uncletopia.com","port":27035,"enabled":true,"region":"us-east","cc":"ca","latitude":45.50889,"longitude":-73.56167,"reserved":0,"last_update":"0001-01-01T00:00:00Z","name_a2s":"Uncletopia | Montréal | 3 | All Maps","protocol":17,"map":"cp_mountainlab","folder":"tf","game":"Team Fortress","app_id":440,"player_count":3,"max_players":24,"Bots":0,"server_type":"Dedicated","server_os":"Linux","password":true,"vac":true,"version":"7961495","steam_id":85568392924500089,"keywords":["cp","nocrits","nodmgspread","uncletopia"],"game_id":440,"stv_port":27036,"stv_name":"Uncletopia | Montréal | 3 | All Maps | STV","players":null},{"server_id":303,"name":"Uncletopia | Montréal | 4 | No Payload","name_short":"mtl-4","host":"mtl-1.ca.uncletopia.com","port":27045,"enabled":true,"region":"us-east","cc":"ca","latitude":45.50889,"longitude":-73.56167,"reserved":0,"last_update":"0001-01-01T00:00:00Z","name_a2s":"Uncletopia | Montréal | 4 | No Payload","protocol":17,"map":"koth_sawmill","folder":"tf","game":"Team Fortress","app_id":440,"player_count":23,"max_players":24,"Bots":0,"server_type":"Dedicated","server_os":"Linux","password":true,"vac":true,"version":"7961495","steam_id":85568392924500090,"keywords":["cp","nocrits","nodmgspread","uncletopia"],"game_id":440,"stv_port":27046,"stv_name":"Uncletopia | Montréal | 4 | No Payload | STV","players":[{"user_id":118,"name":"PAC-MATH","steam_id":76561198327729748,"connected_time":3139000000000,"state":"active","ping":47},{"user_id":130,"name":"AstronautPug","steam_id":76561198162372709,"connected_time":2637000000000,"state":"active","ping":72},{"user_id":162,"name":"Mer","steam_id":76561198192171041,"connected_time":469000000000,"state":"active","ping":98},{"user_id":135,"name":"the gamer","steam_id":76561199175442910,"connected_time":2321000000000,"state":"active","ping":69},{"user_id":58,"name":"TimeWarper","steam_id":76561198307258839,"connected_time":5469000000000,"state":"active","ping":63},{"user_id":136,"name":"yes daddy","steam_id":76561198166100997,"connected_time":2319000000000,"state":"active","ping":84},{"user_id":151,"name":"Vault707","steam_id":76561198906763623,"connected_time":1407000000000,"state":"active","ping":57},{"user_id":150,"name":"Idiotden","steam_id":76561199340950135,"connected_time":1554000000000,"state":"active","ping":112},{"user_id":137,"name":"Freezing0K","steam_id":76561198142170847,"connected_time":2305000000000,"state":"active","ping":92},{"user_id":152,"name":"CheesyPoofs","steam_id":76561197998650617,"connected_time":1230000000000,"state":"active","ping":121},{"user_id":149,"name":"Kiwi","steam_id":76561198997189224,"connected_time":1646000000000,"state":"active","ping":79},{"user_id":155,"name":"Brendan","steam_id":76561198041079914,"connected_time":836000000000,"state":"active","ping":67},{"user_id":163,"name":"Bored Barred Owl","steam_id":76561198263895597,"connected_time":431000000000,"state":"active","ping":65},{"user_id":139,"name":"Alkahest","steam_id":76561199112346658,"connected_time":2152000000000,"state":"active","ping":57},{"user_id":164,"name":"Bottle","steam_id":76561198044031558,"connected_time":424000000000,"state":"active","ping":57},{"user_id":132,"name":"A_NegativeDan","steam_id":76561198078993041,"connected_time":2543000000000,"state":"active","ping":44},{"user_id":167,"name":"Pistol Freeman","steam_id":76561198026818915,"connected_time":351000000000,"state":"active","ping":57},{"user_id":168,"name":"goober","steam_id":76561198344499440,"connected_time":292000000000,"state":"active","ping":69},{"user_id":126,"name":"K. O. E.","steam_id":76561198025188490,"connected_time":2793000000000,"state":"active","ping":69},{"user_id":147,"name":"Trace","steam_id":76561198009486000,"connected_time":1676000000000,"state":"active","ping":82},{"user_id":166,"name":"Weiserbot","steam_id":76561198882389970,"connected_time":378000000000,"state":"active","ping":70},{"user_id":134,"name":"YourLocalArsonist","steam_id":76561199111922751,"connected_time":2427000000000,"state":"active","ping":68},{"user_id":161,"name":"creal","steam_id":76561198127116199,"connected_time":617000000000,"state":"active","ping":75}]},{"server_id":13,"name":"Uncletopia | New York City | 1 | All Maps","name_short":"nyc-1","host":"nyc-1.us.uncletopia.com","port":27015,"enabled":true,"region":"us-east","cc":"us","latitude":40.73061,"longitude":-73.93524,"reserved":0,"last_update":"0001-01-01T00:00:00Z","name_a2s":"Uncletopia | New York City | 1 | All Maps","protocol":17,"map":"pl_borneo","folder":"tf","game":"Team Fortress","app_id":440,"player_count":24,"max_players":24,"Bots":0,"server_type":"Dedicated","server_os":"Linux","password":true,"vac":true,"version":"7961495","steam_id":85568392924469993,"keywords":["nocrits","nodmgspread","payload","uncletopia"],"game_id":440,"stv_port":27016,"stv_name":"Uncletopia | New York City | 1 | All Maps | STV","players":[{"user_id":295,"name":"StraySheep","steam_id":76561198256003811,"connected_time":797000000000,"state":"active","ping":52},{"user_id":293,"name":"Bulk","steam_id":76561199009814535,"connected_time":1281000000000,"state":"active","ping":45},{"user_id":297,"name":"boe jiden","steam_id":76561198041048289,"connected_time":533000000000,"state":"active","ping":42},{"user_id":275,"name":"Blobbyfish","steam_id":76561198822962650,"connected_time":2171000000000,"state":"active","ping":54},{"user_id":300,"name":"soof","steam_id":76561198043762955,"connected_time":482000000000,"state":"active","ping":50},{"user_id":298,"name":"Justice Janet Protasiewicz","steam_id":76561198028606123,"connected_time":521000000000,"state":"active","ping":41},{"user_id":286,"name":"Sire Salty","steam_id":76561198079639072,"connected_time":1827000000000,"state":"active","ping":55},{"user_id":299,"name":"enzowolf10","steam_id":76561198028696728,"connected_time":520000000000,"state":"active","ping":45},{"user_id":263,"name":"space man","steam_id":76561198066333670,"connected_time":3290000000000,"state":"active","ping":69},{"user_id":268,"name":"Darkish Souls","steam_id":76561198095982312,"connected_time":2456000000000,"state":"active","ping":42},{"user_id":256,"name":"crayon","steam_id":76561199091825398,"connected_time":3665000000000,"state":"active","ping":85},{"user_id":270,"name":"Raisincineroar","steam_id":76561198116295334,"connected_time":2310000000000,"state":"active","ping":51},{"user_id":301,"name":"Cum Time™","steam_id":76561198003137065,"connected_time":123000000000,"state":"active","ping":48},{"user_id":264,"name":"Queso2469","steam_id":76561197993024580,"connected_time":3252000000000,"state":"active","ping":48},{"user_id":288,"name":"booger boner 24","steam_id":76561198165299077,"connected_time":1743000000000,"state":"active","ping":51},{"user_id":284,"name":"TTV Hunter","steam_id":76561198115812405,"connected_time":1864000000000,"state":"active","ping":74},{"user_id":294,"name":"LennyGaggins","steam_id":76561198119768140,"connected_time":833000000000,"state":"active","ping":69},{"user_id":246,"name":"cowboy","steam_id":76561199079124758,"connected_time":4331000000000,"state":"active","ping":84},{"user_id":290,"name":"Connection","steam_id":76561199230740231,"connected_time":1612000000000,"state":"active","ping":58},{"user_id":291,"name":"lingulata","steam_id":76561198076208960,"connected_time":1584000000000,"state":"active","ping":75},{"user_id":241,"name":"Raskell","steam_id":76561198064617950,"connected_time":4607000000000,"state":"active","ping":71},{"user_id":262,"name":"Drygongames","steam_id":76561198250418424,"connected_time":3451000000000,"state":"active","ping":114},{"user_id":285,"name":"Icedtornado","steam_id":76561198308303560,"connected_time":1854000000000,"state":"active","ping":86},{"user_id":269,"name":"CRAZY engineer","steam_id":76561198887937902,"connected_time":2364000000000,"state":"active","ping":51}]},{"server_id":14,"name":"Uncletopia | New York City | 2 | All Maps","name_short":"nyc-2","host":"nyc-1.us.uncletopia.com","port":27025,"enabled":true,"region":"us-east","cc":"us","latitude":40.73061,"longitude":-73.93524,"reserved":0,"last_update":"0001-01-01T00:00:00Z","name_a2s":"Uncletopia | New York City | 2 | All Maps","protocol":17,"map":"plr_hightower","folder":"tf","game":"Team Fortress","app_id":440,"player_count":23,"max_players":24,"Bots":0,"server_type":"Dedicated","server_os":"Linux","password":true,"vac":true,"version":"7961495","steam_id":85568392924469994,"keywords":["nocrits","nodmgspread","payload","uncletopia"],"game_id":440,"stv_port":27026,"stv_name":"Uncletopia | New York City | 2 | All Maps | STV","players":[{"user_id":527,"name":"DrDanny","steam_id":76561198117043921,"connected_time":104000000000,"state":"active","ping":56},{"user_id":520,"name":"Terror-Billy #SaveTF2","steam_id":76561198328141870,"connected_time":298000000000,"state":"active","ping":73},{"user_id":524,"name":"ED","steam_id":76561198441715445,"connected_time":217000000000,"state":"active","ping":61},{"user_id":525,"name":"Bᵢg Bₒₛₛ","steam_id":76561198090271815,"connected_time":198000000000,"state":"active","ping":137},{"user_id":495,"name":"0","steam_id":76561198077882008,"connected_time":4233000000000,"state":"active","ping":96},{"user_id":526,"name":"onion connoisseur","steam_id":76561198065266282,"connected_time":172000000000,"state":"active","ping":58},{"user_id":519,"name":"GaiBerd","steam_id":76561198177100634,"connected_time":324000000000,"state":"active","ping":47},{"user_id":521,"name":"duhRICE[UT]","steam_id":76561198117832876,"connected_time":273000000000,"state":"active","ping":39},{"user_id":522,"name":"stakehater11","steam_id":76561198079501615,"connected_time":250000000000,"state":"active","ping":84},{"user_id":523,"name":"Spud","steam_id":76561197998053634,"connected_time":231000000000,"state":"active","ping":76},{"user_id":413,"name":"A_Malebolgia","steam_id":76561198097722818,"connected_time":11385000000000,"state":"active","ping":85},{"user_id":487,"name":"Grilled Of The Cheese","steam_id":76561198145066749,"connected_time":4698000000000,"state":"active","ping":72},{"user_id":528,"name":"GreatTimBones","steam_id":76561198409145748,"connected_time":75000000000,"state":"active","ping":69},{"user_id":515,"name":"femtofarad™","steam_id":76561198308583053,"connected_time":607000000000,"state":"active","ping":67},{"user_id":499,"name":"StuartBell511","steam_id":76561198060931721,"connected_time":2855000000000,"state":"active","ping":71},{"user_id":491,"name":"themouseofchaos","steam_id":76561198256777743,"connected_time":4446000000000,"state":"active","ping":59},{"user_id":474,"name":"Gentoo Linux Gaming","steam_id":76561197999657118,"connected_time":5469000000000,"state":"active","ping":67},{"user_id":514,"name":"orbisg","steam_id":76561198004133638,"connected_time":706000000000,"state":"active","ping":121},{"user_id":518,"name":"castlerock","steam_id":76561198857184966,"connected_time":369000000000,"state":"active","ping":45},{"user_id":529,"name":"hayes","steam_id":76561198057101042,"connected_time":73000000000,"state":"active","ping":100},{"user_id":508,"name":"EmeraldCola","steam_id":76561198066663687,"connected_time":1620000000000,"state":"active","ping":59},{"user_id":507,"name":"Soldier","steam_id":76561198029265697,"connected_time":1748000000000,"state":"active","ping":75},{"user_id":516,"name":"kelpy","steam_id":76561198192377741,"connected_time":591000000000,"state":"active","ping":76}]},{"server_id":15,"name":"Uncletopia | New York City | 3 | Stopwatch Beta","name_short":"nyc-3","host":"nyc-1.us.uncletopia.com","port":27035,"enabled":true,"region":"us-east","cc":"us","latitude":40.73061,"longitude":-73.93524,"reserved":0,"last_update":"0001-01-01T00:00:00Z","name_a2s":"Uncletopia | New York City | 3 | Stopwatch Beta","protocol":17,"map":"pl_upward","folder":"tf","game":"Team Fortress","app_id":440,"player_count":0,"max_players":24,"Bots":0,"server_type":"Dedicated","server_os":"Linux","password":true,"vac":true,"version":"7961495","steam_id":85568392924742820,"keywords":["nocrits","nodmgspread","payload","uncletopia"],"game_id":440,"stv_port":27036,"stv_name":"Uncletopia | New York City | 3 | Stopwatch Beta | STV","players":null},{"server_id":16,"name":"Uncletopia | New York City | 4 | Community","name_short":"nyc-4","host":"nyc-1.us.uncletopia.com","port":27045,"enabled":true,"region":"us-east","cc":"us","latitude":40.73061,"longitude":-73.93524,"reserved":0,"last_update":"0001-01-01T00:00:00Z","name_a2s":"Uncletopia | New York City | 4 | Community","protocol":17,"map":"workshop/cp_croissant_final.ugc458840209","folder":"tf","game":"Team Fortress","app_id":440,"player_count":24,"max_players":24,"Bots":0,"server_type":"Dedicated","server_os":"Linux","password":true,"vac":true,"version":"7961495","steam_id":85568392924742821,"keywords":["cp","nocrits","nodmgspread","uncletopia"],"game_id":440,"stv_port":27046,"stv_name":"Uncletopia | New York City | 4 | Community | STV","players":[{"user_id":12,"name":"Mikey Wikey","steam_id":76561198118857936,"connected_time":3415000000000,"state":"active","ping":85},{"user_id":13,"name":"Idiot Princess","steam_id":76561198048205270,"connected_time":3405000000000,"state":"active","ping":68},{"user_id":14,"name":"Dumper Alert","steam_id":76561198083631124,"connected_time":3287000000000,"state":"active","ping":68},{"user_id":15,"name":"nfseskimo","steam_id":76561198078745666,"connected_time":2096000000000,"state":"active","ping":119},{"user_id":16,"name":"Smegmar \"Meth Monkey\"","steam_id":76561198143476620,"connected_time":1998000000000,"state":"active","ping":56},{"user_id":17,"name":"Dastardly \u0026 Dickless Degenerate","steam_id":76561198119602179,"connected_time":1949000000000,"state":"active","ping":60},{"user_id":43,"name":"KiloTwoBravo","steam_id":76561199489748663,"connected_time":907000000000,"state":"active","ping":67},{"user_id":50,"name":"zinqi","steam_id":76561198376838848,"connected_time":421000000000,"state":"active","ping":103},{"user_id":23,"name":"Horse","steam_id":76561198004583631,"connected_time":1696000000000,"state":"active","ping":85},{"user_id":57,"name":"YOUNG   DABO","steam_id":76561198131615933,"connected_time":42000000000,"state":"active","ping":88},{"user_id":22,"name":"Drade","steam_id":76561198394605337,"connected_time":1744000000000,"state":"active","ping":100},{"user_id":56,"name":"☹","steam_id":76561198804763186,"connected_time":193000000000,"state":"active","ping":42},{"user_id":58,"name":"Strangelove","steam_id":76561198353773611,"connected_time":39000000000,"state":"active","ping":82},{"user_id":29,"name":"agless","steam_id":76561198045248344,"connected_time":1545000000000,"state":"active","ping":67},{"user_id":54,"name":"dnaak","steam_id":76561197960489193,"connected_time":255000000000,"state":"active","ping":61},{"user_id":31,"name":"NeonBean","steam_id":76561198088335827,"connected_time":1519000000000,"state":"active","ping":98},{"user_id":32,"name":"Legendairy Products","steam_id":76561198059775008,"connected_time":1372000000000,"state":"active","ping":95},{"user_id":33,"name":"reatardhole","steam_id":76561198141217941,"connected_time":1340000000000,"state":"active","ping":47},{"user_id":34,"name":"theloneflute","steam_id":76561198109316816,"connected_time":1334000000000,"state":"active","ping":66},{"user_id":36,"name":"Slashes","steam_id":76561197968573499,"connected_time":1257000000000,"state":"active","ping":42},{"user_id":37,"name":"Malinok","steam_id":76561198025681131,"connected_time":1228000000000,"state":"active","ping":100},{"user_id":51,"name":"KnightRider5000","steam_id":76561198150044298,"connected_time":420000000000,"state":"active","ping":87},{"user_id":52,"name":"suger1316","steam_id":76561199079999423,"connected_time":410000000000,"state":"active","ping":62},{"user_id":55,"name":"Octomal800","steam_id":76561199453595616,"connected_time":242000000000,"state":"active","ping":102}]},{"server_id":142,"name":"Uncletopia | São Paulo | 1 | All Maps","name_short":"sao-1","host":"sao-1.br.uncletopia.com","port":27015,"enabled":true,"region":"sa","cc":"br","latitude":-23.533773,"longitude":-46.62529,"reserved":0,"last_update":"0001-01-01T00:00:00Z","name_a2s":"Uncletopia | São Paulo | 1 | All Maps","protocol":17,"map":"pl_barnblitz","folder":"tf","game":"Team Fortress","app_id":440,"player_count":0,"max_players":24,"Bots":0,"server_type":"Dedicated","server_os":"Linux","password":true,"vac":true,"version":"7961495","steam_id":85568392924469996,"keywords":["nocrits","nodmgspread","payload","uncletopia"],"game_id":440,"stv_port":27016,"stv_name":"Uncletopia | São Paulo | 1 | All Maps | STV","players":null},{"server_id":143,"name":"Uncletopia | São Paulo | 2 | Community","name_short":"sao-2","host":"sao-2.br.uncletopia.com","port":27015,"enabled":true,"region":"sa","cc":"br","latitude":-23.533773,"longitude":-46.62529,"reserved":0,"last_update":"0001-01-01T00:00:00Z","name_a2s":"Uncletopia | São Paulo | 2 | Community","protocol":17,"map":"workshop/cp_fulgur_rc2a.ugc2068252300","folder":"tf","game":"Team Fortress","app_id":440,"player_count":0,"max_players":24,"Bots":0,"server_type":"Dedicated","server_os":"Linux","password":true,"vac":true,"version":"7961495","steam_id":85568392924485349,"keywords":["cp","nocrits","nodmgspread","uncletopia"],"game_id":440,"stv_port":27016,"stv_name":"Uncletopia | São Paulo | 2 | Community | STV","players":null},{"server_id":7,"name":"Uncletopia | Seattle | 1 | All Maps","name_short":"sea-1","host":"sea-1.us.uncletopia.com","port":27015,"enabled":true,"region":"us-west","cc":"us","latitude":47.608013,"longitude":-122.33517,"reserved":0,"last_update":"0001-01-01T00:00:00Z","name_a2s":"Uncletopia | Seattle | 1 | All Maps","protocol":17,"map":"pl_barnblitz","folder":"tf","game":"Team Fortress","app_id":440,"player_count":24,"max_players":24,"Bots":0,"server_type":"Dedicated","server_os":"Linux","password":true,"vac":true,"version":"7961495","steam_id":85568392924469997,"keywords":["nocrits","nodmgspread","payload","uncletopia"],"game_id":440,"stv_port":27016,"stv_name":"Uncletopia | Seattle | 1 | All Maps | STV","players":[{"user_id":482,"name":"zinnk","steam_id":76561198092081825,"connected_time":1464000000000,"state":"active","ping":60},{"user_id":479,"name":"db","steam_id":76561197999666480,"connected_time":1792000000000,"state":"active","ping":77},{"user_id":497,"name":"Sniff","steam_id":76561198010270922,"connected_time":203000000000,"state":"active","ping":58},{"user_id":486,"name":"help","steam_id":76561198171840525,"connected_time":966000000000,"state":"active","ping":53},{"user_id":483,"name":"Why does glass taste like blood","steam_id":76561198253922494,"connected_time":1427000000000,"state":"active","ping":91},{"user_id":462,"name":"Integral","steam_id":76561198158225481,"connected_time":3084000000000,"state":"active","ping":87},{"user_id":474,"name":"Vincent Van Bro","steam_id":76561197966919802,"connected_time":2121000000000,"state":"active","ping":58},{"user_id":467,"name":"MonteJT","steam_id":76561198055409360,"connected_time":2772000000000,"state":"active","ping":36},{"user_id":451,"name":"Confirmed Bachelor","steam_id":76561198441041496,"connected_time":3706000000000,"state":"active","ping":54},{"user_id":494,"name":"bobby wasabi","steam_id":76561198380018244,"connected_time":470000000000,"state":"active","ping":62},{"user_id":500,"name":"D34dR4bbit","steam_id":76561198167411455,"connected_time":149000000000,"state":"active","ping":52},{"user_id":490,"name":"hosewater","steam_id":76561198023383126,"connected_time":791000000000,"state":"active","ping":55},{"user_id":498,"name":"Slothy","steam_id":76561198967069349,"connected_time":199000000000,"state":"active","ping":65},{"user_id":493,"name":"Hotdoggiest","steam_id":76561198049420141,"connected_time":518000000000,"state":"active","ping":78},{"user_id":422,"name":"sillyjack","steam_id":76561198844273999,"connected_time":6471000000000,"state":"active","ping":47},{"user_id":480,"name":"[72Vs] James Yeetoe","steam_id":76561198314789145,"connected_time":1754000000000,"state":"active","ping":55},{"user_id":476,"name":"lavender","steam_id":76561199069518286,"connected_time":2103000000000,"state":"active","ping":74},{"user_id":477,"name":"Reague","steam_id":76561199092175631,"connected_time":2071000000000,"state":"active","ping":125},{"user_id":478,"name":"Daz","steam_id":76561198041431938,"connected_time":2068000000000,"state":"active","ping":51},{"user_id":491,"name":"TheCowledWiz","steam_id":76561198016735868,"connected_time":790000000000,"state":"active","ping":49},{"user_id":485,"name":"BlazedBunny","steam_id":76561198243610560,"connected_time":1081000000000,"state":"active","ping":78},{"user_id":432,"name":"me \"the sandwich\"","steam_id":76561198870649125,"connected_time":5772000000000,"state":"active","ping":88},{"user_id":501,"name":"KhorneBread ︻デ 一","steam_id":76561198097069958,"connected_time":146000000000,"state":"active","ping":132},{"user_id":507,"name":"TimTam Tom","steam_id":76561198045988062,"connected_time":70000000000,"state":"active","ping":98}]},{"server_id":119,"name":"Uncletopia | Seattle | 2 | All Maps","name_short":"sea-2","host":"sea-1.us.uncletopia.com","port":27025,"enabled":true,"region":"us-west","cc":"us","latitude":47.608013,"longitude":-122.33517,"reserved":0,"last_update":"0001-01-01T00:00:00Z","name_a2s":"Uncletopia | Seattle | 2 | All Maps","protocol":17,"map":"plr_hightower","folder":"tf","game":"Team Fortress","app_id":440,"player_count":23,"max_players":24,"Bots":0,"server_type":"Dedicated","server_os":"Linux","password":true,"vac":true,"version":"7961495","steam_id":85568392924469998,"keywords":["nocrits","nodmgspread","payload","uncletopia"],"game_id":440,"stv_port":27026,"stv_name":"Uncletopia | Seattle | 2 | All Maps | STV","players":[{"user_id":231,"name":"VixianUwU","steam_id":76561198948815060,"connected_time":2952000000000,"state":"active","ping":76},{"user_id":264,"name":"Rilln","steam_id":76561199013156353,"connected_time":254000000000,"state":"active","ping":142},{"user_id":256,"name":"Jerry Bee","steam_id":76561198170444711,"connected_time":691000000000,"state":"active","ping":34},{"user_id":249,"name":"Chee33e","steam_id":76561198242486440,"connected_time":1077000000000,"state":"active","ping":125},{"user_id":269,"name":"ᴿᴺᴳ Gʀɪᴍᴠɪʙᴇs","steam_id":76561198065621941,"connected_time":119000000000,"state":"active","ping":46},{"user_id":241,"name":"Zeusplane","steam_id":76561198075052022,"connected_time":2019000000000,"state":"active","ping":107},{"user_id":242,"name":"Diesel","steam_id":76561198448815852,"connected_time":1998000000000,"state":"active","ping":63},{"user_id":267,"name":"Chilly Wintrz","steam_id":76561198137410740,"connected_time":177000000000,"state":"active","ping":94},{"user_id":223,"name":"syncronoms","steam_id":76561198059808982,"connected_time":3445000000000,"state":"active","ping":62},{"user_id":240,"name":"S Q U I S H E  T H A T  C A T","steam_id":76561198293865429,"connected_time":2072000000000,"state":"active","ping":42},{"user_id":244,"name":"degeneracy","steam_id":76561198836102519,"connected_time":1944000000000,"state":"active","ping":117},{"user_id":266,"name":"NoLights!","steam_id":76561197981106761,"connected_time":210000000000,"state":"active","ping":121},{"user_id":261,"name":"RAT BASTARD","steam_id":76561198281265166,"connected_time":499000000000,"state":"active","ping":84},{"user_id":217,"name":"Cinnifox","steam_id":76561198068773971,"connected_time":3553000000000,"state":"active","ping":61},{"user_id":268,"name":"♥ alixei! ♥","steam_id":76561198014557455,"connected_time":165000000000,"state":"active","ping":112},{"user_id":239,"name":"THAT CAT","steam_id":76561198010828625,"connected_time":2185000000000,"state":"active","ping":44},{"user_id":252,"name":"Snail","steam_id":76561198883228947,"connected_time":829000000000,"state":"active","ping":133},{"user_id":270,"name":"spiderland","steam_id":76561198335992132,"connected_time":96000000000,"state":"active","ping":38},{"user_id":257,"name":"CashGordon","steam_id":76561197975594096,"connected_time":670000000000,"state":"active","ping":41},{"user_id":225,"name":"crumbles","steam_id":76561198168707036,"connected_time":3431000000000,"state":"active","ping":74},{"user_id":226,"name":"Lucon","steam_id":76561198067147724,"connected_time":3426000000000,"state":"active","ping":116},{"user_id":258,"name":"polarbub","steam_id":76561198991022799,"connected_time":669000000000,"state":"active","ping":114},{"user_id":227,"name":"Chestnnut","steam_id":76561198077782729,"connected_time":3417000000000,"state":"active","ping":140}]},{"server_id":406,"name":"Uncletopia | Seattle | 3 | Stopwatch Beta","name_short":"sea-3","host":"sea-1.us.uncletopia.com","port":27035,"enabled":true,"region":"us-west","cc":"us","latitude":47.608013,"longitude":-122.33517,"reserved":0,"last_update":"0001-01-01T00:00:00Z","name_a2s":"Uncletopia | Seattle | 3 | Stopwatch Beta","protocol":17,"map":"pl_upward","folder":"tf","game":"Team Fortress","app_id":440,"player_count":0,"max_players":24,"Bots":0,"server_type":"Dedicated","server_os":"Linux","password":true,"vac":true,"version":"7961495","steam_id":85568392924515217,"keywords":["nocrits","nodmgspread","payload","uncletopia"],"game_id":440,"stv_port":27036,"stv_name":"Uncletopia | Seattle | 3 | Stopwatch Beta | STV","players":null},{"server_id":17,"name":"Uncletopia | San Francisco | 1 | All Maps","name_short":"sfo-1","host":"sfo-1.us.uncletopia.com","port":27015,"enabled":true,"region":"us-west","cc":"us","latitude":37.77397,"longitude":-122.4313,"reserved":0,"last_update":"0001-01-01T00:00:00Z","name_a2s":"Uncletopia | San Francisco | 1 | All Maps","protocol":17,"map":"koth_viaduct","folder":"tf","game":"Team Fortress","app_id":440,"player_count":0,"max_players":24,"Bots":0,"server_type":"Dedicated","server_os":"Linux","password":true,"vac":true,"version":"7961495","steam_id":85568392924469999,"keywords":["cp","nocrits","nodmgspread","uncletopia"],"game_id":440,"stv_port":27016,"stv_name":"Uncletopia | San Francisco | 1 | All Maps | STV","players":null},{"server_id":18,"name":"Uncletopia | San Francisco | 2 | All Maps","name_short":"sfo-2","host":"sfo-1.us.uncletopia.com","port":27025,"enabled":true,"region":"us-west","cc":"us","latitude":37.77397,"longitude":-122.4313,"reserved":0,"last_update":"0001-01-01T00:00:00Z","name_a2s":"Uncletopia | San Francisco | 2 | All Maps","protocol":17,"map":"ctf_2fort","folder":"tf","game":"Team Fortress","app_id":440,"player_count":22,"max_players":24,"Bots":0,"server_type":"Dedicated","server_os":"Linux","password":true,"vac":true,"version":"7961495","steam_id":85568392924470000,"keywords":["ctf","nocrits","nodmgspread","uncletopia"],"game_id":440,"stv_port":27026,"stv_name":"Uncletopia | San Francisco | 2 | All Maps | STV","players":[{"user_id":77,"name":"Sinn","steam_id":76561199013434543,"connected_time":3927000000000,"state":"active","ping":57},{"user_id":79,"name":"Duckbeater","steam_id":76561198012421014,"connected_time":3905000000000,"state":"active","ping":74},{"user_id":100,"name":"flamingdorit0s","steam_id":76561198869206247,"connected_time":2750000000000,"state":"active","ping":117},{"user_id":117,"name":"Aeri","steam_id":76561198041809495,"connected_time":2307000000000,"state":"active","ping":64},{"user_id":107,"name":"omnislime","steam_id":76561199382475668,"connected_time":2621000000000,"state":"spawning","ping":85},{"user_id":141,"name":"dirty30","steam_id":76561198021226566,"connected_time":28000000000,"state":"active","ping":61},{"user_id":136,"name":"absolute gigachad heavy","steam_id":76561198065662025,"connected_time":637000000000,"state":"active","ping":54},{"user_id":130,"name":"Zero","steam_id":76561198137754636,"connected_time":1022000000000,"state":"active","ping":54},{"user_id":110,"name":"srmoore 103","steam_id":76561198300291415,"connected_time":2548000000000,"state":"active","ping":62},{"user_id":142,"name":"jojo","steam_id":76561198105245989,"connected_time":18000000000,"state":"spawning","ping":89},{"user_id":97,"name":"Lycan","steam_id":76561198151499868,"connected_time":3149000000000,"state":"active","ping":60},{"user_id":134,"name":"Magical.Puffin","steam_id":76561198129039275,"connected_time":752000000000,"state":"connecting","ping":111},{"user_id":120,"name":"Jugg","steam_id":76561198081722054,"connected_time":1876000000000,"state":"active","ping":125},{"user_id":137,"name":"Versuski","steam_id":76561198085193084,"connected_time":630000000000,"state":"active","ping":117},{"user_id":71,"name":"A Pile Of Bacon","steam_id":76561198105243785,"connected_time":5164000000000,"state":"active","ping":58},{"user_id":57,"name":"bubba simp club","steam_id":76561199338554815,"connected_time":6100000000000,"state":"active","ping":84},{"user_id":121,"name":"TeamDismount","steam_id":76561198126544308,"connected_time":1804000000000,"state":"active","ping":61},{"user_id":109,"name":"GJDon","steam_id":76561199026755019,"connected_time":2588000000000,"state":"active","ping":123},{"user_id":135,"name":"Zebulon","steam_id":76561198025719753,"connected_time":721000000000,"state":"active","ping":41},{"user_id":140,"name":"LordofChaos01801","steam_id":76561198261324244,"connected_time":155000000000,"state":"active","ping":144},{"user_id":114,"name":"Risky","steam_id":76561198231029328,"connected_time":2529000000000,"state":"active","ping":46},{"user_id":98,"name":"Zigadox","steam_id":76561198079813479,"connected_time":3149000000000,"state":"active","ping":130}]},{"server_id":19,"name":"Uncletopia | San Francisco | 3 | Stopwatch Beta","name_short":"sfo-3","host":"sfo-1.us.uncletopia.com","port":27035,"enabled":true,"region":"us-west","cc":"us","latitude":37.77397,"longitude":-122.4313,"reserved":0,"last_update":"0001-01-01T00:00:00Z","name_a2s":"Uncletopia | San Francisco | 3 | Stopwatch Beta","protocol":17,"map":"pl_borneo","folder":"tf","game":"Team Fortress","app_id":440,"player_count":0,"max_players":24,"Bots":0,"server_type":"Dedicated","server_os":"Linux","password":true,"vac":true,"version":"7961495","steam_id":85568392924742824,"keywords":["nocrits","nodmgspread","payload","uncletopia"],"game_id":440,"stv_port":27036,"stv_name":"Uncletopia | San Francisco | 3 | Stopwatch Beta | STV","players":null},{"server_id":20,"name":"Uncletopia | San Francisco | 4 | Community","name_short":"sfo-4","host":"sfo-1.us.uncletopia.com","port":27045,"enabled":true,"region":"us-west","cc":"us","latitude":37.77397,"longitude":-122.4313,"reserved":0,"last_update":"0001-01-01T00:00:00Z","name_a2s":"Uncletopia | San Francisco | 4 | Community","protocol":17,"map":"koth_viaduct","folder":"tf","game":"Team Fortress","app_id":440,"player_count":8,"max_players":24,"Bots":0,"server_type":"Dedicated","server_os":"Linux","password":true,"vac":true,"version":"7961495","steam_id":85568392924742826,"keywords":["cp","nocrits","nodmgspread","uncletopia"],"game_id":440,"stv_port":27046,"stv_name":"Uncletopia | San Francisco | 4 | Community | STV","players":[{"user_id":4,"name":"The Lizard Wizard","steam_id":76561199231507055,"connected_time":1555000000000,"state":"active","ping":88},{"user_id":5,"name":"ThiccBoiMcgee","steam_id":76561199059523317,"connected_time":1373000000000,"state":"active","ping":86},{"user_id":6,"name":"Mr. Carfox","steam_id":76561198041664428,"connected_time":1368000000000,"state":"active","ping":48},{"user_id":7,"name":"WaveJumper","steam_id":76561197972509380,"connected_time":1152000000000,"state":"active","ping":58},{"user_id":9,"name":"Netter","steam_id":76561198086309544,"connected_time":337000000000,"state":"active","ping":87},{"user_id":10,"name":"scoog","steam_id":76561199114058784,"connected_time":212000000000,"state":"active","ping":76},{"user_id":11,"name":"Chaptain","steam_id":76561198452725739,"connected_time":126000000000,"state":"active","ping":74},{"user_id":12,"name":"viedoamges","steam_id":76561198025295263,"connected_time":35000000000,"state":"active","ping":83}]},{"server_id":141,"name":"Uncletopia | Sydney | 1 | All Maps","name_short":"syd-1","host":"syd-1.au.uncletopia.com","port":27015,"enabled":true,"region":"au","cc":"au","latitude":-33.865143,"longitude":151.2099,"reserved":0,"last_update":"0001-01-01T00:00:00Z","name_a2s":"Uncletopia | Sydney | 1 | All Maps","protocol":17,"map":"pl_upward","folder":"tf","game":"Team Fortress","app_id":440,"player_count":0,"max_players":24,"Bots":0,"server_type":"Dedicated","server_os":"Linux","password":true,"vac":true,"version":"7961495","steam_id":85568392924470001,"keywords":["nocrits","nodmgspread","payload","uncletopia"],"game_id":440,"stv_port":27016,"stv_name":"Uncletopia | Sydney | 1 | All Maps | STV","players":null},{"server_id":123,"name":"Uncletopia | Sydney | 2 | All Maps","name_short":"syd-2","host":"syd-1.au.uncletopia.com","port":27025,"enabled":true,"region":"au","cc":"au","latitude":-33.865143,"longitude":151.2099,"reserved":0,"last_update":"0001-01-01T00:00:00Z","name_a2s":"Uncletopia | Sydney | 2 | All Maps","protocol":17,"map":"koth_cascade","folder":"tf","game":"Team Fortress","app_id":440,"player_count":0,"max_players":24,"Bots":0,"server_type":"Dedicated","server_os":"Linux","password":true,"vac":true,"version":"7961495","steam_id":85568392924470002,"keywords":["cp","nocrits","nodmgspread","uncletopia"],"game_id":440,"stv_port":27026,"stv_name":"Uncletopia | Sydney | 2 | All Maps | STV","players":null},{"server_id":395,"name":"Uncletopia | Sydney | 3 | All Maps","name_short":"syd-3","host":"syd-1.au.uncletopia.com","port":27035,"enabled":true,"region":"au","cc":"au","latitude":-33.865143,"longitude":151.2099,"reserved":0,"last_update":"0001-01-01T00:00:00Z","name_a2s":"Uncletopia | Sydney | 3 | All Maps","protocol":17,"map":"cp_dustbowl","folder":"tf","game":"Team Fortress","app_id":440,"player_count":0,"max_players":24,"Bots":0,"server_type":"Dedicated","server_os":"Linux","password":true,"vac":true,"version":"7961495","steam_id":85568392925194467,"keywords":["cp","nocrits","nodmgspread","uncletopia"],"game_id":440,"stv_port":27036,"stv_name":"Uncletopia | Sydney | 3 | All Maps | STV","players":null},{"server_id":396,"name":"Uncletopia | Sydney | 4 | All Maps","name_short":"syd-4","host":"syd-1.au.uncletopia.com","port":27045,"enabled":true,"region":"au","cc":"au","latitude":-33.865143,"longitude":151.2099,"reserved":0,"last_update":"0001-01-01T00:00:00Z","name_a2s":"Uncletopia | Sydney | 4 | All Maps","protocol":17,"map":"cp_dustbowl","folder":"tf","game":"Team Fortress","app_id":440,"player_count":0,"max_players":24,"Bots":0,"server_type":"Dedicated","server_os":"Linux","password":true,"vac":true,"version":"7961495","steam_id":85568392925397958,"keywords":["cp","nocrits","nodmgspread","uncletopia"],"game_id":440,"stv_port":27046,"stv_name":"Uncletopia | Sydney | 4 | All Maps | STV","players":null},{"server_id":58,"name":"Uncletopia | Sydney | 5 | Stopwatch Beta","name_short":"syd-5","host":"syd-1.au.uncletopia.com","port":27055,"enabled":true,"region":"au","cc":"au","latitude":-33.865143,"longitude":151.2099,"reserved":0,"last_update":"0001-01-01T00:00:00Z","name_a2s":"Uncletopia | Sydney | 5 | Stopwatch Beta","protocol":17,"map":"koth_viaduct","folder":"tf","game":"Team Fortress","app_id":440,"player_count":0,"max_players":24,"Bots":0,"server_type":"Dedicated","server_os":"Linux","password":true,"vac":true,"version":"7961495","steam_id":85568392925397959,"keywords":["cp","nocrits","nodmgspread","uncletopia"],"game_id":440,"stv_port":27056,"stv_name":"Uncletopia | Sydney | 5 | Stopwatch Beta | STV","players":null},{"server_id":59,"name":"Uncletopia | Sydney | 6 | Community","name_short":"syd-6","host":"syd-1.au.uncletopia.com","port":27065,"enabled":true,"region":"au","cc":"au","latitude":-33.865143,"longitude":151.2099,"reserved":0,"last_update":"0001-01-01T00:00:00Z","name_a2s":"Uncletopia | Sydney | 6 | Community","protocol":17,"map":"koth_cascade","folder":"tf","game":"Team Fortress","app_id":440,"player_count":0,"max_players":24,"Bots":0,"server_type":"Dedicated","server_os":"Linux","password":true,"vac":true,"version":"7961495","steam_id":85568392925397960,"keywords":["cp","nocrits","nodmgspread","uncletopia"],"game_id":440,"stv_port":27066,"stv_name":"Uncletopia | Sydney | 6 | Community | STV","players":null},{"server_id":49,"name":"Uncletopia | Warsaw | 1 | All Maps","name_short":"waw-1","host":"waw-1.pl.uncletopia.com","port":27015,"enabled":true,"region":"eu","cc":"pl","latitude":52.2297,"longitude":21.017532,"reserved":0,"last_update":"0001-01-01T00:00:00Z","name_a2s":"Uncletopia | Warsaw | 1 | All Maps","protocol":17,"map":"koth_highpass","folder":"tf","game":"Team Fortress","app_id":440,"player_count":0,"max_players":24,"Bots":0,"server_type":"Dedicated","server_os":"Linux","password":true,"vac":true,"version":"7961495","steam_id":85568392925397850,"keywords":["cp","nocrits","nodmgspread","uncletopia"],"game_id":440,"stv_port":27016,"stv_name":"Uncletopia | Warsaw | 1 | All Maps | STV","players":null},{"server_id":50,"name":"Uncletopia | Warsaw | 2 | All Maps","name_short":"waw-2","host":"waw-1.pl.uncletopia.com","port":27025,"enabled":true,"region":"eu","cc":"pl","latitude":52.2297,"longitude":21.017532,"reserved":0,"last_update":"0001-01-01T00:00:00Z","name_a2s":"Uncletopia | Warsaw | 2 | All Maps","protocol":17,"map":"cp_process_final","folder":"tf","game":"Team Fortress","app_id":440,"player_count":0,"max_players":24,"Bots":0,"server_type":"Dedicated","server_os":"Linux","password":true,"vac":true,"version":"7961495","steam_id":85568392925397851,"keywords":["cp","nocrits","nodmgspread","uncletopia"],"game_id":440,"stv_port":27026,"stv_name":"Uncletopia | Warsaw | 2 | All Maps | STV","players":null},{"server_id":51,"name":"Uncletopia | Warsaw | 3 | All Maps","name_short":"waw-3","host":"waw-1.pl.uncletopia.com","port":27035,"enabled":true,"region":"eu","cc":"pl","latitude":52.2297,"longitude":21.017532,"reserved":0,"last_update":"0001-01-01T00:00:00Z","name_a2s":"Uncletopia | Warsaw | 3 | All Maps","protocol":17,"map":"cp_snakewater_final1","folder":"tf","game":"Team Fortress","app_id":440,"player_count":0,"max_players":24,"Bots":0,"server_type":"Dedicated","server_os":"Linux","password":true,"vac":true,"version":"7961495","steam_id":85568392925397852,"keywords":["cp","nocrits","nodmgspread","uncletopia"],"game_id":440,"stv_port":27036,"stv_name":"Uncletopia | Warsaw | 3 | All Maps | STV","players":null},{"server_id":52,"name":"Uncletopia | Warsaw | 4 | All Maps","name_short":"waw-4","host":"waw-1.pl.uncletopia.com","port":27045,"enabled":true,"region":"eu","cc":"pl","latitude":52.2297,"longitude":21.017532,"reserved":0,"last_update":"0001-01-01T00:00:00Z","name_a2s":"Uncletopia | Warsaw | 4 | All Maps","protocol":17,"map":"pl_pier","folder":"tf","game":"Team Fortress","app_id":440,"player_count":0,"max_players":24,"Bots":0,"server_type":"Dedicated","server_os":"Linux","password":true,"vac":true,"version":"7961495","steam_id":85568392925397853,"keywords":["nocrits","nodmgspread","payload","uncletopia"],"game_id":440,"stv_port":27046,"stv_name":"Uncletopia | Warsaw | 4 | All Maps | STV","players":null},{"server_id":53,"name":"Uncletopia | Warsaw | 5 | Stopwatch Beta","name_short":"waw-5","host":"waw-1.pl.uncletopia.com","port":27055,"enabled":true,"region":"eu","cc":"pl","latitude":52.2297,"longitude":21.017532,"reserved":0,"last_update":"0001-01-01T00:00:00Z","name_a2s":"Uncletopia | Warsaw | 5 | Stopwatch Beta","protocol":17,"map":"workshop/pl_barnblitz_pro7.ugc582280235","folder":"tf","game":"Team Fortress","app_id":440,"player_count":0,"max_players":24,"Bots":0,"server_type":"Dedicated","server_os":"Linux","password":true,"vac":true,"version":"7961495","steam_id":85568392925397854,"keywords":["nocrits","nodmgspread","payload","uncletopia"],"game_id":440,"stv_port":27056,"stv_name":"Uncletopia | Warsaw | 5 | Stopwatch Beta | STV","players":null},{"server_id":54,"name":"Uncletopia | Warsaw | 6 | Community","name_short":"waw-6","host":"waw-1.pl.uncletopia.com","port":27065,"enabled":true,"region":"eu","cc":"pl","latitude":52.2297,"longitude":21.017532,"reserved":0,"last_update":"0001-01-01T00:00:00Z","name_a2s":"Uncletopia | Warsaw | 6 | Community","protocol":17,"map":"workshop/koth_synthetic_rc6a.ugc1549817316","folder":"tf","game":"Team Fortress","app_id":440,"player_count":0,"max_players":24,"Bots":0,"server_type":"Dedicated","server_os":"Linux","password":true,"vac":true,"version":"7961495","steam_id":85568392925397856,"keywords":["cp","nocrits","nodmgspread","uncletopia"],"game_id":440,"stv_port":27066,"stv_name":"Uncletopia | Warsaw | 6 | Community | STV","players":null}]}