{"status":true,"message":"","result":[{"server_id":9,"name":"Uncletopia | Atlanta | 1 | All Maps","name_short":"atl-1","host":"atl-1.us.uncletopia.com","port":27015,"enabled":true,"region":"us-east","cc":"us","latitude":33.753746,"longitude":-84.38633,"reserved":0,"last_update":"0001-01-01T00:00:00Z","name_a2s":"Uncletopia | Atlanta | 1 | All Maps","protocol":17,"map":"pl_upward","folder":"tf","game":"Team Fortress","app_id":440,"player_count":24,"max_players":24,"Bots":0,"server_type":"Dedicated","server_os":"Linux","password":true,"vac":true,"version":"7961495","steam_id":85568392924469982,"keywords":["nocrits","nodmgspread","payload","uncletopia"],"game_id":440,"stv_port":27016,"stv_name":"Uncletopia | Atlanta | 1 | All Maps | STV","players":null},{"server_id":104,"name":"Uncletopia | Atlanta | 2 | All Maps","name_short":"atl-2","host":"atl-1.us.uncletopia.com","port":27025,"enabled":true,"region":"us-east","cc":"us","latitude":33.753746,"longitude":-84.38633,"reserved":0,"last_update":"0001-01-01T00:00:00Z","name_a2s":"Uncletopia | Atlanta | 2 | All Maps","protocol":17,"map":"koth_highpass","folder":"tf","game":"Team Fortress","app_id":440,"player_count":24,"max_players":24,"Bots":0,"server_type":"Dedicated","server_os":"Linux","password":true,"vac":true,"version":"7961495","steam_id":85568392924469983,"keywords":["cp","nocrits","nodmgspread","uncletopia"],"game_id":440,"stv_port":27026,"stv_name":"Uncletopia | Atlanta | 2 | All Maps | STV","players":null},{"server_id":400,"name":"Uncletopia | Atlanta | 3 | All Maps","name_short":"atl-3","host":"atl-1.us.uncletopia.com","port":27035,"enabled":true,"region":"us-east","cc":"us","latitude":33.753746,"longitude":-84.38633,"reserved":0,"last_update":"0001-01-01T00:00:00Z","name_a2s":"Uncletopia | Atlanta | 3 | All Maps","protocol":17,"map":"koth_lakeside_final","folder":"tf","game":"Team Fortress","app_id":440,"player_count":0,"max_players":24,"Bots":0,"server_type":"Dedicated","server_os":"Linux","password":true,"vac":true,"version":"7961495","steam_id":85568392924515187,"keywords":["cp","nocrits","nodmgspread","uncletopia"],"game_id":440,"stv_port":27036,"stv_name":"Uncletopia | Atlanta | 3 | All Maps | STV","players":null},{"server_id":401,"name":"Uncletopia | Atlanta | 4 | Community","name_short":"atl-4","host":"atl-1.us.uncletopia.com","port":27045,"enabled":true,"region":"us-east","cc":"us","latitude":33.753746,"longitude":-84.38633,"reserved":0,"last_update":"0001-01-01T00:00:00Z","name_a2s":"Uncletopia | Atlanta | 4 | Community","protocol":17,"map":"cp_dustbowl","folder":"tf","game":"Team Fortress","app_id":440,"player_count":0,"max_players":24,"Bots":0,"server_type":"Dedicated","server_os":"Linux","password":true,"vac":true,"version":"7961495","steam_id":85568392924515188,"keywords":["cp","nocrits","nodmgspread","uncletopia"],"game_id":440,"stv_port":27046,"stv_name":"Uncletopia | Atlanta | 4 | Community | STV","players":null},{"server_id":2,"name":"Uncletopia | Chicago | 1 | All Maps","name_short":"chi-1","host":"chi-1.us.uncletopia.com","port":27015,"enabled":true,"region":"us-central","cc":"us","latitude":41.881832,"longitude":-87.62318,"reserved":0,"last_update":"0001-01-01T00:00:00Z","name_a2s":"Uncletopia | Chicago | 1 | All Maps","protocol":17,"map":"cp_sunshine","folder":"tf","game":"Team Fortress","app_id":440,"player_count":24,"max_players":24,"Bots":0,"server_type":"Dedicated","server_os":"Linux","password":true,"vac":true,"version":"7961495","steam_id":85568392924469984,"keywords":["cp","nocrits","nodmgspread","uncletopia"],"game_id":440,"stv_port":27016,"stv_name":"Uncletopia | Chicago | 1 | All Maps | STV","players":[{"user_id":98,"name":"Thundermonkey (SMOKE)","steam_id":76561198017631728,"connected_time":666000000000,"state":"active","ping":54},{"user_id":101,"name":"GamingTNT","steam_id":76561198164384967,"connected_time":299000000000,"state":"active","ping":61},{"user_id":70,"name":"I haven't even begun to peak","steam_id":76561198022302843,"connected_time":2448000000000,"state":"active","ping":78},{"user_id":96,"name":"Goober","steam_id":76561198135995135,"connected_time":716000000000,"state":"active","ping":67},{"user_id":43,"name":"PyroEagle","steam_id":76561198296434231,"connected_time":4077000000000,"state":"active","ping":68},{"user_id":95,"name":"Medici","steam_id":76561198310130481,"connected_time":893000000000,"state":"active","ping":64},{"user_id":90,"name":"coco","steam_id":76561199112844022,"connected_time":1433000000000,"state":"active","ping":131},{"user_id":93,"name":"berserker_tf2 yt","steam_id":76561198303464488,"connected_time":1242000000000,"state":"active","ping":61},{"user_id":83,"name":"Petrichor","steam_id":76561198323397375,"connected_time":1928000000000,"state":"active","ping":92},{"user_id":84,"name":"Stew Eater","steam_id":76561198978307159,"connected_time":1928000000000,"state":"active","ping":66},{"user_id":14,"name":"illious","steam_id":76561198169925494,"connected_time":5490000000000,"state":"active","ping":67},{"user_id":99,"name":"cheetaz","steam_id":76561198224614084,"connected_time":666000000000,"state":"active","ping":61},{"user_id":55,"name":"Joe ELO From Progressive","steam_id":76561198336597038,"connected_time":3619000000000,"state":"active","ping":90},{"user_id":104,"name":"Soda","steam_id":76561198219209367,"connected_time":6000000000,"state":"spawning","ping":63},{"user_id":85,"name":"Snom","steam_id":76561198333827920,"connected_time":1923000000000,"state":"active","ping":99},{"user_id":71,"name":"igotmail","steam_id":76561198070631899,"connected_time":2392000000000,"state":"active","ping":64},{"user_id":103,"name":"OVA Iggy","steam_id":76561198120355981,"connected_time":126000000000,"state":"active","ping":64},{"user_id":23,"name":"Theory-LOL","steam_id":76561198116419931,"connected_time":5456000000000,"state":"active","ping":113},{"user_id":87,"name":"Kindagoodplayer","steam_id":76561198814625843,"connected_time":1897000000000,"state":"active","ping":72},{"user_id":100,"name":"M17","steam_id":76561198124771378,"connected_time":530000000000,"state":"active","ping":61},{"user_id":86,"name":"GreySweaterCat","steam_id":76561198351860293,"connected_time":1910000000000,"state":"active","ping":98},{"user_id":105,"name":"cl_showpaws 1","steam_id":76561198160455073,"connected_time":6000000000,"state":"spawning","ping":61},{"user_id":41,"name":"sal","steam_id":76561198814096380,"connected_time":4800000000000,"state":"active","ping":81},{"user_id":44,"name":"Spy Gaming","steam_id":76561198453295613,"connected_time":4076000000000,"state":"active","ping":112}]},{"server_id":106,"name":"Uncletopia | Chicago | 2 | All Maps","name_short":"chi-2","host":"chi-1.us.uncletopia.com","port":27025,"enabled":true,"region":"us-central","cc":"us","latitude":41.881832,"longitude":-87.62318,"reserved":0,"last_update":"0001-01-01T00:00:00Z","name_a2s":"Uncletopia | Chicago | 2 | All Maps","protocol":17,"map":"pl_thundermountain","folder":"tf","game":"Team Fortress","app_id":440,"player_count":24,"max_players":24,"Bots":0,"server_type":"Dedicated","server_os":"Linux","password":true,"vac":true,"version":"7961495","steam_id":85568392924469985,"keywords":["nocrits","nodmgspread","payload","uncletopia"],"game_id":440,"stv_port":27026,"stv_name":"Uncletopia | Chicago | 2 | All Maps | STV","players":[{"user_id":92,"name":"i suffer from ligma","steam_id":76561199158496518,"connected_time":848000000000,"state":"active","ping":143},{"user_id":79,"name":"Balerion the Black Dread","steam_id":76561198003728369,"connected_time":1398000000000,"state":"active","ping":63},{"user_id":83,"name":"chunguspilled","steam_id":76561198263122601,"connected_time":1358000000000,"state":"active","ping":54},{"user_id":87,"name":"BroBuck3","steam_id":76561198119436987,"connected_time":1152000000000,"state":"active","ping":75},{"user_id":76,"name":"Null","steam_id":76561198062791227,"connected_time":1621000000000,"state":"active","ping":64},{"user_id":80,"name":"loser","steam_id":76561198259380127,"connected_time":1386000000000,"state":"active","ping":62},{"user_id":45,"name":"thecal","steam_id":76561198307893384,"connected_time":4577000000000,"state":"active","ping":56},{"user_id":41,"name":"MedRed™ #IATAH","steam_id":76561198002962970,"connected_time":4832000000000,"state":"active","ping":95},{"user_id":85,"name":"SiltyStar85","steam_id":76561198309175923,"connected_time":1332000000000,"state":"active","ping":91},{"user_id":68,"name":"Propaniac Gaming ☑","steam_id":76561198133963270,"connected_time":3383000000000,"state":"active","ping":62},{"user_id":74,"name":"Gram Tokers Count Doinkula","steam_id":76561198112811565,"connected_time":2023000000000,"state":"active","ping":76},{"user_id":91,"name":"Fozzy","steam_id":76561198258458765,"connected_time":876000000000,"state":"active","ping":99},{"user_id":55,"name":"wheresgeorge","steam_id":76561198986281248,"connected_time":4196000000000,"state":"active","ping":86},{"user_id":95,"name":"Plasmie{ylo}","steam_id":76561198083513154,"connected_time":301000000000,"state":"active","ping":85},{"user_id":90,"name":"Mr. Tickle","steam_id":76561198126684647,"connected_time":930000000000,"state":"active","ping":60},{"user_id":93,"name":"Boofus McDoofus","steam_id":76561198858989566,"connected_time":371000000000,"state":"active","ping":69},{"user_id":89,"name":"boo_thefeared","steam_id":76561198127967685,"connected_time":1024000000000,"state":"active","ping":148},{"user_id":60,"name":"Zombie hunter","steam_id":76561198328423470,"connected_time":4012000000000,"state":"active","ping":75},{"user_id":77,"name":"A Puppy","steam_id":76561198828184456,"connected_time":1409000000000,"state":"active","ping":60},{"user_id":24,"name":"hej","steam_id":76561197996366940,"connected_time":5369000000000,"state":"active","ping":61},{"user_id":26,"name":"Truck-kun2107","steam_id":76561199161417910,"connected_time":5355000000000,"state":"active","ping":93},{"user_id":84,"name":"vazwirek","steam_id":76561198844852632,"connected_time":1357000000000,"state":"active","ping":61},{"user_id":28,"name":"hearttron","steam_id":76561198994842331,"connected_time":5344000000000,"state":"active","ping":104},{"user_id":96,"name":"Let ε \u003e 0","steam_id":76561198111790388,"connected_time":71000000000,"state":"active","ping":100}]},{"server_id":402,"name":"Uncletopia | Chicago | 3 | All Maps","name_short":"chi-3","host":"chi-1.us.uncletopia.com","port":27035,"enabled":true,"region":"us-central","cc":"us","latitude":41.881832,"longitude":-87.62318,"reserved":0,"last_update":"0001-01-01T00:00:00Z","name_a2s":"Uncletopia | Chicago | 3 | All Maps","protocol":17,"map":"pl_pier","folder":"tf","game":"Team Fortress","app_id":440,"player_count":24,"max_players":24,"Bots":0,"server_type":"Dedicated","server_os":"Linux","password":true,"vac":true,"version":"7961495","steam_id":85568392924515191,"keywords":["nocrits","nodmgspread","payload","uncletopia"],"game_id":440,"stv_port":27036,"stv_name":"Uncletopia | Chicago | 3 | All Maps | STV","players":[{"user_id":71,"name":"bee","steam_id":76561198025553902,"connected_time":3110000000000,"state":"active","ping":44},{"user_id":86,"name":"MelonLikeAFelon","steam_id":76561198060170336,"connected_time":1299000000000,"state":"active","ping":68},{"user_id":101,"name":"pro gamer","steam_id":76561199084520533,"connected_time":88000000000,"state":"active","ping":80},{"user_id":64,"name":"stiGGy","steam_id":76561198049311931,"connected_time":3318000000000,"state":"active","ping":75},{"user_id":95,"name":"Renota","steam_id":76561198058224488,"connected_time":1021000000000,"state":"active","ping":90},{"user_id":96,"name":"MellowBoy-2354","steam_id":76561199080630632,"connected_time":1004000000000,"state":"active","ping":93},{"user_id":10,"name":"B.","steam_id":76561198040445907,"connected_time":5492000000000,"state":"active","ping":71},{"user_id":65,"name":"SirHipster0p","steam_id":76561198340315145,"connected_time":3299000000000,"state":"active","ping":64},{"user_id":98,"name":"Rodgedan","steam_id":76561198226236524,"connected_time":701000000000,"state":"active","ping":84},{"user_id":82,"name":"slep.py","steam_id":76561197988287144,"connected_time":1436000000000,"state":"active","ping":53},{"user_id":44,"name":"Speckles (Model VP)","steam_id":76561198119619788,"connected_time":5123000000000,"state":"active","ping":123},{"user_id":99,"name":"sex enjoyer","steam_id":76561198106320012,"connected_time":402000000000,"state":"active","ping":92},{"user_id":17,"name":"Mephistopheles","steam_id":76561198253731826,"connected_time":5466000000000,"state":"active","ping":54},{"user_id":92,"name":"rose","steam_id":76561198048882285,"connected_time":1101000000000,"state":"active","ping":60},{"user_id":20,"name":"Speedy","steam_id":76561198080761661,"connected_time":5448000000000,"state":"active","ping":82},{"user_id":94,"name":"karl556","steam_id":76561198283738645,"connected_time":1072000000000,"state":"active","ping":114},{"user_id":62,"name":"menace","steam_id":76561198319142233,"connected_time":3344000000000,"state":"active","ping":46},{"user_id":88,"name":"Toties","steam_id":76561198069880978,"connected_time":1181000000000,"state":"active","ping":104},{"user_id":84,"name":"Marsupial Jones","steam_id":76561198058963406,"connected_time":1386000000000,"state":"active","ping":102},{"user_id":73,"name":"[NAME-REDACTED]","steam_id":76561198035682975,"connected_time":2861000000000,"state":"active","ping":68},{"user_id":93,"name":"sam","steam_id":76561198088504281,"connected_time":1091000000000,"state":"active","ping":62},{"user_id":85,"name":"[TF2Apples] Intense Green Apple","steam_id":76561198803561622,"connected_time":1383000000000,"state":"active","ping":90},{"user_id":102,"name":"(1)Bee","steam_id":76561198074681324,"connected_time":62000000000,"state":"active","ping":61},{"user_id":97,"name":"manbearswineflu","steam_id":76561198083945137,"connected_time":925000000000,"state":"active","ping":67}]},{"server_id":403,"name":"Uncletopia | Chicago | 4 | All Maps","name_short":"chi-4","host":"chi-1.us.uncletopia.com","port":27045,"enabled":true,"region":"us-central","cc":"us","latitude":41.881832,"longitude":-87.62318,"reserved":0,"last_update":"0001-01-01T00:00:00Z","name_a2s":"Uncletopia | Chicago | 4 | All Maps","protocol":17,"map":"pl_badwater","folder":"tf","game":"Team Fortress","app_id":440,"player_count":24,"max_players":24,"Bots":0,"server_type":"Dedicated","server_os":"Linux","password":true,"vac":true,"version":"7961495","steam_id":85568392924515193,"keywords":["nocrits","nodmgspread","payload","uncletopia"],"game_id":440,"stv_port":27046,"stv_name":"Uncletopia | Chicago | 4 | All Maps | STV","players":[{"user_id":64,"name":"88","steam_id":76561198165212575,"connected_time":3104000000000,"state":"active","ping":61},{"user_id":76,"name":"OddSlaush","steam_id":76561198043898488,"connected_time":2200000000000,"state":"active","ping":99},{"user_id":18,"name":"Artgrendadier","steam_id":76561198063305359,"connected_time":5400000000000,"state":"active","ping":70},{"user_id":45,"name":"PackingPeanutt :]","steam_id":76561199053229413,"connected_time":4763000000000,"state":"active","ping":88},{"user_id":75,"name":"Durt","steam_id":76561198073569962,"connected_time":2367000000000,"state":"active","ping":59},{"user_id":79,"name":"melon","steam_id":76561199014039702,"connected_time":2117000000000,"state":"active","ping":67},{"user_id":71,"name":"Warpy","steam_id":76561198055852599,"connected_time":2416000000000,"state":"active","ping":104},{"user_id":81,"name":"npc energy","steam_id":76561198035342207,"connected_time":1673000000000,"state":"active","ping":48},{"user_id":11,"name":"J The Jounin","steam_id":76561198034583622,"connected_time":5512000000000,"state":"active","ping":75},{"user_id":90,"name":":)","steam_id":76561198093921290,"connected_time":593000000000,"state":"active","ping":46},{"user_id":94,"name":"i love the government :)","steam_id":76561199015353035,"connected_time":541000000000,"state":"active","ping":81},{"user_id":97,"name":"rare dino chomby","steam_id":76561198045599872,"connected_time":257000000000,"state":"active","ping":78},{"user_id":69,"name":"EvilMrPotoo ｡◕‿◕｡","steam_id":76561198012566870,"connected_time":2611000000000,"state":"active","ping":59},{"user_id":83,"name":"Voodo133","steam_id":76561198042670351,"connected_time":1545000000000,"state":"active","ping":86},{"user_id":60,"name":"Ojen","steam_id":76561197998414482,"connected_time":3601000000000,"state":"active","ping":60},{"user_id":91,"name":"✩JBean✩","steam_id":76561198120413320,"connected_time":566000000000,"state":"active","ping":93},{"user_id":92,"name":"Mangoue","steam_id":76561198844686784,"connected_time":559000000000,"state":"active","ping":79},{"user_id":77,"name":"Dirtbike rider","steam_id":76561198030457066,"connected_time":2176000000000,"state":"active","ping":81},{"user_id":95,"name":"FORBIDDEN STEP","steam_id":76561198100942212,"connected_time":537000000000,"state":"active","ping":77},{"user_id":96,"name":"Sage","steam_id":76561198143101697,"connected_time":528000000000,"state":"active","ping":99},{"user_id":63,"name":"Dr_chilly","steam_id":76561198445383213,"connected_time":3306000000000,"state":"active","ping":101},{"user_id":65,"name":"pl_chicago","steam_id":76561198055626638,"connected_time":3031000000000,"state":"active","ping":90},{"user_id":42,"name":"Jarnold","steam_id":76561198090434537,"connected_time":4885000000000,"state":"active","ping":62},{"user_id":73,"name":"the gerogerigegege","steam_id":76561198057116531,"connected_time":2386000000000,"state":"active","ping":60}]},{"server_id":36,"name":"Uncletopia | Chicago | 5 | All Maps","name_short":"chi-5","host":"chi-2.us.uncletopia.com","port":27015,"enabled":true,"region":"us-central","cc":"us","latitude":41.881832,"longitude":-87.62318,"reserved":0,"last_update":"0001-01-01T00:00:00Z","name_a2s":"Uncletopia | Chicago | 5 | All Maps","protocol":17,"map":"pl_frontier_final","folder":"tf","game":"Team Fortress","app_id":440,"player_count":24,"max_players":24,"Bots":0,"server_type":"Dedicated","server_os":"Linux","password":true,"vac":true,"version":"7961495","steam_id":85568392924866362,"keywords":["nocrits","nodmgspread","payload","uncletopia"],"game_id":440,"stv_port":27016,"stv_name":"Uncletopia | Chicago | 5 | All Maps | STV","players":[{"user_id":83,"name":"Chrysalis","steam_id":76561198028576126,"connected_time":989000000000,"state":"active","ping":69},{"user_id":63,"name":"Nebe0","steam_id":76561199133770186,"connected_time":3922000000000,"state":"active","ping":72},{"user_id":99,"name":"Fightin Cow","steam_id":76561198080941486,"connected_time":455000000000,"state":"active","ping":83},{"user_id":6,"name":"Strange Festive Femboy","steam_id":76561198050385093,"connected_time":5524000000000,"state":"active","ping":70},{"user_id":87,"name":"Circuit Spark","steam_id":76561198832124473,"connected_time":904000000000,"state":"active","ping":79},{"user_id":88,"name":"Liquid Oxycodone","steam_id":76561198154162664,"connected_time":894000000000,"state":"active","ping":80},{"user_id":93,"name":"just jazz","steam_id":76561198010637797,"connected_time":781000000000,"state":"active","ping":75},{"user_id":97,"name":"Candy Sparkles","steam_id":76561198126871264,"connected_time":512000000000,"state":"active","ping":88},{"user_id":81,"name":"Angry Ginger","steam_id":76561198256929349,"connected_time":2029000000000,"state":"active","ping":57},{"user_id":29,"name":"Ultra","steam_id":76561198204547111,"connected_time":4632000000000,"state":"active","ping":67},{"user_id":82,"name":"孫子","steam_id":76561198083112681,"connected_time":1683000000000,"state":"active","ping":55},{"user_id":31,"name":"princess fern \u003c3333","steam_id":76561198881792140,"connected_time":4595000000000,"state":"active","ping":82},{"user_id":78,"name":"FISH PLATINUM","steam_id":76561198443518811,"connected_time":2367000000000,"state":"active","ping":102},{"user_id":92,"name":"roast pig with apple in mouth","steam_id":76561198051353647,"connected_time":816000000000,"state":"active","ping":67},{"user_id":76,"name":"Mr.Pwesident","steam_id":76561198058114703,"connected_time":2426000000000,"state":"active","ping":96},{"user_id":65,"name":"GreatTimBones","steam_id":76561198409145748,"connected_time":3903000000000,"state":"active","ping":81},{"user_id":79,"name":"Fancyassasin","steam_id":76561198331864258,"connected_time":2362000000000,"state":"active","ping":38},{"user_id":95,"name":"Space⭐Taffy","steam_id":76561198002271720,"connected_time":588000000000,"state":"active","ping":59},{"user_id":62,"name":"Mobius","steam_id":76561199121973450,"connected_time":3989000000000,"state":"active","ping":80},{"user_id":80,"name":"hammy","steam_id":76561198035751911,"connected_time":2356000000000,"state":"active","ping":72},{"user_id":54,"name":"C Papi","steam_id":76561198027779564,"connected_time":4178000000000,"state":"active","ping":62},{"user_id":94,"name":"Maurdakar","steam_id":76561197983420976,"connected_time":644000000000,"state":"active","ping":69},{"user_id":91,"name":"Wizard02","steam_id":76561198178293623,"connected_time":858000000000,"state":"active","ping":84},{"user_id":98,"name":"Dallas","steam_id":76561198066542919,"connected_time":498000000000,"state":"active","ping":98}]},{"server_id":37,"name":"Uncletopia | Chicago | 6 | All Maps","name_short":"chi-6","host":"chi-2.us.uncletopia.com","port":27025,"enabled":true,"region":"us-central","cc":"us","latitude":41.881832,"longitude":-87.62318,"reserved":0,"last_update":"0001-01-01T00:00:00Z","name_a2s":"Uncletopia | Chicago | 6 | All Maps","protocol":17,"map":"cp_dustbowl","folder":"tf","game":"Team Fortress","app_id":440,"player_count":24,"max_players":24,"Bots":0,"server_type":"Dedicated","server_os":"Linux","password":true,"vac":true,"version":"7961495","steam_id":85568392924866363,"keywords":["cp","nocrits","nodmgspread","uncletopia"],"game_id":440,"stv_port":27026,"stv_name":"Uncletopia | Chicago | 6 | All Maps | STV","players":[{"user_id":77,"name":"Nemo","steam_id":76561198836696938,"connected_time":1753000000000,"state":"active","ping":119},{"user_id":94,"name":"♥ alixei! ♥","steam_id":76561198014557455,"connected_time":1268000000000,"state":"active","ping":58},{"user_id":80,"name":"AverageJoe","steam_id":76561198313420109,"connected_time":1686000000000,"state":"active","ping":55},{"user_id":37,"name":"ArrayEight","steam_id":76561198119483989,"connected_time":4138000000000,"state":"active","ping":78},{"user_id":97,"name":"Techo","steam_id":76561199169405285,"connected_time":1143000000000,"state":"active","ping":106},{"user_id":10,"name":"gimpy terry","steam_id":76561198940368888,"connected_time":5488000000000,"state":"active","ping":43},{"user_id":11,"name":"Slepii","steam_id":76561198881786224,"connected_time":5486000000000,"state":"active","ping":75},{"user_id":107,"name":"A Distraction!","steam_id":76561198145320480,"connected_time":559000000000,"state":"active","ping":99},{"user_id":88,"name":"Kazmirl","steam_id":76561198116008410,"connected_time":1532000000000,"state":"active","ping":110},{"user_id":102,"name":"Observer","steam_id":76561198220720512,"connected_time":937000000000,"state":"active","ping":68},{"user_id":106,"name":"Moo_UwU","steam_id":76561199138512017,"connected_time":585000000000,"state":"active","ping":67},{"user_id":108,"name":"black ops 2 hank hill trolling","steam_id":76561198095313463,"connected_time":489000000000,"state":"active","ping":62},{"user_id":82,"name":"BiggsyBoy","steam_id":76561198119656147,"connected_time":1671000000000,"state":"active","ping":57},{"user_id":69,"name":"An Erect Penis :)","steam_id":76561198086477485,"connected_time":2375000000000,"state":"active","ping":39},{"user_id":56,"name":"steakfarmasian","steam_id":76561198212754036,"connected_time":3411000000000,"state":"active","ping":54},{"user_id":83,"name":"Conjon","steam_id":76561198083408885,"connected_time":1667000000000,"state":"active","ping":45},{"user_id":89,"name":"ECCO","steam_id":76561198002821513,"connected_time":1479000000000,"state":"active","ping":65},{"user_id":99,"name":"demoman guy","steam_id":76561198418178297,"connected_time":1138000000000,"state":"active","ping":42},{"user_id":84,"name":"gary","steam_id":76561198140226890,"connected_time":1657000000000,"state":"active","ping":85},{"user_id":63,"name":"KingSpoonerism","steam_id":76561198197526954,"connected_time":3258000000000,"state":"active","ping":82},{"user_id":93,"name":"Punkin","steam_id":76561198334301755,"connected_time":1313000000000,"state":"active","ping":70},{"user_id":101,"name":"Lunartik","steam_id":76561199004827382,"connected_time":951000000000,"state":"active","ping":66},{"user_id":87,"name":"Kerbal01","steam_id":76561198080296298,"connected_time":1632000000000,"state":"active","ping":67},{"user_id":110,"name":"Shmebulock","steam_id":76561198046941925,"connected_time":342000000000,"state":"active","ping":441}]},{"server_id":38,"name":"Uncletopia | Chicago | 7 | Stopwatch Beta","name_short":"chi-7","host":"chi-2.us.uncletopia.com","port":27035,"enabled":true,"region":"us-central","cc":"us","latitude":41.881832,"longitude":-87.62318,"reserved":0,"last_update":"0001-01-01T00:00:00Z","name_a2s":"Uncletopia | Chicago | 7 | Stopwatch Beta","protocol":17,"map":"pl_borneo","folder":"tf","game":"Team Fortress","app_id":440,"player_count":0,"max_players":24,"Bots":0,"server_type":"Dedicated","server_os":"Linux","password":true,"vac":true,"version":"7961495","steam_id":85568392924866364,"keywords":["nocrits","nodmgspread","payload","uncletopia"],"game_id":440,"stv_port":27036,"stv_name":"Uncletopia | Chicago | 7 | Stopwatch Beta | STV","players":null},{"server_id":39,"name":"Uncletopia | Chicago | 8 | Community","name_short":"chi-8","host":"chi-2.us.uncletopia.com","port":27045,"enabled":true,"region":"us-central","cc":"us","latitude":41.881832,"longitude":-87.62318,"reserved":0,"last_update":"0001-01-01T00:00:00Z","name_a2s":"Uncletopia | Chicago | 8 | Community","protocol":17,"map":"workshop/cp_indulge.ugc528106646","folder":"tf","game":"Team Fortress","app_id":440,"player_count":23,"max_players":24,"Bots":0,"server_type":"Dedicated","server_os":"Linux","password":true,"vac":true,"version":"7961495","steam_id":85568392924866365,"keywords":["cp","nocrits","nodmgspread","uncletopia"],"game_id":440,"stv_port":27046,"stv_name":"Uncletopia | Chicago | 8 | Community | STV","players":[{"user_id":53,"name":"dansal","steam_id":76561197997042510,"connected_time":1286000000000,"state":"active","ping":84},{"user_id":55,"name":".mp3","steam_id":76561198070710025,"connected_time":1242000000000,"state":"active","ping":77},{"user_id":50,"name":"Mr. Call You Back","steam_id":76561198025172811,"connected_time":1401000000000,"state":"active","ping":57},{"user_id":31,"name":"ethanf","steam_id":76561198103930234,"connected_time":2066000000000,"state":"active","ping":58},{"user_id":41,"name":"Margo_Rae","steam_id":76561198035046430,"connected_time":1985000000000,"state":"active","ping":88},{"user_id":11,"name":"HoneyIsCringe","steam_id":76561199011712065,"connected_time":2842000000000,"state":"active","ping":101},{"user_id":59,"name":"frank","steam_id":76561198137777483,"connected_time":475000000000,"state":"active","ping":68},{"user_id":32,"name":"The Noob Sire","steam_id":76561198119219754,"connected_time":2036000000000,"state":"active","ping":85},{"user_id":67,"name":"Xx_Savage_Twerks_xX","steam_id":76561198011665915,"connected_time":67000000000,"state":"active","ping":187},{"user_id":49,"name":"Best Friends With My Tapeworm","steam_id":76561198045010282,"connected_time":1426000000000,"state":"active","ping":65},{"user_id":57,"name":"PISSMAN (Xi/ Xim)","steam_id":76561198144801416,"connected_time":1010000000000,"state":"active","ping":55},{"user_id":65,"name":"NotSoNorth","steam_id":76561198447292053,"connected_time":225000000000,"state":"active","ping":67},{"user_id":60,"name":"Data","steam_id":76561197996329548,"connected_time":452000000000,"state":"active","ping":68},{"user_id":61,"name":"The Spanked Monkey","steam_id":76561198128293111,"connected_time":429000000000,"state":"active","ping":69},{"user_id":36,"name":"real","steam_id":76561199030879048,"connected_time":2005000000000,"state":"active","ping":65},{"user_id":29,"name":"Gramseal","steam_id":76561198181906333,"connected_time":2092000000000,"state":"active","ping":99},{"user_id":58,"name":"Jade Jetts [She/They]","steam_id":76561198206130076,"connected_time":916000000000,"state":"active","ping":98},{"user_id":64,"name":"Lifial","steam_id":76561198271885819,"connected_time":324000000000,"state":"active","ping":74},{"user_id":66,"name":"Butters495","steam_id":76561197998689042,"connected_time":119000000000,"state":"active","ping":80},{"user_id":37,"name":"I'mWalkerHere","steam_id":76561199310055450,"connected_time":2002000000000,"state":"active","ping":89},{"user_id":38,"name":"459d","steam_id":76561198336142389,"connected_time":1998000000000,"state":"active","ping":56},{"user_id":43,"name":"Orung","steam_id":76561198141012058,"connected_time":1937000000000,"state":"active","ping":85},{"user_id":48,"name":"Karli ☭","steam_id":76561198092820390,"connected_time":1615000000000,"state":"active","ping":65}]},{"server_id":8,"name":"Uncletopia | Dallas | 1 | All Maps","name_short":"dal-1","host":"dal-1.us.uncletopia.com","port":27015,"enabled":true,"region":"us-central","cc":"us","latitude":32.779167,"longitude":-96.80889,"reserved":0,"last_update":"0001-01-01T00:00:00Z","name_a2s":"Uncletopia | Dallas | 1 | All Maps","protocol":17,"map":"pl_upward","folder":"tf","game":"Team Fortress","app_id":440,"player_count":24,"max_players":24,"Bots":0,"server_type":"Dedicated","server_os":"Linux","password":true,"vac":true,"version":"7961495","steam_id":85568392924469986,"keywords":["nocrits","nodmgspread","payload","uncletopia"],"game_id":440,"stv_port":27016,"stv_name":"Uncletopia | Dallas | 1 | All Maps | STV","players":[{"user_id":53,"name":"flippercurve","steam_id":76561199238295034,"connected_time":3005000000000,"state":"active","ping":72},{"user_id":167,"name":"Sturdy Primate","steam_id":76561198057954897,"connected_time":202000000000,"state":"active","ping":88},{"user_id":159,"name":"Nuke Dukem","steam_id":76561198214263107,"connected_time":647000000000,"state":"active","ping":91},{"user_id":6,"name":"banana gaming","steam_id":76561198334907218,"connected_time":5481000000000,"state":"active","ping":54},{"user_id":12,"name":"dailydiamond","steam_id":76561199123582502,"connected_time":5468000000000,"state":"active","ping":99},{"user_id":162,"name":"DeckofDragons","steam_id":76561198057398213,"connected_time":547000000000,"state":"active","ping":75},{"user_id":104,"name":"Greyline","steam_id":76561198019651823,"connected_time":1880000000000,"state":"active","ping":45},{"user_id":10,"name":"FanaticSalt","steam_id":76561199380123059,"connected_time":5474000000000,"state":"active","ping":51},{"user_id":160,"name":"reymundo","steam_id":76561197989412830,"connected_time":579000000000,"state":"active","ping":88},{"user_id":51,"name":"Moonflower ✦","steam_id":76561198191782483,"connected_time":3019000000000,"state":"active","ping":56},{"user_id":105,"name":"[LTM]Gunshill","steam_id":76561198079533528,"connected_time":1872000000000,"state":"active","ping":67},{"user_id":107,"name":"Natsuki the Scunt","steam_id":76561199175922684,"connected_time":1845000000000,"state":"active","ping":97},{"user_id":108,"name":"artichoke","steam_id":76561198980994364,"connected_time":1840000000000,"state":"active","ping":98},{"user_id":30,"name":"sebjzy ♥","steam_id":76561198009959034,"connected_time":5430000000000,"state":"active","ping":61},{"user_id":18,"name":"barker bill","steam_id":76561198018451994,"connected_time":5456000000000,"state":"active","ping":64},{"user_id":92,"name":"A Very Confused Gentleman","steam_id":76561198051686391,"connected_time":2240000000000,"state":"active","ping":76},{"user_id":166,"name":"Giovanni573","steam_id":76561198893868040,"connected_time":252000000000,"state":"active","ping":48},{"user_id":134,"name":"mkl","steam_id":76561197986401685,"connected_time":1303000000000,"state":"active","ping":57},{"user_id":151,"name":"Ballista","steam_id":76561197983182562,"connected_time":829000000000,"state":"active","ping":51},{"user_id":163,"name":"Moe Nuts","steam_id":76561198365598733,"connected_time":544000000000,"state":"active","ping":94},{"user_id":169,"name":"Phosu","steam_id":76561198180162801,"connected_time":13000000000,"state":"spawning","ping":58},{"user_id":55,"name":"cc","steam_id":76561199215821942,"connected_time":3002000000000,"state":"active","ping":46},{"user_id":81,"name":"Legit_Jaxer","steam_id":76561198172234053,"connected_time":2572000000000,"state":"active","ping":111},{"user_id":170,"name":"Mehman","steam_id":76561199020244051,"connected_time":11000000000,"state":"active","ping":93}]},{"server_id":108,"name":"Uncletopia | Dallas | 2 | All Maps","name_short":"dal-2","host":"dal-1.us.uncletopia.com","port":27025,"enabled":true,"region":"us-central","cc":"us","latitude":32.779167,"longitude":-96.80889,"reserved":0,"last_update":"0001-01-01T00:00:00Z","name_a2s":"Uncletopia | Dallas | 2 | All Maps","protocol":17,"map":"pl_barnblitz","folder":"tf","game":"Team Fortress","app_id":440,"player_count":24,"max_players":24,"Bots":0,"server_type":"Dedicated","server_os":"Linux","password":true,"vac":true,"version":"7961495","steam_id":85568392924469988,"keywords":["nocrits","nodmgspread","payload","uncletopia"],"game_id":440,"stv_port":27026,"stv_name":"Uncletopia | Dallas | 2 | All Maps | STV","players":[{"user_id":85,"name":"Hey","steam_id":76561198447517893,"connected_time":714000000000,"state":"active","ping":84},{"user_id":97,"name":"Per My Last Email","steam_id":76561197970096950,"connected_time":196000000000,"state":"active","ping":36},{"user_id":87,"name":"Jaydyn","steam_id":76561198140326797,"connected_time":672000000000,"state":"active","ping":100},{"user_id":88,"name":"Mr. Everett","steam_id":76561198401204033,"connected_time":658000000000,"state":"active","ping":79},{"user_id":89,"name":"nake","steam_id":76561198004619118,"connected_time":655000000000,"state":"active","ping":87},{"user_id":79,"name":"Bacon","steam_id":76561199078407152,"connected_time":1504000000000,"state":"active","ping":79},{"user_id":19,"name":"Volks","steam_id":76561198018552479,"connected_time":5302000000000,"state":"active","ping":60},{"user_id":90,"name":"schmuck","steam_id":76561198143789773,"connected_time":623000000000,"state":"active","ping":55},{"user_id":80,"name":"Tribute","steam_id":76561198081594043,"connected_time":1504000000000,"state":"active","ping":57},{"user_id":91,"name":"SkoranShogun","steam_id":76561198091811218,"connected_time":609000000000,"state":"active","ping":64},{"user_id":98,"name":"AffirmedDrip13","steam_id":76561198241951532,"connected_time":74000000000,"state":"active","ping":70},{"user_id":83,"name":"tres","steam_id":76561198067500833,"connected_time":756000000000,"state":"active","ping":50},{"user_id":99,"name":"Dambranlui16","steam_id":76561198984729069,"connected_time":53000000000,"state":"active","ping":85},{"user_id":49,"name":"Burny Sanders","steam_id":76561197961879048,"connected_time":4425000000000,"state":"active","ping":44},{"user_id":70,"name":"frog gaming","steam_id":76561198323926258,"connected_time":2448000000000,"state":"active","ping":43},{"user_id":75,"name":"Crazy Dave!","steam_id":76561198951414566,"connected_time":1883000000000,"state":"active","ping":92},{"user_id":94,"name":"Huh?","steam_id":76561198305380082,"connected_time":583000000000,"state":"active","ping":76},{"user_id":100,"name":"Donnie Blasto","steam_id":76561198043432005,"connected_time":49000000000,"state":"active","ping":98},{"user_id":82,"name":"JOHNSMOKER007","steam_id":76561198145015891,"connected_time":1159000000000,"state":"active","ping":55},{"user_id":101,"name":"BakedBushido","steam_id":76561197976095068,"connected_time":48000000000,"state":"active","ping":85},{"user_id":48,"name":"thebaconnator2016","steam_id":76561199100270424,"connected_time":4447000000000,"state":"active","ping":90},{"user_id":102,"name":"Bone Daddy","steam_id":76561197989953895,"connected_time":46000000000,"state":"active","ping":94},{"user_id":52,"name":"Taps","steam_id":76561198976946972,"connected_time":4320000000000,"state":"active","ping":89},{"user_id":95,"name":"everettroth63","steam_id":76561199237772642,"connected_time":555000000000,"state":"active","ping":70}]},{"server_id":404,"name":"Uncletopia | Dallas | 3 | All Maps","name_short":"dal-3","host":"dal-1.us.uncletopia.com","port":27035,"enabled":true,"region":"us-central","cc":"us","latitude":32.779167,"longitude":-96.80889,"reserved":0,"last_update":"0001-01-01T00:00:00Z","name_a2s":"Uncletopia | Dallas | 3 | All Maps","protocol":17,"map":"cp_steel","folder":"tf","game":"Team Fortress","app_id":440,"player_count":24,"max_players":24,"Bots":0,"server_type":"Dedicated","server_os":"Linux","password":true,"vac":true,"version":"7961495","steam_id":85568392924515219,"keywords":["cp","nocrits","nodmgspread","uncletopia"],"game_id":440,"stv_port":27036,"stv_name":"Uncletopia | Dallas | 3 | All Maps | STV","players":[{"user_id":51,"name":"Major Woody","steam_id":76561198835541533,"connected_time":2872000000000,"state":"active","ping":84},{"user_id":66,"name":"Justin","steam_id":76561198110865423,"connected_time":1444000000000,"state":"active","ping":75},{"user_id":72,"name":"PiolaCat","steam_id":76561199100535345,"connected_time":930000000000,"state":"active","ping":121},{"user_id":82,"name":"Hot Milk + Big Slappies","steam_id":76561197988989149,"connected_time":642000000000,"state":"active","ping":88},{"user_id":86,"name":"Trigger!","steam_id":76561198061514186,"connected_time":553000000000,"state":"active","ping":87},{"user_id":38,"name":"HUESO","steam_id":76561198276383681,"connected_time":3813000000000,"state":"active","ping":82},{"user_id":59,"name":"real worm","steam_id":76561199065645094,"connected_time":2167000000000,"state":"active","ping":76},{"user_id":73,"name":"Pie™","steam_id":76561198158312625,"connected_time":770000000000,"state":"active","ping":120},{"user_id":12,"name":"Mr. Poliedro","steam_id":76561198873854696,"connected_time":4990000000000,"state":"active","ping":131},{"user_id":76,"name":"bouncyhousin","steam_id":76561198852902827,"connected_time":757000000000,"state":"active","ping":74},{"user_id":77,"name":"StormRage","steam_id":76561199435079308,"connected_time":729000000000,"state":"active","ping":164},{"user_id":70,"name":"Kondha","steam_id":76561198084588336,"connected_time":947000000000,"state":"active","ping":48},{"user_id":85,"name":"Roberto Del Fuego","steam_id":76561198043458554,"connected_time":584000000000,"state":"active","ping":76},{"user_id":67,"name":"StillNotGinger","steam_id":76561198063419189,"connected_time":1426000000000,"state":"active","ping":62},{"user_id":65,"name":"La Tabda","steam_id":76561198120364620,"connected_time":1474000000000,"state":"active","ping":93},{"user_id":83,"name":"coolbrother","steam_id":76561199390480874,"connected_time":640000000000,"state":"active","ping":113},{"user_id":22,"name":"Paul","steam_id":76561198156358796,"connected_time":4808000000000,"state":"active","ping":74},{"user_id":81,"name":"Howell at the Moon","steam_id":76561198060827426,"connected_time":671000000000,"state":"active","ping":83},{"user_id":24,"name":"kjr :d","steam_id":76561198206903132,"connected_time":4779000000000,"state":"active","ping":75},{"user_id":87,"name":"AXZIOM","steam_id":76561198255074952,"connected_time":407000000000,"state":"active","ping":90},{"user_id":89,"name":"Sherman didn't go far enough","steam_id":76561198013310722,"connected_time":264000000000,"state":"active","ping":87},{"user_id":84,"name":"Gwando","steam_id":76561198294629124,"connected_time":624000000000,"state":"active","ping":45},{"user_id":74,"name":"leesh","steam_id":76561198079603938,"connected_time":769000000000,"state":"active","ping":62},{"user_id":69,"name":"Spaceman","steam_id":76561198349305249,"connected_time":1416000000000,"state":"active","ping":124}]},{"server_id":405,"name":"Uncletopia | Dallas | 4 | Community","name_short":"dal-4","host":"dal-1.us.uncletopia.com","port":27045,"enabled":true,"region":"us-central","cc":"us","latitude":32.779167,"longitude":-96.80889,"reserved":0,"last_update":"0001-01-01T00:00:00Z","name_a2s":"Uncletopia | Dallas | 4 | Community","protocol":17,"map":"koth_lakeside_final","folder":"tf","game":"Team Fortress","app_id":440,"player_count":0,"max_players":24,"Bots":0,"server_type":"Dedicated","server_os":"Linux","password":true,"vac":true,"version":"7961495","steam_id":85568392924515220,"keywords":["cp","nocrits","nodmgspread","uncletopia"],"game_id":440,"stv_port":27046,"stv_name":"Uncletopia | Dallas | 4 | Community | STV","players":null},{"server_id":5,"name":"Uncletopia | Frankfurt | 1 | All Maps","name_short":"frk-1","host":"frk-1.de.uncletopia.com","port":27015,"enabled":true,"region":"eu","cc":"de","latitude":50.110924,"longitude":8.682127,"reserved":0,"last_update":"0001-01-01T00:00:00Z","name_a2s":"Uncletopia | Frankfurt | 1 | All Maps","protocol":17,"map":"cp_well","folder":"tf","game":"Team Fortress","app_id":440,"player_count":0,"max_players":24,"Bots":0,"server_type":"Dedicated","server_os":"Linux","password":true,"vac":true,"version":"7961495","steam_id":85568392924469989,"keywords":["cp","nocrits","nodmgspread","uncletopia"],"game_id":440,"stv_port":27016,"stv_name":"Uncletopia | Frankfurt | 1 | All Maps | STV","players":null},{"server_id":110,"name":"Uncletopia | Frankfurt | 2 | All Maps","name_short":"frk-2","host":"frk-1.de.uncletopia.com","port":27025,"enabled":true,"region":"eu","cc":"de","latitude":50.110924,"longitude":8.682127,"reserved":0,"last_update":"0001-01-01T00:00:00Z","name_a2s":"Uncletopia | Frankfurt | 2 | All Maps","protocol":17,"map":"pl_frontier_final","folder":"tf","game":"Team Fortress","app_id":440,"player_count":0,"max_players":24,"Bots":0,"server_type":"Dedicated","server_os":"Linux","password":true,"vac":true,"version":"7961495","steam_id":85568392924469990,"keywords":["nocrits","nodmgspread","payload","uncletopia"],"game_id":440,"stv_port":27026,"stv_name":"Uncletopia | Frankfurt | 2 | All Maps | STV","players":null},{"server_id":308,"name":"Uncletopia | Frankfurt | 3 | All Maps","name_short":"frk-3","host":"frk-1.de.uncletopia.com","port":27035,"enabled":true,"region":"eu","cc":"de","latitude":50.110924,"longitude":8.682127,"reserved":0,"last_update":"0001-01-01T00:00:00Z","name_a2s":"Uncletopia | Frankfurt | 3 | All Maps","protocol":17,"map":"koth_viaduct","folder":"tf","game":"Team Fortress","app_id":440,"player_count":0,"max_players":24,"Bots":0,"server_type":"Dedicated","server_os":"Linux","password":true,"vac":true,"version":"7961495","steam_id":85568392924504274,"keywords":["cp","nocrits","nodmgspread","uncletopia"],"game_id":440,"stv_port":27036,"stv_name":"Uncletopia | Frankfurt | 3 | All Maps | STV","players":null},{"server_id":309,"name":"Uncletopia | Frankfurt | 4 | All Maps","name_short":"frk-4","host":"frk-1.de.uncletopia.com","port":27045,"enabled":true,"region":"eu","cc":"de","latitude":50.110924,"longitude":8.682127,"reserved":0,"last_update":"0001-01-01T00:00:00Z","name_a2s":"Uncletopia | Frankfurt | 4 | All Maps","protocol":17,"map":"pl_frontier_final","folder":"tf","game":"Team Fortress","app_id":440,"player_count":0,"max_players":24,"Bots":0,"server_type":"Dedicated","server_os":"Linux","password":true,"vac":true,"version":"7961495","steam_id":85568392924504275,"keywords":["nocrits","nodmgspread","payload","uncletopia"],"game_id":440,"stv_port":27046,"stv_name":"Uncletopia | Frankfurt | 4 | All Maps | STV","players":null},{"server_id":310,"name":"Uncletopia | Frankfurt | 5 | All Maps","name_short":"frk-5","host":"frk-1.de.uncletopia.com","port":27055,"enabled":true,"region":"eu","cc":"de","latitude":50.110924,"longitude":8.682127,"reserved":0,"last_update":"0001-01-01T00:00:00Z","name_a2s":"Uncletopia | Frankfurt | 5 | All Maps","protocol":17,"map":"pl_swiftwater_final1","folder":"tf","game":"Team Fortress","app_id":440,"player_count":0,"max_players":24,"Bots":0,"server_type":"Dedicated","server_os":"Linux","password":true,"vac":true,"version":"7961495","steam_id":85568392924504277,"keywords":["nocrits","nodmgspread","payload","uncletopia"],"game_id":440,"stv_port":27056,"stv_name":"Uncletopia | Frankfurt | 5 | All Maps | STV","players":null},{"server_id":311,"name":"Uncletopia | Frankfurt | 6 | All Maps","name_short":"frk-6","host":"frk-1.de.uncletopia.com","port":27065,"enabled":true,"region":"eu","cc":"de","latitude":50.110924,"longitude":8.682127,"reserved":0,"last_update":"0001-01-01T00:00:00Z","name_a2s":"Uncletopia | Frankfurt | 6 | All Maps","protocol":17,"map":"pl_badwater","folder":"tf","game":"Team Fortress","app_id":440,"player_count":0,"max_players":24,"Bots":0,"server_type":"Dedicated","server_os":"Linux","password":true,"vac":true,"version":"7961495","steam_id":85568392924504278,"keywords":["nocrits","nodmgspread","payload","uncletopia"],"game_id":440,"stv_port":27066,"stv_name":"Uncletopia | Frankfurt | 6 | All Maps | STV","players":null},{"server_id":23,"name":"Uncletopia | Frankfurt | 7 | Stopwatch Beta","name_short":"frk-7","host":"frk-1.de.uncletopia.com","port":27075,"enabled":true,"region":"eu","cc":"de","latitude":50.110924,"longitude":8.682127,"reserved":0,"last_update":"0001-01-01T00:00:00Z","name_a2s":"Uncletopia | Frankfurt | 7 | Stopwatch Beta","protocol":17,"map":"pl_frontier_final","folder":"tf","game":"Team Fortress","app_id":440,"player_count":0,"max_players":24,"Bots":0,"server_type":"Dedicated","server_os":"Linux","password":true,"vac":true,"version":"7961495","steam_id":85568392924742827,"keywords":["nocrits","nodmgspread","payload","uncletopia"],"game_id":440,"stv_port":27076,"stv_name":"Uncletopia | Frankfurt | 7 | Stopwatch Beta | STV","players":null},{"server_id":24,"name":"Uncletopia | Frankfurt | 8 | Community","name_short":"frk-8","host":"frk-1.de.uncletopia.com","port":27085,"enabled":true,"region":"eu","cc":"de","latitude":50.110924,"longitude":8.682127,"reserved":0,"last_update":"0001-01-01T00:00:00Z","name_a2s":"Uncletopia | Frankfurt | 8 | Community","protocol":17,"map":"koth_highpass","folder":"tf","game":"Team Fortress","app_id":440,"player_count":0,"max_players":24,"Bots":0,"server_type":"Dedicated","server_os":"Linux","password":true,"vac":true,"version":"7961495","steam_id":85568392924742828,"keywords":["cp","nocrits","nodmgspread","uncletopia"],"game_id":440,"stv_port":27086,"stv_name":"Uncletopia | Frankfurt | 8 | Community | STV","players":null},{"server_id":202,"name":"Uncletopia | Hong Kong | 1 | All Maps","name_short":"hgk-1","host":"hgk-1.hk.uncletopia.com","port":27015,"enabled":true,"region":"asia","cc":"hk","latitude":22.302711,"longitude":114.177216,"reserved":0,"last_update":"0001-01-01T00:00:00Z","name_a2s":"Uncletopia | Hong Kong | 1 | All Maps","protocol":17,"map":"pl_barnblitz","folder":"tf","game":"Team Fortress","app_id":440,"player_count":1,"max_players":24,"Bots":0,"server_type":"Dedicated","server_os":"Linux","password":true,"vac":true,"version":"7961495","steam_id":85568392924494504,"keywords":["nocrits","nodmgspread","payload","uncletopia"],"game_id":440,"stv_port":27016,"stv_name":"Uncletopia | Hong Kong | 1 | All Maps | STV","players":[{"user_id":5,"name":"MS PowerPoint","steam_id":76561198369523192,"connected_time":169000000000,"state":"spawning","ping":62}]},{"server_id":1,"name":"Uncletopia | Los Angeles | 1 | All Maps","name_short":"lax-1","host":"lax-1.us.uncletopia.com","port":27015,"enabled":true,"region":"us-west","cc":"us","latitude":33.94279,"longitude":-118.41004,"reserved":0,"last_update":"0001-01-01T00:00:00Z","name_a2s":"Uncletopia | Los Angeles | 1 | All Maps","protocol":17,"map":"cp_process_final","folder":"tf","game":"Team Fortress","app_id":440,"player_count":21,"max_players":24,"Bots":0,"server_type":"Dedicated","server_os":"Linux","password":true,"vac":true,"version":"7961495","steam_id":85568392924469991,"keywords":["cp","nocrits","nodmgspread","uncletopia"],"game_id":440,"stv_port":27016,"stv_name":"Uncletopia | Los Angeles | 1 | All Maps | STV","players":[{"user_id":19,"name":"cool beans","steam_id":76561198321591685,"connected_time":832000000000,"state":"active","ping":103},{"user_id":20,"name":"DarkMewMew","steam_id":76561199471715552,"connected_time":790000000000,"state":"active","ping":65},{"user_id":29,"name":"Odd Life","steam_id":76561198244979998,"connected_time":210000000000,"state":"active","ping":45},{"user_id":18,"name":"lolzfrdawin21","steam_id":76561199006665979,"connected_time":907000000000,"state":"active","ping":122},{"user_id":26,"name":"TheMaskedDingo","steam_id":76561198039022700,"connected_time":424000000000,"state":"active","ping":43},{"user_id":24,"name":"Ytown","steam_id":76561198165879751,"connected_time":455000000000,"state":"active","ping":65},{"user_id":27,"name":"Chaplin the grinch that stole c","steam_id":76561198160369788,"connected_time":328000000000,"state":"active","ping":70},{"user_id":28,"name":"isaiahemitchell2011","steam_id":76561199243120731,"connected_time":326000000000,"state":"active","ping":97},{"user_id":41,"name":"indyjacob","steam_id":76561198065158713,"connected_time":37000000000,"state":"spawning","ping":105},{"user_id":31,"name":"Username","steam_id":76561199033122306,"connected_time":183000000000,"state":"active","ping":112},{"user_id":32,"name":"Andway","steam_id":76561198119745288,"connected_time":164000000000,"state":"active","ping":55},{"user_id":33,"name":"winrar","steam_id":76561198418239391,"connected_time":162000000000,"state":"active","ping":46},{"user_id":34,"name":"Zorlovo","steam_id":76561198006443283,"connected_time":151000000000,"state":"active","ping":119},{"user_id":35,"name":"El_Jackso","steam_id":76561198126121555,"connected_time":144000000000,"state":"active","ping":106},{"user_id":36,"name":"Calbum","steam_id":76561198178144735,"connected_time":141000000000,"state":"active","ping":45},{"user_id":37,"name":"TCH Vape Systems","steam_id":76561198045382189,"connected_time":131000000000,"state":"active","ping":115},{"user_id":39,"name":"Michu_","steam_id":76561199076405865,"connected_time":79000000000,"state":"active","ping":89},{"user_id":40,"name":"Tako","steam_id":76561199264073138,"connected_time":76000000000,"state":"spawning","ping":43},{"user_id":42,"name":"Genëric","steam_id":76561198159749192,"connected_time":27000000000,"state":"active","ping":46},{"user_id":43,"name":"nae nae goblin68","steam_id":76561199115259028,"connected_time":12000000000,"state":"spawning","ping":104},{"user_id":44,"name":"Alexa, can you make it clap?","steam_id":76561198044473776,"connected_time":11000000000,"state":"spawning","ping":81}]},{"server_id":112,"name":"Uncletopia | Los Angeles | 2 | All Maps","name_short":"lax-2","host":"lax-1.us.uncletopia.com","port":27025,"enabled":true,"region":"us-west","cc":"us","latitude":33.94279,"longitude":-118.41004,"reserved":0,"last_update":"0001-01-01T00:00:00Z","name_a2s":"Uncletopia | Los Angeles | 2 | All Maps","protocol":17,"map":"cp_sunshine","folder":"tf","game":"Team Fortress","app_id":440,"player_count":24,"max_players":24,"Bots":0,"server_type":"Dedicated","server_os":"Linux","password":true,"vac":true,"version":"7961495","steam_id":85568392924469992,"keywords":["cp","nocrits","nodmgspread","uncletopia"],"game_id":440,"stv_port":27026,"stv_name":"Uncletopia | Los Angeles | 2 | All Maps | STV","players":[{"user_id":89,"name":"RysN Yeen ♥","steam_id":76561198105359319,"connected_time":1023000000000,"state":"active","ping":45},{"user_id":105,"name":"paradise","steam_id":76561198006184199,"connected_time":104000000000,"state":"active","ping":93},{"user_id":81,"name":"Amish","steam_id":76561198072145549,"connected_time":1415000000000,"state":"active","ping":129},{"user_id":100,"name":"Call me the sleeps","steam_id":76561198121245586,"connected_time":204000000000,"state":"active","ping":85},{"user_id":106,"name":"`o2","steam_id":76561197992030936,"connected_time":97000000000,"state":"active","ping":93},{"user_id":104,"name":"Pidjy","steam_id":76561199080365190,"connected_time":131000000000,"state":"active","ping":55},{"user_id":102,"name":"Alcohol Hominid","steam_id":76561198320313950,"connected_time":139000000000,"state":"active","ping":89},{"user_id":99,"name":"Melon","steam_id":76561199202306398,"connected_time":355000000000,"state":"active","ping":57},{"user_id":107,"name":"ScrubM8","steam_id":76561198197800707,"connected_time":97000000000,"state":"active","ping":121},{"user_id":86,"name":"Noiceman","steam_id":76561199016137482,"connected_time":1071000000000,"state":"active","ping":77},{"user_id":85,"name":"Doof","steam_id":76561198034031819,"connected_time":1127000000000,"state":"active","ping":90},{"user_id":110,"name":"banan team fortes","steam_id":76561199073621650,"connected_time":32000000000,"state":"active","ping":48},{"user_id":87,"name":"Alf Creepypasta","steam_id":76561198841844093,"connected_time":1068000000000,"state":"active","ping":42},{"user_id":88,"name":"top10skater","steam_id":76561199471507997,"connected_time":1043000000000,"state":"active","ping":59},{"user_id":90,"name":"cran","steam_id":76561198178840075,"connected_time":1018000000000,"state":"active","ping":81},{"user_id":96,"name":"papi Chulo","steam_id":76561198126274984,"connected_time":823000000000,"state":"active","ping":80},{"user_id":92,"name":"evil","steam_id":76561199001918194,"connected_time":955000000000,"state":"active","ping":67},{"user_id":103,"name":"Rango","steam_id":76561198104086771,"connected_time":139000000000,"state":"active","ping":46},{"user_id":43,"name":"fagola :3","steam_id":76561198105374054,"connected_time":4166000000000,"state":"active","ping":60},{"user_id":75,"name":"yellow ᗜˬᗜ","steam_id":76561198366474647,"connected_time":1722000000000,"state":"active","ping":44},{"user_id":61,"name":"Bamboo","steam_id":76561198043139553,"connected_time":2956000000000,"state":"active","ping":71},{"user_id":109,"name":"Papillon","steam_id":76561198049725849,"connected_time":83000000000,"state":"active","ping":120},{"user_id":77,"name":"Loser","steam_id":76561198260540499,"connected_time":1681000000000,"state":"active","ping":143},{"user_id":111,"name":"Healing Weapons Guy","steam_id":76561198005608047,"connected_time":8000000000,"state":"spawning","ping":91}]},{"server_id":324,"name":"Uncletopia | Los Angeles | 3 | All Maps","name_short":"lax-3","host":"lax-1.us.uncletopia.com","port":27035,"enabled":true,"region":"us-west","cc":"us","latitude":33.94279,"longitude":-118.41004,"reserved":0,"last_update":"0001-01-01T00:00:00Z","name_a2s":"Uncletopia | Los Angeles | 3 | All Maps","protocol":17,"map":"pl_swiftwater_final1","folder":"tf","game":"Team Fortress","app_id":440,"player_count":24,"max_players":24,"Bots":0,"server_type":"Dedicated","server_os":"Linux","password":true,"vac":true,"version":"7961495","steam_id":85568392924510198,"keywords":["nocrits","nodmgspread","payload","uncletopia"],"game_id":440,"stv_port":27036,"stv_name":"Uncletopia | Los Angeles | 3 | All Maps | STV","players":[{"user_id":52,"name":"Boboblin:)","steam_id":76561199030131717,"connected_time":3006000000000,"state":"active","ping":53},{"user_id":72,"name":"level 7 firemancer","steam_id":76561198209571677,"connected_time":1283000000000,"state":"active","ping":97},{"user_id":54,"name":"ducc","steam_id":76561198284178076,"connected_time":2973000000000,"state":"active","ping":110},{"user_id":73,"name":"couldn't think of cool alias","steam_id":76561198113083770,"connected_time":1261000000000,"state":"active","ping":106},{"user_id":84,"name":"Rac Man","steam_id":76561198417029296,"connected_time":64000000000,"state":"active","ping":113},{"user_id":56,"name":"Alberto2104","steam_id":76561198094968873,"connected_time":2900000000000,"state":"active","ping":54},{"user_id":74,"name":"ang","steam_id":76561198435151254,"connected_time":1178000000000,"state":"active","ping":57},{"user_id":67,"name":"Greekyogurt","steam_id":76561198257575818,"connected_time":1794000000000,"state":"active","ping":139},{"user_id":83,"name":"Cobalt","steam_id":76561198063223347,"connected_time":177000000000,"state":"active","ping":60},{"user_id":79,"name":"tracker","steam_id":76561198046911616,"connected_time":795000000000,"state":"active","ping":105},{"user_id":43,"name":"Awesome Biscuit :0","steam_id":76561199123614910,"connected_time":3761000000000,"state":"active","ping":63},{"user_id":71,"name":"LockHeart","steam_id":76561198868205853,"connected_time":1400000000000,"state":"active","ping":58},{"user_id":81,"name":"Sup m8","steam_id":76561198081659121,"connected_time":540000000000,"state":"active","ping":62},{"user_id":66,"name":"SSBlue","steam_id":76561198126300243,"connected_time":1851000000000,"state":"active","ping":55},{"user_id":78,"name":"grape","steam_id":76561197993980328,"connected_time":903000000000,"state":"active","ping":95},{"user_id":70,"name":"Trash Man","steam_id":76561198064860110,"connected_time":1650000000000,"state":"active","ping":113},{"user_id":80,"name":"groovin ♫","steam_id":76561198968287353,"connected_time":724000000000,"state":"active","ping":39},{"user_id":34,"name":"LeadButterTF2","steam_id":76561198260530863,"connected_time":3844000000000,"state":"active","ping":45},{"user_id":35,"name":"peko peko","steam_id":76561198149443710,"connected_time":3844000000000,"state":"active","ping":47},{"user_id":46,"name":"dunk","steam_id":76561198066114874,"connected_time":3440000000000,"state":"active","ping":90},{"user_id":77,"name":"Busta-Ma-Balls","steam_id":76561198005777658,"connected_time":1117000000000,"state":"active","ping":117},{"user_id":38,"name":"sora","steam_id":76561198094256973,"connected_time":3829000000000,"state":"active","ping":60},{"user_id":65,"name":"Five","steam_id":76561198026640473,"connected_time":1907000000000,"state":"active","ping":71},{"user_id":82,"name":"[TL] Andy","steam_id":76561198011133956,"connected_time":313000000000,"state":"active","ping":59}]},{"server_id":25,"name":"Uncletopia | Los Angeles | 4 | Stopwatch Beta","name_short":"lax-4","host":"lax-1.us.uncletopia.com","port":27045,"enabled":true,"region":"us-west","cc":"us","latitude":33.94279,"longitude":-118.41004,"reserved":0,"last_update":"0001-01-01T00:00:00Z","name_a2s":"Uncletopia | Los Angeles | 4 | Stopwatch Beta","protocol":17,"map":"pl_swiftwater_final1","folder":"tf","game":"Team Fortress","app_id":440,"player_count":0,"max_players":24,"Bots":0,"server_type":"Dedicated","server_os":"Linux","password":true,"vac":true,"version":"7961495","steam_id":85568392924510199,"keywords":["nocrits","nodmgspread","payload","uncletopia"],"game_id":440,"stv_port":27046,"stv_name":"Uncletopia | Los Angeles | 4 | Stopwatch Beta | STV","players":null},{"server_id":11,"name":"Uncletopia | London | 1 | All Maps","name_short":"lon-1","host":"lon-1.uk.uncletopia.com","port":27015,"enabled":true,"region":"eu","cc":"gb","latitude":51.509865,"longitude":-0.118092,"reserved":0,"last_update":"0001-01-01T00:00:00Z","name_a2s":"Uncletopia | London | 1 | All Maps","protocol":17,"map":"koth_harvest_final","folder":"tf","game":"Team Fortress","app_id":440,"player_count":23,"max_players":24,"Bots":0,"server_type":"Dedicated","server_os":"Linux","password":true,"vac":true,"version":"7961495","steam_id":85568392924367362,"keywords":["cp","nocrits","nodmgspread","uncletopia"],"game_id":440,"stv_port":27016,"stv_name":"Uncletopia | London | 1 | All Maps | STV","players":[{"user_id":80,"name":"AVOID EVERYONE","steam_id":76561198051852765,"connected_time":153000000000,"state":"active","ping":75},{"user_id":43,"name":"jjkun786","steam_id":76561199438517484,"connected_time":3314000000000,"state":"active","ping":84},{"user_id":42,"name":"The Sun in Rags","steam_id":76561198169990975,"connected_time":3376000000000,"state":"active","ping":39},{"user_id":78,"name":"gbearda","steam_id":76561198297604298,"connected_time":509000000000,"state":"active","ping":74},{"user_id":84,"name":"Enkloth!","steam_id":76561198115106008,"connected_time":28000000000,"state":"active","ping":54},{"user_id":8,"name":"Sixie","steam_id":76561198251675360,"connected_time":5531000000000,"state":"active","ping":47},{"user_id":60,"name":"joachym","steam_id":76561198428579761,"connected_time":2056000000000,"state":"active","ping":69},{"user_id":77,"name":"snowycoast","steam_id":76561198346638308,"connected_time":557000000000,"state":"active","ping":59},{"user_id":54,"name":"elephantofdoom","steam_id":76561198062436835,"connected_time":2722000000000,"state":"active","ping":105},{"user_id":68,"name":"jonbob","steam_id":76561197963506620,"connected_time":910000000000,"state":"active","ping":46},{"user_id":82,"name":"bird ideas","steam_id":76561199480942903,"connected_time":94000000000,"state":"active","ping":74},{"user_id":14,"name":"Elon Musk's Last Braincell","steam_id":76561198846784757,"connected_time":5501000000000,"state":"active","ping":58},{"user_id":69,"name":"engie?","steam_id":76561198331852832,"connected_time":905000000000,"state":"active","ping":44},{"user_id":71,"name":"Montrose","steam_id":76561198338911736,"connected_time":838000000000,"state":"active","ping":174},{"user_id":83,"name":"игла","steam_id":76561198120760515,"connected_time":86000000000,"state":"active","ping":90},{"user_id":72,"name":"Cex Employee","steam_id":76561198173581450,"connected_time":822000000000,"state":"active","ping":62},{"user_id":19,"name":"Bostrash641","steam_id":76561199447225685,"connected_time":5493000000000,"state":"active","ping":71},{"user_id":81,"name":"BD[PL]","steam_id":76561198115995871,"connected_time":99000000000,"state":"active","ping":92},{"user_id":79,"name":"JelloSniffer","steam_id":76561198142770733,"connected_time":202000000000,"state":"active","ping":144},{"user_id":59,"name":"DDUUCCKK","steam_id":76561198141953050,"connected_time":2079000000000,"state":"active","ping":55},{"user_id":75,"name":"Hammond","steam_id":76561198840150558,"connected_time":781000000000,"state":"active","ping":85},{"user_id":57,"name":"bowchika wowa #SlavaUkraine","steam_id":76561198159564550,"connected_time":2340000000000,"state":"active","ping":68},{"user_id":66,"name":"zherny","steam_id":76561198027033926,"connected_time":1359000000000,"state":"active","ping":42}]},{"server_id":114,"name":"Uncletopia | London | 2 | All Maps","name_short":"lon-2","host":"lon-1.uk.uncletopia.com","port":27025,"enabled":true,"region":"eu","cc":"gb","latitude":51.509865,"longitude":-0.118092,"reserved":0,"last_update":"0001-01-01T00:00:00Z","name_a2s":"Uncletopia | London | 2 | All Maps","protocol":17,"map":"cp_sunshine","folder":"tf","game":"Team Fortress","app_id":440,"player_count":0,"max_players":24,"Bots":0,"server_type":"Dedicated","server_os":"Linux","password":true,"vac":true,"version":"7961495","steam_id":85568392924470941,"keywords":["cp","nocrits","nodmgspread","uncletopia"],"game_id":440,"stv_port":27026,"stv_name":"Uncletopia | London | 2 | All Maps | STV","players":null},{"server_id":320,"name":"Uncletopia | London | 3 | All Maps","name_short":"lon-3","host":"lon-1.uk.uncletopia.com","port":27035,"enabled":true,"region":"eu","cc":"gb","latitude":51.509865,"longitude":-0.118092,"reserved":0,"last_update":"0001-01-01T00:00:00Z","name_a2s":"Uncletopia | London | 3 | All Maps","protocol":17,"map":"pl_snowycoast","folder":"tf","game":"Team Fortress","app_id":440,"player_count":0,"max_players":24,"Bots":0,"server_type":"Dedicated","server_os":"Linux","password":true,"vac":true,"version":"7961495","steam_id":85568392924510192,"keywords":["nocrits","nodmgspread","payload","uncletopia"],"game_id":440,"stv_port":27036,"stv_name":"Uncletopia | London | 3 | All Maps | STV","players":null},{"server_id":321,"name":"Uncletopia | London | 4 | All Maps","name_short":"lon-4","host":"lon-1.uk.uncletopia.com","port":27045,"enabled":true,"region":"eu","cc":"gb","latitude":51.509865,"longitude":-0.118092,"reserved":0,"last_update":"0001-01-01T00:00:00Z","name_a2s":"Uncletopia | London | 4 | All Maps","protocol":17,"map":"pl_frontier_final","folder":"tf","game":"Team Fortress","app_id":440,"player_count":0,"max_players":24,"Bots":0,"server_type":"Dedicated","server_os":"Linux","password":true,"vac":true,"version":"7961495","steam_id":85568392924510193,"keywords":["nocrits","nodmgspread","payload","uncletopia"],"game_id":440,"stv_port":27046,"stv_name":"Uncletopia | London | 4 | All Maps | STV","players":null},{"server_id":21,"name":"Uncletopia | London | 5 | All Maps","name_short":"lon-5","host":"lon-1.uk.uncletopia.com","port":27055,"enabled":true,"region":"eu","cc":"gb","latitude":51.509865,"longitude":-0.118092,"reserved":0,"last_update":"0001-01-01T00:00:00Z","name_a2s":"Uncletopia | London | 5 | All Maps","protocol":17,"map":"cp_altitude","folder":"tf","game":"Team Fortress","app_id":440,"player_count":10,"max_players":24,"Bots":0,"server_type":"Dedicated","server_os":"Linux","password":true,"vac":true,"version":"7961495","steam_id":85568392924742829,"keywords":["cp","nocrits","nodmgspread","uncletopia"],"game_id":440,"stv_port":27056,"stv_name":"Uncletopia | London | 5 | All Maps | STV","players":[{"user_id":89,"name":"Comfy Chair","steam_id":76561198310462086,"connected_time":423000000000,"state":"active","ping":54},{"user_id":69,"name":"Worm","steam_id":76561198296497176,"connected_time":1912000000000,"state":"active","ping":44},{"user_id":91,"name":"Vlashen","steam_id":76561197960788563,"connected_time":395000000000,"state":"active","ping":157},{"user_id":39,"name":"harper","steam_id":76561198188642265,"connected_time":4522000000000,"state":"active","ping":60},{"user_id":82,"name":"deloreg (playing scout)","steam_id":76561199487318962,"connected_time":1003000000000,"state":"active","ping":73},{"user_id":83,"name":"Local Dumbass","steam_id":76561198252211608,"connected_time":854000000000,"state":"active","ping":78},{"user_id":77,"name":"Un_Zipped","steam_id":76561197990111649,"connected_time":1474000000000,"state":"active","ping":121},{"user_id":17,"name":"Ch4bby","steam_id":76561198058792875,"connected_time":5448000000000,"state":"active","ping":59},{"user_id":85,"name":"Bobo","steam_id":76561198052308399,"connected_time":790000000000,"state":"active","ping":66},{"user_id":25,"name":"randem_","steam_id":76561198338793755,"connected_time":5432000000000,"state":"active","ping":37}]},{"server_id":22,"name":"Uncletopia | London | 6 | All Maps","name_short":"lon-6","host":"lon-1.uk.uncletopia.com","port":27065,"enabled":true,"region":"eu","cc":"gb","latitude":51.509865,"longitude":-0.118092,"reserved":0,"last_update":"0001-01-01T00:00:00Z","name_a2s":"Uncletopia | London | 6 | All Maps","protocol":17,"map":"koth_lakeside_final","folder":"tf","game":"Team Fortress","app_id":440,"player_count":0,"max_players":24,"Bots":0,"server_type":"Dedicated","server_os":"Linux","password":true,"vac":true,"version":"7961495","steam_id":85568392924742830,"keywords":["cp","nocrits","nodmgspread","uncletopia"],"game_id":440,"stv_port":27066,"stv_name":"Uncletopia | London | 6 | All Maps | STV","players":null},{"server_id":40,"name":"Uncletopia | London | 7 | No Payload","name_short":"lon-7","host":"lon-1.uk.uncletopia.com","port":27075,"enabled":true,"region":"eu","cc":"gb","latitude":51.509865,"longitude":-0.118092,"reserved":0,"last_update":"0001-01-01T00:00:00Z","name_a2s":"Uncletopia | London | 7 | No Payload","protocol":17,"map":"cp_altitude","folder":"tf","game":"Team Fortress","app_id":440,"player_count":0,"max_players":24,"Bots":0,"server_type":"Dedicated","server_os":"Linux","password":true,"vac":true,"version":"7961495","steam_id":85568392924964314,"keywords":["cp","nocrits","nodmgspread","uncletopia"],"game_id":440,"stv_port":27076,"stv_name":"Uncletopia | London | 7 | No Payload | STV","players":null},{"server_id":41,"name":"Uncletopia | London | 8 | Community","name_short":"lon-8","host":"lon-1.uk.uncletopia.com","port":27085,"enabled":true,"region":"eu","cc":"gb","latitude":51.509865,"longitude":-0.118092,"reserved":0,"last_update":"0001-01-01T00:00:00Z","name_a2s":"Uncletopia | London | 8 | Community","protocol":17,"map":"workshop/rd_asteroid_redux_b1.ugc2154902912","folder":"tf","game":"Team Fortress","app_id":440,"player_count":0,"max_players":24,"Bots":0,"server_type":"Dedicated","server_os":"Linux","password":true,"vac":true,"version":"7961495","steam_id":85568392924964315,"keywords":["beta","nocrits","nodmgspread","rd","uncletopia"],"game_id":440,"stv_port":27086,"stv_name":"Uncletopia | London | 8 | Community | STV","players":null},{"server_id":300,"name":"Uncletopia | Montréal | 1 | All Maps","name_short":"mtl-1","host":"mtl-1.ca.uncletopia.com","port":27015,"enabled":true,"region":"us-east","cc":"ca","latitude":45.50889,"longitude":-73.56167,"reserved":0,"last_update":"0001-01-01T00:00:00Z","name_a2s":"","protocol":0,"map":"","folder":"","game":"","app_id":0,"player_count":1,"max_players":0,"Bots":0,"server_type":"","server_os":"","password":false,"vac":false,"version":"","steam_id":0,"keywords":null,"game_id":0,"stv_port":0,"stv_name":"","players":[{"user_id":4,"name":"chiswola","steam_id":76561198046920142,"connected_time":197000000000,"state":"active","ping":83}]},{"server_id":301,"name":"Uncletopia | Montréal | 2 | All Maps","name_short":"mtl-2","host":"mtl-1.ca.uncletopia.com","port":27025,"enabled":true,"region":"us-east","cc":"ca","latitude":45.50889,"longitude":-73.56167,"reserved":0,"last_update":"0001-01-01T00:00:00Z","name_a2s":"","protocol":0,"map":"","folder":"","game":"","app_id":0,"player_count":0,"max_players":0,"Bots":0,"server_type":"","server_os":"","password":false,"vac":false,"version":"","steam_id":0,"keywords":null,"game_id":0,"stv_port":0,"stv_name":"","players":null},{"server_id":302,"name":"Uncletopia | Montréal | 3 | All Maps","name_short":"mtl-3","host":"mtl-1.ca.uncletopia.com","port":27035,"enabled":true,"region":"us-east","cc":"ca","latitude":45.50889,"longitude":-73.56167,"reserved":0,"last_update":"0001-01-01T00:00:00Z","name_a2s":"","protocol":0,"map":"","folder":"","game":"","app_id":0,"player_count":24,"max_players":0,"Bots":0,"server_type":"","server_os":"","password":false,"vac":false,"version":"","steam_id":0,"keywords":null,"game_id":0,"stv_port":0,"stv_name":"","players":[{"user_id":81,"name":"greg","steam_id":76561198094587001,"connected_time":2898000000000,"state":"active","ping":87},{"user_id":107,"name":"Vegerot","steam_id":76561197997843710,"connected_time":1121000000000,"state":"active","ping":45},{"user_id":88,"name":"calin","steam_id":76561199009677514,"connected_time":2482000000000,"state":"active","ping":174},{"user_id":100,"name":"vinny6","steam_id":76561198386735728,"connected_time":1634000000000,"state":"active","ping":60},{"user_id":65,"name":"mr burns","steam_id":76561198154625854,"connected_time":3139000000000,"state":"active","ping":58},{"user_id":101,"name":"[SpaceVillain]","steam_id":76561198091162429,"connected_time":1624000000000,"state":"active","ping":58},{"user_id":54,"name":"CeratoxX","steam_id":76561199044085446,"connected_time":4184000000000,"state":"active","ping":37},{"user_id":105,"name":"minecalos","steam_id":76561198161582889,"connected_time":1530000000000,"state":"active","ping":30},{"user_id":46,"name":"RHD BRAZIL [\u003c O \u003e]","steam_id":76561198028190080,"connected_time":5185000000000,"state":"active","ping":156},{"user_id":112,"name":"prospike569","steam_id":76561199491903111,"connected_time":146000000000,"state":"active","ping":70},{"user_id":99,"name":"M249 | Spectre","steam_id":76561198118334485,"connected_time":1926000000000,"state":"active","ping":85},{"user_id":77,"name":"beanaay","steam_id":76561198134099143,"connected_time":3057000000000,"state":"active","ping":52},{"user_id":85,"name":"Homer J. Mishima","steam_id":76561198266373504,"connected_time":2710000000000,"state":"active","ping":101},{"user_id":103,"name":"slime","steam_id":76561198986041100,"connected_time":1599000000000,"state":"active","ping":54},{"user_id":109,"name":"comet sooicidy","steam_id":76561198025173479,"connected_time":662000000000,"state":"active","ping":105},{"user_id":68,"name":"likableimp8001","steam_id":76561199226543642,"connected_time":3126000000000,"state":"active","ping":111},{"user_id":111,"name":"n00dl3s","steam_id":76561197964492868,"connected_time":518000000000,"state":"active","ping":51},{"user_id":90,"name":"Novu","steam_id":76561198886997024,"connected_time":2406000000000,"state":"active","ping":82},{"user_id":93,"name":"dad playing in between naps","steam_id":76561198009425458,"connected_time":2228000000000,"state":"active","ping":88},{"user_id":108,"name":"JoeMama","steam_id":76561198128598305,"connected_time":846000000000,"state":"active","ping":68},{"user_id":106,"name":"Fox Milk","steam_id":76561198004652591,"connected_time":1419000000000,"state":"active","ping":115},{"user_id":110,"name":"Brigade","steam_id":76561198044656610,"connected_time":658000000000,"state":"active","ping":53},{"user_id":91,"name":"8bean","steam_id":76561198239138132,"connected_time":2365000000000,"state":"active","ping":78},{"user_id":80,"name":"croatons","steam_id":76561198061165099,"connected_time":2940000000000,"state":"active","ping":85}]},{"server_id":303,"name":"Uncletopia | Montréal | 4 | No Payload","name_short":"mtl-4","host":"mtl-1.ca.uncletopia.com","port":27045,"enabled":true,"region":"us-east","cc":"ca","latitude":45.50889,"longitude":-73.56167,"reserved":0,"last_update":"0001-01-01T00:00:00Z","name_a2s":"","protocol":0,"map":"","folder":"","game":"","app_id":0,"player_count":24,"max_players":0,"Bots":0,"server_type":"","server_os":"","password":false,"vac":false,"version":"","steam_id":0,"keywords":null,"game_id":0,"stv_port":0,"stv_name":"","players":[{"user_id":297,"name":"milkman dairy","steam_id":76561198210247443,"connected_time":626000000000,"state":"active","ping":45},{"user_id":298,"name":"hammythegreat #SaveTF2","steam_id":76561198079526946,"connected_time":557000000000,"state":"active","ping":98},{"user_id":302,"name":"Fifer1","steam_id":76561198373994085,"connected_time":389000000000,"state":"active","ping":98},{"user_id":300,"name":"eryn 🗺","steam_id":76561198004433070,"connected_time":493000000000,"state":"active","ping":95},{"user_id":159,"name":"kat","steam_id":76561198127627660,"connected_time":8997000000000,"state":"active","ping":45},{"user_id":305,"name":"oof aim small brain","steam_id":76561198079925551,"connected_time":324000000000,"state":"active","ping":47},{"user_id":255,"name":"Powered","steam_id":76561199298693128,"connected_time":3767000000000,"state":"active","ping":59},{"user_id":145,"name":"Black Santa","steam_id":76561198134542514,"connected_time":9793000000000,"state":"active","ping":63},{"user_id":311,"name":"Tangible Mango's","steam_id":76561199192910349,"connected_time":37000000000,"state":"active","ping":83},{"user_id":229,"name":"needs edibles","steam_id":76561198106327537,"connected_time":5247000000000,"state":"active","ping":55},{"user_id":306,"name":"Jav","steam_id":76561198073633513,"connected_time":292000000000,"state":"active","ping":45},{"user_id":250,"name":"elusivetruth","steam_id":76561198445452735,"connected_time":4059000000000,"state":"active","ping":73},{"user_id":217,"name":"Dreysidel","steam_id":76561198056496183,"connected_time":5553000000000,"state":"active","ping":51},{"user_id":278,"name":"Slob and Sup","steam_id":76561198123441203,"connected_time":2589000000000,"state":"active","ping":57},{"user_id":307,"name":"TheChickenChuck","steam_id":76561199192686708,"connected_time":283000000000,"state":"active","ping":85},{"user_id":293,"name":"worker","steam_id":76561198039608940,"connected_time":1343000000000,"state":"active","ping":119},{"user_id":309,"name":"the blue thing","steam_id":76561198361244171,"connected_time":253000000000,"state":"active","ping":66},{"user_id":294,"name":"Flaccid Snake (little boss)","steam_id":76561198211454440,"connected_time":1307000000000,"state":"active","ping":67},{"user_id":295,"name":"the crab champion","steam_id":76561198010370396,"connected_time":1225000000000,"state":"active","ping":59},{"user_id":272,"name":"Trace","steam_id":76561198009486000,"connected_time":2890000000000,"state":"active","ping":82},{"user_id":312,"name":"ShoalFox","steam_id":76561198035674966,"connected_time":6000000000,"state":"active","ping":62},{"user_id":269,"name":"St. Bobson Q Dugnutt III Esq Sr","steam_id":76561197993459985,"connected_time":3011000000000,"state":"active","ping":59},{"user_id":290,"name":"rrobert5","steam_id":76561198019911041,"connected_time":1872000000000,"state":"active","ping":94},{"user_id":261,"name":"Big Milk","steam_id":76561198066904836,"connected_time":3593000000000,"state":"active","ping":71}]},{"server_id":13,"name":"Uncletopia | New York City | 1 | All Maps","name_short":"nyc-1","host":"nyc-1.us.uncletopia.com","port":27015,"enabled":true,"region":"us-east","cc":"us","latitude":40.73061,"longitude":-73.93524,"reserved":0,"last_update":"0001-01-01T00:00:00Z","name_a2s":"Uncletopia | New York City | 1 | All Maps","protocol":17,"map":"koth_nucleus","folder":"tf","game":"Team Fortress","app_id":440,"player_count":24,"max_players":24,"Bots":0,"server_type":"Dedicated","server_os":"Linux","password":true,"vac":true,"version":"7961495","steam_id":85568392924469993,"keywords":["cp","nocrits","nodmgspread","uncletopia"],"game_id":440,"stv_port":27016,"stv_name":"Uncletopia | New York City | 1 | All Maps | STV","players":[{"user_id":52,"name":"helicas","steam_id":76561198165911011,"connected_time":2676000000000,"state":"active","ping":46},{"user_id":77,"name":"Toxic Ron","steam_id":76561198089302972,"connected_time":384000000000,"state":"active","ping":66},{"user_id":78,"name":"Shorty","steam_id":76561198044873248,"connected_time":378000000000,"state":"active","ping":62},{"user_id":81,"name":"King of Ping","steam_id":76561198278737470,"connected_time":327000000000,"state":"active","ping":53},{"user_id":37,"name":"GummybearKillr","steam_id":76561198031235750,"connected_time":4182000000000,"state":"active","ping":55},{"user_id":79,"name":"Duncan Idaho","steam_id":76561197988963861,"connected_time":377000000000,"state":"active","ping":53},{"user_id":43,"name":"Queso2469","steam_id":76561197993024580,"connected_time":3305000000000,"state":"active","ping":51},{"user_id":75,"name":"Gir Gaming","steam_id":76561198156782359,"connected_time":398000000000,"state":"active","ping":55},{"user_id":82,"name":"Runny Eggs","steam_id":76561198006785882,"connected_time":313000000000,"state":"active","ping":86},{"user_id":53,"name":"my kneecap cartilage is eroding","steam_id":76561198012126625,"connected_time":2638000000000,"state":"active","ping":46},{"user_id":14,"name":"gnoll filth","steam_id":76561198066123607,"connected_time":4353000000000,"state":"active","ping":72},{"user_id":80,"name":"TheGingerOne","steam_id":76561198354203847,"connected_time":373000000000,"state":"active","ping":86},{"user_id":66,"name":"Walmart Employee","steam_id":76561198840373909,"connected_time":1857000000000,"state":"active","ping":98},{"user_id":17,"name":"lp","steam_id":76561198058469527,"connected_time":4344000000000,"state":"active","ping":65},{"user_id":71,"name":"Connection","steam_id":76561199230740231,"connected_time":1386000000000,"state":"active","ping":58},{"user_id":64,"name":"QWERTY","steam_id":76561198211430420,"connected_time":2004000000000,"state":"active","ping":76},{"user_id":70,"name":"scrich scrich","steam_id":76561198123287268,"connected_time":1446000000000,"state":"active","ping":60},{"user_id":58,"name":"bald man on a plane to turkey","steam_id":76561198060296782,"connected_time":2341000000000,"state":"active","ping":118},{"user_id":69,"name":"The Sinister Potion","steam_id":76561198131280715,"connected_time":1479000000000,"state":"active","ping":55},{"user_id":59,"name":"anxiety","steam_id":76561198107071834,"connected_time":2114000000000,"state":"active","ping":56},{"user_id":47,"name":"Cheems","steam_id":76561198269074039,"connected_time":2962000000000,"state":"active","ping":82},{"user_id":72,"name":"Voracious Puma","steam_id":76561197963621649,"connected_time":705000000000,"state":"active","ping":76},{"user_id":76,"name":"Timmy Linguine","steam_id":76561198327703300,"connected_time":398000000000,"state":"active","ping":53},{"user_id":63,"name":"King Waffle-z- (NO AUDIO)","steam_id":76561198061629815,"connected_time":2047000000000,"state":"active","ping":111}]},{"server_id":14,"name":"Uncletopia | New York City | 2 | All Maps","name_short":"nyc-2","host":"nyc-1.us.uncletopia.com","port":27025,"enabled":true,"region":"us-east","cc":"us","latitude":40.73061,"longitude":-73.93524,"reserved":0,"last_update":"0001-01-01T00:00:00Z","name_a2s":"Uncletopia | New York City | 2 | All Maps","protocol":17,"map":"pl_swiftwater_final1","folder":"tf","game":"Team Fortress","app_id":440,"player_count":24,"max_players":24,"Bots":0,"server_type":"Dedicated","server_os":"Linux","password":true,"vac":true,"version":"7961495","steam_id":85568392924469994,"keywords":["nocrits","nodmgspread","payload","uncletopia"],"game_id":440,"stv_port":27026,"stv_name":"Uncletopia | New York City | 2 | All Maps | STV","players":[{"user_id":61,"name":"Smalstro","steam_id":76561199227819604,"connected_time":463000000000,"state":"active","ping":98},{"user_id":35,"name":"cactail","steam_id":76561198238898732,"connected_time":3328000000000,"state":"active","ping":59},{"user_id":5,"name":"Bee_Pirate","steam_id":76561199000599111,"connected_time":4368000000000,"state":"active","ping":68},{"user_id":64,"name":"eWVra2Vy","steam_id":76561198453565942,"connected_time":199000000000,"state":"active","ping":75},{"user_id":32,"name":"Omega Move","steam_id":76561198031577205,"connected_time":3498000000000,"state":"active","ping":76},{"user_id":49,"name":"eeveethecomic66","steam_id":76561199013856854,"connected_time":877000000000,"state":"active","ping":83},{"user_id":9,"name":"Nerrrd_","steam_id":76561198870129960,"connected_time":4364000000000,"state":"active","ping":44},{"user_id":60,"name":"Luther_51","steam_id":76561198042994473,"connected_time":469000000000,"state":"active","ping":74},{"user_id":54,"name":"Cheeki","steam_id":76561198024375176,"connected_time":505000000000,"state":"active","ping":40},{"user_id":63,"name":"rice white","steam_id":76561198320732910,"connected_time":340000000000,"state":"active","ping":64},{"user_id":51,"name":"triple_range_merge","steam_id":76561198991225026,"connected_time":527000000000,"state":"active","ping":68},{"user_id":14,"name":"K. O. E.","steam_id":76561198025188490,"connected_time":4361000000000,"state":"active","ping":73},{"user_id":56,"name":"WhackyOrc","steam_id":76561199470020355,"connected_time":488000000000,"state":"active","ping":100},{"user_id":31,"name":"concrete_car","steam_id":76561198388207363,"connected_time":3639000000000,"state":"active","ping":69},{"user_id":42,"name":"Isilawuli","steam_id":76561198084150503,"connected_time":1840000000000,"state":"active","ping":43},{"user_id":57,"name":"wolfgrey139","steam_id":76561199206554751,"connected_time":488000000000,"state":"active","ping":54},{"user_id":19,"name":"Cosmic sR","steam_id":76561198081738675,"connected_time":4346000000000,"state":"active","ping":75},{"user_id":28,"name":"SnickerNoodle","steam_id":76561198064359644,"connected_time":4302000000000,"state":"active","ping":53},{"user_id":58,"name":"mountain goat","steam_id":76561198326628884,"connected_time":478000000000,"state":"active","ping":66},{"user_id":22,"name":"Saikou!!!","steam_id":76561198044045406,"connected_time":4339000000000,"state":"active","ping":77},{"user_id":59,"name":"attentiondeficit","steam_id":76561198129682583,"connected_time":474000000000,"state":"active","ping":78},{"user_id":29,"name":"Bert.","steam_id":76561198140666346,"connected_time":4286000000000,"state":"active","ping":53},{"user_id":40,"name":"sqerkbo","steam_id":76561198080012700,"connected_time":1971000000000,"state":"active","ping":48},{"user_id":50,"name":"Spiral Mountain","steam_id":76561198058683715,"connected_time":759000000000,"state":"active","ping":73}]},{"server_id":15,"name":"Uncletopia | New York City | 3 | Stopwatch Beta","name_short":"nyc-3","host":"nyc-1.us.uncletopia.com","port":27035,"enabled":true,"region":"us-east","cc":"us","latitude":40.73061,"longitude":-73.93524,"reserved":0,"last_update":"0001-01-01T00:00:00Z","name_a2s":"Uncletopia | New York City | 3 | Stopwatch Beta","protocol":17,"map":"koth_lakeside_final","folder":"tf","game":"Team Fortress","app_id":440,"player_count":12,"max_players":24,"Bots":0,"server_type":"Dedicated","server_os":"Linux","password":true,"vac":true,"version":"7961495","steam_id":85568392924742820,"keywords":["cp","nocrits","nodmgspread","uncletopia"],"game_id":440,"stv_port":27036,"stv_name":"Uncletopia | New York City | 3 | Stopwatch Beta | STV","players":[{"user_id":26,"name":"Rex","steam_id":76561198138365053,"connected_time":418000000000,"state":"active","ping":119},{"user_id":32,"name":"7thelden","steam_id":76561198297428761,"connected_time":196000000000,"state":"active","ping":76},{"user_id":27,"name":"Your Pal, Vegeta","steam_id":76561198064916816,"connected_time":388000000000,"state":"active","ping":94},{"user_id":10,"name":"Omegacat69","steam_id":76561199224022636,"connected_time":1576000000000,"state":"active","ping":77},{"user_id":12,"name":"JACOB","steam_id":76561198211874895,"connected_time":1493000000000,"state":"active","ping":77},{"user_id":28,"name":"Bunny Eater","steam_id":76561198029563721,"connected_time":249000000000,"state":"active","ping":50},{"user_id":17,"name":"samypuello05","steam_id":76561199128719723,"connected_time":1030000000000,"state":"active","ping":110},{"user_id":35,"name":"Zhenaj","steam_id":76561199209016136,"connected_time":60000000000,"state":"active","ping":70},{"user_id":30,"name":"werecat","steam_id":76561198005091213,"connected_time":208000000000,"state":"active","ping":33},{"user_id":34,"name":"Deuderp","steam_id":76561199055175414,"connected_time":159000000000,"state":"active","ping":83},{"user_id":36,"name":"ckravatsky","steam_id":76561199189104895,"connected_time":47000000000,"state":"active","ping":95},{"user_id":37,"name":"jairo","steam_id":76561199006124613,"connected_time":25000000000,"state":"active","ping":109}]},{"server_id":16,"name":"Uncletopia | New York City | 4 | Community","name_short":"nyc-4","host":"nyc-1.us.uncletopia.com","port":27045,"enabled":true,"region":"us-east","cc":"us","latitude":40.73061,"longitude":-73.93524,"reserved":0,"last_update":"0001-01-01T00:00:00Z","name_a2s":"Uncletopia | New York City | 4 | Community","protocol":17,"map":"cp_process_final","folder":"tf","game":"Team Fortress","app_id":440,"player_count":0,"max_players":24,"Bots":0,"server_type":"Dedicated","server_os":"Linux","password":true,"vac":true,"version":"7961495","steam_id":85568392924742821,"keywords":["cp","nocrits","nodmgspread","uncletopia"],"game_id":440,"stv_port":27046,"stv_name":"Uncletopia | New York City | 4 | Community | STV","players":null},{"server_id":142,"name":"Uncletopia | São Paulo | 1 | All Maps","name_short":"sao-1","host":"sao-1.br.uncletopia.com","port":27015,"enabled":true,"region":"sa","cc":"br","latitude":-23.533773,"longitude":-46.62529,"reserved":0,"last_update":"0001-01-01T00:00:00Z","name_a2s":"Uncletopia | São Paulo | 1 | All Maps","protocol":17,"map":"cp_dustbowl","folder":"tf","game":"Team Fortress","app_id":440,"player_count":0,"max_players":24,"Bots":0,"server_type":"Dedicated","server_os":"Linux","password":true,"vac":true,"version":"7961495","steam_id":85568392924469996,"keywords":["cp","nocrits","nodmgspread","uncletopia"],"game_id":440,"stv_port":27016,"stv_name":"Uncletopia | São Paulo | 1 | All Maps | STV","players":null},{"server_id":143,"name":"Uncletopia | São Paulo | 2 | Community","name_short":"sao-2","host":"sao-2.br.uncletopia.com","port":27015,"enabled":true,"region":"sa","cc":"br","latitude":-23.533773,"longitude":-46.62529,"reserved":0,"last_update":"0001-01-01T00:00:00Z","name_a2s":"Uncletopia | São Paulo | 2 | Community","protocol":17,"map":"workshop/cp_kalinka_rc6a.ugc1272700588","folder":"tf","game":"Team Fortress","app_id":440,"player_count":0,"max_players":24,"Bots":0,"server_type":"Dedicated","server_os":"Linux","password":true,"vac":true,"version":"7961495","steam_id":85568392924485349,"keywords":["cp","nocrits","nodmgspread","uncletopia"],"game_id":440,"stv_port":27016,"stv_name":"Uncletopia | São Paulo | 2 | Community | STV","players":null},{"server_id":7,"name":"Uncletopia | Seattle | 1 | All Maps","name_short":"sea-1","host":"sea-1.us.uncletopia.com","port":27015,"enabled":true,"region":"us-west","cc":"us","latitude":47.608013,"longitude":-122.33517,"reserved":0,"last_update":"0001-01-01T00:00:00Z","name_a2s":"Uncletopia | Seattle | 1 | All Maps","protocol":17,"map":"pl_upward","folder":"tf","game":"Team Fortress","app_id":440,"player_count":24,"max_players":24,"Bots":0,"server_type":"Dedicated","server_os":"Linux","password":true,"vac":true,"version":"7961495","steam_id":85568392924469997,"keywords":["nocrits","nodmgspread","payload","uncletopia"],"game_id":440,"stv_port":27016,"stv_name":"Uncletopia | Seattle | 1 | All Maps | STV","players":[{"user_id":103,"name":"Tech Priest","steam_id":76561198958876163,"connected_time":3233000000000,"state":"active","ping":71},{"user_id":124,"name":"shane","steam_id":76561198060491451,"connected_time":1832000000000,"state":"active","ping":106},{"user_id":127,"name":"spurious george","steam_id":76561198043558709,"connected_time":1626000000000,"state":"active","ping":59},{"user_id":121,"name":"fried water","steam_id":76561198360311110,"connected_time":1857000000000,"state":"active","ping":47},{"user_id":118,"name":"trackpad gaming | f2p","steam_id":76561198840414371,"connected_time":2323000000000,"state":"active","ping":53},{"user_id":119,"name":"Gamba","steam_id":76561198069264650,"connected_time":2255000000000,"state":"active","ping":83},{"user_id":135,"name":"D34dR4bbit","steam_id":76561198167411455,"connected_time":1039000000000,"state":"active","ping":57},{"user_id":126,"name":"Themasterman75","steam_id":76561199385573293,"connected_time":1737000000000,"state":"active","ping":75},{"user_id":102,"name":"CashGordon","steam_id":76561197975594096,"connected_time":3313000000000,"state":"active","ping":41},{"user_id":133,"name":"wintersEmbrace","steam_id":76561198205428892,"connected_time":1146000000000,"state":"active","ping":65},{"user_id":129,"name":"lusty","steam_id":76561198138478947,"connected_time":1216000000000,"state":"active","ping":33},{"user_id":131,"name":"giant_dork","steam_id":76561199105606956,"connected_time":1163000000000,"state":"active","ping":114},{"user_id":18,"name":"Grand","steam_id":76561198290143399,"connected_time":5410000000000,"state":"active","ping":75},{"user_id":136,"name":"Strikerbolt","steam_id":76561199095622897,"connected_time":908000000000,"state":"active","ping":78},{"user_id":132,"name":"Vagrant","steam_id":76561198242536886,"connected_time":1159000000000,"state":"active","ping":79},{"user_id":140,"name":"lead poisoning","steam_id":76561198868596461,"connected_time":225000000000,"state":"active","ping":46},{"user_id":105,"name":"Joseph Stalin","steam_id":76561198382398935,"connected_time":2638000000000,"state":"active","ping":66},{"user_id":113,"name":"Haydob13","steam_id":76561198110378191,"connected_time":2440000000000,"state":"active","ping":54},{"user_id":137,"name":"dumbest girl alive","steam_id":76561198000851637,"connected_time":600000000000,"state":"active","ping":144},{"user_id":94,"name":"rat gets the cheese","steam_id":76561198031234032,"connected_time":4162000000000,"state":"active","ping":105},{"user_id":28,"name":"smeasly","steam_id":76561198028718812,"connected_time":5373000000000,"state":"active","ping":45},{"user_id":117,"name":"k1tty","steam_id":76561198869348268,"connected_time":2394000000000,"state":"active","ping":75},{"user_id":106,"name":"chunkysquare","steam_id":76561199076468383,"connected_time":2597000000000,"state":"active","ping":56},{"user_id":134,"name":"Greskrendtregk","steam_id":76561197969553142,"connected_time":1119000000000,"state":"active","ping":59}]},{"server_id":119,"name":"Uncletopia | Seattle | 2 | All Maps","name_short":"sea-2","host":"sea-1.us.uncletopia.com","port":27025,"enabled":true,"region":"us-west","cc":"us","latitude":47.608013,"longitude":-122.33517,"reserved":0,"last_update":"0001-01-01T00:00:00Z","name_a2s":"Uncletopia | Seattle | 2 | All Maps","protocol":17,"map":"cp_mercenarypark","folder":"tf","game":"Team Fortress","app_id":440,"player_count":24,"max_players":24,"Bots":0,"server_type":"Dedicated","server_os":"Linux","password":true,"vac":true,"version":"7961495","steam_id":85568392924469998,"keywords":["cp","nocrits","nodmgspread","uncletopia"],"game_id":440,"stv_port":27026,"stv_name":"Uncletopia | Seattle | 2 | All Maps | STV","players":[{"user_id":3,"name":"Viren","steam_id":76561198012636897,"connected_time":5439000000000,"state":"active","ping":106},{"user_id":37,"name":"Jonatello","steam_id":76561198045699189,"connected_time":4333000000000,"state":"active","ping":83},{"user_id":75,"name":"summerlis","steam_id":76561198165324438,"connected_time":676000000000,"state":"active","ping":60},{"user_id":83,"name":"the thug shaker","steam_id":76561198257541502,"connected_time":243000000000,"state":"active","ping":63},{"user_id":67,"name":"Vibrantword3732","steam_id":76561198916638641,"connected_time":1282000000000,"state":"active","ping":64},{"user_id":81,"name":"Lilith","steam_id":76561198120362654,"connected_time":430000000000,"state":"active","ping":45},{"user_id":64,"name":"Hound_","steam_id":76561199389781834,"connected_time":1535000000000,"state":"active","ping":86},{"user_id":77,"name":"Random Person","steam_id":76561198990531385,"connected_time":626000000000,"state":"active","ping":60},{"user_id":44,"name":"Lain","steam_id":76561198118282205,"connected_time":2962000000000,"state":"active","ping":118},{"user_id":78,"name":"dewey.","steam_id":76561198138325039,"connected_time":622000000000,"state":"active","ping":48},{"user_id":65,"name":"TheGhostThatWas","steam_id":76561198055836483,"connected_time":1519000000000,"state":"active","ping":120},{"user_id":42,"name":"greens beans","steam_id":76561198153611491,"connected_time":2965000000000,"state":"active","ping":45},{"user_id":18,"name":"BLU3","steam_id":76561198059652670,"connected_time":5262000000000,"state":"active","ping":46},{"user_id":79,"name":"knight of light","steam_id":76561198025551646,"connected_time":591000000000,"state":"active","ping":85},{"user_id":20,"name":"ORANGE","steam_id":76561198000401769,"connected_time":5164000000000,"state":"active","ping":46},{"user_id":21,"name":"ZincWolfWarrior","steam_id":76561199249729907,"connected_time":5069000000000,"state":"active","ping":216},{"user_id":80,"name":"cool beans","steam_id":76561198045758072,"connected_time":528000000000,"state":"active","ping":62},{"user_id":62,"name":"Terror","steam_id":76561198188685728,"connected_time":1693000000000,"state":"active","ping":90},{"user_id":85,"name":"Mr. DeLarge","steam_id":76561198336820066,"connected_time":55000000000,"state":"active","ping":61},{"user_id":41,"name":"Sudsen","steam_id":76561198370603787,"connected_time":3631000000000,"state":"active","ping":67},{"user_id":55,"name":"Mr. Tako","steam_id":76561199212603905,"connected_time":2541000000000,"state":"active","ping":133},{"user_id":82,"name":"arsenic","steam_id":76561198176391550,"connected_time":253000000000,"state":"active","ping":65},{"user_id":84,"name":"Father Jon","steam_id":76561198324730919,"connected_time":217000000000,"state":"active","ping":148},{"user_id":70,"name":"Pah-Wraith Gul Dukat","steam_id":76561198033918106,"connected_time":1091000000000,"state":"active","ping":75}]},{"server_id":406,"name":"Uncletopia | Seattle | 3 | Stopwatch Beta","name_short":"sea-3","host":"sea-1.us.uncletopia.com","port":27035,"enabled":true,"region":"us-west","cc":"us","latitude":47.608013,"longitude":-122.33517,"reserved":0,"last_update":"0001-01-01T00:00:00Z","name_a2s":"Uncletopia | Seattle | 3 | Stopwatch Beta","protocol":17,"map":"koth_highpass","folder":"tf","game":"Team Fortress","app_id":440,"player_count":0,"max_players":24,"Bots":0,"server_type":"Dedicated","server_os":"Linux","password":true,"vac":true,"version":"7961495","steam_id":85568392924515217,"keywords":["cp","nocrits","nodmgspread","uncletopia"],"game_id":440,"stv_port":27036,"stv_name":"Uncletopia | Seattle | 3 | Stopwatch Beta | STV","players":null},{"server_id":17,"name":"Uncletopia | San Francisco | 1 | All Maps","name_short":"sfo-1","host":"sfo-1.us.uncletopia.com","port":27015,"enabled":true,"region":"us-west","cc":"us","latitude":37.77397,"longitude":-122.4313,"reserved":0,"last_update":"0001-01-01T00:00:00Z","name_a2s":"Uncletopia | San Francisco | 1 | All Maps","protocol":17,"map":"pl_frontier_final","folder":"tf","game":"Team Fortress","app_id":440,"player_count":24,"max_players":24,"Bots":0,"server_type":"Dedicated","server_os":"Linux","password":true,"vac":true,"version":"7961495","steam_id":85568392924469999,"keywords":["nocrits","nodmgspread","payload","uncletopia"],"game_id":440,"stv_port":27016,"stv_name":"Uncletopia | San Francisco | 1 | All Maps | STV","players":[{"user_id":97,"name":"satiss","steam_id":76561198871594476,"connected_time":328000000000,"state":"active","ping":105},{"user_id":105,"name":"Schwing","steam_id":76561198270959777,"connected_time":141000000000,"state":"active","ping":68},{"user_id":88,"name":"Stormartillery","steam_id":76561198408982577,"connected_time":794000000000,"state":"active","ping":129},{"user_id":101,"name":"Chad the Sex Haver","steam_id":76561198058236528,"connected_time":313000000000,"state":"active","ping":60},{"user_id":94,"name":"mariano rivera","steam_id":76561198254871715,"connected_time":715000000000,"state":"active","ping":78},{"user_id":96,"name":"Soup_Dad64","steam_id":76561198354791280,"connected_time":561000000000,"state":"active","ping":119},{"user_id":69,"name":"❦.•°≖Wisp≖°•.❦","steam_id":76561198860426754,"connected_time":1868000000000,"state":"active","ping":130},{"user_id":86,"name":"Irritated Duck","steam_id":76561198247792076,"connected_time":855000000000,"state":"active","ping":88},{"user_id":63,"name":"❤ aloha! :3 ❤","steam_id":76561198148517055,"connected_time":2054000000000,"state":"active","ping":177},{"user_id":92,"name":"Help","steam_id":76561199110145312,"connected_time":751000000000,"state":"active","ping":66},{"user_id":66,"name":"TwoBit","steam_id":76561198062437559,"connected_time":1977000000000,"state":"active","ping":135},{"user_id":39,"name":"zeplinnn","steam_id":76561198301300987,"connected_time":2738000000000,"state":"active","ping":85},{"user_id":71,"name":"Dusk","steam_id":76561198088681558,"connected_time":1676000000000,"state":"active","ping":61},{"user_id":80,"name":"Zanariff","steam_id":76561198166992665,"connected_time":1151000000000,"state":"active","ping":128},{"user_id":102,"name":"22:57","steam_id":76561198025668771,"connected_time":309000000000,"state":"active","ping":90},{"user_id":43,"name":"DigitalWizard","steam_id":76561198085936715,"connected_time":2718000000000,"state":"active","ping":133},{"user_id":44,"name":"Apple","steam_id":76561198124155970,"connected_time":2699000000000,"state":"active","ping":92},{"user_id":103,"name":"intek","steam_id":76561198052705291,"connected_time":280000000000,"state":"active","ping":91},{"user_id":104,"name":"derpins","steam_id":76561198125261443,"connected_time":260000000000,"state":"active","ping":75},{"user_id":81,"name":"PieTheMan","steam_id":76561198027825469,"connected_time":1144000000000,"state":"active","ping":132},{"user_id":82,"name":"YungTaxCollector","steam_id":76561199107257507,"connected_time":1136000000000,"state":"active","ping":129},{"user_id":55,"name":"The Rock","steam_id":76561198433328517,"connected_time":2351000000000,"state":"active","ping":121},{"user_id":83,"name":"AwesomeDog05","steam_id":76561199148040708,"connected_time":1030000000000,"state":"active","ping":69},{"user_id":90,"name":"blue duck the 2nd","steam_id":76561198263142765,"connected_time":784000000000,"state":"active","ping":106}]},{"server_id":18,"name":"Uncletopia | San Francisco | 2 | All Maps","name_short":"sfo-2","host":"sfo-1.us.uncletopia.com","port":27025,"enabled":true,"region":"us-west","cc":"us","latitude":37.77397,"longitude":-122.4313,"reserved":0,"last_update":"0001-01-01T00:00:00Z","name_a2s":"Uncletopia | San Francisco | 2 | All Maps","protocol":17,"map":"pl_borneo","folder":"tf","game":"Team Fortress","app_id":440,"player_count":24,"max_players":24,"Bots":0,"server_type":"Dedicated","server_os":"Linux","password":true,"vac":true,"version":"7961495","steam_id":85568392924470000,"keywords":["nocrits","nodmgspread","payload","uncletopia"],"game_id":440,"stv_port":27026,"stv_name":"Uncletopia | San Francisco | 2 | All Maps | STV","players":[{"user_id":115,"name":"urine trouble","steam_id":76561199013266640,"connected_time":103000000000,"state":"active","ping":107},{"user_id":84,"name":"dab","steam_id":76561197997990613,"connected_time":1953000000000,"state":"active","ping":54},{"user_id":109,"name":"TheCum","steam_id":76561199162343810,"connected_time":456000000000,"state":"active","ping":107},{"user_id":105,"name":"Risky","steam_id":76561198231029328,"connected_time":553000000000,"state":"active","ping":49},{"user_id":106,"name":"Doggus","steam_id":76561198195618934,"connected_time":543000000000,"state":"active","ping":67},{"user_id":96,"name":"Chris Hansen, Kell of Kells","steam_id":76561198986775156,"connected_time":1490000000000,"state":"active","ping":126},{"user_id":110,"name":"Marcy (She/Her)","steam_id":76561198097413073,"connected_time":450000000000,"state":"active","ping":68},{"user_id":107,"name":"Fernando","steam_id":76561198443038047,"connected_time":507000000000,"state":"active","ping":65},{"user_id":112,"name":"Els","steam_id":76561198354718934,"connected_time":378000000000,"state":"active","ping":106},{"user_id":111,"name":"iStrava","steam_id":76561198088223717,"connected_time":449000000000,"state":"active","ping":75},{"user_id":98,"name":"Chaptain","steam_id":76561198452725739,"connected_time":1448000000000,"state":"active","ping":67},{"user_id":86,"name":"ZOOM","steam_id":76561198968058652,"connected_time":1863000000000,"state":"active","ping":71},{"user_id":100,"name":"charge me doc","steam_id":76561198805599998,"connected_time":1237000000000,"state":"active","ping":77},{"user_id":114,"name":"Petrivus","steam_id":76561198202152453,"connected_time":127000000000,"state":"active","ping":67},{"user_id":88,"name":"DroidX19","steam_id":76561198867783457,"connected_time":1759000000000,"state":"active","ping":63},{"user_id":116,"name":"Seriously Bruh","steam_id":76561198070408485,"connected_time":48000000000,"state":"active","ping":72},{"user_id":90,"name":"GlorifiedAshy","steam_id":76561198382684727,"connected_time":1734000000000,"state":"active","ping":115},{"user_id":91,"name":"Tripll-L","steam_id":76561197998077437,"connected_time":1731000000000,"state":"active","ping":78},{"user_id":26,"name":"DocDankDandy","steam_id":76561197999440195,"connected_time":5237000000000,"state":"active","ping":52},{"user_id":104,"name":"Pochita","steam_id":76561198328977973,"connected_time":792000000000,"state":"active","ping":70},{"user_id":28,"name":"McDonald","steam_id":76561199028533497,"connected_time":5204000000000,"state":"active","ping":62},{"user_id":72,"name":"Green eggs and ham","steam_id":76561198043507340,"connected_time":2929000000000,"state":"active","ping":71},{"user_id":94,"name":"Cinabun","steam_id":76561198169144061,"connected_time":1575000000000,"state":"active","ping":88},{"user_id":113,"name":"The Super Mario Bros. Movie","steam_id":76561198871692156,"connected_time":318000000000,"state":"active","ping":73}]},{"server_id":19,"name":"Uncletopia | San Francisco | 3 | Stopwatch Beta","name_short":"sfo-3","host":"sfo-1.us.uncletopia.com","port":27035,"enabled":true,"region":"us-west","cc":"us","latitude":37.77397,"longitude":-122.4313,"reserved":0,"last_update":"0001-01-01T00:00:00Z","name_a2s":"Uncletopia | San Francisco | 3 | Stopwatch Beta","protocol":17,"map":"cp_granary","folder":"tf","game":"Team Fortress","app_id":440,"player_count":0,"max_players":24,"Bots":0,"server_type":"Dedicated","server_os":"Linux","password":true,"vac":true,"version":"7961495","steam_id":85568392924742824,"keywords":["cp","nocrits","nodmgspread","uncletopia"],"game_id":440,"stv_port":27036,"stv_name":"Uncletopia | San Francisco | 3 | Stopwatch Beta | STV","players":null},{"server_id":20,"name":"Uncletopia | San Francisco | 4 | Community","name_short":"sfo-4","host":"sfo-1.us.uncletopia.com","port":27045,"enabled":true,"region":"us-west","cc":"us","latitude":37.77397,"longitude":-122.4313,"reserved":0,"last_update":"0001-01-01T00:00:00Z","name_a2s":"Uncletopia | San Francisco | 4 | Community","protocol":17,"map":"workshop/cp_logjam_rc12.ugc454812035","folder":"tf","game":"Team Fortress","app_id":440,"player_count":0,"max_players":24,"Bots":0,"server_type":"Dedicated","server_os":"Linux","password":true,"vac":true,"version":"7961495","steam_id":85568392924742826,"keywords":["cp","nocrits","nodmgspread","uncletopia"],"game_id":440,"stv_port":27046,"stv_name":"Uncletopia | San Francisco | 4 | Community | STV","players":null},{"server_id":141,"name":"Uncletopia | Sydney | 1 | All Maps","name_short":"syd-1","host":"syd-1.au.uncletopia.com","port":27015,"enabled":true,"region":"au","cc":"au","latitude":-33.865143,"longitude":151.2099,"reserved":0,"last_update":"0001-01-01T00:00:00Z","name_a2s":"Uncletopia | Sydney | 1 | All Maps","protocol":17,"map":"cp_steel","folder":"tf","game":"Team Fortress","app_id":440,"player_count":24,"max_players":24,"Bots":0,"server_type":"Dedicated","server_os":"Linux","password":true,"vac":true,"version":"7961495","steam_id":85568392924470001,"keywords":["cp","nocrits","nodmgspread","uncletopia"],"game_id":440,"stv_port":27016,"stv_name":"Uncletopia | Sydney | 1 | All Maps | STV","players":[{"user_id":48,"name":"Galaxywee","steam_id":76561198257501357,"connected_time":3104000000000,"state":"active","ping":165},{"user_id":62,"name":"Lagging F2P Gundam","steam_id":76561199092046551,"connected_time":2431000000000,"state":"active","ping":175},{"user_id":67,"name":"please be patient i have autism","steam_id":76561199219741520,"connected_time":2161000000000,"state":"active","ping":104},{"user_id":49,"name":"Jah","steam_id":76561198145620087,"connected_time":3092000000000,"state":"active","ping":56},{"user_id":7,"name":"Classy Doctor","steam_id":76561198257123968,"connected_time":5446000000000,"state":"active","ping":60},{"user_id":80,"name":"Tiblyat","steam_id":76561198093077688,"connected_time":790000000000,"state":"active","ping":71},{"user_id":84,"name":"tl;dr SEND HELP","steam_id":76561199174449723,"connected_time":582000000000,"state":"active","ping":160},{"user_id":63,"name":"ShiftAU","steam_id":76561198036359969,"connected_time":2389000000000,"state":"active","ping":58},{"user_id":73,"name":"sombro","steam_id":76561198165559675,"connected_time":1854000000000,"state":"active","ping":61},{"user_id":88,"name":"Tyson919","steam_id":76561199154100346,"connected_time":44000000000,"state":"active","ping":60},{"user_id":51,"name":"Mr Cleberbite","steam_id":76561198086269059,"connected_time":2970000000000,"state":"active","ping":70},{"user_id":56,"name":"Lucky Pineapple","steam_id":76561198880143328,"connected_time":2691000000000,"state":"active","ping":118},{"user_id":69,"name":"wom","steam_id":76561199375834537,"connected_time":2062000000000,"state":"active","ping":126},{"user_id":43,"name":"SalBeezee","steam_id":76561198195548399,"connected_time":3392000000000,"state":"active","ping":77},{"user_id":32,"name":"Punpun","steam_id":76561199215927356,"connected_time":3983000000000,"state":"active","ping":130},{"user_id":82,"name":"i hate br*tish people","steam_id":76561198271462646,"connected_time":787000000000,"state":"active","ping":44},{"user_id":79,"name":"Qwertles","steam_id":76561198033779273,"connected_time":928000000000,"state":"active","ping":60},{"user_id":46,"name":"ManofWonder1","steam_id":76561198904788550,"connected_time":3259000000000,"state":"active","ping":58},{"user_id":74,"name":"Nagapus","steam_id":76561198139578717,"connected_time":1774000000000,"state":"active","ping":66},{"user_id":75,"name":"bub","steam_id":76561198446126519,"connected_time":1716000000000,"state":"active","ping":46},{"user_id":58,"name":"London bin knife","steam_id":76561198213547905,"connected_time":2636000000000,"state":"active","ping":57},{"user_id":59,"name":"Theducktube","steam_id":76561198137265224,"connected_time":2619000000000,"state":"active","ping":164},{"user_id":76,"name":"knuffeltje","steam_id":76561198082581124,"connected_time":1697000000000,"state":"active","ping":52},{"user_id":87,"name":"dizzy","steam_id":76561198102953163,"connected_time":445000000000,"state":"active","ping":65}]},{"server_id":123,"name":"Uncletopia | Sydney | 2 | All Maps","name_short":"syd-2","host":"syd-1.au.uncletopia.com","port":27025,"enabled":true,"region":"au","cc":"au","latitude":-33.865143,"longitude":151.2099,"reserved":0,"last_update":"0001-01-01T00:00:00Z","name_a2s":"Uncletopia | Sydney | 2 | All Maps","protocol":17,"map":"koth_viaduct","folder":"tf","game":"Team Fortress","app_id":440,"player_count":1,"max_players":24,"Bots":0,"server_type":"Dedicated","server_os":"Linux","password":true,"vac":true,"version":"7961495","steam_id":85568392924470002,"keywords":["cp","nocrits","nodmgspread","uncletopia"],"game_id":440,"stv_port":27026,"stv_name":"Uncletopia | Sydney | 2 | All Maps | STV","players":[{"user_id":4,"name":"Nevron","steam_id":76561198128049036,"connected_time":201000000000,"state":"active","ping":60}]},{"server_id":395,"name":"Uncletopia | Sydney | 3 | All Maps","name_short":"syd-3","host":"syd-1.au.uncletopia.com","port":27035,"enabled":true,"region":"au","cc":"au","latitude":-33.865143,"longitude":151.2099,"reserved":0,"last_update":"0001-01-01T00:00:00Z","name_a2s":"Uncletopia | Sydney | 3 | All Maps","protocol":17,"map":"pl_borneo","folder":"tf","game":"Team Fortress","app_id":440,"player_count":0,"max_players":24,"Bots":0,"server_type":"Dedicated","server_os":"Linux","password":true,"vac":true,"version":"7961495","steam_id":85568392925194467,"keywords":["nocrits","nodmgspread","payload","uncletopia"],"game_id":440,"stv_port":27036,"stv_name":"Uncletopia | Sydney | 3 | All Maps | STV","players":null},{"server_id":396,"name":"Uncletopia | Sydney | 4 | All Maps","name_short":"syd-4","host":"syd-1.au.uncletopia.com","port":27045,"enabled":true,"region":"au","cc":"au","latitude":-33.865143,"longitude":151.2099,"reserved":0,"last_update":"0001-01-01T00:00:00Z","name_a2s":"Uncletopia | Sydney | 4 | All Maps","protocol":17,"map":"pl_barnblitz","folder":"tf","game":"Team Fortress","app_id":440,"player_count":0,"max_players":24,"Bots":0,"server_type":"Dedicated","server_os":"Linux","password":true,"vac":true,"version":"7961495","steam_id":85568392925397958,"keywords":["nocrits","nodmgspread","payload","uncletopia"],"game_id":440,"stv_port":27046,"stv_name":"Uncletopia | Sydney | 4 | All Maps | STV","players":null},{"server_id":58,"name":"Uncletopia | Sydney | 5 | Stopwatch Beta","name_short":"syd-5","host":"syd-1.au.uncletopia.com","port":27055,"enabled":true,"region":"au","cc":"au","latitude":-33.865143,"longitude":151.2099,"reserved":0,"last_update":"0001-01-01T00:00:00Z","name_a2s":"Uncletopia | Sydney | 5 | Stopwatch Beta","protocol":17,"map":"pl_frontier_final","folder":"tf","game":"Team Fortress","app_id":440,"player_count":0,"max_players":24,"Bots":0,"server_type":"Dedicated","server_os":"Linux","password":true,"vac":true,"version":"7961495","steam_id":85568392925397959,"keywords":["nocrits","nodmgspread","payload","uncletopia"],"game_id":440,"stv_port":27056,"stv_name":"Uncletopia | Sydney | 5 | Stopwatch Beta | STV","players":null},{"server_id":59,"name":"Uncletopia | Sydney | 6 | Community","name_short":"syd-6","host":"syd-1.au.uncletopia.com","port":27065,"enabled":true,"region":"au","cc":"au","latitude":-33.865143,"longitude":151.2099,"reserved":0,"last_update":"0001-01-01T00:00:00Z","name_a2s":"Uncletopia | Sydney | 6 | Community","protocol":17,"map":"pl_swiftwater_final1","folder":"tf","game":"Team Fortress","app_id":440,"player_count":0,"max_players":24,"Bots":0,"server_type":"Dedicated","server_os":"Linux","password":true,"vac":true,"version":"7961495","steam_id":85568392925397960,"keywords":["nocrits","nodmgspread","payload","uncletopia"],"game_id":440,"stv_port":27066,"stv_name":"Uncletopia | Sydney | 6 | Community | STV","players":null},{"server_id":49,"name":"Uncletopia | Warsaw | 1 | All Maps","name_short":"waw-1","host":"waw-1.pl.uncletopia.com","port":27015,"enabled":true,"region":"eu","cc":"pl","latitude":52.2297,"longitude":21.017532,"reserved":0,"last_update":"0001-01-01T00:00:00Z","name_a2s":"Uncletopia | Warsaw | 1 | All Maps","protocol":17,"map":"koth_viaduct","folder":"tf","game":"Team Fortress","app_id":440,"player_count":0,"max_players":24,"Bots":0,"server_type":"Dedicated","server_os":"Linux","password":true,"vac":true,"version":"7961495","steam_id":85568392925397850,"keywords":["cp","nocrits","nodmgspread","uncletopia"],"game_id":440,"stv_port":27016,"stv_name":"Uncletopia | Warsaw | 1 | All Maps | STV","players":null},{"server_id":50,"name":"Uncletopia | Warsaw | 2 | All Maps","name_short":"waw-2","host":"waw-1.pl.uncletopia.com","port":27025,"enabled":true,"region":"eu","cc":"pl","latitude":52.2297,"longitude":21.017532,"reserved":0,"last_update":"0001-01-01T00:00:00Z","name_a2s":"Uncletopia | Warsaw | 2 | All Maps","protocol":17,"map":"pl_badwater","folder":"tf","game":"Team Fortress","app_id":440,"player_count":0,"max_players":24,"Bots":0,"server_type":"Dedicated","server_os":"Linux","password":true,"vac":true,"version":"7961495","steam_id":85568392925397851,"keywords":["nocrits","nodmgspread","payload","uncletopia"],"game_id":440,"stv_port":27026,"stv_name":"Uncletopia | Warsaw | 2 | All Maps | STV","players":null},{"server_id":51,"name":"Uncletopia | Warsaw | 3 | All Maps","name_short":"waw-3","host":"waw-1.pl.uncletopia.com","port":27035,"enabled":true,"region":"eu","cc":"pl","latitude":52.2297,"longitude":21.017532,"reserved":0,"last_update":"0001-01-01T00:00:00Z","name_a2s":"Uncletopia | Warsaw | 3 | All Maps","protocol":17,"map":"cp_process_final","folder":"tf","game":"Team Fortress","app_id":440,"player_count":0,"max_players":24,"Bots":0,"server_type":"Dedicated","server_os":"Linux","password":true,"vac":true,"version":"7961495","steam_id":85568392925397852,"keywords":["cp","nocrits","nodmgspread","uncletopia"],"game_id":440,"stv_port":27036,"stv_name":"Uncletopia | Warsaw | 3 | All Maps | STV","players":null},{"server_id":52,"name":"Uncletopia | Warsaw | 4 | All Maps","name_short":"waw-4","host":"waw-1.pl.uncletopia.com","port":27045,"enabled":true,"region":"eu","cc":"pl","latitude":52.2297,"longitude":21.017532,"reserved":0,"last_update":"0001-01-01T00:00:00Z","name_a2s":"Uncletopia | Warsaw | 4 | All Maps","protocol":17,"map":"koth_lakeside_final","folder":"tf","game":"Team Fortress","app_id":440,"player_count":0,"max_players":24,"Bots":0,"server_type":"Dedicated","server_os":"Linux","password":true,"vac":true,"version":"7961495","steam_id":85568392925397853,"keywords":["cp","nocrits","nodmgspread","uncletopia"],"game_id":440,"stv_port":27046,"stv_name":"Uncletopia | Warsaw | 4 | All Maps | STV","players":null},{"server_id":53,"name":"Uncletopia | Warsaw | 5 | Stopwatch Beta","name_short":"waw-5","host":"waw-1.pl.uncletopia.com","port":27055,"enabled":true,"region":"eu","cc":"pl","latitude":52.2297,"longitude":21.017532,"reserved":0,"last_update":"0001-01-01T00:00:00Z","name_a2s":"Uncletopia | Warsaw | 5 | Stopwatch Beta","protocol":17,"map":"pl_snowycoast","folder":"tf","game":"Team Fortress","app_id":440,"player_count":0,"max_players":24,"Bots":0,"server_type":"Dedicated","server_os":"Linux","password":true,"vac":true,"version":"7961495","steam_id":85568392925397854,"keywords":["nocrits","nodmgspread","payload","uncletopia"],"game_id":440,"stv_port":27056,"stv_name":"Uncletopia | Warsaw | 5 | Stopwatch Beta | STV","players":null},{"server_id":54,"name":"Uncletopia | Warsaw | 6 | Community","name_short":"waw-6","host":"waw-1.pl.uncletopia.com","port":27065,"enabled":true,"region":"eu","cc":"pl","latitude":52.2297,"longitude":21.017532,"reserved":0,"last_update":"0001-01-01T00:00:00Z","name_a2s":"Uncletopia | Warsaw | 6 | Community","protocol":17,"map":"pl_borneo","folder":"tf","game":"Team Fortress","app_id":440,"player_count":0,"max_players":24,"Bots":0,"server_type":"Dedicated","server_os":"Linux","password":true,"vac":true,"version":"7961495","steam_id":85568392925397856,"keywords":["nocrits","nodmgspread","payload","uncletopia"],"game_id":440,"stv_port":27066,"stv_name":"Uncletopia | Warsaw | 6 | Community | STV","players":null}]}