{"status":true,"message":"","result":[{"server_id":9,"name":"Uncletopia | Atlanta | 1 | All Maps","name_short":"atl-1","host":"atl-1.us.uncletopia.com","port":27015,"enabled":true,"region":"us-east","cc":"us","latitude":33.753746,"longitude":-84.38633,"reserved":0,"last_update":"0001-01-01T00:00:00Z","name_a2s":"Uncletopia | Atlanta | 1 | All Maps","protocol":17,"map":"pl_upward","folder":"tf","game":"Team Fortress","app_id":440,"player_count":24,"max_players":24,"Bots":0,"server_type":"Dedicated","server_os":"Linux","password":true,"vac":true,"version":"7757534","steam_id":85568392924469982,"keywords":["nocrits","nodmgspread","payload","uncletopia"],"game_id":440,"stv_port":27016,"stv_name":"Uncletopia | Atlanta | 1 | All Maps | STV","players":[{"user_id":447,"name":"Aeri","steam_id":76561197996522919,"connected_time":291000000000,"state":"active","ping":78},{"user_id":406,"name":"Mage","steam_id":76561198285026879,"connected_time":3308000000000,"state":"active","ping":77},{"user_id":426,"name":"MichelangeloStark","steam_id":76561197976489900,"connected_time":2467000000000,"state":"active","ping":76},{"user_id":446,"name":"twitch.tv/cccilytf2","steam_id":76561198322125595,"connected_time":296000000000,"state":"active","ping":106},{"user_id":409,"name":"Jin Gulilo","steam_id":76561198065151242,"connected_time":3269000000000,"state":"active","ping":75},{"user_id":274,"name":"lynt","steam_id":76561198988333976,"connected_time":16363000000000,"state":"active","ping":39},{"user_id":405,"name":"Onyx","steam_id":76561198275349640,"connected_time":3362000000000,"state":"active","ping":72},{"user_id":435,"name":"boo_thefeared","steam_id":76561198127967685,"connected_time":1985000000000,"state":"active","ping":144},{"user_id":367,"name":"bogginwater","steam_id":76561198155547142,"connected_time":7401000000000,"state":"active","ping":63},{"user_id":436,"name":"eish","steam_id":76561198089463603,"connected_time":1952000000000,"state":"active","ping":114},{"user_id":396,"name":"ATL1 | on my hunting trip","steam_id":76561198315341646,"connected_time":4459000000000,"state":"active","ping":72},{"user_id":432,"name":"LadyAnon","steam_id":76561198014709418,"connected_time":2061000000000,"state":"active","ping":48},{"user_id":444,"name":"Spiderfight1","steam_id":76561199189991528,"connected_time":312000000000,"state":"active","ping":80},{"user_id":376,"name":"Flint","steam_id":76561198066547582,"connected_time":7053000000000,"state":"active","ping":114},{"user_id":437,"name":"lil hog","steam_id":76561199230929836,"connected_time":1931000000000,"state":"active","ping":80},{"user_id":438,"name":"com lag","steam_id":76561198019019392,"connected_time":1202000000000,"state":"active","ping":62},{"user_id":428,"name":"Ghetto Smosh Fan","steam_id":76561198097272509,"connected_time":2294000000000,"state":"active","ping":36},{"user_id":419,"name":"BackwardsEagle","steam_id":76561199013712612,"connected_time":2990000000000,"state":"active","ping":74},{"user_id":440,"name":"DFR DeezNoodlez","steam_id":76561198246700372,"connected_time":1185000000000,"state":"active","ping":60},{"user_id":439,"name":"deadpixel","steam_id":76561198150249843,"connected_time":1196000000000,"state":"active","ping":59},{"user_id":416,"name":"nup noodle","steam_id":76561198101278181,"connected_time":3160000000000,"state":"active","ping":77},{"user_id":441,"name":"Wiseguy","steam_id":76561198043971271,"connected_time":505000000000,"state":"active","ping":119},{"user_id":442,"name":"vitamin","steam_id":76561198277799227,"connected_time":348000000000,"state":"active","ping":72},{"user_id":448,"name":"Broken Cereal√","steam_id":76561198087489795,"connected_time":135000000000,"state":"active","ping":68}]},{"server_id":104,"name":"Uncletopia | Atlanta | 2 | All Maps","name_short":"atl-2","host":"atl-1.us.uncletopia.com","port":27025,"enabled":true,"region":"us-east","cc":"us","latitude":33.753746,"longitude":-84.38633,"reserved":0,"last_update":"0001-01-01T00:00:00Z","name_a2s":"Uncletopia | Atlanta | 2 | All Maps","protocol":17,"map":"plr_bananabay","folder":"tf","game":"Team Fortress","app_id":440,"player_count":22,"max_players":24,"Bots":0,"server_type":"Dedicated","server_os":"Linux","password":true,"vac":true,"version":"7757534","steam_id":85568392924469983,"keywords":["nocrits","nodmgspread","payload","uncletopia"],"game_id":440,"stv_port":27026,"stv_name":"Uncletopia | Atlanta | 2 | All Maps | STV","players":[{"user_id":599,"name":"General Sherman","steam_id":76561198044769376,"connected_time":2374000000000,"state":"active","ping":61},{"user_id":609,"name":"Jopheth","steam_id":76561198012902961,"connected_time":2132000000000,"state":"active","ping":53},{"user_id":594,"name":"neo","steam_id":76561198438435876,"connected_time":2498000000000,"state":"active","ping":107},{"user_id":610,"name":"TheLGBTaliban","steam_id":76561198309980100,"connected_time":2123000000000,"state":"active","ping":71},{"user_id":597,"name":"Skrunkly","steam_id":76561198241629912,"connected_time":2412000000000,"state":"active","ping":82},{"user_id":598,"name":"Patrick Star Gaming","steam_id":76561198189460395,"connected_time":2388000000000,"state":"active","ping":84},{"user_id":647,"name":"ThinkingMonk112","steam_id":76561198432516310,"connected_time":600000000000,"state":"active","ping":64},{"user_id":601,"name":"Feni","steam_id":76561198044714181,"connected_time":2349000000000,"state":"active","ping":97},{"user_id":602,"name":"Gracefulhippo","steam_id":76561198329904011,"connected_time":2340000000000,"state":"active","ping":60},{"user_id":639,"name":"Antwan","steam_id":76561198246200638,"connected_time":693000000000,"state":"active","ping":60},{"user_id":650,"name":"jorjor wells","steam_id":76561199073429082,"connected_time":427000000000,"state":"active","ping":68},{"user_id":627,"name":"Stamin-Pol","steam_id":76561198280081805,"connected_time":1408000000000,"state":"active","ping":87},{"user_id":631,"name":"black_gazebo","steam_id":76561197991652544,"connected_time":1239000000000,"state":"active","ping":97},{"user_id":629,"name":"kirbo","steam_id":76561198057895955,"connected_time":1358000000000,"state":"active","ping":54},{"user_id":651,"name":"Hey","steam_id":76561198447517893,"connected_time":357000000000,"state":"active","ping":62},{"user_id":613,"name":"Tony Pizza","steam_id":76561198044331477,"connected_time":2046000000000,"state":"active","ping":61},{"user_id":614,"name":"Simply Mystic","steam_id":76561198055495647,"connected_time":2038000000000,"state":"active","ping":95},{"user_id":635,"name":"RailRunner66","steam_id":76561198053779091,"connected_time":890000000000,"state":"active","ping":104},{"user_id":654,"name":"silly little feller","steam_id":76561198041975003,"connected_time":244000000000,"state":"active","ping":60},{"user_id":632,"name":"[Janitor] SuperFlexMan","steam_id":76561198075382445,"connected_time":1181000000000,"state":"active","ping":64},{"user_id":649,"name":"I ate those food","steam_id":76561198084614149,"connected_time":548000000000,"state":"active","ping":61},{"user_id":633,"name":"ae","steam_id":76561198185490827,"connected_time":1110000000000,"state":"active","ping":81}]},{"server_id":400,"name":"Uncletopia | Atlanta | 3 | Community","name_short":"atl-3","host":"atl-1.us.uncletopia.com","port":27035,"enabled":true,"region":"us-east","cc":"us","latitude":33.753746,"longitude":-84.38633,"reserved":0,"last_update":"0001-01-01T00:00:00Z","name_a2s":"Uncletopia | Atlanta | 3 | Community","protocol":17,"map":"workshop/koth_slaughter_rc1.ugc1712845210","folder":"tf","game":"Team Fortress","app_id":440,"player_count":0,"max_players":24,"Bots":0,"server_type":"Dedicated","server_os":"Linux","password":true,"vac":true,"version":"7757534","steam_id":85568392924515187,"keywords":["cp","nocrits","nodmgspread","uncletopia"],"game_id":440,"stv_port":27036,"stv_name":"Uncletopia | Atlanta | 3 | Community | STV","players":null},{"server_id":401,"name":"Uncletopia | Atlanta | 4 | No Payload","name_short":"atl-4","host":"atl-1.us.uncletopia.com","port":27045,"enabled":true,"region":"us-east","cc":"us","latitude":33.753746,"longitude":-84.38633,"reserved":0,"last_update":"0001-01-01T00:00:00Z","name_a2s":"","protocol":0,"map":"","folder":"","game":"","app_id":0,"player_count":0,"max_players":0,"Bots":0,"server_type":"","server_os":"","password":false,"vac":false,"version":"","steam_id":0,"keywords":null,"game_id":0,"stv_port":0,"stv_name":"","players":null},{"server_id":2,"name":"Uncletopia | Chicago | 1 | All Maps","name_short":"chi-1","host":"chi-1.us.uncletopia.com","port":27015,"enabled":true,"region":"us-central","cc":"us","latitude":41.881832,"longitude":-87.62318,"reserved":0,"last_update":"0001-01-01T00:00:00Z","name_a2s":"Uncletopia | Chicago | 1 | All Maps","protocol":17,"map":"cp_dustbowl","folder":"tf","game":"Team Fortress","app_id":440,"player_count":19,"max_players":24,"Bots":0,"server_type":"Dedicated","server_os":"Linux","password":true,"vac":true,"version":"7757534","steam_id":85568392924469984,"keywords":["cp","nocrits","nodmgspread","uncletopia"],"game_id":440,"stv_port":27016,"stv_name":"Uncletopia | Chicago | 1 | All Maps | STV","players":[{"user_id":810,"name":"deepmeta","steam_id":76561199053600691,"connected_time":302000000000,"state":"active","ping":45},{"user_id":816,"name":"Stapler","steam_id":76561198099295077,"connected_time":25000000000,"state":"active","ping":89},{"user_id":817,"name":"DingleInSpace","steam_id":76561198045063348,"connected_time":13000000000,"state":"active","ping":75},{"user_id":797,"name":"Feral Manchild","steam_id":76561198855322496,"connected_time":694000000000,"state":"active","ping":50},{"user_id":771,"name":"the headphones you lost","steam_id":76561199201098634,"connected_time":1349000000000,"state":"active","ping":54},{"user_id":812,"name":"89","steam_id":76561198106308056,"connected_time":275000000000,"state":"active","ping":107},{"user_id":806,"name":"wokky bin laddn","steam_id":76561198265200834,"connected_time":502000000000,"state":"active","ping":79},{"user_id":799,"name":"Thatoneguybunchanumbers","steam_id":76561198028039160,"connected_time":584000000000,"state":"active","ping":79},{"user_id":765,"name":"Semper Ber","steam_id":76561198274021990,"connected_time":1657000000000,"state":"active","ping":88},{"user_id":769,"name":"BTS | puffpuff","steam_id":76561198044429368,"connected_time":1434000000000,"state":"active","ping":45},{"user_id":675,"name":"darwin","steam_id":76561199081837220,"connected_time":9724000000000,"state":"active","ping":78},{"user_id":814,"name":"Howard Hamlin","steam_id":76561198881039861,"connected_time":188000000000,"state":"active","ping":42},{"user_id":789,"name":"gyozaking","steam_id":76561197972312696,"connected_time":807000000000,"state":"active","ping":38},{"user_id":798,"name":"Rat","steam_id":76561199102985277,"connected_time":667000000000,"state":"active","ping":85},{"user_id":756,"name":"Stove Confiscation Authority","steam_id":76561198069735882,"connected_time":2446000000000,"state":"active","ping":70},{"user_id":795,"name":"Astro Knight","steam_id":76561198062767484,"connected_time":731000000000,"state":"active","ping":73},{"user_id":790,"name":"Lancer47","steam_id":76561198020481475,"connected_time":805000000000,"state":"active","ping":74},{"user_id":788,"name":"Mr. Smooooth","steam_id":76561198037566858,"connected_time":857000000000,"state":"active","ping":50},{"user_id":809,"name":"Iggy Dogg","steam_id":76561198059602545,"connected_time":440000000000,"state":"active","ping":51}]},{"server_id":106,"name":"Uncletopia | Chicago | 2 | All Maps","name_short":"chi-2","host":"chi-1.us.uncletopia.com","port":27025,"enabled":true,"region":"us-central","cc":"us","latitude":41.881832,"longitude":-87.62318,"reserved":0,"last_update":"0001-01-01T00:00:00Z","name_a2s":"Uncletopia | Chicago | 2 | All Maps","protocol":17,"map":"pl_frontier_final","folder":"tf","game":"Team Fortress","app_id":440,"player_count":19,"max_players":24,"Bots":0,"server_type":"Dedicated","server_os":"Linux","password":true,"vac":true,"version":"7757534","steam_id":85568392924469985,"keywords":["nocrits","nodmgspread","payload","uncletopia"],"game_id":440,"stv_port":27026,"stv_name":"Uncletopia | Chicago | 2 | All Maps | STV","players":[{"user_id":265,"name":"Malevo","steam_id":76561198148606522,"connected_time":1154000000000,"state":"connecting","ping":102},{"user_id":272,"name":"Dog!","steam_id":76561198296025377,"connected_time":6000000000,"state":"connecting","ping":80},{"user_id":205,"name":"Deathninja952","steam_id":76561199066489355,"connected_time":5997000000000,"state":"connecting","ping":93},{"user_id":262,"name":"sexy old man fucks you (ASMR)","steam_id":76561198081220016,"connected_time":1319000000000,"state":"connecting","ping":61},{"user_id":263,"name":"xthyl","steam_id":76561199361299006,"connected_time":1307000000000,"state":"connecting","ping":97},{"user_id":260,"name":"C papi","steam_id":76561198027779564,"connected_time":1677000000000,"state":"connecting","ping":60},{"user_id":254,"name":"BigDeac","steam_id":76561198091237274,"connected_time":2130000000000,"state":"connecting","ping":68},{"user_id":232,"name":"leeeeeeeeeeeeeeeeeeeeeeeeeee","steam_id":76561199083322731,"connected_time":3561000000000,"state":"connecting","ping":101},{"user_id":271,"name":"cow","steam_id":76561198117331762,"connected_time":22000000000,"state":"connecting","ping":58},{"user_id":227,"name":"trappy (showered)","steam_id":76561198402801140,"connected_time":4182000000000,"state":"connecting","ping":63},{"user_id":212,"name":"im really bad sorry","steam_id":76561198277163301,"connected_time":5320000000000,"state":"connecting","ping":82},{"user_id":223,"name":"AnonymousCritter","steam_id":76561198864475187,"connected_time":4774000000000,"state":"connecting","ping":53},{"user_id":269,"name":"fish","steam_id":76561198054070811,"connected_time":893000000000,"state":"connecting","ping":112},{"user_id":238,"name":"Bobbn","steam_id":76561198876124683,"connected_time":3388000000000,"state":"connecting","ping":79},{"user_id":239,"name":"-Wilef","steam_id":76561198066091247,"connected_time":3386000000000,"state":"connecting","ping":81},{"user_id":257,"name":"ShortBusHero99","steam_id":76561199013991464,"connected_time":2111000000000,"state":"connecting","ping":86},{"user_id":259,"name":"Seven76","steam_id":76561198075334888,"connected_time":1688000000000,"state":"connecting","ping":80},{"user_id":181,"name":"Vladikr1","steam_id":76561198401495362,"connected_time":8662000000000,"state":"connecting","ping":106}]},{"server_id":402,"name":"Uncletopia | Chicago | 3 | All Maps","name_short":"chi-3","host":"chi-1.us.uncletopia.com","port":27035,"enabled":true,"region":"us-central","cc":"us","latitude":41.881832,"longitude":-87.62318,"reserved":0,"last_update":"0001-01-01T00:00:00Z","name_a2s":"Uncletopia | Chicago | 3 | All Maps","protocol":17,"map":"pl_badwater","folder":"tf","game":"Team Fortress","app_id":440,"player_count":24,"max_players":24,"Bots":0,"server_type":"Dedicated","server_os":"Linux","password":true,"vac":true,"version":"7757534","steam_id":85568392924515191,"keywords":["nocrits","nodmgspread","payload","uncletopia"],"game_id":440,"stv_port":27036,"stv_name":"Uncletopia | Chicago | 3 | All Maps | STV","players":[{"user_id":561,"name":"jolo","steam_id":76561198042831480,"connected_time":7996000000000,"state":"active","ping":69},{"user_id":665,"name":"Porsy","steam_id":76561198041850843,"connected_time":183000000000,"state":"active","ping":41},{"user_id":666,"name":"Lanky Kong","steam_id":76561198142455488,"connected_time":159000000000,"state":"active","ping":59},{"user_id":667,"name":"dysesthesia","steam_id":76561198027159018,"connected_time":94000000000,"state":"active","ping":85},{"user_id":659,"name":"Fumpo","steam_id":76561198206873365,"connected_time":1571000000000,"state":"active","ping":67},{"user_id":642,"name":"The Bone Zone","steam_id":76561199110815433,"connected_time":2274000000000,"state":"active","ping":144},{"user_id":668,"name":"ShrubSkrub","steam_id":76561198009908618,"connected_time":89000000000,"state":"active","ping":52},{"user_id":669,"name":"Hard Soap","steam_id":76561198267905614,"connected_time":89000000000,"state":"active","ping":91},{"user_id":643,"name":"SpartanOne22","steam_id":76561199006361788,"connected_time":2228000000000,"state":"active","ping":70},{"user_id":646,"name":"Ellen Baker","steam_id":76561198065712435,"connected_time":2173000000000,"state":"active","ping":114},{"user_id":558,"name":"Apple Zoo","steam_id":76561198013732450,"connected_time":8315000000000,"state":"active","ping":58},{"user_id":652,"name":"Lore","steam_id":76561198098407538,"connected_time":1941000000000,"state":"active","ping":55},{"user_id":644,"name":"mogan","steam_id":76561198071700821,"connected_time":2193000000000,"state":"active","ping":80},{"user_id":638,"name":"laszlo","steam_id":76561198141198352,"connected_time":2997000000000,"state":"active","ping":45},{"user_id":653,"name":"MatchMatch","steam_id":76561198048925904,"connected_time":1938000000000,"state":"active","ping":114},{"user_id":645,"name":"who is gavin?","steam_id":76561198069415057,"connected_time":2191000000000,"state":"active","ping":60},{"user_id":663,"name":"Rifter","steam_id":76561198077430698,"connected_time":292000000000,"state":"active","ping":60},{"user_id":656,"name":"[DATS➡] Sugar Meowth","steam_id":76561197995251793,"connected_time":1794000000000,"state":"active","ping":88},{"user_id":670,"name":"Puke Skyfucker","steam_id":76561198012846213,"connected_time":66000000000,"state":"active","ping":468},{"user_id":664,"name":"soof","steam_id":76561198043762955,"connected_time":286000000000,"state":"active","ping":62},{"user_id":636,"name":"Harold","steam_id":76561198057317770,"connected_time":3087000000000,"state":"active","ping":89},{"user_id":634,"name":"ShitsandGiggles™","steam_id":76561198058708019,"connected_time":3217000000000,"state":"active","ping":56},{"user_id":658,"name":"carp","steam_id":76561198042865147,"connected_time":1703000000000,"state":"active","ping":47},{"user_id":671,"name":"FUSION","steam_id":76561197972659738,"connected_time":50000000000,"state":"active","ping":59}]},{"server_id":403,"name":"Uncletopia | Chicago | 4 | All Maps","name_short":"chi-4","host":"chi-1.us.uncletopia.com","port":27045,"enabled":true,"region":"us-central","cc":"us","latitude":41.881832,"longitude":-87.62318,"reserved":0,"last_update":"0001-01-01T00:00:00Z","name_a2s":"Uncletopia | Chicago | 4 | All Maps","protocol":17,"map":"pl_swiftwater_final1","folder":"tf","game":"Team Fortress","app_id":440,"player_count":8,"max_players":24,"Bots":0,"server_type":"Dedicated","server_os":"Linux","password":true,"vac":true,"version":"7757534","steam_id":85568392924515193,"keywords":["nocrits","nodmgspread","payload","uncletopia"],"game_id":440,"stv_port":27046,"stv_name":"Uncletopia | Chicago | 4 | All Maps | STV","players":[{"user_id":382,"name":"Chinese \"Weather\" Balloon","steam_id":76561198031675881,"connected_time":351000000000,"state":"active","ping":60},{"user_id":383,"name":"Patrick","steam_id":76561198017908357,"connected_time":337000000000,"state":"active","ping":61},{"user_id":392,"name":"loyaldandan0764","steam_id":76561199231020424,"connected_time":171000000000,"state":"active","ping":117},{"user_id":372,"name":"Baby gaming","steam_id":76561198867319323,"connected_time":564000000000,"state":"active","ping":58},{"user_id":393,"name":"Morakyt","steam_id":76561198075632402,"connected_time":84000000000,"state":"active","ping":70},{"user_id":365,"name":"Nathan","steam_id":76561199132214008,"connected_time":1419000000000,"state":"active","ping":79},{"user_id":340,"name":"Bullwinkle J. Moose","steam_id":76561198075977196,"connected_time":4955000000000,"state":"active","ping":74},{"user_id":362,"name":"Bottle","steam_id":76561198044031558,"connected_time":2105000000000,"state":"active","ping":68}]},{"server_id":36,"name":"Uncletopia | Chicago | 5 | All Maps","name_short":"chi-5","host":"chi-2.us.uncletopia.com","port":27015,"enabled":true,"region":"us-central","cc":"us","latitude":41.881832,"longitude":-87.62318,"reserved":0,"last_update":"0001-01-01T00:00:00Z","name_a2s":"Uncletopia | Chicago | 5 | All Maps","protocol":17,"map":"pl_goldrush","folder":"tf","game":"Team Fortress","app_id":440,"player_count":23,"max_players":24,"Bots":0,"server_type":"Dedicated","server_os":"Linux","password":true,"vac":true,"version":"7757534","steam_id":85568392924866362,"keywords":["nocrits","nodmgspread","payload","uncletopia"],"game_id":440,"stv_port":27016,"stv_name":"Uncletopia | Chicago | 5 | All Maps | STV","players":[{"user_id":471,"name":"protester of decent things","steam_id":76561198051421643,"connected_time":795000000000,"state":"active","ping":53},{"user_id":475,"name":"bkiller","steam_id":76561198029265697,"connected_time":200000000000,"state":"active","ping":74},{"user_id":451,"name":"the inventor of Sex, Pisslord","steam_id":76561198074624639,"connected_time":1866000000000,"state":"active","ping":60},{"user_id":466,"name":"Uncle Dale","steam_id":76561199144302768,"connected_time":1479000000000,"state":"active","ping":76},{"user_id":473,"name":"STEVE","steam_id":76561198063475894,"connected_time":767000000000,"state":"active","ping":69},{"user_id":248,"name":"Zero","steam_id":76561199383267408,"connected_time":16211000000000,"state":"active","ping":78},{"user_id":458,"name":"WokToYou","steam_id":76561198049693624,"connected_time":1609000000000,"state":"active","ping":60},{"user_id":476,"name":"Truth","steam_id":76561198047385041,"connected_time":73000000000,"state":"active","ping":114},{"user_id":405,"name":"Mr. DemoBone Virus","steam_id":76561198044127250,"connected_time":4872000000000,"state":"active","ping":89},{"user_id":477,"name":"nickles","steam_id":76561199177498487,"connected_time":37000000000,"state":"active","ping":62},{"user_id":459,"name":"☭HAMMER-GANG☭","steam_id":76561198134556058,"connected_time":1570000000000,"state":"active","ping":63},{"user_id":445,"name":"stacybaby80","steam_id":76561198406951007,"connected_time":2078000000000,"state":"active","ping":64},{"user_id":447,"name":"Burny Sanders","steam_id":76561197961879048,"connected_time":2058000000000,"state":"active","ping":61},{"user_id":472,"name":"sora","steam_id":76561198094256973,"connected_time":794000000000,"state":"active","ping":91},{"user_id":469,"name":"The Law","steam_id":76561198202209948,"connected_time":1117000000000,"state":"active","ping":50},{"user_id":478,"name":"Cap","steam_id":76561198072870415,"connected_time":27000000000,"state":"active","ping":95},{"user_id":461,"name":"cinamin.kake","steam_id":76561199003171233,"connected_time":1538000000000,"state":"active","ping":72},{"user_id":474,"name":"Jamiroquai","steam_id":76561198210902109,"connected_time":624000000000,"state":"active","ping":74},{"user_id":464,"name":"Kafururu","steam_id":76561198031864565,"connected_time":1498000000000,"state":"active","ping":61},{"user_id":465,"name":"[PFF] Giacomo","steam_id":76561198058560798,"connected_time":1489000000000,"state":"active","ping":46},{"user_id":449,"name":"engie","steam_id":76561199229629045,"connected_time":1968000000000,"state":"active","ping":113},{"user_id":470,"name":"CPUnit","steam_id":76561198162881878,"connected_time":1044000000000,"state":"active","ping":57},{"user_id":434,"name":"coom","steam_id":76561198078189844,"connected_time":3352000000000,"state":"active","ping":58}]},{"server_id":37,"name":"Uncletopia | Chicago | 6 | All Maps","name_short":"chi-6","host":"chi-2.us.uncletopia.com","port":27025,"enabled":true,"region":"us-central","cc":"us","latitude":41.881832,"longitude":-87.62318,"reserved":0,"last_update":"0001-01-01T00:00:00Z","name_a2s":"Uncletopia | Chicago | 6 | All Maps","protocol":17,"map":"pl_barnblitz","folder":"tf","game":"Team Fortress","app_id":440,"player_count":22,"max_players":24,"Bots":0,"server_type":"Dedicated","server_os":"Linux","password":true,"vac":true,"version":"7757534","steam_id":85568392924866363,"keywords":["nocrits","nodmgspread","payload","uncletopia"],"game_id":440,"stv_port":27026,"stv_name":"Uncletopia | Chicago | 6 | All Maps | STV","players":[{"user_id":354,"name":"angry blimp","steam_id":76561198072592880,"connected_time":2373000000000,"state":"active","ping":42},{"user_id":359,"name":"Calypso","steam_id":76561198082939544,"connected_time":2161000000000,"state":"active","ping":85},{"user_id":369,"name":"Apricot","steam_id":76561198355699935,"connected_time":1022000000000,"state":"active","ping":59},{"user_id":348,"name":"Pennis the Menace","steam_id":76561198254878037,"connected_time":2768000000000,"state":"active","ping":95},{"user_id":388,"name":"jimmyfnaf172198yay","steam_id":76561198311446636,"connected_time":270000000000,"state":"active","ping":58},{"user_id":366,"name":"Araganor","steam_id":76561198041988085,"connected_time":1278000000000,"state":"active","ping":74},{"user_id":389,"name":"Junko","steam_id":76561198146089003,"connected_time":253000000000,"state":"active","ping":47},{"user_id":381,"name":"Asher","steam_id":76561198218499636,"connected_time":538000000000,"state":"active","ping":60},{"user_id":391,"name":"Trolldier 76","steam_id":76561198036504161,"connected_time":4000000000,"state":"spawning","ping":101},{"user_id":365,"name":"Soothsayer","steam_id":76561198051750641,"connected_time":1317000000000,"state":"active","ping":108},{"user_id":382,"name":"Fancy Bed","steam_id":76561198007172366,"connected_time":528000000000,"state":"active","ping":68},{"user_id":368,"name":"Ringtail","steam_id":76561198112961308,"connected_time":1202000000000,"state":"active","ping":65},{"user_id":373,"name":"Enchanced","steam_id":76561198797393854,"connected_time":795000000000,"state":"active","ping":119},{"user_id":390,"name":"WillieMakit","steam_id":76561197985391684,"connected_time":234000000000,"state":"active","ping":121},{"user_id":357,"name":"eprincess","steam_id":76561197994492154,"connected_time":2280000000000,"state":"active","ping":169},{"user_id":377,"name":"SSBM Pelican","steam_id":76561198040697907,"connected_time":640000000000,"state":"active","ping":75},{"user_id":386,"name":"a crystal lizard","steam_id":76561197997661928,"connected_time":424000000000,"state":"active","ping":70},{"user_id":351,"name":"Codo Sapien","steam_id":76561198014206810,"connected_time":2704000000000,"state":"active","ping":32},{"user_id":363,"name":"Pancreas Enjoyer","steam_id":76561199438598904,"connected_time":1595000000000,"state":"active","ping":79},{"user_id":376,"name":"Danger Dwarf","steam_id":76561198059490571,"connected_time":658000000000,"state":"active","ping":75},{"user_id":372,"name":"JRD","steam_id":76561197997946410,"connected_time":984000000000,"state":"active","ping":57},{"user_id":378,"name":"Hawk","steam_id":76561199086130017,"connected_time":640000000000,"state":"active","ping":65}]},{"server_id":38,"name":"Uncletopia | Chicago | 7 | Stopwatch Beta","name_short":"chi-7","host":"chi-2.us.uncletopia.com","port":27035,"enabled":true,"region":"us-central","cc":"us","latitude":41.881832,"longitude":-87.62318,"reserved":0,"last_update":"0001-01-01T00:00:00Z","name_a2s":"Uncletopia | Chicago | 7 | Stopwatch Beta","protocol":17,"map":"pl_borneo","folder":"tf","game":"Team Fortress","app_id":440,"player_count":0,"max_players":24,"Bots":0,"server_type":"Dedicated","server_os":"Linux","password":true,"vac":true,"version":"7757534","steam_id":85568392924866364,"keywords":["nocrits","nodmgspread","payload","uncletopia"],"game_id":440,"stv_port":27036,"stv_name":"Uncletopia | Chicago | 7 | Stopwatch Beta | STV","players":null},{"server_id":39,"name":"Uncletopia | Chicago | 8 | Community","name_short":"chi-8","host":"chi-2.us.uncletopia.com","port":27045,"enabled":true,"region":"us-central","cc":"us","latitude":41.881832,"longitude":-87.62318,"reserved":0,"last_update":"0001-01-01T00:00:00Z","name_a2s":"Uncletopia | Chicago | 8 | Community","protocol":17,"map":"workshop/cp_overgrown_rc7b.ugc503939302","folder":"tf","game":"Team Fortress","app_id":440,"player_count":3,"max_players":24,"Bots":0,"server_type":"Dedicated","server_os":"Linux","password":true,"vac":true,"version":"7757534","steam_id":85568392924866365,"keywords":["cp","nocrits","nodmgspread","uncletopia"],"game_id":440,"stv_port":27046,"stv_name":"Uncletopia | Chicago | 8 | Community | STV","players":[{"user_id":165,"name":"anon003","steam_id":76561198286971687,"connected_time":419000000000,"state":"active","ping":96},{"user_id":159,"name":"nixcamic - W+M1 Engie","steam_id":76561198021230723,"connected_time":1413000000000,"state":"spawning","ping":213},{"user_id":166,"name":"N0Ne","steam_id":76561198376822522,"connected_time":115000000000,"state":"active","ping":69}]},{"server_id":8,"name":"Uncletopia | Dallas | 1 | All Maps","name_short":"dal-1","host":"dal-1.us.uncletopia.com","port":27015,"enabled":true,"region":"us-central","cc":"us","latitude":32.779167,"longitude":-96.80889,"reserved":0,"last_update":"0001-01-01T00:00:00Z","name_a2s":"Uncletopia | Dallas | 1 | All Maps","protocol":17,"map":"cp_sunshine","folder":"tf","game":"Team Fortress","app_id":440,"player_count":23,"max_players":24,"Bots":0,"server_type":"Dedicated","server_os":"Linux","password":true,"vac":true,"version":"7757534","steam_id":85568392924469986,"keywords":["cp","nocrits","nodmgspread","uncletopia"],"game_id":440,"stv_port":27016,"stv_name":"Uncletopia | Dallas | 1 | All Maps | STV","players":[{"user_id":273,"name":"veldt","steam_id":76561198056135308,"connected_time":2340000000000,"state":"active","ping":53},{"user_id":296,"name":"APOTATO","steam_id":76561198118199858,"connected_time":660000000000,"state":"active","ping":61},{"user_id":287,"name":"Blue_Yoshi","steam_id":76561199455280829,"connected_time":1486000000000,"state":"active","ping":68},{"user_id":288,"name":"???","steam_id":76561198200155343,"connected_time":1402000000000,"state":"active","ping":42},{"user_id":258,"name":"mkl","steam_id":76561197986401685,"connected_time":4717000000000,"state":"active","ping":55},{"user_id":276,"name":"John16Mark","steam_id":76561198119445407,"connected_time":2276000000000,"state":"active","ping":100},{"user_id":297,"name":"TheRealFryingDutchMan!","steam_id":76561199193784099,"connected_time":617000000000,"state":"active","ping":67},{"user_id":298,"name":"[4-loko] Cyrus","steam_id":76561198146221678,"connected_time":556000000000,"state":"active","ping":49},{"user_id":299,"name":"Hedsik","steam_id":76561198045797773,"connected_time":191000000000,"state":"active","ping":51},{"user_id":251,"name":"0r161n4lj0k3","steam_id":76561198127328235,"connected_time":5571000000000,"state":"active","ping":87},{"user_id":290,"name":"Bigfoot ate my ass","steam_id":76561198071605190,"connected_time":1193000000000,"state":"active","ping":71},{"user_id":300,"name":"LuciD","steam_id":76561198242842394,"connected_time":158000000000,"state":"active","ping":86},{"user_id":301,"name":"kaleb","steam_id":76561198997126286,"connected_time":141000000000,"state":"active","ping":89},{"user_id":293,"name":"austinsmith","steam_id":76561198167838540,"connected_time":1001000000000,"state":"active","ping":103},{"user_id":302,"name":"Butthole Surfer","steam_id":76561198020526407,"connected_time":124000000000,"state":"active","ping":67},{"user_id":303,"name":"Knightly Knight","steam_id":76561198399569659,"connected_time":105000000000,"state":"active","ping":56},{"user_id":295,"name":"Weasel Smack","steam_id":76561198023116430,"connected_time":909000000000,"state":"active","ping":63},{"user_id":283,"name":"ShapedSilver","steam_id":76561199073305310,"connected_time":2079000000000,"state":"active","ping":63},{"user_id":284,"name":"Zerow","steam_id":76561198362623418,"connected_time":1879000000000,"state":"active","ping":55},{"user_id":242,"name":"Colonel Salt","steam_id":76561198207009563,"connected_time":6573000000000,"state":"active","ping":58},{"user_id":291,"name":"Cheese","steam_id":76561199207081299,"connected_time":1158000000000,"state":"active","ping":112},{"user_id":271,"name":"Imrgrim","steam_id":76561198135866481,"connected_time":2596000000000,"state":"active","ping":73},{"user_id":262,"name":"hzp","steam_id":76561198043574680,"connected_time":3882000000000,"state":"active","ping":70}]},{"server_id":108,"name":"Uncletopia | Dallas | 2 | All Maps","name_short":"dal-2","host":"dal-1.us.uncletopia.com","port":27025,"enabled":true,"region":"us-central","cc":"us","latitude":32.779167,"longitude":-96.80889,"reserved":0,"last_update":"0001-01-01T00:00:00Z","name_a2s":"Uncletopia | Dallas | 2 | All Maps","protocol":17,"map":"pl_upward","folder":"tf","game":"Team Fortress","app_id":440,"player_count":24,"max_players":24,"Bots":0,"server_type":"Dedicated","server_os":"Linux","password":true,"vac":true,"version":"7757534","steam_id":85568392924469988,"keywords":["nocrits","nodmgspread","payload","uncletopia"],"game_id":440,"stv_port":27026,"stv_name":"Uncletopia | Dallas | 2 | All Maps | STV","players":[{"user_id":744,"name":"Moon_Man","steam_id":76561199028500370,"connected_time":135000000000,"state":"active","ping":94},{"user_id":745,"name":"trowel","steam_id":76561198195109445,"connected_time":60000000000,"state":"active","ping":60},{"user_id":709,"name":"Fishstall","steam_id":76561198038126034,"connected_time":2107000000000,"state":"active","ping":59},{"user_id":735,"name":"TheVandive","steam_id":76561199014510667,"connected_time":589000000000,"state":"active","ping":133},{"user_id":739,"name":"toho","steam_id":76561198117747254,"connected_time":571000000000,"state":"active","ping":73},{"user_id":740,"name":"porz","steam_id":76561198195711453,"connected_time":570000000000,"state":"active","ping":45},{"user_id":710,"name":"radicalPolio","steam_id":76561197961561855,"connected_time":2084000000000,"state":"active","ping":41},{"user_id":722,"name":"0x01FE","steam_id":76561198838881917,"connected_time":1661000000000,"state":"active","ping":59},{"user_id":741,"name":"TurboWarden","steam_id":76561198104225824,"connected_time":548000000000,"state":"active","ping":71},{"user_id":730,"name":"totally not a pile of beans","steam_id":76561198119851931,"connected_time":1293000000000,"state":"active","ping":98},{"user_id":698,"name":"27lb Costco Mack N Cheese Bucke","steam_id":76561198070591328,"connected_time":2831000000000,"state":"active","ping":78},{"user_id":746,"name":"The Bombinomicon","steam_id":76561198209881263,"connected_time":42000000000,"state":"active","ping":87},{"user_id":712,"name":"WehKings","steam_id":76561198869617499,"connected_time":1985000000000,"state":"active","ping":63},{"user_id":747,"name":"BTS | Bumbler","steam_id":76561198048895038,"connected_time":42000000000,"state":"active","ping":53},{"user_id":669,"name":"schnedwob","steam_id":76561197999146588,"connected_time":4301000000000,"state":"active","ping":53},{"user_id":707,"name":"ChottoAMinute","steam_id":76561198873157775,"connected_time":2403000000000,"state":"active","ping":35},{"user_id":743,"name":"ShukSama","steam_id":76561198322357608,"connected_time":199000000000,"state":"active","ping":80},{"user_id":651,"name":"xZackAttack27x","steam_id":76561198035446639,"connected_time":6108000000000,"state":"active","ping":29},{"user_id":700,"name":"spy","steam_id":76561198937717599,"connected_time":2782000000000,"state":"active","ping":45},{"user_id":720,"name":"iluvtoust","steam_id":76561198869269207,"connected_time":1696000000000,"state":"active","ping":52},{"user_id":725,"name":"Cleggy","steam_id":76561197999179908,"connected_time":1564000000000,"state":"active","ping":77},{"user_id":726,"name":"ARegicide","steam_id":76561198008856724,"connected_time":1538000000000,"state":"active","ping":75},{"user_id":727,"name":"kr1tsurf3r","steam_id":76561198076402476,"connected_time":1519000000000,"state":"active","ping":101},{"user_id":732,"name":"CelticDemon","steam_id":76561199388090914,"connected_time":1109000000000,"state":"active","ping":99}]},{"server_id":5,"name":"Uncletopia | Frankfurt | 1 | All Maps","name_short":"frk-1","host":"frk-1.de.uncletopia.com","port":27015,"enabled":true,"region":"eu","cc":"de","latitude":50.110924,"longitude":8.682127,"reserved":0,"last_update":"0001-01-01T00:00:00Z","name_a2s":"Uncletopia | Frankfurt | 1 | All Maps","protocol":17,"map":"pl_snowycoast","folder":"tf","game":"Team Fortress","app_id":440,"player_count":0,"max_players":24,"Bots":0,"server_type":"Dedicated","server_os":"Linux","password":true,"vac":true,"version":"7757534","steam_id":85568392924469989,"keywords":["nocrits","nodmgspread","payload","uncletopia"],"game_id":440,"stv_port":27016,"stv_name":"Uncletopia | Frankfurt | 1 | All Maps | STV","players":null},{"server_id":110,"name":"Uncletopia | Frankfurt | 2 | All Maps","name_short":"frk-2","host":"frk-1.de.uncletopia.com","port":27025,"enabled":true,"region":"eu","cc":"de","latitude":50.110924,"longitude":8.682127,"reserved":0,"last_update":"0001-01-01T00:00:00Z","name_a2s":"Uncletopia | Frankfurt | 2 | All Maps","protocol":17,"map":"cp_snakewater_final1","folder":"tf","game":"Team Fortress","app_id":440,"player_count":0,"max_players":24,"Bots":0,"server_type":"Dedicated","server_os":"Linux","password":true,"vac":true,"version":"7757534","steam_id":85568392924469990,"keywords":["cp","nocrits","nodmgspread","uncletopia"],"game_id":440,"stv_port":27026,"stv_name":"Uncletopia | Frankfurt | 2 | All Maps | STV","players":null},{"server_id":308,"name":"Uncletopia | Frankfurt | 3 | All Maps","name_short":"frk-3","host":"frk-1.de.uncletopia.com","port":27035,"enabled":true,"region":"eu","cc":"de","latitude":50.110924,"longitude":8.682127,"reserved":0,"last_update":"0001-01-01T00:00:00Z","name_a2s":"Uncletopia | Frankfurt | 3 | All Maps","protocol":17,"map":"pl_swiftwater_final1","folder":"tf","game":"Team Fortress","app_id":440,"player_count":0,"max_players":24,"Bots":0,"server_type":"Dedicated","server_os":"Linux","password":true,"vac":true,"version":"7757534","steam_id":85568392924504274,"keywords":["nocrits","nodmgspread","payload","uncletopia"],"game_id":440,"stv_port":27036,"stv_name":"Uncletopia | Frankfurt | 3 | All Maps | STV","players":null},{"server_id":309,"name":"Uncletopia | Frankfurt | 4 | All Maps","name_short":"frk-4","host":"frk-1.de.uncletopia.com","port":27045,"enabled":true,"region":"eu","cc":"de","latitude":50.110924,"longitude":8.682127,"reserved":0,"last_update":"0001-01-01T00:00:00Z","name_a2s":"Uncletopia | Frankfurt | 4 | All Maps","protocol":17,"map":"koth_viaduct","folder":"tf","game":"Team Fortress","app_id":440,"player_count":0,"max_players":24,"Bots":0,"server_type":"Dedicated","server_os":"Linux","password":true,"vac":true,"version":"7757534","steam_id":85568392924504275,"keywords":["cp","nocrits","nodmgspread","uncletopia"],"game_id":440,"stv_port":27046,"stv_name":"Uncletopia | Frankfurt | 4 | All Maps | STV","players":null},{"server_id":310,"name":"Uncletopia | Frankfurt | 5 | All Maps","name_short":"frk-5","host":"frk-1.de.uncletopia.com","port":27055,"enabled":true,"region":"eu","cc":"de","latitude":50.110924,"longitude":8.682127,"reserved":0,"last_update":"0001-01-01T00:00:00Z","name_a2s":"Uncletopia | Frankfurt | 5 | All Maps","protocol":17,"map":"koth_lakeside_final","folder":"tf","game":"Team Fortress","app_id":440,"player_count":0,"max_players":24,"Bots":0,"server_type":"Dedicated","server_os":"Linux","password":true,"vac":true,"version":"7757534","steam_id":85568392924504277,"keywords":["cp","nocrits","nodmgspread","uncletopia"],"game_id":440,"stv_port":27056,"stv_name":"Uncletopia | Frankfurt | 5 | All Maps | STV","players":null},{"server_id":311,"name":"Uncletopia | Frankfurt | 6 | All Maps","name_short":"frk-6","host":"frk-1.de.uncletopia.com","port":27065,"enabled":true,"region":"eu","cc":"de","latitude":50.110924,"longitude":8.682127,"reserved":0,"last_update":"0001-01-01T00:00:00Z","name_a2s":"Uncletopia | Frankfurt | 6 | All Maps","protocol":17,"map":"pl_frontier_final","folder":"tf","game":"Team Fortress","app_id":440,"player_count":0,"max_players":24,"Bots":0,"server_type":"Dedicated","server_os":"Linux","password":true,"vac":true,"version":"7757534","steam_id":85568392924504278,"keywords":["nocrits","nodmgspread","payload","uncletopia"],"game_id":440,"stv_port":27066,"stv_name":"Uncletopia | Frankfurt | 6 | All Maps | STV","players":null},{"server_id":23,"name":"Uncletopia | Frankfurt | 7 | Stopwatch Beta","name_short":"frk-7","host":"frk-1.de.uncletopia.com","port":27075,"enabled":true,"region":"eu","cc":"de","latitude":50.110924,"longitude":8.682127,"reserved":0,"last_update":"0001-01-01T00:00:00Z","name_a2s":"Uncletopia | Frankfurt | 7 | Stopwatch Beta","protocol":17,"map":"cp_sunshine","folder":"tf","game":"Team Fortress","app_id":440,"player_count":0,"max_players":24,"Bots":0,"server_type":"Dedicated","server_os":"Linux","password":true,"vac":true,"version":"7757534","steam_id":85568392924742827,"keywords":["cp","nocrits","nodmgspread","uncletopia"],"game_id":440,"stv_port":27076,"stv_name":"Uncletopia | Frankfurt | 7 | Stopwatch Beta | STV","players":null},{"server_id":24,"name":"Uncletopia | Frankfurt | 8 | Community","name_short":"frk-8","host":"frk-1.de.uncletopia.com","port":27085,"enabled":true,"region":"eu","cc":"de","latitude":50.110924,"longitude":8.682127,"reserved":0,"last_update":"0001-01-01T00:00:00Z","name_a2s":"Uncletopia | Frankfurt | 8 | Community","protocol":17,"map":"koth_lakeside_final","folder":"tf","game":"Team Fortress","app_id":440,"player_count":0,"max_players":24,"Bots":0,"server_type":"Dedicated","server_os":"Linux","password":true,"vac":true,"version":"7757534","steam_id":85568392924742828,"keywords":["cp","nocrits","nodmgspread","uncletopia"],"game_id":440,"stv_port":27086,"stv_name":"Uncletopia | Frankfurt | 8 | Community | STV","players":null},{"server_id":202,"name":"Uncletopia | Hong Kong | 1 | All Maps","name_short":"hgk-1","host":"hgk-1.hk.uncletopia.com","port":27015,"enabled":true,"region":"asia","cc":"hk","latitude":22.302711,"longitude":114.177216,"reserved":0,"last_update":"0001-01-01T00:00:00Z","name_a2s":"Uncletopia | Hong Kong | 1 | All Maps","protocol":17,"map":"koth_highpass","folder":"tf","game":"Team Fortress","app_id":440,"player_count":0,"max_players":24,"Bots":0,"server_type":"Dedicated","server_os":"Linux","password":true,"vac":true,"version":"7757534","steam_id":85568392924494504,"keywords":["cp","nocrits","nodmgspread","uncletopia"],"game_id":440,"stv_port":27016,"stv_name":"Uncletopia | Hong Kong | 1 | All Maps | STV","players":null},{"server_id":1,"name":"Uncletopia | Los Angeles | 1 | All Maps","name_short":"lax-1","host":"lax-1.us.uncletopia.com","port":27015,"enabled":true,"region":"us-west","cc":"us","latitude":33.94279,"longitude":-118.41004,"reserved":0,"last_update":"0001-01-01T00:00:00Z","name_a2s":"Uncletopia | Los Angeles | 1 | All Maps","protocol":17,"map":"pl_frontier_final","folder":"tf","game":"Team Fortress","app_id":440,"player_count":22,"max_players":24,"Bots":0,"server_type":"Dedicated","server_os":"Linux","password":true,"vac":true,"version":"7757534","steam_id":85568392924469991,"keywords":["nocrits","nodmgspread","payload","uncletopia"],"game_id":440,"stv_port":27016,"stv_name":"Uncletopia | Los Angeles | 1 | All Maps | STV","players":[{"user_id":145,"name":"Bongo","steam_id":76561198975372935,"connected_time":1394000000000,"state":"active","ping":60},{"user_id":170,"name":"hutek","steam_id":76561199051298945,"connected_time":189000000000,"state":"active","ping":54},{"user_id":167,"name":"heimdall","steam_id":76561198069380992,"connected_time":413000000000,"state":"active","ping":89},{"user_id":146,"name":"Astro","steam_id":76561198035676106,"connected_time":1374000000000,"state":"active","ping":85},{"user_id":166,"name":"Skeleton","steam_id":76561198315213115,"connected_time":453000000000,"state":"active","ping":62},{"user_id":147,"name":"Scoron","steam_id":76561198062099305,"connected_time":1355000000000,"state":"active","ping":70},{"user_id":89,"name":"square-","steam_id":76561198058143770,"connected_time":5353000000000,"state":"active","ping":83},{"user_id":161,"name":"twan","steam_id":76561198145784505,"connected_time":676000000000,"state":"active","ping":43},{"user_id":148,"name":"ice cream (冰淇淋)","steam_id":76561198976530881,"connected_time":1295000000000,"state":"active","ping":37},{"user_id":157,"name":"kool_aids3","steam_id":76561198314435679,"connected_time":980000000000,"state":"active","ping":54},{"user_id":149,"name":"rustyorion","steam_id":76561198439186347,"connected_time":1287000000000,"state":"active","ping":76},{"user_id":99,"name":"Jovi Boy","steam_id":76561198046605691,"connected_time":4286000000000,"state":"active","ping":59},{"user_id":140,"name":"hakken","steam_id":76561199102391736,"connected_time":1730000000000,"state":"active","ping":58},{"user_id":150,"name":"SwineFlu","steam_id":76561197989014109,"connected_time":1278000000000,"state":"active","ping":80},{"user_id":158,"name":"Lavernius41","steam_id":76561198807274102,"connected_time":969000000000,"state":"active","ping":72},{"user_id":125,"name":"Boomba","steam_id":76561198071101891,"connected_time":2940000000000,"state":"active","ping":88},{"user_id":171,"name":"adolf tickler","steam_id":76561198163120788,"connected_time":186000000000,"state":"active","ping":45},{"user_id":168,"name":"MayaBon","steam_id":76561198797968261,"connected_time":375000000000,"state":"active","ping":85},{"user_id":79,"name":"BorstchBag","steam_id":76561198155294045,"connected_time":6037000000000,"state":"active","ping":95},{"user_id":162,"name":"squash","steam_id":76561198150281353,"connected_time":636000000000,"state":"active","ping":89},{"user_id":174,"name":"Reisen","steam_id":76561199174579733,"connected_time":24000000000,"state":"active","ping":109},{"user_id":165,"name":"Rodentmancer","steam_id":76561198011675372,"connected_time":526000000000,"state":"active","ping":87}]},{"server_id":112,"name":"Uncletopia | Los Angeles | 2 | All Maps","name_short":"lax-2","host":"lax-1.us.uncletopia.com","port":27025,"enabled":true,"region":"us-west","cc":"us","latitude":33.94279,"longitude":-118.41004,"reserved":0,"last_update":"0001-01-01T00:00:00Z","name_a2s":"Uncletopia | Los Angeles | 2 | All Maps","protocol":17,"map":"pl_frontier_final","folder":"tf","game":"Team Fortress","app_id":440,"player_count":24,"max_players":24,"Bots":0,"server_type":"Dedicated","server_os":"Linux","password":true,"vac":true,"version":"7757534","steam_id":85568392924469992,"keywords":["nocrits","nodmgspread","payload","uncletopia"],"game_id":440,"stv_port":27026,"stv_name":"Uncletopia | Los Angeles | 2 | All Maps | STV","players":[{"user_id":383,"name":"Ridic_Acidic","steam_id":76561198835137527,"connected_time":733000000000,"state":"active","ping":98},{"user_id":389,"name":"Nuggets","steam_id":76561198267826226,"connected_time":516000000000,"state":"active","ping":59},{"user_id":386,"name":"Drilly22","steam_id":76561198068838338,"connected_time":690000000000,"state":"active","ping":92},{"user_id":372,"name":"andylopez1102008","steam_id":76561199199124197,"connected_time":1637000000000,"state":"active","ping":74},{"user_id":378,"name":"Pickle Lady","steam_id":76561198418116040,"connected_time":1106000000000,"state":"active","ping":132},{"user_id":361,"name":"craxyt","steam_id":76561198050192689,"connected_time":2246000000000,"state":"active","ping":48},{"user_id":385,"name":"Jolly","steam_id":76561198116357972,"connected_time":715000000000,"state":"active","ping":46},{"user_id":379,"name":"Mr.Pan","steam_id":76561198069030613,"connected_time":1063000000000,"state":"active","ping":84},{"user_id":392,"name":"bob grimnor","steam_id":76561199083601153,"connected_time":310000000000,"state":"active","ping":125},{"user_id":374,"name":"Tostinuim","steam_id":76561198415483382,"connected_time":1570000000000,"state":"active","ping":100},{"user_id":356,"name":"Sanic","steam_id":76561198083124962,"connected_time":3154000000000,"state":"active","ping":79},{"user_id":388,"name":"fox point ranger","steam_id":76561198000765454,"connected_time":588000000000,"state":"active","ping":70},{"user_id":365,"name":"mewtek","steam_id":76561198138599995,"connected_time":2000000000000,"state":"active","ping":63},{"user_id":357,"name":"GlizzLord","steam_id":76561198321010427,"connected_time":3004000000000,"state":"active","ping":173},{"user_id":369,"name":"landogg","steam_id":76561198049000586,"connected_time":1704000000000,"state":"active","ping":47},{"user_id":302,"name":"Risky","steam_id":76561198231029328,"connected_time":5875000000000,"state":"active","ping":55},{"user_id":393,"name":"Nobody","steam_id":76561199352089107,"connected_time":277000000000,"state":"active","ping":59},{"user_id":390,"name":"Artificial Unintelligence","steam_id":76561199056745987,"connected_time":486000000000,"state":"active","ping":93},{"user_id":370,"name":"Athornius","steam_id":76561198282070564,"connected_time":1696000000000,"state":"active","ping":58},{"user_id":373,"name":"DeathSushi","steam_id":76561199156131540,"connected_time":1624000000000,"state":"active","ping":117},{"user_id":376,"name":"zinnk","steam_id":76561198092081825,"connected_time":1276000000000,"state":"active","ping":56},{"user_id":394,"name":"PinguEnjoyer6","steam_id":76561199186723516,"connected_time":236000000000,"state":"active","ping":45},{"user_id":353,"name":"EAT SPIT!","steam_id":76561198096836451,"connected_time":3337000000000,"state":"active","ping":47},{"user_id":368,"name":"RiverMoot","steam_id":76561198081530179,"connected_time":1915000000000,"state":"active","ping":113}]},{"server_id":324,"name":"Uncletopia | Los Angeles | 3 | All Maps","name_short":"lax-3","host":"lax-1.us.uncletopia.com","port":27035,"enabled":true,"region":"us-west","cc":"us","latitude":33.94279,"longitude":-118.41004,"reserved":0,"last_update":"0001-01-01T00:00:00Z","name_a2s":"Uncletopia | Los Angeles | 3 | All Maps","protocol":17,"map":"koth_cascade","folder":"tf","game":"Team Fortress","app_id":440,"player_count":0,"max_players":24,"Bots":0,"server_type":"Dedicated","server_os":"Linux","password":true,"vac":true,"version":"7757534","steam_id":85568392924510198,"keywords":["cp","nocrits","nodmgspread","uncletopia"],"game_id":440,"stv_port":27036,"stv_name":"Uncletopia | Los Angeles | 3 | All Maps | STV","players":null},{"server_id":25,"name":"Uncletopia | Los Angeles | 4 | Stopwatch Beta","name_short":"lax-4","host":"lax-1.us.uncletopia.com","port":27045,"enabled":true,"region":"us-west","cc":"us","latitude":33.94279,"longitude":-118.41004,"reserved":0,"last_update":"0001-01-01T00:00:00Z","name_a2s":"Uncletopia | Los Angeles | 4 | Stopwatch Beta","protocol":17,"map":"pl_swiftwater_final1","folder":"tf","game":"Team Fortress","app_id":440,"player_count":0,"max_players":24,"Bots":0,"server_type":"Dedicated","server_os":"Linux","password":true,"vac":true,"version":"7757534","steam_id":85568392924510199,"keywords":["nocrits","nodmgspread","payload","uncletopia"],"game_id":440,"stv_port":27046,"stv_name":"Uncletopia | Los Angeles | 4 | Stopwatch Beta | STV","players":null},{"server_id":11,"name":"Uncletopia | London | 1 | All Maps","name_short":"lon-1","host":"lon-1.uk.uncletopia.com","port":27015,"enabled":true,"region":"eu","cc":"gb","latitude":51.509865,"longitude":-0.118092,"reserved":0,"last_update":"0001-01-01T00:00:00Z","name_a2s":"Uncletopia | London | 1 | All Maps","protocol":17,"map":"koth_highpass","folder":"tf","game":"Team Fortress","app_id":440,"player_count":0,"max_players":24,"Bots":0,"server_type":"Dedicated","server_os":"Linux","password":true,"vac":true,"version":"7757534","steam_id":85568392924367362,"keywords":["cp","nocrits","nodmgspread","uncletopia"],"game_id":440,"stv_port":27016,"stv_name":"Uncletopia | London | 1 | All Maps | STV","players":null},{"server_id":114,"name":"Uncletopia | London | 2 | All Maps","name_short":"lon-2","host":"lon-1.uk.uncletopia.com","port":27025,"enabled":true,"region":"eu","cc":"gb","latitude":51.509865,"longitude":-0.118092,"reserved":0,"last_update":"0001-01-01T00:00:00Z","name_a2s":"Uncletopia | London | 2 | All Maps","protocol":17,"map":"cp_altitude","folder":"tf","game":"Team Fortress","app_id":440,"player_count":0,"max_players":24,"Bots":0,"server_type":"Dedicated","server_os":"Linux","password":true,"vac":true,"version":"7757534","steam_id":85568392924470941,"keywords":["cp","nocrits","nodmgspread","uncletopia"],"game_id":440,"stv_port":27026,"stv_name":"Uncletopia | London | 2 | All Maps | STV","players":null},{"server_id":320,"name":"Uncletopia | London | 3 | All Maps","name_short":"lon-3","host":"lon-1.uk.uncletopia.com","port":27035,"enabled":true,"region":"eu","cc":"gb","latitude":51.509865,"longitude":-0.118092,"reserved":0,"last_update":"0001-01-01T00:00:00Z","name_a2s":"Uncletopia | London | 3 | All Maps","protocol":17,"map":"pl_enclosure_final","folder":"tf","game":"Team Fortress","app_id":440,"player_count":0,"max_players":24,"Bots":0,"server_type":"Dedicated","server_os":"Linux","password":true,"vac":true,"version":"7757534","steam_id":85568392924510192,"keywords":["nocrits","nodmgspread","payload","uncletopia"],"game_id":440,"stv_port":27036,"stv_name":"Uncletopia | London | 3 | All Maps | STV","players":null},{"server_id":321,"name":"Uncletopia | London | 4 | All Maps","name_short":"lon-4","host":"lon-1.uk.uncletopia.com","port":27045,"enabled":true,"region":"eu","cc":"gb","latitude":51.509865,"longitude":-0.118092,"reserved":0,"last_update":"0001-01-01T00:00:00Z","name_a2s":"Uncletopia | London | 4 | All Maps","protocol":17,"map":"koth_viaduct","folder":"tf","game":"Team Fortress","app_id":440,"player_count":0,"max_players":24,"Bots":0,"server_type":"Dedicated","server_os":"Linux","password":true,"vac":true,"version":"7757534","steam_id":85568392924510193,"keywords":["cp","nocrits","nodmgspread","uncletopia"],"game_id":440,"stv_port":27046,"stv_name":"Uncletopia | London | 4 | All Maps | STV","players":null},{"server_id":21,"name":"Uncletopia | London | 5 | All Maps","name_short":"lon-5","host":"lon-1.uk.uncletopia.com","port":27055,"enabled":true,"region":"eu","cc":"gb","latitude":51.509865,"longitude":-0.118092,"reserved":0,"last_update":"0001-01-01T00:00:00Z","name_a2s":"Uncletopia | London | 5 | All Maps","protocol":17,"map":"koth_viaduct","folder":"tf","game":"Team Fortress","app_id":440,"player_count":0,"max_players":24,"Bots":0,"server_type":"Dedicated","server_os":"Linux","password":true,"vac":true,"version":"7757534","steam_id":85568392924742829,"keywords":["cp","nocrits","nodmgspread","uncletopia"],"game_id":440,"stv_port":27056,"stv_name":"Uncletopia | London | 5 | All Maps | STV","players":null},{"server_id":22,"name":"Uncletopia | London | 6 | All Maps","name_short":"lon-6","host":"lon-1.uk.uncletopia.com","port":27065,"enabled":true,"region":"eu","cc":"gb","latitude":51.509865,"longitude":-0.118092,"reserved":0,"last_update":"0001-01-01T00:00:00Z","name_a2s":"Uncletopia | London | 6 | All Maps","protocol":17,"map":"koth_highpass","folder":"tf","game":"Team Fortress","app_id":440,"player_count":0,"max_players":24,"Bots":0,"server_type":"Dedicated","server_os":"Linux","password":true,"vac":true,"version":"7757534","steam_id":85568392924742830,"keywords":["cp","nocrits","nodmgspread","uncletopia"],"game_id":440,"stv_port":27066,"stv_name":"Uncletopia | London | 6 | All Maps | STV","players":null},{"server_id":40,"name":"Uncletopia | London | 7 | No Payload","name_short":"lon-7","host":"lon-1.uk.uncletopia.com","port":27075,"enabled":true,"region":"eu","cc":"gb","latitude":51.509865,"longitude":-0.118092,"reserved":0,"last_update":"0001-01-01T00:00:00Z","name_a2s":"Uncletopia | London | 7 | No Payload","protocol":17,"map":"koth_harvest_final","folder":"tf","game":"Team Fortress","app_id":440,"player_count":0,"max_players":24,"Bots":0,"server_type":"Dedicated","server_os":"Linux","password":true,"vac":true,"version":"7757534","steam_id":85568392924964314,"keywords":["cp","nocrits","nodmgspread","uncletopia"],"game_id":440,"stv_port":27076,"stv_name":"Uncletopia | London | 7 | No Payload | STV","players":null},{"server_id":41,"name":"Uncletopia | London | 8 | Community","name_short":"lon-8","host":"lon-1.uk.uncletopia.com","port":27085,"enabled":true,"region":"eu","cc":"gb","latitude":51.509865,"longitude":-0.118092,"reserved":0,"last_update":"0001-01-01T00:00:00Z","name_a2s":"Uncletopia | London | 8 | Community","protocol":17,"map":"workshop/pl_highwood_b13.ugc1769496557","folder":"tf","game":"Team Fortress","app_id":440,"player_count":0,"max_players":24,"Bots":0,"server_type":"Dedicated","server_os":"Linux","password":true,"vac":true,"version":"7757534","steam_id":85568392924964315,"keywords":["nocrits","nodmgspread","payload","uncletopia"],"game_id":440,"stv_port":27086,"stv_name":"Uncletopia | London | 8 | Community | STV","players":null},{"server_id":300,"name":"Uncletopia | Montréal | 1 | All Maps","name_short":"mtl-1","host":"mtl-1.ca.uncletopia.com","port":27015,"enabled":true,"region":"us-east","cc":"ca","latitude":45.50889,"longitude":-73.56167,"reserved":0,"last_update":"0001-01-01T00:00:00Z","name_a2s":"Uncletopia | Montréal | 1 | All Maps","protocol":17,"map":"koth_viaduct","folder":"tf","game":"Team Fortress","app_id":440,"player_count":23,"max_players":24,"Bots":0,"server_type":"Dedicated","server_os":"Linux","password":true,"vac":true,"version":"7757534","steam_id":85568392924500087,"keywords":["cp","nocrits","nodmgspread","uncletopia"],"game_id":440,"stv_port":27016,"stv_name":"Uncletopia | Montréal | 1 | All Maps | STV","players":[{"user_id":154,"name":"Ellis","steam_id":76561198993634489,"connected_time":931000000000,"state":"active","ping":120},{"user_id":146,"name":"Gilgamesh","steam_id":76561198317113179,"connected_time":1450000000000,"state":"active","ping":75},{"user_id":142,"name":"Silvercoat's Stargazer","steam_id":76561198399525329,"connected_time":1679000000000,"state":"active","ping":73},{"user_id":136,"name":"Gay Cowboy","steam_id":76561198151549658,"connected_time":2389000000000,"state":"active","ping":79},{"user_id":127,"name":"faze pantalla","steam_id":76561198250215734,"connected_time":2710000000000,"state":"active","ping":87},{"user_id":144,"name":"merkure","steam_id":76561198213385439,"connected_time":1567000000000,"state":"active","ping":102},{"user_id":143,"name":"The Winter Medic","steam_id":76561198197112922,"connected_time":1637000000000,"state":"active","ping":72},{"user_id":128,"name":"faze waadden","steam_id":76561198325569425,"connected_time":2694000000000,"state":"active","ping":75},{"user_id":134,"name":"( •_•)","steam_id":76561198256910303,"connected_time":2485000000000,"state":"active","ping":85},{"user_id":170,"name":"AU7884","steam_id":76561199070853295,"connected_time":407000000000,"state":"active","ping":127},{"user_id":155,"name":"alexander the just ok","steam_id":76561199256886895,"connected_time":840000000000,"state":"active","ping":185},{"user_id":149,"name":"Kyle","steam_id":76561198105307551,"connected_time":1073000000000,"state":"active","ping":63},{"user_id":150,"name":"-ˋˏkitˎˊ-","steam_id":76561198150257490,"connected_time":1038000000000,"state":"active","ping":125},{"user_id":151,"name":"ProjectSinclair","steam_id":76561198927854184,"connected_time":1035000000000,"state":"active","ping":85},{"user_id":156,"name":"El Duderino","steam_id":76561198084404539,"connected_time":826000000000,"state":"active","ping":90},{"user_id":171,"name":"stupi","steam_id":76561199020374967,"connected_time":291000000000,"state":"active","ping":122},{"user_id":133,"name":"Valenmirrus","steam_id":76561198849526367,"connected_time":2502000000000,"state":"active","ping":98},{"user_id":159,"name":"Heavy Lobster","steam_id":76561199437953754,"connected_time":657000000000,"state":"active","ping":102},{"user_id":173,"name":"Farseer Ulwithy","steam_id":76561197965179245,"connected_time":248000000000,"state":"active","ping":104},{"user_id":161,"name":"Thot Police","steam_id":76561198084299100,"connected_time":647000000000,"state":"active","ping":56},{"user_id":162,"name":"White-_-Rose","steam_id":76561198084088891,"connected_time":640000000000,"state":"active","ping":54},{"user_id":163,"name":"demoknight tf2","steam_id":76561198070393998,"connected_time":592000000000,"state":"active","ping":46},{"user_id":175,"name":"toastman","steam_id":76561198207073088,"connected_time":109000000000,"state":"active","ping":86}]},{"server_id":301,"name":"Uncletopia | Montréal | 2 | All Maps","name_short":"mtl-2","host":"mtl-1.ca.uncletopia.com","port":27025,"enabled":true,"region":"us-east","cc":"ca","latitude":45.50889,"longitude":-73.56167,"reserved":0,"last_update":"0001-01-01T00:00:00Z","name_a2s":"Uncletopia | Montréal | 2 | All Maps","protocol":17,"map":"cp_altitude","folder":"tf","game":"Team Fortress","app_id":440,"player_count":0,"max_players":24,"Bots":0,"server_type":"Dedicated","server_os":"Linux","password":true,"vac":true,"version":"7757534","steam_id":85568392924500088,"keywords":["cp","nocrits","nodmgspread","uncletopia"],"game_id":440,"stv_port":27026,"stv_name":"Uncletopia | Montréal | 2 | All Maps | STV","players":null},{"server_id":302,"name":"Uncletopia | Montréal | 3 | All Maps","name_short":"mtl-3","host":"mtl-1.ca.uncletopia.com","port":27035,"enabled":true,"region":"us-east","cc":"ca","latitude":45.50889,"longitude":-73.56167,"reserved":0,"last_update":"0001-01-01T00:00:00Z","name_a2s":"Uncletopia | Montréal | 3 | All Maps","protocol":17,"map":"cp_mountainlab","folder":"tf","game":"Team Fortress","app_id":440,"player_count":0,"max_players":24,"Bots":0,"server_type":"Dedicated","server_os":"Linux","password":true,"vac":true,"version":"7757534","steam_id":85568392924500089,"keywords":["cp","nocrits","nodmgspread","uncletopia"],"game_id":440,"stv_port":27036,"stv_name":"Uncletopia | Montréal | 3 | All Maps | STV","players":null},{"server_id":303,"name":"Uncletopia | Montréal | 4 | No Payload","name_short":"mtl-4","host":"mtl-1.ca.uncletopia.com","port":27045,"enabled":true,"region":"us-east","cc":"ca","latitude":45.50889,"longitude":-73.56167,"reserved":0,"last_update":"0001-01-01T00:00:00Z","name_a2s":"Uncletopia | Montréal | 4 | No Payload","protocol":17,"map":"cp_gravelpit","folder":"tf","game":"Team Fortress","app_id":440,"player_count":0,"max_players":24,"Bots":0,"server_type":"Dedicated","server_os":"Linux","password":true,"vac":true,"version":"7757534","steam_id":85568392924500090,"keywords":["cp","nocrits","nodmgspread","uncletopia"],"game_id":440,"stv_port":27046,"stv_name":"Uncletopia | Montréal | 4 | No Payload | STV","players":null},{"server_id":13,"name":"Uncletopia | New York City | 1 | All Maps","name_short":"nyc-1","host":"nyc-1.us.uncletopia.com","port":27015,"enabled":true,"region":"us-east","cc":"us","latitude":40.73061,"longitude":-73.93524,"reserved":0,"last_update":"0001-01-01T00:00:00Z","name_a2s":"Uncletopia | New York City | 1 | All Maps","protocol":17,"map":"pl_upward","folder":"tf","game":"Team Fortress","app_id":440,"player_count":24,"max_players":24,"Bots":0,"server_type":"Dedicated","server_os":"Linux","password":true,"vac":true,"version":"7757534","steam_id":85568392924469993,"keywords":["nocrits","nodmgspread","payload","uncletopia"],"game_id":440,"stv_port":27016,"stv_name":"Uncletopia | New York City | 1 | All Maps | STV","players":[{"user_id":471,"name":"The slattiator","steam_id":76561198084422657,"connected_time":3181000000000,"state":"active","ping":107},{"user_id":506,"name":"Punkin","steam_id":76561198334301755,"connected_time":843000000000,"state":"active","ping":58},{"user_id":498,"name":"Monkey","steam_id":76561198031015186,"connected_time":1490000000000,"state":"active","ping":66},{"user_id":494,"name":"||:♩♩♩♪:|| Opplydead","steam_id":76561198028630334,"connected_time":1582000000000,"state":"active","ping":117},{"user_id":507,"name":"Braamklauw","steam_id":76561198283287697,"connected_time":704000000000,"state":"active","ping":151},{"user_id":478,"name":"SuperFresh","steam_id":76561198200723198,"connected_time":2920000000000,"state":"active","ping":53},{"user_id":502,"name":"Pubby","steam_id":76561198164984732,"connected_time":1242000000000,"state":"active","ping":97},{"user_id":437,"name":"Waffle Wannabe","steam_id":76561198064510650,"connected_time":6250000000000,"state":"active","ping":44},{"user_id":495,"name":"chroma","steam_id":76561198050188632,"connected_time":1576000000000,"state":"active","ping":46},{"user_id":487,"name":"Gerald Jay Sussman","steam_id":76561198114515026,"connected_time":1749000000000,"state":"active","ping":44},{"user_id":513,"name":"Pozyomka","steam_id":76561198086331015,"connected_time":391000000000,"state":"active","ping":33},{"user_id":496,"name":"Dovid65","steam_id":76561199277530814,"connected_time":1554000000000,"state":"active","ping":130},{"user_id":508,"name":"Ramadan Steve","steam_id":76561198138568488,"connected_time":653000000000,"state":"active","ping":56},{"user_id":509,"name":"chiswola","steam_id":76561198046920142,"connected_time":644000000000,"state":"active","ping":102},{"user_id":514,"name":"Egpta","steam_id":76561198237840238,"connected_time":343000000000,"state":"active","ping":60},{"user_id":490,"name":"deech","steam_id":76561198066429444,"connected_time":1710000000000,"state":"active","ping":56},{"user_id":505,"name":"old slimey ichabod","steam_id":76561198043900518,"connected_time":875000000000,"state":"active","ping":62},{"user_id":511,"name":"drain.pablo.2005","steam_id":76561198303963691,"connected_time":628000000000,"state":"active","ping":73},{"user_id":512,"name":"Mr.Z","steam_id":76561199251422541,"connected_time":623000000000,"state":"active","ping":113},{"user_id":500,"name":"ItsRoy","steam_id":76561198119525485,"connected_time":1437000000000,"state":"active","ping":42},{"user_id":501,"name":"Alc-do","steam_id":76561198277363726,"connected_time":1261000000000,"state":"active","ping":130},{"user_id":491,"name":"Person","steam_id":76561198093244204,"connected_time":1687000000000,"state":"active","ping":63},{"user_id":492,"name":"dicksouls26","steam_id":76561198838196266,"connected_time":1672000000000,"state":"active","ping":66},{"user_id":499,"name":"01000101","steam_id":76561198027981956,"connected_time":1488000000000,"state":"active","ping":99}]},{"server_id":14,"name":"Uncletopia | New York City | 2 | All Maps","name_short":"nyc-2","host":"nyc-1.us.uncletopia.com","port":27025,"enabled":true,"region":"us-east","cc":"us","latitude":40.73061,"longitude":-73.93524,"reserved":0,"last_update":"0001-01-01T00:00:00Z","name_a2s":"Uncletopia | New York City | 2 | All Maps","protocol":17,"map":"koth_viaduct","folder":"tf","game":"Team Fortress","app_id":440,"player_count":0,"max_players":24,"Bots":0,"server_type":"Dedicated","server_os":"Linux","password":true,"vac":true,"version":"7757534","steam_id":85568392924469994,"keywords":["cp","nocrits","nodmgspread","uncletopia"],"game_id":440,"stv_port":27026,"stv_name":"Uncletopia | New York City | 2 | All Maps | STV","players":null},{"server_id":15,"name":"Uncletopia | New York City | 3 | Stopwatch Beta","name_short":"nyc-3","host":"nyc-1.us.uncletopia.com","port":27035,"enabled":true,"region":"us-east","cc":"us","latitude":40.73061,"longitude":-73.93524,"reserved":0,"last_update":"0001-01-01T00:00:00Z","name_a2s":"Uncletopia | New York City | 3 | Stopwatch Beta","protocol":17,"map":"workshop/koth_clearcut_b15.ugc2107050255","folder":"tf","game":"Team Fortress","app_id":440,"player_count":0,"max_players":24,"Bots":0,"server_type":"Dedicated","server_os":"Linux","password":true,"vac":true,"version":"7757534","steam_id":85568392924742820,"keywords":["cp","nocrits","nodmgspread","uncletopia"],"game_id":440,"stv_port":27036,"stv_name":"Uncletopia | New York City | 3 | Stopwatch Beta | STV","players":null},{"server_id":16,"name":"Uncletopia | New York City | 4 | Community","name_short":"nyc-4","host":"nyc-1.us.uncletopia.com","port":27045,"enabled":true,"region":"us-east","cc":"us","latitude":40.73061,"longitude":-73.93524,"reserved":0,"last_update":"0001-01-01T00:00:00Z","name_a2s":"Uncletopia | New York City | 4 | Community","protocol":17,"map":"workshop/pl_barnblitz_pro7.ugc582280235","folder":"tf","game":"Team Fortress","app_id":440,"player_count":24,"max_players":24,"Bots":0,"server_type":"Dedicated","server_os":"Linux","password":true,"vac":true,"version":"7757534","steam_id":85568392924742821,"keywords":["nocrits","nodmgspread","payload","uncletopia"],"game_id":440,"stv_port":27046,"stv_name":"Uncletopia | New York City | 4 | Community | STV","players":[{"user_id":211,"name":"your local forecast","steam_id":76561198042243083,"connected_time":839000000000,"state":"active","ping":46},{"user_id":217,"name":"kenzen","steam_id":76561198188380263,"connected_time":647000000000,"state":"active","ping":86},{"user_id":168,"name":"Sexual Butt","steam_id":76561198102241399,"connected_time":4369000000000,"state":"active","ping":82},{"user_id":213,"name":"twitch.tv/frimpimy","steam_id":76561198142605675,"connected_time":809000000000,"state":"active","ping":77},{"user_id":203,"name":"a little teapot","steam_id":76561198017131568,"connected_time":1372000000000,"state":"active","ping":70},{"user_id":187,"name":"superx","steam_id":76561198044976613,"connected_time":2945000000000,"state":"active","ping":58},{"user_id":75,"name":"Critical","steam_id":76561198442729982,"connected_time":11302000000000,"state":"active","ping":89},{"user_id":189,"name":"Sergeant Joker #savetf2","steam_id":76561198854616604,"connected_time":2459000000000,"state":"active","ping":60},{"user_id":206,"name":"Gustavo Fring","steam_id":76561198132807405,"connected_time":1178000000000,"state":"active","ping":84},{"user_id":208,"name":"Notation","steam_id":76561198119509319,"connected_time":1093000000000,"state":"active","ping":70},{"user_id":219,"name":"Snowy Squill","steam_id":76561198073504207,"connected_time":290000000000,"state":"active","ping":151},{"user_id":212,"name":"The Dork Lord","steam_id":76561197998486407,"connected_time":837000000000,"state":"active","ping":57},{"user_id":214,"name":"motherfudger","steam_id":76561198114959385,"connected_time":761000000000,"state":"active","ping":64},{"user_id":139,"name":"🅜🅔🅔🅚🅢🅣🅔\ufffd\ufffd\ufffd","steam_id":76561197999748343,"connected_time":6596000000000,"state":"active","ping":83},{"user_id":140,"name":"Blitzy","steam_id":76561198149472890,"connected_time":6588000000000,"state":"active","ping":96},{"user_id":194,"name":"BigOrca54","steam_id":76561198181360271,"connected_time":2298000000000,"state":"active","ping":83},{"user_id":207,"name":"ComputeCore167","steam_id":76561198301250353,"connected_time":1143000000000,"state":"active","ping":144},{"user_id":220,"name":"Alice in Rubberland","steam_id":76561198087328346,"connected_time":289000000000,"state":"active","ping":71},{"user_id":200,"name":"cube","steam_id":76561197991759721,"connected_time":1705000000000,"state":"active","ping":58},{"user_id":202,"name":"my tomach hurt 100","steam_id":76561198046111695,"connected_time":1380000000000,"state":"active","ping":86},{"user_id":180,"name":"seems_fishy","steam_id":76561199028846656,"connected_time":3448000000000,"state":"active","ping":51},{"user_id":182,"name":"bug o1","steam_id":76561198126386686,"connected_time":3338000000000,"state":"active","ping":68},{"user_id":204,"name":"A Dozen Rats","steam_id":76561198272272553,"connected_time":1289000000000,"state":"active","ping":83},{"user_id":218,"name":"Peepster","steam_id":76561198297854733,"connected_time":614000000000,"state":"active","ping":88}]},{"server_id":142,"name":"Uncletopia | São Paulo | 1 | All Maps","name_short":"sao-1","host":"sao-1.br.uncletopia.com","port":27015,"enabled":true,"region":"sa","cc":"br","latitude":-23.533773,"longitude":-46.62529,"reserved":0,"last_update":"0001-01-01T00:00:00Z","name_a2s":"Uncletopia | São Paulo | 1 | All Maps","protocol":17,"map":"koth_lakeside_final","folder":"tf","game":"Team Fortress","app_id":440,"player_count":0,"max_players":24,"Bots":0,"server_type":"Dedicated","server_os":"Linux","password":true,"vac":true,"version":"7757534","steam_id":85568392924469996,"keywords":["cp","nocrits","nodmgspread","uncletopia"],"game_id":440,"stv_port":27016,"stv_name":"Uncletopia | São Paulo | 1 | All Maps | STV","players":null},{"server_id":143,"name":"Uncletopia | São Paulo | 2 | All Maps","name_short":"sao-2","host":"sao-2.br.uncletopia.com","port":27015,"enabled":true,"region":"sa","cc":"br","latitude":-23.533773,"longitude":-46.62529,"reserved":0,"last_update":"0001-01-01T00:00:00Z","name_a2s":"Uncletopia | São Paulo | 2 | All Maps","protocol":17,"map":"koth_viaduct","folder":"tf","game":"Team Fortress","app_id":440,"player_count":0,"max_players":24,"Bots":0,"server_type":"Dedicated","server_os":"Linux","password":true,"vac":true,"version":"7757534","steam_id":85568392924485349,"keywords":["cp","nocrits","nodmgspread","uncletopia"],"game_id":440,"stv_port":27016,"stv_name":"Uncletopia | São Paulo | 2 | All Maps | STV","players":null},{"server_id":7,"name":"Uncletopia | Seattle | 1 | All Maps","name_short":"sea-1","host":"sea-1.us.uncletopia.com","port":27015,"enabled":true,"region":"us-west","cc":"us","latitude":47.608013,"longitude":-122.33517,"reserved":0,"last_update":"0001-01-01T00:00:00Z","name_a2s":"Uncletopia | Seattle | 1 | All Maps","protocol":17,"map":"ctf_2fort","folder":"tf","game":"Team Fortress","app_id":440,"player_count":24,"max_players":24,"Bots":0,"server_type":"Dedicated","server_os":"Linux","password":true,"vac":true,"version":"7757534","steam_id":85568392924469997,"keywords":["ctf","nocrits","nodmgspread","uncletopia"],"game_id":440,"stv_port":27016,"stv_name":"Uncletopia | Seattle | 1 | All Maps | STV","players":[{"user_id":634,"name":"Cresty","steam_id":76561199118643461,"connected_time":2102000000000,"state":"active","ping":64},{"user_id":653,"name":"toes","steam_id":76561198221151676,"connected_time":916000000000,"state":"active","ping":46},{"user_id":665,"name":"Amogous Supreme","steam_id":76561198025476774,"connected_time":31000000000,"state":"active","ping":73},{"user_id":632,"name":"船尾","steam_id":76561198128764422,"connected_time":2184000000000,"state":"active","ping":34},{"user_id":652,"name":"jawnymac","steam_id":76561198179529599,"connected_time":960000000000,"state":"active","ping":63},{"user_id":659,"name":"SvicidalBug","steam_id":76561198221390504,"connected_time":366000000000,"state":"active","ping":71},{"user_id":628,"name":"trackpad gaming | f2p","steam_id":76561198840414371,"connected_time":2400000000000,"state":"active","ping":50},{"user_id":637,"name":"Toaster Oven (ANGRY BIRD GOD OF","steam_id":76561199075777687,"connected_time":1911000000000,"state":"active","ping":82},{"user_id":595,"name":"dust | she/it","steam_id":76561198045218909,"connected_time":5216000000000,"state":"active","ping":45},{"user_id":657,"name":"robertJMP","steam_id":76561199066260919,"connected_time":560000000000,"state":"active","ping":70},{"user_id":639,"name":"Papa Panda","steam_id":76561198159061475,"connected_time":1849000000000,"state":"active","ping":72},{"user_id":660,"name":"Casual Vore","steam_id":76561197999045683,"connected_time":362000000000,"state":"active","ping":32},{"user_id":636,"name":"Uncle Feathers McGraw","steam_id":76561198046442707,"connected_time":1913000000000,"state":"active","ping":46},{"user_id":663,"name":"skuz pt. 2","steam_id":76561198452437566,"connected_time":299000000000,"state":"active","ping":126},{"user_id":656,"name":"mooney","steam_id":76561199110622484,"connected_time":618000000000,"state":"active","ping":75},{"user_id":664,"name":"lolgamer247","steam_id":76561198974645534,"connected_time":105000000000,"state":"active","ping":73},{"user_id":600,"name":"shy guy","steam_id":76561198151246059,"connected_time":4579000000000,"state":"active","ping":61},{"user_id":624,"name":"mike, buying 20 barefoots","steam_id":76561198225411004,"connected_time":3106000000000,"state":"active","ping":60},{"user_id":641,"name":"Man","steam_id":76561198274547639,"connected_time":1814000000000,"state":"active","ping":82},{"user_id":616,"name":"\\m/ Cyfun (she/it)","steam_id":76561197960882221,"connected_time":3811000000000,"state":"active","ping":85},{"user_id":654,"name":"Prophet","steam_id":76561198134948582,"connected_time":898000000000,"state":"active","ping":203},{"user_id":643,"name":"harmless_nerd","steam_id":76561199470510373,"connected_time":1790000000000,"state":"active","ping":92},{"user_id":651,"name":"Joseph","steam_id":76561198056950963,"connected_time":1178000000000,"state":"active","ping":62},{"user_id":574,"name":"lili","steam_id":76561199391478575,"connected_time":6772000000000,"state":"active","ping":76}]},{"server_id":119,"name":"Uncletopia | Seattle | 2 | All Maps","name_short":"sea-2","host":"sea-1.us.uncletopia.com","port":27025,"enabled":true,"region":"us-west","cc":"us","latitude":47.608013,"longitude":-122.33517,"reserved":0,"last_update":"0001-01-01T00:00:00Z","name_a2s":"Uncletopia | Seattle | 2 | All Maps","protocol":17,"map":"koth_highpass","folder":"tf","game":"Team Fortress","app_id":440,"player_count":24,"max_players":24,"Bots":0,"server_type":"Dedicated","server_os":"Linux","password":true,"vac":true,"version":"7757534","steam_id":85568392924469998,"keywords":["cp","nocrits","nodmgspread","uncletopia"],"game_id":440,"stv_port":27026,"stv_name":"Uncletopia | Seattle | 2 | All Maps | STV","players":[{"user_id":377,"name":"weeb","steam_id":76561199021791121,"connected_time":1343000000000,"state":"active","ping":50},{"user_id":382,"name":"Korbi.","steam_id":76561198355711373,"connected_time":926000000000,"state":"active","ping":68},{"user_id":390,"name":"squashbone","steam_id":76561197999466442,"connected_time":13000000000,"state":"active","ping":50},{"user_id":373,"name":"Just_Another_Weeb","steam_id":76561198378496342,"connected_time":1554000000000,"state":"active","ping":136},{"user_id":355,"name":"Five","steam_id":76561198026640473,"connected_time":2652000000000,"state":"active","ping":55},{"user_id":388,"name":"MisterManne","steam_id":76561198106598600,"connected_time":319000000000,"state":"active","ping":56},{"user_id":379,"name":"mub","steam_id":76561197961943948,"connected_time":1142000000000,"state":"active","ping":45},{"user_id":385,"name":"1dk","steam_id":76561198135104742,"connected_time":764000000000,"state":"active","ping":45},{"user_id":356,"name":"TrashMan","steam_id":76561198064860110,"connected_time":2645000000000,"state":"active","ping":111},{"user_id":386,"name":"PyroTechno","steam_id":76561198060929872,"connected_time":747000000000,"state":"active","ping":116},{"user_id":342,"name":"ChromeOwl","steam_id":76561198953786715,"connected_time":3281000000000,"state":"active","ping":55},{"user_id":375,"name":"demomanfan2008","steam_id":76561198077030486,"connected_time":1520000000000,"state":"active","ping":70},{"user_id":326,"name":"Toastedtoast222","steam_id":76561198120756409,"connected_time":4459000000000,"state":"active","ping":53},{"user_id":350,"name":"Mert","steam_id":76561199122059102,"connected_time":2944000000000,"state":"active","ping":92},{"user_id":383,"name":"Thanks Ants","steam_id":76561197966221018,"connected_time":905000000000,"state":"active","ping":53},{"user_id":360,"name":"what is","steam_id":76561198329367716,"connected_time":2355000000000,"state":"active","ping":89},{"user_id":384,"name":"Superbacon24","steam_id":76561198121223443,"connected_time":882000000000,"state":"active","ping":66},{"user_id":314,"name":"C U Next Tuesday","steam_id":76561198058493492,"connected_time":5082000000000,"state":"active","ping":55},{"user_id":367,"name":"Dali","steam_id":76561198077593486,"connected_time":2016000000000,"state":"active","ping":99},{"user_id":344,"name":"♥ Milo Stefferson ♥","steam_id":76561198056269538,"connected_time":3134000000000,"state":"active","ping":58},{"user_id":303,"name":"Lambchop","steam_id":76561198043900363,"connected_time":5987000000000,"state":"active","ping":79},{"user_id":368,"name":"Bread Dad","steam_id":76561198088284226,"connected_time":2003000000000,"state":"active","ping":42},{"user_id":348,"name":"chaos","steam_id":76561198055462404,"connected_time":3049000000000,"state":"active","ping":69},{"user_id":376,"name":"Dragonsofdra","steam_id":76561198253369292,"connected_time":1509000000000,"state":"active","ping":100}]},{"server_id":406,"name":"Uncletopia | Seattle | 3 | Stopwatch Beta","name_short":"sea-3","host":"sea-1.us.uncletopia.com","port":27035,"enabled":true,"region":"us-west","cc":"us","latitude":47.608013,"longitude":-122.33517,"reserved":0,"last_update":"0001-01-01T00:00:00Z","name_a2s":"Uncletopia | Seattle | 3 | Stopwatch Beta","protocol":17,"map":"pl_swiftwater_final1","folder":"tf","game":"Team Fortress","app_id":440,"player_count":0,"max_players":24,"Bots":0,"server_type":"Dedicated","server_os":"Linux","password":true,"vac":true,"version":"7757534","steam_id":85568392924515217,"keywords":["nocrits","nodmgspread","payload","uncletopia"],"game_id":440,"stv_port":27036,"stv_name":"Uncletopia | Seattle | 3 | Stopwatch Beta | STV","players":null},{"server_id":17,"name":"Uncletopia | San Francisco | 1 | All Maps","name_short":"sfo-1","host":"sfo-1.us.uncletopia.com","port":27015,"enabled":true,"region":"us-west","cc":"us","latitude":37.77397,"longitude":-122.4313,"reserved":0,"last_update":"0001-01-01T00:00:00Z","name_a2s":"Uncletopia | San Francisco | 1 | All Maps","protocol":17,"map":"cp_sunshine","folder":"tf","game":"Team Fortress","app_id":440,"player_count":24,"max_players":24,"Bots":0,"server_type":"Dedicated","server_os":"Linux","password":true,"vac":true,"version":"7757534","steam_id":85568392924469999,"keywords":["cp","nocrits","nodmgspread","uncletopia"],"game_id":440,"stv_port":27016,"stv_name":"Uncletopia | San Francisco | 1 | All Maps | STV","players":[{"user_id":258,"name":"solitaire","steam_id":76561198964025682,"connected_time":1341000000000,"state":"active","ping":55},{"user_id":266,"name":"Aux","steam_id":76561199091651065,"connected_time":374000000000,"state":"active","ping":49},{"user_id":263,"name":"John Wick's puppy","steam_id":76561198064662875,"connected_time":848000000000,"state":"active","ping":50},{"user_id":250,"name":"Uh Oh Bananas","steam_id":76561198124664626,"connected_time":1819000000000,"state":"active","ping":55},{"user_id":251,"name":"AoD  Pyro","steam_id":76561198312228050,"connected_time":1799000000000,"state":"active","ping":113},{"user_id":214,"name":"Terra","steam_id":76561198091832353,"connected_time":3845000000000,"state":"active","ping":107},{"user_id":255,"name":"kornelius korn","steam_id":76561199228839582,"connected_time":1725000000000,"state":"active","ping":53},{"user_id":260,"name":"Professor Peppermint","steam_id":76561198184017082,"connected_time":1034000000000,"state":"active","ping":87},{"user_id":202,"name":"Flyingcat9000","steam_id":76561198179561797,"connected_time":4191000000000,"state":"active","ping":30},{"user_id":206,"name":"transgender is like ferrari","steam_id":76561199023017383,"connected_time":4027000000000,"state":"active","ping":129},{"user_id":207,"name":"Xxbussyboi69xx","steam_id":76561199122336067,"connected_time":4018000000000,"state":"active","ping":114},{"user_id":270,"name":"ScoutBox","steam_id":76561198111539895,"connected_time":290000000000,"state":"active","ping":58},{"user_id":253,"name":"Egghead","steam_id":76561198159723876,"connected_time":1782000000000,"state":"active","ping":156},{"user_id":179,"name":"⚙Nebula⚙","steam_id":76561198093148959,"connected_time":6933000000000,"state":"active","ping":99},{"user_id":272,"name":"Agent Q","steam_id":76561198830829003,"connected_time":245000000000,"state":"active","ping":84},{"user_id":273,"name":"Well-done steak w/ ketchup","steam_id":76561197993151595,"connected_time":244000000000,"state":"active","ping":71},{"user_id":277,"name":"iivy","steam_id":76561198068464819,"connected_time":44000000000,"state":"active","ping":72},{"user_id":229,"name":"happer","steam_id":76561198018252253,"connected_time":2999000000000,"state":"active","ping":55},{"user_id":262,"name":"Drew","steam_id":76561198018449076,"connected_time":932000000000,"state":"active","ping":86},{"user_id":276,"name":"mentos14","steam_id":76561198097993629,"connected_time":83000000000,"state":"active","ping":62},{"user_id":274,"name":"oToqd","steam_id":76561198389063713,"connected_time":230000000000,"state":"active","ping":84},{"user_id":231,"name":"jimmy outlaw","steam_id":76561198070380402,"connected_time":2862000000000,"state":"active","ping":95},{"user_id":232,"name":"Bacon","steam_id":76561198800334545,"connected_time":2831000000000,"state":"active","ping":58},{"user_id":275,"name":"THIRDPIERCE","steam_id":76561198405366314,"connected_time":220000000000,"state":"active","ping":104}]},{"server_id":18,"name":"Uncletopia | San Francisco | 2 | All Maps","name_short":"sfo-2","host":"sfo-1.us.uncletopia.com","port":27025,"enabled":true,"region":"us-west","cc":"us","latitude":37.77397,"longitude":-122.4313,"reserved":0,"last_update":"0001-01-01T00:00:00Z","name_a2s":"Uncletopia | San Francisco | 2 | All Maps","protocol":17,"map":"pl_badwater","folder":"tf","game":"Team Fortress","app_id":440,"player_count":24,"max_players":24,"Bots":0,"server_type":"Dedicated","server_os":"Linux","password":true,"vac":true,"version":"7757534","steam_id":85568392924470000,"keywords":["nocrits","nodmgspread","payload","uncletopia"],"game_id":440,"stv_port":27026,"stv_name":"Uncletopia | San Francisco | 2 | All Maps | STV","players":[{"user_id":169,"name":"Horse","steam_id":76561199112075552,"connected_time":4152000000000,"state":"active","ping":110},{"user_id":223,"name":"Aviyarn","steam_id":76561199074194652,"connected_time":147000000000,"state":"active","ping":145},{"user_id":165,"name":"Flubdy_","steam_id":76561198073338521,"connected_time":4180000000000,"state":"active","ping":89},{"user_id":182,"name":"Butterfly Pancakes","steam_id":76561198286158414,"connected_time":2800000000000,"state":"active","ping":65},{"user_id":224,"name":"snowshoe","steam_id":76561199476816590,"connected_time":109000000000,"state":"active","ping":90},{"user_id":212,"name":"e_the_cat","steam_id":76561198214264483,"connected_time":987000000000,"state":"active","ping":80},{"user_id":209,"name":"Bony","steam_id":76561199001748822,"connected_time":1094000000000,"state":"active","ping":52},{"user_id":216,"name":"Speedycat","steam_id":76561198024821259,"connected_time":589000000000,"state":"active","ping":70},{"user_id":120,"name":"tie dye die guy","steam_id":76561198049845337,"connected_time":6817000000000,"state":"active","ping":85},{"user_id":179,"name":"ketsu","steam_id":76561197966171554,"connected_time":3168000000000,"state":"active","ping":175},{"user_id":225,"name":"Super Rad!","steam_id":76561197961107982,"connected_time":97000000000,"state":"active","ping":107},{"user_id":110,"name":"❤ Ashley ❤","steam_id":76561198056428303,"connected_time":7780000000000,"state":"active","ping":49},{"user_id":188,"name":"Dimm","steam_id":76561198040978892,"connected_time":2396000000000,"state":"active","ping":113},{"user_id":228,"name":"2xDoomed","steam_id":76561199023504499,"connected_time":20000000000,"state":"active","ping":89},{"user_id":227,"name":"Cinna Mon","steam_id":76561198005840633,"connected_time":84000000000,"state":"active","ping":70},{"user_id":220,"name":"BIG GULP","steam_id":76561198106429468,"connected_time":558000000000,"state":"active","ping":69},{"user_id":214,"name":"H.","steam_id":76561198074951179,"connected_time":790000000000,"state":"active","ping":68},{"user_id":112,"name":"self sufficient kitten","steam_id":76561197960592612,"connected_time":7460000000000,"state":"active","ping":63},{"user_id":229,"name":"JohnnyGitGud","steam_id":76561198401455467,"connected_time":11000000000,"state":"active","ping":70},{"user_id":198,"name":"ur getting frog","steam_id":76561198880773196,"connected_time":1541000000000,"state":"active","ping":83},{"user_id":177,"name":"Dop_Pop_Bop","steam_id":76561198803110941,"connected_time":3410000000000,"state":"active","ping":73},{"user_id":191,"name":"Filthy_Casual","steam_id":76561199389602395,"connected_time":2326000000000,"state":"active","ping":111},{"user_id":221,"name":"lshleo","steam_id":76561198366975960,"connected_time":533000000000,"state":"active","ping":186},{"user_id":222,"name":"Nibotshooter","steam_id":76561199284825579,"connected_time":327000000000,"state":"active","ping":109}]},{"server_id":19,"name":"Uncletopia | San Francisco | 3 | Stopwatch Beta","name_short":"sfo-3","host":"sfo-1.us.uncletopia.com","port":27035,"enabled":true,"region":"us-west","cc":"us","latitude":37.77397,"longitude":-122.4313,"reserved":0,"last_update":"0001-01-01T00:00:00Z","name_a2s":"Uncletopia | San Francisco | 3 | Stopwatch Beta","protocol":17,"map":"koth_lakeside_final","folder":"tf","game":"Team Fortress","app_id":440,"player_count":0,"max_players":24,"Bots":0,"server_type":"Dedicated","server_os":"Linux","password":true,"vac":true,"version":"7757534","steam_id":85568392924742824,"keywords":["cp","nocrits","nodmgspread","uncletopia"],"game_id":440,"stv_port":27036,"stv_name":"Uncletopia | San Francisco | 3 | Stopwatch Beta | STV","players":null},{"server_id":20,"name":"Uncletopia | San Francisco | 4 | Community","name_short":"sfo-4","host":"sfo-1.us.uncletopia.com","port":27045,"enabled":true,"region":"us-west","cc":"us","latitude":37.77397,"longitude":-122.4313,"reserved":0,"last_update":"0001-01-01T00:00:00Z","name_a2s":"Uncletopia | San Francisco | 4 | Community","protocol":17,"map":"workshop/cp_snowbase_b18.ugc2081770490","folder":"tf","game":"Team Fortress","app_id":440,"player_count":0,"max_players":24,"Bots":0,"server_type":"Dedicated","server_os":"Linux","password":true,"vac":true,"version":"7757534","steam_id":85568392924742826,"keywords":["cp","nocrits","nodmgspread","uncletopia"],"game_id":440,"stv_port":27046,"stv_name":"Uncletopia | San Francisco | 4 | Community | STV","players":null},{"server_id":141,"name":"Uncletopia | Sydney | 1 | All Maps","name_short":"syd-1","host":"syd-1.au.uncletopia.com","port":27015,"enabled":true,"region":"au","cc":"au","latitude":-33.865143,"longitude":151.2099,"reserved":0,"last_update":"0001-01-01T00:00:00Z","name_a2s":"Uncletopia | Sydney | 1 | All Maps","protocol":17,"map":"ctf_2fort","folder":"tf","game":"Team Fortress","app_id":440,"player_count":0,"max_players":24,"Bots":0,"server_type":"Dedicated","server_os":"Linux","password":true,"vac":true,"version":"7757534","steam_id":85568392924470001,"keywords":["ctf","nocrits","nodmgspread","uncletopia"],"game_id":440,"stv_port":27016,"stv_name":"Uncletopia | Sydney | 1 | All Maps | STV","players":null},{"server_id":123,"name":"Uncletopia | Sydney | 2 | All Maps","name_short":"syd-2","host":"syd-1.au.uncletopia.com","port":27025,"enabled":true,"region":"au","cc":"au","latitude":-33.865143,"longitude":151.2099,"reserved":0,"last_update":"0001-01-01T00:00:00Z","name_a2s":"Uncletopia | Sydney | 2 | All Maps","protocol":17,"map":"cp_dustbowl","folder":"tf","game":"Team Fortress","app_id":440,"player_count":0,"max_players":24,"Bots":0,"server_type":"Dedicated","server_os":"Linux","password":true,"vac":true,"version":"7757534","steam_id":85568392924470002,"keywords":["cp","nocrits","nodmgspread","uncletopia"],"game_id":440,"stv_port":27026,"stv_name":"Uncletopia | Sydney | 2 | All Maps | STV","players":null},{"server_id":395,"name":"Uncletopia | Sydney | 3 | All Maps","name_short":"syd-3","host":"syd-1.au.uncletopia.com","port":27035,"enabled":true,"region":"au","cc":"au","latitude":-33.865143,"longitude":151.2099,"reserved":0,"last_update":"0001-01-01T00:00:00Z","name_a2s":"Uncletopia | Sydney | 3 | All Maps","protocol":17,"map":"pl_pier","folder":"tf","game":"Team Fortress","app_id":440,"player_count":0,"max_players":24,"Bots":0,"server_type":"Dedicated","server_os":"Linux","password":true,"vac":true,"version":"7757534","steam_id":85568392925194467,"keywords":["nocrits","nodmgspread","payload","uncletopia"],"game_id":440,"stv_port":27036,"stv_name":"Uncletopia | Sydney | 3 | All Maps | STV","players":null},{"server_id":396,"name":"Uncletopia | Sydney | 4 | All Maps","name_short":"syd-4","host":"syd-1.au.uncletopia.com","port":27045,"enabled":true,"region":"au","cc":"au","latitude":-33.865143,"longitude":151.2099,"reserved":0,"last_update":"0001-01-01T00:00:00Z","name_a2s":"Uncletopia | Sydney | 4 | All Maps","protocol":17,"map":"koth_highpass","folder":"tf","game":"Team Fortress","app_id":440,"player_count":0,"max_players":24,"Bots":0,"server_type":"Dedicated","server_os":"Linux","password":true,"vac":true,"version":"7757534","steam_id":85568392925397958,"keywords":["cp","nocrits","nodmgspread","uncletopia"],"game_id":440,"stv_port":27046,"stv_name":"Uncletopia | Sydney | 4 | All Maps | STV","players":null},{"server_id":58,"name":"Uncletopia | Sydney | 5 | Stopwatch Beta","name_short":"syd-5","host":"syd-1.au.uncletopia.com","port":27055,"enabled":true,"region":"au","cc":"au","latitude":-33.865143,"longitude":151.2099,"reserved":0,"last_update":"0001-01-01T00:00:00Z","name_a2s":"Uncletopia | Sydney | 5 | Stopwatch Beta","protocol":17,"map":"koth_cascade","folder":"tf","game":"Team Fortress","app_id":440,"player_count":0,"max_players":24,"Bots":0,"server_type":"Dedicated","server_os":"Linux","password":true,"vac":true,"version":"7757534","steam_id":85568392925397959,"keywords":["cp","nocrits","nodmgspread","uncletopia"],"game_id":440,"stv_port":27056,"stv_name":"Uncletopia | Sydney | 5 | Stopwatch Beta | STV","players":null},{"server_id":59,"name":"Uncletopia | Sydney | 6 | Community","name_short":"syd-6","host":"syd-1.au.uncletopia.com","port":27065,"enabled":true,"region":"au","cc":"au","latitude":-33.865143,"longitude":151.2099,"reserved":0,"last_update":"0001-01-01T00:00:00Z","name_a2s":"Uncletopia | Sydney | 6 | Community","protocol":17,"map":"workshop/pl_barnblitz_pro7.ugc582280235","folder":"tf","game":"Team Fortress","app_id":440,"player_count":0,"max_players":24,"Bots":0,"server_type":"Dedicated","server_os":"Linux","password":true,"vac":true,"version":"7757534","steam_id":85568392925397960,"keywords":["nocrits","nodmgspread","payload","uncletopia"],"game_id":440,"stv_port":27066,"stv_name":"Uncletopia | Sydney | 6 | Community | STV","players":null},{"server_id":49,"name":"Uncletopia | Warsaw | 1 | All Maps","name_short":"waw-1","host":"waw-1.pl.uncletopia.com","port":27015,"enabled":true,"region":"eu","cc":"pl","latitude":52.2297,"longitude":21.017532,"reserved":0,"last_update":"0001-01-01T00:00:00Z","name_a2s":"","protocol":0,"map":"","folder":"","game":"","app_id":0,"player_count":0,"max_players":0,"Bots":0,"server_type":"","server_os":"","password":false,"vac":false,"version":"","steam_id":0,"keywords":null,"game_id":0,"stv_port":0,"stv_name":"","players":null},{"server_id":50,"name":"Uncletopia | Warsaw | 2 | All Maps","name_short":"waw-2","host":"waw-1.pl.uncletopia.com","port":27025,"enabled":true,"region":"eu","cc":"pl","latitude":52.2297,"longitude":21.017532,"reserved":0,"last_update":"0001-01-01T00:00:00Z","name_a2s":"Uncletopia | Warsaw | 2 | All Maps","protocol":17,"map":"koth_viaduct","folder":"tf","game":"Team Fortress","app_id":440,"player_count":0,"max_players":24,"Bots":0,"server_type":"Dedicated","server_os":"Linux","password":true,"vac":true,"version":"7757534","steam_id":85568392925397851,"keywords":["cp","nocrits","nodmgspread","uncletopia"],"game_id":440,"stv_port":27026,"stv_name":"Uncletopia | Warsaw | 2 | All Maps | STV","players":null},{"server_id":51,"name":"Uncletopia | Warsaw | 3 | All Maps","name_short":"waw-3","host":"waw-1.pl.uncletopia.com","port":27035,"enabled":true,"region":"eu","cc":"pl","latitude":52.2297,"longitude":21.017532,"reserved":0,"last_update":"0001-01-01T00:00:00Z","name_a2s":"Uncletopia | Warsaw | 3 | All Maps","protocol":17,"map":"pl_badwater","folder":"tf","game":"Team Fortress","app_id":440,"player_count":0,"max_players":24,"Bots":0,"server_type":"Dedicated","server_os":"Linux","password":true,"vac":true,"version":"7757534","steam_id":85568392925397852,"keywords":["nocrits","nodmgspread","payload","uncletopia"],"game_id":440,"stv_port":27036,"stv_name":"Uncletopia | Warsaw | 3 | All Maps | STV","players":null},{"server_id":52,"name":"Uncletopia | Warsaw | 4 | All Maps","name_short":"waw-4","host":"waw-1.pl.uncletopia.com","port":27045,"enabled":true,"region":"eu","cc":"pl","latitude":52.2297,"longitude":21.017532,"reserved":0,"last_update":"0001-01-01T00:00:00Z","name_a2s":"Uncletopia | Warsaw | 4 | All Maps","protocol":17,"map":"koth_lakeside_final","folder":"tf","game":"Team Fortress","app_id":440,"player_count":0,"max_players":24,"Bots":0,"server_type":"Dedicated","server_os":"Linux","password":true,"vac":true,"version":"7757534","steam_id":85568392925397853,"keywords":["cp","nocrits","nodmgspread","uncletopia"],"game_id":440,"stv_port":27046,"stv_name":"Uncletopia | Warsaw | 4 | All Maps | STV","players":null},{"server_id":53,"name":"Uncletopia | Warsaw | 5 | Stopwatch Beta","name_short":"waw-5","host":"waw-1.pl.uncletopia.com","port":27055,"enabled":true,"region":"eu","cc":"pl","latitude":52.2297,"longitude":21.017532,"reserved":0,"last_update":"0001-01-01T00:00:00Z","name_a2s":"Uncletopia | Warsaw | 5 | Stopwatch Beta","protocol":17,"map":"pl_borneo","folder":"tf","game":"Team Fortress","app_id":440,"player_count":0,"max_players":24,"Bots":0,"server_type":"Dedicated","server_os":"Linux","password":true,"vac":true,"version":"7757534","steam_id":85568392925397854,"keywords":["nocrits","nodmgspread","payload","uncletopia"],"game_id":440,"stv_port":27056,"stv_name":"Uncletopia | Warsaw | 5 | Stopwatch Beta | STV","players":null},{"server_id":54,"name":"Uncletopia | Warsaw | 6 | Community","name_short":"waw-6","host":"waw-1.pl.uncletopia.com","port":27065,"enabled":true,"region":"eu","cc":"pl","latitude":52.2297,"longitude":21.017532,"reserved":0,"last_update":"0001-01-01T00:00:00Z","name_a2s":"Uncletopia | Warsaw | 6 | Community","protocol":17,"map":"koth_lakeside_final","folder":"tf","game":"Team Fortress","app_id":440,"player_count":0,"max_players":24,"Bots":0,"server_type":"Dedicated","server_os":"Linux","password":true,"vac":true,"version":"7757534","steam_id":85568392925397856,"keywords":["cp","nocrits","nodmgspread","uncletopia"],"game_id":440,"stv_port":27066,"stv_name":"Uncletopia | Warsaw | 6 | Community | STV","players":null}]}