{"status":true,"message":"","result":[{"server_id":9,"name":"Uncletopia | Atlanta | 1 | All Maps","name_short":"atl-1","host":"atl-1.us.uncletopia.com","port":27015,"enabled":true,"region":"us-east","cc":"us","latitude":33.753746,"longitude":-84.38633,"reserved":0,"last_update":"0001-01-01T00:00:00Z","name_a2s":"Uncletopia | Atlanta | 1 | All Maps","protocol":17,"map":"pl_frontier_final","folder":"tf","game":"Team Fortress","app_id":440,"player_count":1,"max_players":24,"Bots":0,"server_type":"Dedicated","server_os":"Linux","password":true,"vac":true,"version":"7708610","steam_id":85568392924469982,"keywords":["nocrits","nodmgspread","payload","uncletopia"],"game_id":440,"stv_port":27016,"stv_name":"Uncletopia | Atlanta | 1 | All Maps | STV","players":[{"user_id":38,"name":"Branko","steam_id":76561199262196710,"connected_time":213000000000,"state":"active","ping":294}]},{"server_id":400,"name":"Uncletopia | Atlanta | 3 | All Maps","name_short":"atl-3","host":"atl-1.us.uncletopia.com","port":27035,"enabled":true,"region":"us-east","cc":"us","latitude":33.753746,"longitude":-84.38633,"reserved":0,"last_update":"0001-01-01T00:00:00Z","name_a2s":"Uncletopia | Atlanta | 3 | All Maps","protocol":17,"map":"plr_bananabay","folder":"tf","game":"Team Fortress","app_id":440,"player_count":0,"max_players":24,"Bots":0,"server_type":"Dedicated","server_os":"Linux","password":true,"vac":true,"version":"7708610","steam_id":85568392924515187,"keywords":["nocrits","nodmgspread","payload","uncletopia"],"game_id":440,"stv_port":27036,"stv_name":"Uncletopia | Atlanta | 3 | All Maps | STV","players":null},{"server_id":401,"name":"Uncletopia | Atlanta | 4 | No Payload","name_short":"atl-4","host":"atl-1.us.uncletopia.com","port":27045,"enabled":true,"region":"us-east","cc":"us","latitude":33.753746,"longitude":-84.38633,"reserved":0,"last_update":"0001-01-01T00:00:00Z","name_a2s":"Uncletopia | Atlanta | 4 | No Payload","protocol":17,"map":"plr_bananabay","folder":"tf","game":"Team Fortress","app_id":440,"player_count":0,"max_players":24,"Bots":0,"server_type":"Dedicated","server_os":"Linux","password":true,"vac":true,"version":"7708610","steam_id":85568392924515188,"keywords":["nocrits","nodmgspread","payload","uncletopia"],"game_id":440,"stv_port":27046,"stv_name":"Uncletopia | Atlanta | 4 | No Payload | STV","players":null},{"server_id":2,"name":"Uncletopia | Chicago | 1 | All Maps","name_short":"chi-1","host":"chi-1.us.uncletopia.com","port":27015,"enabled":true,"region":"us-central","cc":"us","latitude":41.881832,"longitude":-87.62318,"reserved":0,"last_update":"0001-01-01T00:00:00Z","name_a2s":"Uncletopia | Chicago | 1 | All Maps","protocol":17,"map":"plr_bananabay","folder":"tf","game":"Team Fortress","app_id":440,"player_count":0,"max_players":24,"Bots":0,"server_type":"Dedicated","server_os":"Linux","password":true,"vac":true,"version":"7708610","steam_id":85568392924469984,"keywords":["nocrits","nodmgspread","payload","uncletopia"],"game_id":440,"stv_port":27016,"stv_name":"Uncletopia | Chicago | 1 | All Maps | STV","players":null},{"server_id":106,"name":"Uncletopia | Chicago | 2 | All Maps","name_short":"chi-2","host":"chi-1.us.uncletopia.com","port":27025,"enabled":true,"region":"us-central","cc":"us","latitude":41.881832,"longitude":-87.62318,"reserved":0,"last_update":"0001-01-01T00:00:00Z","name_a2s":"Uncletopia | Chicago | 2 | All Maps","protocol":17,"map":"plr_bananabay","folder":"tf","game":"Team Fortress","app_id":440,"player_count":0,"max_players":24,"Bots":0,"server_type":"Dedicated","server_os":"Linux","password":true,"vac":true,"version":"7708610","steam_id":85568392924469985,"keywords":["nocrits","nodmgspread","payload","uncletopia"],"game_id":440,"stv_port":27026,"stv_name":"Uncletopia | Chicago | 2 | All Maps | STV","players":null},{"server_id":402,"name":"Uncletopia | Chicago | 3 | All Maps","name_short":"chi-3","host":"chi-1.us.uncletopia.com","port":27035,"enabled":true,"region":"us-central","cc":"us","latitude":41.881832,"longitude":-87.62318,"reserved":0,"last_update":"0001-01-01T00:00:00Z","name_a2s":"Uncletopia | Chicago | 3 | All Maps","protocol":17,"map":"cp_mountainlab","folder":"tf","game":"Team Fortress","app_id":440,"player_count":24,"max_players":24,"Bots":0,"server_type":"Dedicated","server_os":"Linux","password":true,"vac":true,"version":"7708610","steam_id":85568392924515191,"keywords":["cp","nocrits","nodmgspread","uncletopia"],"game_id":440,"stv_port":27036,"stv_name":"Uncletopia | Chicago | 3 | All Maps | STV","players":[{"user_id":6,"name":"Dude Named Bob","steam_id":76561198310448093,"connected_time":1765000000000,"state":"active","ping":50},{"user_id":7,"name":"Dwaggy","steam_id":76561198027369555,"connected_time":1681000000000,"state":"active","ping":66},{"user_id":8,"name":"zonemaster95","steam_id":76561198072572032,"connected_time":1402000000000,"state":"active","ping":108},{"user_id":26,"name":"paj","steam_id":76561198080026026,"connected_time":506000000000,"state":"active","ping":96},{"user_id":10,"name":"kermitcreeper(ZAZA)","steam_id":76561199222829972,"connected_time":1122000000000,"state":"active","ping":46},{"user_id":11,"name":"Driffter","steam_id":76561199122194221,"connected_time":1030000000000,"state":"active","ping":76},{"user_id":12,"name":"Johnathan \"big dog\" Wheeler","steam_id":76561198846095206,"connected_time":988000000000,"state":"active","ping":94},{"user_id":27,"name":"ShiYor","steam_id":76561199117260032,"connected_time":478000000000,"state":"active","ping":138},{"user_id":18,"name":"Ejej","steam_id":76561198986313007,"connected_time":731000000000,"state":"active","ping":171},{"user_id":32,"name":"The ATF","steam_id":76561198046518234,"connected_time":266000000000,"state":"active","ping":78},{"user_id":16,"name":"Maxx","steam_id":76561198045405304,"connected_time":820000000000,"state":"active","ping":85},{"user_id":17,"name":"darrettsmithjunior2002","steam_id":76561199033727618,"connected_time":778000000000,"state":"active","ping":77},{"user_id":19,"name":"recycle","steam_id":76561198819562111,"connected_time":646000000000,"state":"active","ping":59},{"user_id":20,"name":"amagicowl","steam_id":76561199060487814,"connected_time":622000000000,"state":"active","ping":84},{"user_id":21,"name":"Heaviest heavy main","steam_id":76561199443552014,"connected_time":620000000000,"state":"active","ping":262},{"user_id":28,"name":"Herr Müller","steam_id":76561198064876829,"connected_time":444000000000,"state":"active","ping":92},{"user_id":23,"name":"That_one_Useless_Guy","steam_id":76561199122356477,"connected_time":588000000000,"state":"active","ping":139},{"user_id":34,"name":"belugawhalegod322","steam_id":76561198115458307,"connected_time":249000000000,"state":"active","ping":108},{"user_id":25,"name":"Leclerc","steam_id":76561198972619900,"connected_time":531000000000,"state":"active","ping":68},{"user_id":29,"name":"Orange Mann Bad","steam_id":76561198021126964,"connected_time":401000000000,"state":"active","ping":102},{"user_id":31,"name":"F Amadon","steam_id":76561198138543341,"connected_time":366000000000,"state":"active","ping":70},{"user_id":35,"name":"e doctor","steam_id":76561198081851446,"connected_time":249000000000,"state":"active","ping":45},{"user_id":36,"name":"InkKnight","steam_id":76561198927983566,"connected_time":247000000000,"state":"active","ping":192},{"user_id":37,"name":"Zhenaj","steam_id":76561199209016136,"connected_time":225000000000,"state":"active","ping":46}]},{"server_id":403,"name":"Uncletopia | Chicago | 4 | All Maps","name_short":"chi-4","host":"chi-1.us.uncletopia.com","port":27045,"enabled":true,"region":"us-central","cc":"us","latitude":41.881832,"longitude":-87.62318,"reserved":0,"last_update":"0001-01-01T00:00:00Z","name_a2s":"Uncletopia | Chicago | 4 | All Maps","protocol":17,"map":"cp_process_final","folder":"tf","game":"Team Fortress","app_id":440,"player_count":0,"max_players":24,"Bots":0,"server_type":"Dedicated","server_os":"Linux","password":true,"vac":true,"version":"7708610","steam_id":85568392924515193,"keywords":["cp","nocrits","nodmgspread","uncletopia"],"game_id":440,"stv_port":27046,"stv_name":"Uncletopia | Chicago | 4 | All Maps | STV","players":null},{"server_id":36,"name":"Uncletopia | Chicago | 5 | All Maps","name_short":"chi-5","host":"chi-2.us.uncletopia.com","port":27015,"enabled":true,"region":"us-central","cc":"us","latitude":41.881832,"longitude":-87.62318,"reserved":0,"last_update":"0001-01-01T00:00:00Z","name_a2s":"Uncletopia | Chicago | 5 | All Maps","protocol":17,"map":"pl_swiftwater_final1","folder":"tf","game":"Team Fortress","app_id":440,"player_count":0,"max_players":24,"Bots":0,"server_type":"Dedicated","server_os":"Linux","password":true,"vac":true,"version":"7708610","steam_id":85568392924866362,"keywords":["nocrits","nodmgspread","payload","uncletopia"],"game_id":440,"stv_port":27016,"stv_name":"Uncletopia | Chicago | 5 | All Maps | STV","players":null},{"server_id":37,"name":"Uncletopia | Chicago | 6 | All Maps","name_short":"chi-6","host":"chi-2.us.uncletopia.com","port":27025,"enabled":true,"region":"us-central","cc":"us","latitude":41.881832,"longitude":-87.62318,"reserved":0,"last_update":"0001-01-01T00:00:00Z","name_a2s":"Uncletopia | Chicago | 6 | All Maps","protocol":17,"map":"pl_swiftwater_final1","folder":"tf","game":"Team Fortress","app_id":440,"player_count":0,"max_players":24,"Bots":0,"server_type":"Dedicated","server_os":"Linux","password":true,"vac":true,"version":"7708610","steam_id":85568392924866363,"keywords":["nocrits","nodmgspread","payload","uncletopia"],"game_id":440,"stv_port":27026,"stv_name":"Uncletopia | Chicago | 6 | All Maps | STV","players":null},{"server_id":38,"name":"Uncletopia | Chicago | 7 | No Payload","name_short":"chi-7","host":"chi-2.us.uncletopia.com","port":27035,"enabled":true,"region":"us-central","cc":"us","latitude":41.881832,"longitude":-87.62318,"reserved":0,"last_update":"0001-01-01T00:00:00Z","name_a2s":"Uncletopia | Chicago | 7 | No Payload","protocol":17,"map":"koth_highpass","folder":"tf","game":"Team Fortress","app_id":440,"player_count":0,"max_players":24,"Bots":0,"server_type":"Dedicated","server_os":"Linux","password":true,"vac":true,"version":"7708610","steam_id":85568392924866364,"keywords":["cp","nocrits","nodmgspread","uncletopia"],"game_id":440,"stv_port":27036,"stv_name":"Uncletopia | Chicago | 7 | No Payload | STV","players":null},{"server_id":39,"name":"Uncletopia | Chicago | 8 | Community","name_short":"chi-8","host":"chi-2.us.uncletopia.com","port":27045,"enabled":true,"region":"us-central","cc":"us","latitude":41.881832,"longitude":-87.62318,"reserved":0,"last_update":"0001-01-01T00:00:00Z","name_a2s":"Uncletopia | Chicago | 8 | Community","protocol":17,"map":"koth_cascade","folder":"tf","game":"Team Fortress","app_id":440,"player_count":0,"max_players":24,"Bots":0,"server_type":"Dedicated","server_os":"Linux","password":true,"vac":true,"version":"7708610","steam_id":85568392924866365,"keywords":["cp","nocrits","nodmgspread","uncletopia"],"game_id":440,"stv_port":27046,"stv_name":"Uncletopia | Chicago | 8 | Community | STV","players":null},{"server_id":8,"name":"Uncletopia | Dallas | 1 | All Maps","name_short":"dal-1","host":"dal-1.us.uncletopia.com","port":27015,"enabled":true,"region":"us-central","cc":"us","latitude":32.779167,"longitude":-96.80889,"reserved":0,"last_update":"0001-01-01T00:00:00Z","name_a2s":"Uncletopia | Dallas | 1 | All Maps","protocol":17,"map":"plr_bananabay","folder":"tf","game":"Team Fortress","app_id":440,"player_count":0,"max_players":24,"Bots":0,"server_type":"Dedicated","server_os":"Linux","password":true,"vac":true,"version":"7708610","steam_id":85568392924469986,"keywords":["nocrits","nodmgspread","payload","uncletopia"],"game_id":440,"stv_port":27016,"stv_name":"Uncletopia | Dallas | 1 | All Maps | STV","players":null},{"server_id":108,"name":"Uncletopia | Dallas | 2 | All Maps","name_short":"dal-2","host":"dal-1.us.uncletopia.com","port":27025,"enabled":true,"region":"us-central","cc":"us","latitude":32.779167,"longitude":-96.80889,"reserved":0,"last_update":"0001-01-01T00:00:00Z","name_a2s":"Uncletopia | Dallas | 2 | All Maps","protocol":17,"map":"plr_bananabay","folder":"tf","game":"Team Fortress","app_id":440,"player_count":0,"max_players":24,"Bots":0,"server_type":"Dedicated","server_os":"Linux","password":true,"vac":true,"version":"7708610","steam_id":85568392924469988,"keywords":["nocrits","nodmgspread","payload","uncletopia"],"game_id":440,"stv_port":27026,"stv_name":"Uncletopia | Dallas | 2 | All Maps | STV","players":null},{"server_id":5,"name":"Uncletopia | Frankfurt | 1 | All Maps","name_short":"frk-1","host":"frk-1.de.uncletopia.com","port":27015,"enabled":true,"region":"eu","cc":"de","latitude":50.110924,"longitude":8.682127,"reserved":0,"last_update":"0001-01-01T00:00:00Z","name_a2s":"Uncletopia | Frankfurt | 1 | All Maps","protocol":17,"map":"plr_pipeline","folder":"tf","game":"Team Fortress","app_id":440,"player_count":24,"max_players":24,"Bots":0,"server_type":"Dedicated","server_os":"Linux","password":true,"vac":true,"version":"7708610","steam_id":85568392924469989,"keywords":["nocrits","nodmgspread","payload","uncletopia"],"game_id":440,"stv_port":27016,"stv_name":"Uncletopia | Frankfurt | 1 | All Maps | STV","players":[{"user_id":220,"name":"Pokershark","steam_id":76561198080086744,"connected_time":1493000000000,"state":"active","ping":82},{"user_id":189,"name":"sin","steam_id":76561198193416785,"connected_time":3210000000000,"state":"active","ping":41},{"user_id":241,"name":"«Bigly»","steam_id":76561198067284969,"connected_time":243000000000,"state":"active","ping":84},{"user_id":239,"name":"Old Beavis","steam_id":76561198065951617,"connected_time":479000000000,"state":"active","ping":72},{"user_id":221,"name":"FreeZ","steam_id":76561199070093469,"connected_time":1486000000000,"state":"active","ping":73},{"user_id":180,"name":"poliakov.noam","steam_id":76561199259322961,"connected_time":3571000000000,"state":"active","ping":100},{"user_id":208,"name":"Иванов","steam_id":76561198817596606,"connected_time":2444000000000,"state":"active","ping":59},{"user_id":222,"name":"ml0301","steam_id":76561198017216360,"connected_time":1426000000000,"state":"active","ping":171},{"user_id":223,"name":"Dolcelatte","steam_id":76561198038501770,"connected_time":1420000000000,"state":"active","ping":53},{"user_id":234,"name":"Lennox","steam_id":76561198069063554,"connected_time":805000000000,"state":"active","ping":48},{"user_id":236,"name":"magras","steam_id":76561198972671525,"connected_time":678000000000,"state":"active","ping":99},{"user_id":173,"name":"Cippo95","steam_id":76561198255311582,"connected_time":3894000000000,"state":"active","ping":90},{"user_id":233,"name":"Festdoktor","steam_id":76561198058159271,"connected_time":883000000000,"state":"active","ping":54},{"user_id":235,"name":"giclure :;","steam_id":76561197986362828,"connected_time":686000000000,"state":"active","ping":51},{"user_id":204,"name":"Judd","steam_id":76561198283409788,"connected_time":2663000000000,"state":"active","ping":60},{"user_id":240,"name":"Determinator","steam_id":76561198366623270,"connected_time":452000000000,"state":"active","ping":89},{"user_id":207,"name":"clean carp","steam_id":76561198127053294,"connected_time":2507000000000,"state":"active","ping":74},{"user_id":134,"name":"до смерть","steam_id":76561199042470246,"connected_time":7699000000000,"state":"active","ping":52},{"user_id":242,"name":"Farmercy","steam_id":76561198000038039,"connected_time":154000000000,"state":"active","ping":60},{"user_id":232,"name":"pizza time","steam_id":76561199015899793,"connected_time":991000000000,"state":"active","ping":58},{"user_id":203,"name":"Cam","steam_id":76561198061255698,"connected_time":2678000000000,"state":"active","ping":61},{"user_id":135,"name":"nuclear winter","steam_id":76561198189686075,"connected_time":7691000000000,"state":"active","ping":57},{"user_id":243,"name":"V00doocat","steam_id":76561198875419573,"connected_time":122000000000,"state":"active","ping":82},{"user_id":190,"name":"linkinparkfan123","steam_id":76561199033782005,"connected_time":3210000000000,"state":"active","ping":113}]},{"server_id":110,"name":"Uncletopia | Frankfurt | 2 | All Maps","name_short":"frk-2","host":"frk-1.de.uncletopia.com","port":27025,"enabled":true,"region":"eu","cc":"de","latitude":50.110924,"longitude":8.682127,"reserved":0,"last_update":"0001-01-01T00:00:00Z","name_a2s":"Uncletopia | Frankfurt | 2 | All Maps","protocol":17,"map":"pl_barnblitz","folder":"tf","game":"Team Fortress","app_id":440,"player_count":24,"max_players":24,"Bots":0,"server_type":"Dedicated","server_os":"Linux","password":true,"vac":true,"version":"7708610","steam_id":85568392924469990,"keywords":["nocrits","nodmgspread","payload","uncletopia"],"game_id":440,"stv_port":27026,"stv_name":"Uncletopia | Frankfurt | 2 | All Maps | STV","players":[{"user_id":182,"name":"King Capybara","steam_id":76561198031573426,"connected_time":3930000000000,"state":"active","ping":61},{"user_id":227,"name":"freemantel30","steam_id":76561198065669800,"connected_time":1543000000000,"state":"active","ping":50},{"user_id":164,"name":"Luke SpyWalker","steam_id":76561198008643276,"connected_time":4774000000000,"state":"active","ping":60},{"user_id":170,"name":"...","steam_id":76561198969234594,"connected_time":4655000000000,"state":"active","ping":58},{"user_id":211,"name":"Boot Scootin Boogie","steam_id":76561198059171120,"connected_time":2310000000000,"state":"active","ping":146},{"user_id":196,"name":"Umbro","steam_id":76561198087930438,"connected_time":3351000000000,"state":"active","ping":74},{"user_id":192,"name":"Honest Tom's Discount Beef","steam_id":76561198029971392,"connected_time":3464000000000,"state":"active","ping":64},{"user_id":232,"name":"apple","steam_id":76561198350676879,"connected_time":347000000000,"state":"active","ping":103},{"user_id":194,"name":"Len_","steam_id":76561198821132401,"connected_time":3396000000000,"state":"active","ping":69},{"user_id":205,"name":"cosmetical","steam_id":76561198444036574,"connected_time":2939000000000,"state":"active","ping":63},{"user_id":239,"name":"Renolox","steam_id":76561198036590182,"connected_time":105000000000,"state":"active","ping":61},{"user_id":181,"name":"jojobinks613","steam_id":76561198841293111,"connected_time":3949000000000,"state":"active","ping":163},{"user_id":233,"name":"bola typu święta","steam_id":76561199145943588,"connected_time":300000000000,"state":"active","ping":76},{"user_id":234,"name":"Andersexe","steam_id":76561198383864449,"connected_time":274000000000,"state":"active","ping":61},{"user_id":235,"name":"Äärik ♣","steam_id":76561198131871737,"connected_time":234000000000,"state":"active","ping":53},{"user_id":236,"name":"Kotlet schabowy","steam_id":76561198048983509,"connected_time":186000000000,"state":"active","ping":74},{"user_id":198,"name":"Cumbustible Punda #SaveTF2","steam_id":76561197974274677,"connected_time":3190000000000,"state":"active","ping":54},{"user_id":228,"name":"Henk_de_Patatman","steam_id":76561198070103191,"connected_time":1518000000000,"state":"active","ping":42},{"user_id":229,"name":"glyph","steam_id":76561197980736364,"connected_time":1428000000000,"state":"active","ping":100},{"user_id":212,"name":"Umberto Bossi","steam_id":76561198136150267,"connected_time":2100000000000,"state":"active","ping":54},{"user_id":155,"name":"DeCypher","steam_id":76561198171992619,"connected_time":5589000000000,"state":"active","ping":66},{"user_id":237,"name":"Drift7114","steam_id":76561199044419505,"connected_time":171000000000,"state":"active","ping":64},{"user_id":238,"name":"Siddarthatama","steam_id":76561199055749571,"connected_time":148000000000,"state":"active","ping":126},{"user_id":226,"name":"jacob rothschild","steam_id":76561198870764276,"connected_time":1620000000000,"state":"active","ping":74}]},{"server_id":308,"name":"Uncletopia | Frankfurt | 3 | All Maps","name_short":"frk-3","host":"frk-1.de.uncletopia.com","port":27035,"enabled":true,"region":"eu","cc":"de","latitude":50.110924,"longitude":8.682127,"reserved":0,"last_update":"0001-01-01T00:00:00Z","name_a2s":"Uncletopia | Frankfurt | 3 | All Maps","protocol":17,"map":"pl_pier","folder":"tf","game":"Team Fortress","app_id":440,"player_count":11,"max_players":24,"Bots":0,"server_type":"Dedicated","server_os":"Linux","password":true,"vac":true,"version":"7708610","steam_id":85568392924504274,"keywords":["nocrits","nodmgspread","payload","uncletopia"],"game_id":440,"stv_port":27036,"stv_name":"Uncletopia | Frankfurt | 3 | All Maps | STV","players":[{"user_id":34,"name":"ItsYeeman","steam_id":76561198066258291,"connected_time":2244000000000,"state":"active","ping":50},{"user_id":35,"name":"666faxe","steam_id":76561198045998645,"connected_time":2213000000000,"state":"active","ping":53},{"user_id":39,"name":"Odintron","steam_id":76561198408804079,"connected_time":1016000000000,"state":"active","ping":51},{"user_id":55,"name":":)","steam_id":76561198422006468,"connected_time":456000000000,"state":"active","ping":90},{"user_id":59,"name":"Big Gamer (real)","steam_id":76561198160114532,"connected_time":213000000000,"state":"active","ping":46},{"user_id":61,"name":"o","steam_id":76561199104087244,"connected_time":102000000000,"state":"active","ping":59},{"user_id":43,"name":"Flint","steam_id":76561197995920776,"connected_time":918000000000,"state":"active","ping":45},{"user_id":62,"name":"SantiThePug #ReviveTheCaber","steam_id":76561199049615996,"connected_time":4000000000,"state":"spawning","ping":80},{"user_id":56,"name":"benifis163","steam_id":76561198420973492,"connected_time":455000000000,"state":"active","ping":105},{"user_id":57,"name":"Mogwai","steam_id":76561198078832314,"connected_time":405000000000,"state":"active","ping":75},{"user_id":52,"name":"I-I","steam_id":76561198267969436,"connected_time":559000000000,"state":"active","ping":59}]},{"server_id":309,"name":"Uncletopia | Frankfurt | 4 | All Maps","name_short":"frk-4","host":"frk-1.de.uncletopia.com","port":27045,"enabled":true,"region":"eu","cc":"de","latitude":50.110924,"longitude":8.682127,"reserved":0,"last_update":"0001-01-01T00:00:00Z","name_a2s":"Uncletopia | Frankfurt | 4 | All Maps","protocol":17,"map":"pl_barnblitz","folder":"tf","game":"Team Fortress","app_id":440,"player_count":24,"max_players":24,"Bots":0,"server_type":"Dedicated","server_os":"Linux","password":true,"vac":true,"version":"7708610","steam_id":85568392924504275,"keywords":["nocrits","nodmgspread","payload","uncletopia"],"game_id":440,"stv_port":27046,"stv_name":"Uncletopia | Frankfurt | 4 | All Maps | STV","players":[{"user_id":86,"name":"anastasia","steam_id":76561197994492154,"connected_time":2909000000000,"state":"active","ping":72},{"user_id":108,"name":"Average","steam_id":76561198158411479,"connected_time":1623000000000,"state":"active","ping":83},{"user_id":127,"name":"Pabs :D","steam_id":76561198000016962,"connected_time":1084000000000,"state":"active","ping":59},{"user_id":125,"name":"Maxmen","steam_id":76561198188541510,"connected_time":1171000000000,"state":"active","ping":132},{"user_id":139,"name":"fas2roger","steam_id":76561198199226627,"connected_time":225000000000,"state":"active","ping":73},{"user_id":129,"name":"dassasinb","steam_id":76561198128316186,"connected_time":986000000000,"state":"active","ping":55},{"user_id":94,"name":"Lernix","steam_id":76561198382328645,"connected_time":2496000000000,"state":"active","ping":51},{"user_id":135,"name":"Layton","steam_id":76561198087221314,"connected_time":469000000000,"state":"active","ping":46},{"user_id":136,"name":"Denialman (Muted)","steam_id":76561198309182092,"connected_time":398000000000,"state":"active","ping":58},{"user_id":126,"name":"Doriian","steam_id":76561198071438810,"connected_time":1098000000000,"state":"active","ping":75},{"user_id":90,"name":"Absence blood","steam_id":76561198343654266,"connected_time":2723000000000,"state":"active","ping":103},{"user_id":137,"name":"Bronana Flavoured Jelly","steam_id":76561198855965629,"connected_time":296000000000,"state":"active","ping":65},{"user_id":134,"name":"Datsun64","steam_id":76561198231121180,"connected_time":698000000000,"state":"active","ping":63},{"user_id":140,"name":"WomenBeardLike","steam_id":76561198390184314,"connected_time":215000000000,"state":"active","ping":60},{"user_id":141,"name":"real baller","steam_id":76561198119605175,"connected_time":207000000000,"state":"active","ping":69},{"user_id":128,"name":"oceangirrrl","steam_id":76561198417800454,"connected_time":1052000000000,"state":"active","ping":69},{"user_id":124,"name":"Lackryx","steam_id":76561198313256505,"connected_time":1192000000000,"state":"active","ping":53},{"user_id":113,"name":"dorak","steam_id":76561198818037965,"connected_time":1529000000000,"state":"active","ping":110},{"user_id":39,"name":"lvl. 50 honkler","steam_id":76561198061688660,"connected_time":5196000000000,"state":"active","ping":100},{"user_id":142,"name":"Hell Striker","steam_id":76561199023875942,"connected_time":188000000000,"state":"active","ping":106},{"user_id":143,"name":"Gandalf","steam_id":76561199072668363,"connected_time":178000000000,"state":"active","ping":70},{"user_id":83,"name":"Sorky","steam_id":76561198007502339,"connected_time":3062000000000,"state":"active","ping":77},{"user_id":144,"name":"Marty Byrde IRL","steam_id":76561199427269098,"connected_time":112000000000,"state":"active","ping":162},{"user_id":87,"name":"nedilya","steam_id":76561198039692077,"connected_time":2813000000000,"state":"active","ping":58}]},{"server_id":310,"name":"Uncletopia | Frankfurt | 5 | All Maps","name_short":"frk-5","host":"frk-1.de.uncletopia.com","port":27055,"enabled":true,"region":"eu","cc":"de","latitude":50.110924,"longitude":8.682127,"reserved":0,"last_update":"0001-01-01T00:00:00Z","name_a2s":"Uncletopia | Frankfurt | 5 | All Maps","protocol":17,"map":"pl_upward","folder":"tf","game":"Team Fortress","app_id":440,"player_count":8,"max_players":24,"Bots":0,"server_type":"Dedicated","server_os":"Linux","password":true,"vac":true,"version":"7708610","steam_id":85568392924504277,"keywords":["nocrits","nodmgspread","payload","uncletopia"],"game_id":440,"stv_port":27056,"stv_name":"Uncletopia | Frankfurt | 5 | All Maps | STV","players":[{"user_id":11,"name":"InfamousAxe","steam_id":76561198099504739,"connected_time":1492000000000,"state":"active","ping":117},{"user_id":14,"name":"Light601","steam_id":76561198134998492,"connected_time":893000000000,"state":"active","ping":88},{"user_id":15,"name":"Ivan","steam_id":76561198874503008,"connected_time":774000000000,"state":"active","ping":79},{"user_id":16,"name":"scout gaming","steam_id":76561199380974466,"connected_time":761000000000,"state":"active","ping":82},{"user_id":17,"name":"Optimist 50","steam_id":76561198039631442,"connected_time":495000000000,"state":"active","ping":79},{"user_id":18,"name":"Gay Potato","steam_id":76561198018859519,"connected_time":491000000000,"state":"active","ping":47},{"user_id":19,"name":"Kompot","steam_id":76561198281613592,"connected_time":392000000000,"state":"active","ping":64},{"user_id":21,"name":"Octis","steam_id":76561198015536917,"connected_time":81000000000,"state":"active","ping":73}]},{"server_id":311,"name":"Uncletopia | Frankfurt | 6 | All Maps","name_short":"frk-6","host":"frk-1.de.uncletopia.com","port":27065,"enabled":true,"region":"eu","cc":"de","latitude":50.110924,"longitude":8.682127,"reserved":0,"last_update":"0001-01-01T00:00:00Z","name_a2s":"Uncletopia | Frankfurt | 6 | All Maps","protocol":17,"map":"pl_barnblitz","folder":"tf","game":"Team Fortress","app_id":440,"player_count":0,"max_players":24,"Bots":0,"server_type":"Dedicated","server_os":"Linux","password":true,"vac":true,"version":"7708610","steam_id":85568392924504278,"keywords":["nocrits","nodmgspread","payload","uncletopia"],"game_id":440,"stv_port":27066,"stv_name":"Uncletopia | Frankfurt | 6 | All Maps | STV","players":null},{"server_id":23,"name":"Uncletopia | Frankfurt | 7 | No Payload","name_short":"frk-7","host":"frk-1.de.uncletopia.com","port":27075,"enabled":true,"region":"eu","cc":"de","latitude":50.110924,"longitude":8.682127,"reserved":0,"last_update":"0001-01-01T00:00:00Z","name_a2s":"Uncletopia | Frankfurt | 7 | No Payload","protocol":17,"map":"koth_viaduct","folder":"tf","game":"Team Fortress","app_id":440,"player_count":0,"max_players":24,"Bots":0,"server_type":"Dedicated","server_os":"Linux","password":true,"vac":true,"version":"7708610","steam_id":85568392924742827,"keywords":["cp","nocrits","nodmgspread","uncletopia"],"game_id":440,"stv_port":27076,"stv_name":"Uncletopia | Frankfurt | 7 | No Payload | STV","players":null},{"server_id":24,"name":"Uncletopia | Frankfurt | 8 | Community","name_short":"frk-8","host":"frk-1.de.uncletopia.com","port":27085,"enabled":true,"region":"eu","cc":"de","latitude":50.110924,"longitude":8.682127,"reserved":0,"last_update":"0001-01-01T00:00:00Z","name_a2s":"Uncletopia | Frankfurt | 8 | Community","protocol":17,"map":"workshop/koth_slaughter_rc1.ugc1712845210","folder":"tf","game":"Team Fortress","app_id":440,"player_count":23,"max_players":24,"Bots":0,"server_type":"Dedicated","server_os":"Linux","password":true,"vac":true,"version":"7708610","steam_id":85568392924742828,"keywords":["cp","nocrits","nodmgspread","uncletopia"],"game_id":440,"stv_port":27086,"stv_name":"Uncletopia | Frankfurt | 8 | Community | STV","players":[{"user_id":208,"name":"i kill socialists","steam_id":76561198084174868,"connected_time":3111000000000,"state":"active","ping":59},{"user_id":257,"name":"LasagnaLarry22","steam_id":76561198089478290,"connected_time":417000000000,"state":"active","ping":52},{"user_id":241,"name":"marijuana enjoyer","steam_id":76561198056905953,"connected_time":1593000000000,"state":"active","ping":121},{"user_id":178,"name":"Chameleongamer44","steam_id":76561198987167079,"connected_time":4125000000000,"state":"active","ping":62},{"user_id":249,"name":"adriankurek","steam_id":76561199349026873,"connected_time":1218000000000,"state":"active","ping":65},{"user_id":227,"name":"night.s","steam_id":76561198326287823,"connected_time":2429000000000,"state":"active","ping":84},{"user_id":220,"name":"what?","steam_id":76561198260569123,"connected_time":2656000000000,"state":"active","ping":134},{"user_id":235,"name":"Irbynx","steam_id":76561197980421195,"connected_time":1958000000000,"state":"active","ping":90},{"user_id":232,"name":"HOI","steam_id":76561198061182117,"connected_time":2194000000000,"state":"active","ping":70},{"user_id":205,"name":"_MirScout_","steam_id":76561198061305864,"connected_time":3224000000000,"state":"active","ping":94},{"user_id":185,"name":"The Wolf Leader","steam_id":76561198038007462,"connected_time":3987000000000,"state":"active","ping":63},{"user_id":253,"name":"kotamine","steam_id":76561198068907991,"connected_time":770000000000,"state":"active","ping":73},{"user_id":233,"name":"DrRavioli","steam_id":76561198170822595,"connected_time":2187000000000,"state":"active","ping":71},{"user_id":260,"name":"Z.","steam_id":76561198367362266,"connected_time":104000000000,"state":"active","ping":73},{"user_id":215,"name":"Dicartal","steam_id":76561198295793592,"connected_time":2854000000000,"state":"active","ping":132},{"user_id":224,"name":"BaNaNaToN","steam_id":76561198142731849,"connected_time":2504000000000,"state":"active","ping":113},{"user_id":247,"name":"Sus Fring","steam_id":76561198821542489,"connected_time":1242000000000,"state":"active","ping":97},{"user_id":261,"name":"Gagulko11","steam_id":76561198288199678,"connected_time":94000000000,"state":"active","ping":70},{"user_id":238,"name":"Sweetcheesus","steam_id":76561198022299033,"connected_time":1732000000000,"state":"active","ping":60},{"user_id":252,"name":"ralph62x","steam_id":76561198865294231,"connected_time":1032000000000,"state":"active","ping":55},{"user_id":256,"name":"43291842381","steam_id":76561198038160325,"connected_time":523000000000,"state":"active","ping":72},{"user_id":262,"name":"Pecka","steam_id":76561199121981645,"connected_time":68000000000,"state":"active","ping":105},{"user_id":250,"name":"Ward","steam_id":76561198001500324,"connected_time":1212000000000,"state":"active","ping":107}]},{"server_id":202,"name":"Uncletopia | Hong Kong | 1 | All Maps","name_short":"hgk-1","host":"hgk-1.hk.uncletopia.com","port":27015,"enabled":true,"region":"asia","cc":"hk","latitude":22.302711,"longitude":114.177216,"reserved":0,"last_update":"0001-01-01T00:00:00Z","name_a2s":"Uncletopia | Hong Kong | 1 | All Maps","protocol":17,"map":"pl_barnblitz","folder":"tf","game":"Team Fortress","app_id":440,"player_count":22,"max_players":24,"Bots":0,"server_type":"Dedicated","server_os":"Linux","password":true,"vac":true,"version":"7708610","steam_id":85568392924494504,"keywords":["nocrits","nodmgspread","payload","uncletopia"],"game_id":440,"stv_port":27016,"stv_name":"Uncletopia | Hong Kong | 1 | All Maps | STV","players":[{"user_id":140,"name":"twitch.tv/vision515","steam_id":76561198065293729,"connected_time":5804000000000,"state":"active","ping":153},{"user_id":272,"name":"Grasswall","steam_id":76561198162612279,"connected_time":452000000000,"state":"active","ping":45},{"user_id":281,"name":"PissDrinker98","steam_id":76561198856157761,"connected_time":145000000000,"state":"active","ping":101},{"user_id":274,"name":"+W+","steam_id":76561197997220367,"connected_time":413000000000,"state":"active","ping":50},{"user_id":7,"name":"AmaiToxic","steam_id":76561199122491157,"connected_time":17802000000000,"state":"active","ping":70},{"user_id":67,"name":"Nose Yogurt","steam_id":76561198877713016,"connected_time":13206000000000,"state":"active","ping":101},{"user_id":282,"name":"我部悍将刘三刀","steam_id":76561198143476772,"connected_time":78000000000,"state":"active","ping":77},{"user_id":275,"name":"duck1e","steam_id":76561198422098581,"connected_time":389000000000,"state":"active","ping":86},{"user_id":174,"name":"Lúd","steam_id":76561198828840546,"connected_time":4347000000000,"state":"active","ping":62},{"user_id":186,"name":"nick","steam_id":76561198400698408,"connected_time":2906000000000,"state":"active","ping":99},{"user_id":276,"name":"sett.","steam_id":76561199010718657,"connected_time":368000000000,"state":"active","ping":72},{"user_id":249,"name":"Cheesey","steam_id":76561198975684137,"connected_time":952000000000,"state":"active","ping":76},{"user_id":253,"name":"Virgin Knight","steam_id":76561198039478798,"connected_time":904000000000,"state":"active","ping":81},{"user_id":279,"name":"TaxEvasioninVietnam","steam_id":76561199181597130,"connected_time":278000000000,"state":"active","ping":85},{"user_id":211,"name":"This is Elon Musk","steam_id":76561198429235506,"connected_time":1852000000000,"state":"active","ping":83},{"user_id":251,"name":"dunkleshreken","steam_id":76561198044875028,"connected_time":927000000000,"state":"active","ping":102},{"user_id":145,"name":"it chrmis time","steam_id":76561198055553140,"connected_time":5409000000000,"state":"active","ping":79},{"user_id":266,"name":"ThatGuyWhoDoesn'tTalk","steam_id":76561199158560796,"connected_time":520000000000,"state":"active","ping":63},{"user_id":267,"name":"Diavolo Diablo","steam_id":76561198166295333,"connected_time":495000000000,"state":"active","ping":69},{"user_id":214,"name":"Oral Cigarettes","steam_id":76561198347418251,"connected_time":1837000000000,"state":"active","ping":129},{"user_id":213,"name":"Bert","steam_id":76561199229912984,"connected_time":1842000000000,"state":"active","ping":73},{"user_id":217,"name":"Rephex","steam_id":76561198308185574,"connected_time":1817000000000,"state":"active","ping":78}]},{"server_id":1,"name":"Uncletopia | Los Angeles | 1 | All Maps","name_short":"lax-1","host":"lax-1.us.uncletopia.com","port":27015,"enabled":true,"region":"us-west","cc":"us","latitude":33.94279,"longitude":-118.41004,"reserved":0,"last_update":"0001-01-01T00:00:00Z","name_a2s":"Uncletopia | Los Angeles | 1 | All Maps","protocol":17,"map":"plr_bananabay","folder":"tf","game":"Team Fortress","app_id":440,"player_count":0,"max_players":24,"Bots":0,"server_type":"Dedicated","server_os":"Linux","password":true,"vac":true,"version":"7708610","steam_id":85568392924469991,"keywords":["nocrits","nodmgspread","payload","uncletopia"],"game_id":440,"stv_port":27016,"stv_name":"Uncletopia | Los Angeles | 1 | All Maps | STV","players":null},{"server_id":112,"name":"Uncletopia | Los Angeles | 2 | All Maps","name_short":"lax-2","host":"lax-1.us.uncletopia.com","port":27025,"enabled":true,"region":"us-west","cc":"us","latitude":33.94279,"longitude":-118.41004,"reserved":0,"last_update":"0001-01-01T00:00:00Z","name_a2s":"Uncletopia | Los Angeles | 2 | All Maps","protocol":17,"map":"plr_bananabay","folder":"tf","game":"Team Fortress","app_id":440,"player_count":0,"max_players":24,"Bots":0,"server_type":"Dedicated","server_os":"Linux","password":true,"vac":true,"version":"7708610","steam_id":85568392924469992,"keywords":["nocrits","nodmgspread","payload","uncletopia"],"game_id":440,"stv_port":27026,"stv_name":"Uncletopia | Los Angeles | 2 | All Maps | STV","players":null},{"server_id":324,"name":"Uncletopia | Los Angeles | 3 | All Maps","name_short":"lax-3","host":"lax-1.us.uncletopia.com","port":27035,"enabled":true,"region":"us-west","cc":"us","latitude":33.94279,"longitude":-118.41004,"reserved":0,"last_update":"0001-01-01T00:00:00Z","name_a2s":"Uncletopia | Los Angeles | 3 | All Maps","protocol":17,"map":"plr_bananabay","folder":"tf","game":"Team Fortress","app_id":440,"player_count":0,"max_players":24,"Bots":0,"server_type":"Dedicated","server_os":"Linux","password":true,"vac":true,"version":"7708610","steam_id":85568392924510198,"keywords":["nocrits","nodmgspread","payload","uncletopia"],"game_id":440,"stv_port":27036,"stv_name":"Uncletopia | Los Angeles | 3 | All Maps | STV","players":null},{"server_id":25,"name":"Uncletopia | Los Angeles | 4 | No Payload","name_short":"lax-4","host":"lax-1.us.uncletopia.com","port":27045,"enabled":true,"region":"us-west","cc":"us","latitude":33.94279,"longitude":-118.41004,"reserved":0,"last_update":"0001-01-01T00:00:00Z","name_a2s":"Uncletopia | Los Angeles | 4 | No Payload","protocol":17,"map":"plr_bananabay","folder":"tf","game":"Team Fortress","app_id":440,"player_count":0,"max_players":24,"Bots":0,"server_type":"Dedicated","server_os":"Linux","password":true,"vac":true,"version":"7708610","steam_id":85568392924510199,"keywords":["nocrits","nodmgspread","payload","uncletopia"],"game_id":440,"stv_port":27046,"stv_name":"Uncletopia | Los Angeles | 4 | No Payload | STV","players":null},{"server_id":11,"name":"Uncletopia | London | 1 | All Maps","name_short":"lon-1","host":"lon-1.uk.uncletopia.com","port":27015,"enabled":true,"region":"eu","cc":"gb","latitude":51.509865,"longitude":-0.118092,"reserved":0,"last_update":"0001-01-01T00:00:00Z","name_a2s":"Uncletopia | London | 1 | All Maps","protocol":17,"map":"koth_harvest_final","folder":"tf","game":"Team Fortress","app_id":440,"player_count":24,"max_players":24,"Bots":0,"server_type":"Dedicated","server_os":"Linux","password":true,"vac":true,"version":"7708610","steam_id":85568392924367362,"keywords":["cp","nocrits","nodmgspread","uncletopia"],"game_id":440,"stv_port":27016,"stv_name":"Uncletopia | London | 1 | All Maps | STV","players":[{"user_id":264,"name":"Accident","steam_id":76561198115160396,"connected_time":2651000000000,"state":"active","ping":71},{"user_id":223,"name":"Him","steam_id":76561198155314925,"connected_time":4726000000000,"state":"active","ping":54},{"user_id":303,"name":"jan-anne-wiebe","steam_id":76561199077022985,"connected_time":38000000000,"state":"active","ping":55},{"user_id":273,"name":"♥ Cirno ♥","steam_id":76561198834982738,"connected_time":1976000000000,"state":"active","ping":57},{"user_id":291,"name":"CaptiaNNooBS437","steam_id":76561198844010921,"connected_time":1175000000000,"state":"active","ping":73},{"user_id":301,"name":"nudjura","steam_id":76561198281986139,"connected_time":269000000000,"state":"active","ping":47},{"user_id":259,"name":"Lazy Mountain Engineer","steam_id":76561198308791549,"connected_time":2793000000000,"state":"active","ping":89},{"user_id":285,"name":"Pan W","steam_id":76561198384111099,"connected_time":1630000000000,"state":"active","ping":66},{"user_id":292,"name":"Chill Spirit","steam_id":76561198845001725,"connected_time":1100000000000,"state":"active","ping":60},{"user_id":290,"name":"Kahvi","steam_id":76561198723244199,"connected_time":1230000000000,"state":"active","ping":86},{"user_id":274,"name":"player","steam_id":76561198054474684,"connected_time":1976000000000,"state":"active","ping":86},{"user_id":266,"name":"The_Jaystone","steam_id":76561198126280691,"connected_time":2575000000000,"state":"active","ping":36},{"user_id":302,"name":"Joseph Stalin LFT","steam_id":76561198033199746,"connected_time":87000000000,"state":"active","ping":50},{"user_id":253,"name":"Celtins","steam_id":76561198839837475,"connected_time":3036000000000,"state":"active","ping":47},{"user_id":296,"name":"Dakeyras","steam_id":76561198057069564,"connected_time":750000000000,"state":"active","ping":96},{"user_id":282,"name":"MatesThePlayer","steam_id":76561198066156449,"connected_time":1719000000000,"state":"active","ping":67},{"user_id":263,"name":"ciliorkun18","steam_id":76561198228942500,"connected_time":2670000000000,"state":"active","ping":91},{"user_id":297,"name":"cropping","steam_id":76561198026586456,"connected_time":743000000000,"state":"active","ping":55},{"user_id":262,"name":"Ynss","steam_id":76561198021472798,"connected_time":2674000000000,"state":"active","ping":59},{"user_id":243,"name":"JimJam","steam_id":76561199002957746,"connected_time":3846000000000,"state":"active","ping":61},{"user_id":281,"name":"TwOne","steam_id":76561198042918856,"connected_time":1732000000000,"state":"active","ping":46},{"user_id":300,"name":"Yilow","steam_id":76561198040036642,"connected_time":357000000000,"state":"active","ping":71},{"user_id":284,"name":"Fishum","steam_id":76561198148556559,"connected_time":1686000000000,"state":"active","ping":74},{"user_id":295,"name":"Belgorodec","steam_id":76561199383879505,"connected_time":785000000000,"state":"active","ping":103}]},{"server_id":114,"name":"Uncletopia | London | 2 | All Maps","name_short":"lon-2","host":"lon-1.uk.uncletopia.com","port":27025,"enabled":true,"region":"eu","cc":"gb","latitude":51.509865,"longitude":-0.118092,"reserved":0,"last_update":"0001-01-01T00:00:00Z","name_a2s":"Uncletopia | London | 2 | All Maps","protocol":17,"map":"pl_swiftwater_final1","folder":"tf","game":"Team Fortress","app_id":440,"player_count":23,"max_players":24,"Bots":0,"server_type":"Dedicated","server_os":"Linux","password":true,"vac":true,"version":"7708610","steam_id":85568392924470941,"keywords":["nocrits","nodmgspread","payload","uncletopia"],"game_id":440,"stv_port":27026,"stv_name":"Uncletopia | London | 2 | All Maps | STV","players":[{"user_id":153,"name":"Data-0","steam_id":76561198440962067,"connected_time":1774000000000,"state":"active","ping":62},{"user_id":185,"name":"I Love Coffee","steam_id":76561199028651017,"connected_time":680000000000,"state":"active","ping":55},{"user_id":140,"name":"NormalMan","steam_id":76561198411005486,"connected_time":2935000000000,"state":"active","ping":94},{"user_id":186,"name":"Lyell","steam_id":76561198350329389,"connected_time":582000000000,"state":"active","ping":80},{"user_id":169,"name":"swallowed 10 pennies please hel","steam_id":76561198055816412,"connected_time":1235000000000,"state":"active","ping":56},{"user_id":170,"name":"Texas Red","steam_id":76561199069782779,"connected_time":1226000000000,"state":"active","ping":93},{"user_id":171,"name":"LOBZIK","steam_id":76561198114830120,"connected_time":1226000000000,"state":"active","ping":80},{"user_id":146,"name":"dafydd","steam_id":76561198052200325,"connected_time":2645000000000,"state":"active","ping":90},{"user_id":189,"name":"Cosmonaut","steam_id":76561198239514504,"connected_time":95000000000,"state":"active","ping":69},{"user_id":143,"name":"panakid","steam_id":76561198364121077,"connected_time":2720000000000,"state":"active","ping":97},{"user_id":165,"name":"habibirubik","steam_id":76561199101752634,"connected_time":1372000000000,"state":"active","ping":77},{"user_id":181,"name":"LemonLeCitron","steam_id":76561198215545267,"connected_time":1041000000000,"state":"active","ping":60},{"user_id":173,"name":"Wuffington","steam_id":76561198033762881,"connected_time":1212000000000,"state":"active","ping":56},{"user_id":183,"name":"turtlemage","steam_id":76561198052452373,"connected_time":970000000000,"state":"active","ping":65},{"user_id":188,"name":"Trexican","steam_id":76561198164129603,"connected_time":389000000000,"state":"active","ping":40},{"user_id":176,"name":"Festive Samanth","steam_id":76561198880505482,"connected_time":1145000000000,"state":"active","ping":66},{"user_id":90,"name":"Derek Pappalardo Gaming","steam_id":76561198215428069,"connected_time":5209000000000,"state":"active","ping":63},{"user_id":168,"name":"Scarlet","steam_id":76561198075966579,"connected_time":1257000000000,"state":"active","ping":45},{"user_id":156,"name":"FLOWER","steam_id":76561198043564060,"connected_time":1673000000000,"state":"active","ping":59},{"user_id":132,"name":"Vanadis","steam_id":76561198255557997,"connected_time":3030000000000,"state":"active","ping":69},{"user_id":175,"name":"Tides","steam_id":76561198257383813,"connected_time":1184000000000,"state":"active","ping":57},{"user_id":131,"name":"Mr. Pink","steam_id":76561198065858172,"connected_time":3227000000000,"state":"active","ping":109},{"user_id":164,"name":"Equinox","steam_id":76561199055592635,"connected_time":1436000000000,"state":"active","ping":49}]},{"server_id":320,"name":"Uncletopia | London | 3 | All Maps","name_short":"lon-3","host":"lon-1.uk.uncletopia.com","port":27035,"enabled":true,"region":"eu","cc":"gb","latitude":51.509865,"longitude":-0.118092,"reserved":0,"last_update":"0001-01-01T00:00:00Z","name_a2s":"Uncletopia | London | 3 | All Maps","protocol":17,"map":"pl_swiftwater_final1","folder":"tf","game":"Team Fortress","app_id":440,"player_count":24,"max_players":24,"Bots":0,"server_type":"Dedicated","server_os":"Linux","password":true,"vac":true,"version":"7708610","steam_id":85568392924510192,"keywords":["nocrits","nodmgspread","payload","uncletopia"],"game_id":440,"stv_port":27036,"stv_name":"Uncletopia | London | 3 | All Maps | STV","players":[{"user_id":221,"name":"Cheekus Breekus","steam_id":76561198188310329,"connected_time":1715000000000,"state":"active","ping":85},{"user_id":172,"name":"[F2P] MalCo","steam_id":76561197994930440,"connected_time":5315000000000,"state":"active","ping":34},{"user_id":228,"name":"Bob Sacamano","steam_id":76561198085610701,"connected_time":979000000000,"state":"active","ping":100},{"user_id":235,"name":"dongus","steam_id":76561198042774930,"connected_time":417000000000,"state":"active","ping":63},{"user_id":230,"name":"tob:ias","steam_id":76561198832146626,"connected_time":820000000000,"state":"active","ping":45},{"user_id":236,"name":"Dr. Funkenstein","steam_id":76561197977816210,"connected_time":409000000000,"state":"active","ping":52},{"user_id":237,"name":"Tibbs","steam_id":76561197987980406,"connected_time":368000000000,"state":"active","ping":63},{"user_id":220,"name":"Nathan","steam_id":76561198040069336,"connected_time":1735000000000,"state":"active","ping":55},{"user_id":252,"name":"Adster","steam_id":76561198121041270,"connected_time":23000000000,"state":"spawning","ping":119},{"user_id":169,"name":"Pipper","steam_id":76561197970326616,"connected_time":5816000000000,"state":"active","ping":55},{"user_id":226,"name":"Blink","steam_id":76561198144033005,"connected_time":1275000000000,"state":"active","ping":46},{"user_id":248,"name":"purplecan","steam_id":76561199208283508,"connected_time":199000000000,"state":"active","ping":67},{"user_id":249,"name":"joost","steam_id":76561198206026637,"connected_time":151000000000,"state":"active","ping":54},{"user_id":250,"name":"Rubi","steam_id":76561198799014963,"connected_time":112000000000,"state":"active","ping":137},{"user_id":216,"name":"Ummdustry","steam_id":76561198063470477,"connected_time":1859000000000,"state":"active","ping":46},{"user_id":246,"name":"heisenburger","steam_id":76561198284589853,"connected_time":215000000000,"state":"active","ping":83},{"user_id":205,"name":"Flare","steam_id":76561198039098320,"connected_time":2658000000000,"state":"active","ping":45},{"user_id":251,"name":"chey","steam_id":76561198035380064,"connected_time":85000000000,"state":"active","ping":46},{"user_id":242,"name":"hipster_doofus","steam_id":76561197970902697,"connected_time":332000000000,"state":"active","ping":49},{"user_id":206,"name":"where is my egg?","steam_id":76561198172542535,"connected_time":2401000000000,"state":"active","ping":77},{"user_id":198,"name":"Нечуй-Левицький","steam_id":76561198870926865,"connected_time":3138000000000,"state":"active","ping":39},{"user_id":218,"name":"BOX","steam_id":76561199079316829,"connected_time":1842000000000,"state":"active","ping":75},{"user_id":243,"name":"walluu","steam_id":76561198121830870,"connected_time":319000000000,"state":"active","ping":75},{"user_id":147,"name":"Milosz52","steam_id":76561199060940204,"connected_time":6492000000000,"state":"active","ping":79}]},{"server_id":321,"name":"Uncletopia | London | 4 | All Maps","name_short":"lon-4","host":"lon-1.uk.uncletopia.com","port":27045,"enabled":true,"region":"eu","cc":"gb","latitude":51.509865,"longitude":-0.118092,"reserved":0,"last_update":"0001-01-01T00:00:00Z","name_a2s":"Uncletopia | London | 4 | All Maps","protocol":17,"map":"koth_cascade","folder":"tf","game":"Team Fortress","app_id":440,"player_count":0,"max_players":24,"Bots":0,"server_type":"Dedicated","server_os":"Linux","password":true,"vac":true,"version":"7708610","steam_id":85568392924510193,"keywords":["cp","nocrits","nodmgspread","uncletopia"],"game_id":440,"stv_port":27046,"stv_name":"Uncletopia | London | 4 | All Maps | STV","players":null},{"server_id":21,"name":"Uncletopia | London | 5 | All Maps","name_short":"lon-5","host":"lon-1.uk.uncletopia.com","port":27055,"enabled":true,"region":"eu","cc":"gb","latitude":51.509865,"longitude":-0.118092,"reserved":0,"last_update":"0001-01-01T00:00:00Z","name_a2s":"Uncletopia | London | 5 | All Maps","protocol":17,"map":"pl_snowycoast","folder":"tf","game":"Team Fortress","app_id":440,"player_count":0,"max_players":24,"Bots":0,"server_type":"Dedicated","server_os":"Linux","password":true,"vac":true,"version":"7708610","steam_id":85568392924742829,"keywords":["nocrits","nodmgspread","payload","uncletopia"],"game_id":440,"stv_port":27056,"stv_name":"Uncletopia | London | 5 | All Maps | STV","players":null},{"server_id":22,"name":"Uncletopia | London | 6 | All Maps","name_short":"lon-6","host":"lon-1.uk.uncletopia.com","port":27065,"enabled":true,"region":"eu","cc":"gb","latitude":51.509865,"longitude":-0.118092,"reserved":0,"last_update":"0001-01-01T00:00:00Z","name_a2s":"Uncletopia | London | 6 | All Maps","protocol":17,"map":"pl_pier","folder":"tf","game":"Team Fortress","app_id":440,"player_count":0,"max_players":24,"Bots":0,"server_type":"Dedicated","server_os":"Linux","password":true,"vac":true,"version":"7708610","steam_id":85568392924742830,"keywords":["nocrits","nodmgspread","payload","uncletopia"],"game_id":440,"stv_port":27066,"stv_name":"Uncletopia | London | 6 | All Maps | STV","players":null},{"server_id":40,"name":"Uncletopia | London | 7 | No Payload","name_short":"lon-7","host":"lon-1.uk.uncletopia.com","port":27075,"enabled":true,"region":"eu","cc":"gb","latitude":51.509865,"longitude":-0.118092,"reserved":0,"last_update":"0001-01-01T00:00:00Z","name_a2s":"Uncletopia | London | 7 | No Payload","protocol":17,"map":"koth_lakeside_final","folder":"tf","game":"Team Fortress","app_id":440,"player_count":0,"max_players":24,"Bots":0,"server_type":"Dedicated","server_os":"Linux","password":true,"vac":true,"version":"7708610","steam_id":85568392924964314,"keywords":["cp","nocrits","nodmgspread","uncletopia"],"game_id":440,"stv_port":27076,"stv_name":"Uncletopia | London | 7 | No Payload | STV","players":null},{"server_id":41,"name":"Uncletopia | London | 8 | Community","name_short":"lon-8","host":"lon-1.uk.uncletopia.com","port":27085,"enabled":true,"region":"eu","cc":"gb","latitude":51.509865,"longitude":-0.118092,"reserved":0,"last_update":"0001-01-01T00:00:00Z","name_a2s":"Uncletopia | London | 8 | Community","protocol":17,"map":"koth_highpass","folder":"tf","game":"Team Fortress","app_id":440,"player_count":0,"max_players":24,"Bots":0,"server_type":"Dedicated","server_os":"Linux","password":true,"vac":true,"version":"7708610","steam_id":85568392924964315,"keywords":["cp","nocrits","nodmgspread","uncletopia"],"game_id":440,"stv_port":27086,"stv_name":"Uncletopia | London | 8 | Community | STV","players":null},{"server_id":300,"name":"Uncletopia | Montréal | 1 | All Maps","name_short":"mtl-1","host":"mtl-1.ca.uncletopia.com","port":27015,"enabled":true,"region":"us-east","cc":"ca","latitude":45.50889,"longitude":-73.56167,"reserved":0,"last_update":"0001-01-01T00:00:00Z","name_a2s":"Uncletopia | Montréal | 1 | All Maps","protocol":17,"map":"pl_barnblitz","folder":"tf","game":"Team Fortress","app_id":440,"player_count":0,"max_players":24,"Bots":0,"server_type":"Dedicated","server_os":"Linux","password":true,"vac":true,"version":"7708610","steam_id":85568392924500087,"keywords":["nocrits","nodmgspread","payload","uncletopia"],"game_id":440,"stv_port":0,"stv_name":"","players":null},{"server_id":301,"name":"Uncletopia | Montréal | 2 | All Maps","name_short":"mtl-2","host":"mtl-1.ca.uncletopia.com","port":27025,"enabled":true,"region":"us-east","cc":"ca","latitude":45.50889,"longitude":-73.56167,"reserved":0,"last_update":"0001-01-01T00:00:00Z","name_a2s":"Uncletopia | Montréal | 2 | All Maps","protocol":17,"map":"pl_frontier_final","folder":"tf","game":"Team Fortress","app_id":440,"player_count":0,"max_players":24,"Bots":0,"server_type":"Dedicated","server_os":"Linux","password":true,"vac":true,"version":"7708610","steam_id":85568392924500088,"keywords":["nocrits","nodmgspread","payload","uncletopia"],"game_id":440,"stv_port":0,"stv_name":"","players":null},{"server_id":302,"name":"Uncletopia | Montréal | 3 | All Maps","name_short":"mtl-3","host":"mtl-1.ca.uncletopia.com","port":27035,"enabled":true,"region":"us-east","cc":"ca","latitude":45.50889,"longitude":-73.56167,"reserved":0,"last_update":"0001-01-01T00:00:00Z","name_a2s":"Uncletopia | Montréal | 3 | All Maps","protocol":17,"map":"pl_snowycoast","folder":"tf","game":"Team Fortress","app_id":440,"player_count":0,"max_players":24,"Bots":0,"server_type":"Dedicated","server_os":"Linux","password":true,"vac":true,"version":"7708610","steam_id":85568392924500089,"keywords":["nocrits","nodmgspread","payload","uncletopia"],"game_id":440,"stv_port":0,"stv_name":"","players":null},{"server_id":303,"name":"Uncletopia | Montréal | 4 | No Payload","name_short":"mtl-4","host":"mtl-1.ca.uncletopia.com","port":27045,"enabled":true,"region":"us-east","cc":"ca","latitude":45.50889,"longitude":-73.56167,"reserved":0,"last_update":"0001-01-01T00:00:00Z","name_a2s":"Uncletopia | Montréal | 4 | No Payload","protocol":17,"map":"pl_frontier_final","folder":"tf","game":"Team Fortress","app_id":440,"player_count":0,"max_players":24,"Bots":0,"server_type":"Dedicated","server_os":"Linux","password":true,"vac":true,"version":"7708610","steam_id":85568392924500090,"keywords":["nocrits","nodmgspread","payload","uncletopia"],"game_id":440,"stv_port":0,"stv_name":"","players":null},{"server_id":13,"name":"Uncletopia | New York City | 1 | All Maps","name_short":"nyc-1","host":"nyc-1.us.uncletopia.com","port":27015,"enabled":true,"region":"us-east","cc":"us","latitude":40.73061,"longitude":-73.93524,"reserved":0,"last_update":"0001-01-01T00:00:00Z","name_a2s":"Uncletopia | New York City | 1 | All Maps","protocol":17,"map":"cp_dustbowl","folder":"tf","game":"Team Fortress","app_id":440,"player_count":0,"max_players":24,"Bots":0,"server_type":"Dedicated","server_os":"Linux","password":true,"vac":true,"version":"7708610","steam_id":85568392924469993,"keywords":["cp","nocrits","nodmgspread","uncletopia"],"game_id":440,"stv_port":27016,"stv_name":"Uncletopia | New York City | 1 | All Maps | STV","players":null},{"server_id":14,"name":"Uncletopia | New York City | 2 | All Maps","name_short":"nyc-2","host":"nyc-1.us.uncletopia.com","port":27025,"enabled":true,"region":"us-east","cc":"us","latitude":40.73061,"longitude":-73.93524,"reserved":0,"last_update":"0001-01-01T00:00:00Z","name_a2s":"Uncletopia | New York City | 2 | All Maps","protocol":17,"map":"koth_cascade","folder":"tf","game":"Team Fortress","app_id":440,"player_count":0,"max_players":24,"Bots":0,"server_type":"Dedicated","server_os":"Linux","password":true,"vac":true,"version":"7708610","steam_id":85568392924469994,"keywords":["cp","nocrits","nodmgspread","uncletopia"],"game_id":440,"stv_port":27026,"stv_name":"Uncletopia | New York City | 2 | All Maps | STV","players":null},{"server_id":15,"name":"Uncletopia | New York City | 3 | All Maps","name_short":"nyc-3","host":"nyc-1.us.uncletopia.com","port":27035,"enabled":true,"region":"us-east","cc":"us","latitude":40.73061,"longitude":-73.93524,"reserved":0,"last_update":"0001-01-01T00:00:00Z","name_a2s":"Uncletopia | New York City | 3 | All Maps","protocol":17,"map":"pl_swiftwater_final1","folder":"tf","game":"Team Fortress","app_id":440,"player_count":0,"max_players":24,"Bots":0,"server_type":"Dedicated","server_os":"Linux","password":true,"vac":true,"version":"7708610","steam_id":85568392924742820,"keywords":["nocrits","nodmgspread","payload","uncletopia"],"game_id":440,"stv_port":27036,"stv_name":"Uncletopia | New York City | 3 | All Maps | STV","players":null},{"server_id":16,"name":"Uncletopia | New York City | 4 | Community","name_short":"nyc-4","host":"nyc-1.us.uncletopia.com","port":27045,"enabled":true,"region":"us-east","cc":"us","latitude":40.73061,"longitude":-73.93524,"reserved":0,"last_update":"0001-01-01T00:00:00Z","name_a2s":"Uncletopia | New York City | 4 | Community","protocol":17,"map":"pl_upward","folder":"tf","game":"Team Fortress","app_id":440,"player_count":0,"max_players":24,"Bots":0,"server_type":"Dedicated","server_os":"Linux","password":true,"vac":true,"version":"7708610","steam_id":85568392924742821,"keywords":["nocrits","nodmgspread","payload","uncletopia"],"game_id":440,"stv_port":27046,"stv_name":"Uncletopia | New York City | 4 | Community | STV","players":null},{"server_id":142,"name":"Uncletopia | São Paulo | 1 | All Maps","name_short":"sao-1","host":"sao-1.br.uncletopia.com","port":27015,"enabled":true,"region":"sa","cc":"br","latitude":-23.533773,"longitude":-46.62529,"reserved":0,"last_update":"0001-01-01T00:00:00Z","name_a2s":"Uncletopia | São Paulo | 1 | All Maps","protocol":17,"map":"koth_viaduct","folder":"tf","game":"Team Fortress","app_id":440,"player_count":0,"max_players":24,"Bots":0,"server_type":"Dedicated","server_os":"Linux","password":true,"vac":true,"version":"7708610","steam_id":85568392924469996,"keywords":["cp","nocrits","nodmgspread","uncletopia"],"game_id":440,"stv_port":27016,"stv_name":"Uncletopia | São Paulo | 1 | All Maps | STV","players":null},{"server_id":143,"name":"Uncletopia | São Paulo | 2 | All Maps","name_short":"sao-2","host":"sao-2.br.uncletopia.com","port":27015,"enabled":true,"region":"sa","cc":"br","latitude":-23.533773,"longitude":-46.62529,"reserved":0,"last_update":"0001-01-01T00:00:00Z","name_a2s":"Uncletopia | São Paulo | 2 | All Maps","protocol":17,"map":"pl_pier","folder":"tf","game":"Team Fortress","app_id":440,"player_count":0,"max_players":24,"Bots":0,"server_type":"Dedicated","server_os":"Linux","password":true,"vac":true,"version":"7708610","steam_id":85568392924485349,"keywords":["nocrits","nodmgspread","payload","uncletopia"],"game_id":440,"stv_port":27016,"stv_name":"Uncletopia | São Paulo | 2 | All Maps | STV","players":null},{"server_id":7,"name":"Uncletopia | Seattle | 1 | All Maps","name_short":"sea-1","host":"sea-1.us.uncletopia.com","port":27015,"enabled":true,"region":"us-west","cc":"us","latitude":47.608013,"longitude":-122.33517,"reserved":0,"last_update":"0001-01-01T00:00:00Z","name_a2s":"Uncletopia | Seattle | 1 | All Maps","protocol":17,"map":"plr_bananabay","folder":"tf","game":"Team Fortress","app_id":440,"player_count":0,"max_players":24,"Bots":0,"server_type":"Dedicated","server_os":"Linux","password":true,"vac":true,"version":"7708610","steam_id":85568392924469997,"keywords":["nocrits","nodmgspread","payload","uncletopia"],"game_id":440,"stv_port":27016,"stv_name":"Uncletopia | Seattle | 1 | All Maps | STV","players":null},{"server_id":119,"name":"Uncletopia | Seattle | 2 | All Maps","name_short":"sea-2","host":"sea-1.us.uncletopia.com","port":27025,"enabled":true,"region":"us-west","cc":"us","latitude":47.608013,"longitude":-122.33517,"reserved":0,"last_update":"0001-01-01T00:00:00Z","name_a2s":"Uncletopia | Seattle | 2 | All Maps","protocol":17,"map":"plr_bananabay","folder":"tf","game":"Team Fortress","app_id":440,"player_count":0,"max_players":24,"Bots":0,"server_type":"Dedicated","server_os":"Linux","password":true,"vac":true,"version":"7708610","steam_id":85568392924469998,"keywords":["nocrits","nodmgspread","payload","uncletopia"],"game_id":440,"stv_port":27026,"stv_name":"Uncletopia | Seattle | 2 | All Maps | STV","players":null},{"server_id":17,"name":"Uncletopia | San Francisco | 1 | All Maps","name_short":"sfo-1","host":"sfo-1.us.uncletopia.com","port":27015,"enabled":true,"region":"us-west","cc":"us","latitude":37.77397,"longitude":-122.4313,"reserved":0,"last_update":"0001-01-01T00:00:00Z","name_a2s":"Uncletopia | San Francisco | 1 | All Maps","protocol":17,"map":"plr_bananabay","folder":"tf","game":"Team Fortress","app_id":440,"player_count":0,"max_players":24,"Bots":0,"server_type":"Dedicated","server_os":"Linux","password":true,"vac":true,"version":"7708610","steam_id":85568392924469999,"keywords":["nocrits","nodmgspread","payload","uncletopia"],"game_id":440,"stv_port":27016,"stv_name":"Uncletopia | San Francisco | 1 | All Maps | STV","players":null},{"server_id":18,"name":"Uncletopia | San Francisco | 2 | All Maps","name_short":"sfo-2","host":"sfo-1.us.uncletopia.com","port":27025,"enabled":true,"region":"us-west","cc":"us","latitude":37.77397,"longitude":-122.4313,"reserved":0,"last_update":"0001-01-01T00:00:00Z","name_a2s":"Uncletopia | San Francisco | 2 | All Maps","protocol":17,"map":"plr_bananabay","folder":"tf","game":"Team Fortress","app_id":440,"player_count":0,"max_players":24,"Bots":0,"server_type":"Dedicated","server_os":"Linux","password":true,"vac":true,"version":"7708610","steam_id":85568392924470000,"keywords":["nocrits","nodmgspread","payload","uncletopia"],"game_id":440,"stv_port":27026,"stv_name":"Uncletopia | San Francisco | 2 | All Maps | STV","players":null},{"server_id":19,"name":"Uncletopia | San Francisco | 3 | No Payload","name_short":"sfo-3","host":"sfo-1.us.uncletopia.com","port":27035,"enabled":true,"region":"us-west","cc":"us","latitude":37.77397,"longitude":-122.4313,"reserved":0,"last_update":"0001-01-01T00:00:00Z","name_a2s":"Uncletopia | San Francisco | 3 | No Payload","protocol":17,"map":"plr_bananabay","folder":"tf","game":"Team Fortress","app_id":440,"player_count":0,"max_players":24,"Bots":0,"server_type":"Dedicated","server_os":"Linux","password":true,"vac":true,"version":"7708610","steam_id":85568392924742824,"keywords":["nocrits","nodmgspread","payload","uncletopia"],"game_id":440,"stv_port":27036,"stv_name":"Uncletopia | San Francisco | 3 | No Payload | STV","players":null},{"server_id":20,"name":"Uncletopia | San Francisco | 4 | Community","name_short":"sfo-4","host":"sfo-1.us.uncletopia.com","port":27045,"enabled":true,"region":"us-west","cc":"us","latitude":37.77397,"longitude":-122.4313,"reserved":0,"last_update":"0001-01-01T00:00:00Z","name_a2s":"Uncletopia | San Francisco | 4 | Community","protocol":17,"map":"cp_altitude","folder":"tf","game":"Team Fortress","app_id":440,"player_count":0,"max_players":24,"Bots":0,"server_type":"Dedicated","server_os":"Linux","password":true,"vac":true,"version":"7708610","steam_id":85568392924742826,"keywords":["cp","nocrits","nodmgspread","uncletopia"],"game_id":440,"stv_port":27046,"stv_name":"Uncletopia | San Francisco | 4 | Community | STV","players":null},{"server_id":141,"name":"Uncletopia | Sydney | 1 | All Maps","name_short":"syd-1","host":"syd-1.au.uncletopia.com","port":27015,"enabled":true,"region":"au","cc":"au","latitude":-33.865143,"longitude":151.2099,"reserved":0,"last_update":"0001-01-01T00:00:00Z","name_a2s":"Uncletopia | Sydney | 1 | All Maps","protocol":17,"map":"pl_swiftwater_final1","folder":"tf","game":"Team Fortress","app_id":440,"player_count":20,"max_players":24,"Bots":0,"server_type":"Dedicated","server_os":"Linux","password":true,"vac":true,"version":"7708610","steam_id":85568392924470001,"keywords":["nocrits","nodmgspread","payload","uncletopia"],"game_id":440,"stv_port":27016,"stv_name":"Uncletopia | Sydney | 1 | All Maps | STV","players":[{"user_id":227,"name":"Captain Canadia","steam_id":76561198167967735,"connected_time":2057000000000,"state":"active","ping":47},{"user_id":251,"name":"KILLER WHALES","steam_id":76561198012422705,"connected_time":324000000000,"state":"active","ping":61},{"user_id":228,"name":"Lateralus","steam_id":76561198007865860,"connected_time":2050000000000,"state":"active","ping":105},{"user_id":253,"name":"tex","steam_id":76561198364851711,"connected_time":140000000000,"state":"active","ping":59},{"user_id":235,"name":"Extra Exotic","steam_id":76561198045191981,"connected_time":1337000000000,"state":"active","ping":60},{"user_id":208,"name":"Oscar The Grouch","steam_id":76561198151755104,"connected_time":4359000000000,"state":"active","ping":41},{"user_id":237,"name":"floop flub","steam_id":76561198418968979,"connected_time":1182000000000,"state":"active","ping":95},{"user_id":202,"name":"April","steam_id":76561198848287180,"connected_time":4878000000000,"state":"active","ping":46},{"user_id":250,"name":"Autistic Raptor","steam_id":76561198354523762,"connected_time":386000000000,"state":"active","ping":54},{"user_id":239,"name":"i like balls","steam_id":76561199010558927,"connected_time":1115000000000,"state":"active","ping":144},{"user_id":245,"name":"yons","steam_id":76561198083920784,"connected_time":1001000000000,"state":"active","ping":59},{"user_id":246,"name":"euphoria","steam_id":76561198279475049,"connected_time":608000000000,"state":"active","ping":45},{"user_id":199,"name":"Rogue (Anti-fire)","steam_id":76561198055404248,"connected_time":5034000000000,"state":"active","ping":45},{"user_id":247,"name":"Floppy","steam_id":76561198296769665,"connected_time":587000000000,"state":"active","ping":162},{"user_id":215,"name":"hawk","steam_id":76561198135164277,"connected_time":3123000000000,"state":"active","ping":55},{"user_id":254,"name":"Diming","steam_id":76561198325584599,"connected_time":100000000000,"state":"active","ping":49},{"user_id":233,"name":"bread banditcamp.com","steam_id":76561199309513205,"connected_time":1799000000000,"state":"active","ping":54},{"user_id":216,"name":"Local Trash Expert","steam_id":76561198145598622,"connected_time":3122000000000,"state":"active","ping":67},{"user_id":225,"name":"J''''","steam_id":76561198047565137,"connected_time":2360000000000,"state":"active","ping":56},{"user_id":244,"name":"Evie","steam_id":76561198360222919,"connected_time":1051000000000,"state":"active","ping":56}]},{"server_id":123,"name":"Uncletopia | Sydney | 2 | All Maps","name_short":"syd-2","host":"syd-1.au.uncletopia.com","port":27025,"enabled":true,"region":"au","cc":"au","latitude":-33.865143,"longitude":151.2099,"reserved":0,"last_update":"0001-01-01T00:00:00Z","name_a2s":"Uncletopia | Sydney | 2 | All Maps","protocol":17,"map":"koth_lakeside_final","folder":"tf","game":"Team Fortress","app_id":440,"player_count":0,"max_players":24,"Bots":0,"server_type":"Dedicated","server_os":"Linux","password":true,"vac":true,"version":"7708610","steam_id":85568392924470002,"keywords":["cp","nocrits","nodmgspread","uncletopia"],"game_id":440,"stv_port":27026,"stv_name":"Uncletopia | Sydney | 2 | All Maps | STV","players":null},{"server_id":395,"name":"Uncletopia | Sydney | 3 | All Maps","name_short":"syd-3","host":"syd-1.au.uncletopia.com","port":27035,"enabled":true,"region":"au","cc":"au","latitude":-33.865143,"longitude":151.2099,"reserved":0,"last_update":"0001-01-01T00:00:00Z","name_a2s":"Uncletopia | Sydney | 3 | All Maps","protocol":17,"map":"cp_altitude","folder":"tf","game":"Team Fortress","app_id":440,"player_count":0,"max_players":24,"Bots":0,"server_type":"Dedicated","server_os":"Linux","password":true,"vac":true,"version":"7708610","steam_id":85568392925194467,"keywords":["cp","nocrits","nodmgspread","uncletopia"],"game_id":440,"stv_port":27036,"stv_name":"Uncletopia | Sydney | 3 | All Maps | STV","players":null},{"server_id":396,"name":"Uncletopia | Sydney | 4 | All Maps","name_short":"syd-4","host":"syd-1.au.uncletopia.com","port":27045,"enabled":true,"region":"au","cc":"au","latitude":-33.865143,"longitude":151.2099,"reserved":0,"last_update":"0001-01-01T00:00:00Z","name_a2s":"Uncletopia | Sydney | 4 | All Maps","protocol":17,"map":"plr_bananabay","folder":"tf","game":"Team Fortress","app_id":440,"player_count":0,"max_players":24,"Bots":0,"server_type":"Dedicated","server_os":"Linux","password":true,"vac":true,"version":"7708610","steam_id":85568392925397958,"keywords":["nocrits","nodmgspread","payload","uncletopia"],"game_id":440,"stv_port":27046,"stv_name":"Uncletopia | Sydney | 4 | All Maps | STV","players":null},{"server_id":58,"name":"Uncletopia | Sydney | 5 | No Payload","name_short":"syd-5","host":"syd-1.au.uncletopia.com","port":27055,"enabled":true,"region":"au","cc":"au","latitude":-33.865143,"longitude":151.2099,"reserved":0,"last_update":"0001-01-01T00:00:00Z","name_a2s":"Uncletopia | Sydney | 5 | No Payload","protocol":17,"map":"plr_bananabay","folder":"tf","game":"Team Fortress","app_id":440,"player_count":0,"max_players":24,"Bots":0,"server_type":"Dedicated","server_os":"Linux","password":true,"vac":true,"version":"7708610","steam_id":85568392925397959,"keywords":["nocrits","nodmgspread","payload","uncletopia"],"game_id":440,"stv_port":27056,"stv_name":"Uncletopia | Sydney | 5 | No Payload | STV","players":null},{"server_id":59,"name":"Uncletopia | Sydney | 6 | Community","name_short":"syd-6","host":"syd-1.au.uncletopia.com","port":27065,"enabled":true,"region":"au","cc":"au","latitude":-33.865143,"longitude":151.2099,"reserved":0,"last_update":"0001-01-01T00:00:00Z","name_a2s":"Uncletopia | Sydney | 6 | Community","protocol":17,"map":"koth_lakeside_final","folder":"tf","game":"Team Fortress","app_id":440,"player_count":0,"max_players":24,"Bots":0,"server_type":"Dedicated","server_os":"Linux","password":true,"vac":true,"version":"7708610","steam_id":85568392925397960,"keywords":["cp","nocrits","nodmgspread","uncletopia"],"game_id":440,"stv_port":27066,"stv_name":"Uncletopia | Sydney | 6 | Community | STV","players":null},{"server_id":49,"name":"Uncletopia | Warsaw | 1 | All Maps","name_short":"waw-1","host":"waw-1.pl.uncletopia.com","port":27015,"enabled":true,"region":"eu","cc":"pl","latitude":52.2297,"longitude":21.017532,"reserved":0,"last_update":"0001-01-01T00:00:00Z","name_a2s":"Uncletopia | Warsaw | 1 | All Maps","protocol":17,"map":"koth_viaduct","folder":"tf","game":"Team Fortress","app_id":440,"player_count":0,"max_players":24,"Bots":0,"server_type":"Dedicated","server_os":"Linux","password":true,"vac":true,"version":"7708610","steam_id":85568392925397850,"keywords":["cp","nocrits","nodmgspread","uncletopia"],"game_id":440,"stv_port":27016,"stv_name":"Uncletopia | Warsaw | 1 | All Maps | STV","players":null},{"server_id":50,"name":"Uncletopia | Warsaw | 2 | All Maps","name_short":"waw-2","host":"waw-1.pl.uncletopia.com","port":27025,"enabled":true,"region":"eu","cc":"pl","latitude":52.2297,"longitude":21.017532,"reserved":0,"last_update":"0001-01-01T00:00:00Z","name_a2s":"Uncletopia | Warsaw | 2 | All Maps","protocol":17,"map":"koth_cascade","folder":"tf","game":"Team Fortress","app_id":440,"player_count":0,"max_players":24,"Bots":0,"server_type":"Dedicated","server_os":"Linux","password":true,"vac":true,"version":"7708610","steam_id":85568392925397851,"keywords":["cp","nocrits","nodmgspread","uncletopia"],"game_id":440,"stv_port":27026,"stv_name":"Uncletopia | Warsaw | 2 | All Maps | STV","players":null},{"server_id":51,"name":"Uncletopia | Warsaw | 3 | All Maps","name_short":"waw-3","host":"waw-1.pl.uncletopia.com","port":27035,"enabled":true,"region":"eu","cc":"pl","latitude":52.2297,"longitude":21.017532,"reserved":0,"last_update":"0001-01-01T00:00:00Z","name_a2s":"Uncletopia | Warsaw | 3 | All Maps","protocol":17,"map":"cp_process_final","folder":"tf","game":"Team Fortress","app_id":440,"player_count":0,"max_players":24,"Bots":0,"server_type":"Dedicated","server_os":"Linux","password":true,"vac":true,"version":"7708610","steam_id":85568392925397852,"keywords":["cp","nocrits","nodmgspread","uncletopia"],"game_id":440,"stv_port":27036,"stv_name":"Uncletopia | Warsaw | 3 | All Maps | STV","players":null},{"server_id":52,"name":"Uncletopia | Warsaw | 4 | All Maps","name_short":"waw-4","host":"waw-1.pl.uncletopia.com","port":27045,"enabled":true,"region":"eu","cc":"pl","latitude":52.2297,"longitude":21.017532,"reserved":0,"last_update":"0001-01-01T00:00:00Z","name_a2s":"Uncletopia | Warsaw | 4 | All Maps","protocol":17,"map":"koth_cascade","folder":"tf","game":"Team Fortress","app_id":440,"player_count":0,"max_players":24,"Bots":0,"server_type":"Dedicated","server_os":"Linux","password":true,"vac":true,"version":"7708610","steam_id":85568392925397853,"keywords":["cp","nocrits","nodmgspread","uncletopia"],"game_id":440,"stv_port":27046,"stv_name":"Uncletopia | Warsaw | 4 | All Maps | STV","players":null},{"server_id":53,"name":"Uncletopia | Warsaw | 5 | No Payload","name_short":"waw-5","host":"waw-1.pl.uncletopia.com","port":27055,"enabled":true,"region":"eu","cc":"pl","latitude":52.2297,"longitude":21.017532,"reserved":0,"last_update":"0001-01-01T00:00:00Z","name_a2s":"Uncletopia | Warsaw | 5 | No Payload","protocol":17,"map":"cp_altitude","folder":"tf","game":"Team Fortress","app_id":440,"player_count":0,"max_players":24,"Bots":0,"server_type":"Dedicated","server_os":"Linux","password":true,"vac":true,"version":"7708610","steam_id":85568392925397854,"keywords":["cp","nocrits","nodmgspread","uncletopia"],"game_id":440,"stv_port":27056,"stv_name":"Uncletopia | Warsaw | 5 | No Payload | STV","players":null},{"server_id":54,"name":"Uncletopia | Warsaw | 6 | Community","name_short":"waw-6","host":"waw-1.pl.uncletopia.com","port":27065,"enabled":true,"region":"eu","cc":"pl","latitude":52.2297,"longitude":21.017532,"reserved":0,"last_update":"0001-01-01T00:00:00Z","name_a2s":"Uncletopia | Warsaw | 6 | Community","protocol":17,"map":"cp_process_final","folder":"tf","game":"Team Fortress","app_id":440,"player_count":0,"max_players":24,"Bots":0,"server_type":"Dedicated","server_os":"Linux","password":true,"vac":true,"version":"7708610","steam_id":85568392925397856,"keywords":["cp","nocrits","nodmgspread","uncletopia"],"game_id":440,"stv_port":27066,"stv_name":"Uncletopia | Warsaw | 6 | Community | STV","players":null}]}