{"status":true,"message":"","result":[{"server_id":9,"name":"Uncletopia | Atlanta | 1 | All Maps","name_short":"atl-1","host":"atl-1.us.uncletopia.com","port":27015,"enabled":true,"region":"us-east","cc":"us","latitude":33.753746,"longitude":-84.38633,"reserved":0,"last_update":"0001-01-01T00:00:00Z","name_a2s":"Uncletopia | Atlanta | 1 | All Maps","protocol":17,"map":"cp_snakewater_final1","folder":"tf","game":"Team Fortress","app_id":440,"player_count":0,"max_players":24,"Bots":0,"server_type":"Dedicated","server_os":"Linux","password":false,"vac":true,"version":"7961495","steam_id":85568392924469982,"keywords":["cp","nocrits","nodmgspread","uncletopia"],"game_id":440,"stv_port":27016,"stv_name":"Uncletopia | Atlanta | 1 | All Maps | STV","players":null},{"server_id":104,"name":"Uncletopia | Atlanta | 2 | All Maps","name_short":"atl-2","host":"atl-1.us.uncletopia.com","port":27025,"enabled":true,"region":"us-east","cc":"us","latitude":33.753746,"longitude":-84.38633,"reserved":0,"last_update":"0001-01-01T00:00:00Z","name_a2s":"Uncletopia | Atlanta | 2 | All Maps","protocol":17,"map":"cp_mountainlab","folder":"tf","game":"Team Fortress","app_id":440,"player_count":0,"max_players":24,"Bots":0,"server_type":"Dedicated","server_os":"Linux","password":false,"vac":true,"version":"7961495","steam_id":85568392924469983,"keywords":["cp","nocrits","nodmgspread","uncletopia"],"game_id":440,"stv_port":27026,"stv_name":"Uncletopia | Atlanta | 2 | All Maps | STV","players":null},{"server_id":400,"name":"Uncletopia | Atlanta | 3 | All Maps","name_short":"atl-3","host":"atl-1.us.uncletopia.com","port":27035,"enabled":true,"region":"us-east","cc":"us","latitude":33.753746,"longitude":-84.38633,"reserved":0,"last_update":"0001-01-01T00:00:00Z","name_a2s":"Uncletopia | Atlanta | 3 | All Maps","protocol":17,"map":"cp_process_final","folder":"tf","game":"Team Fortress","app_id":440,"player_count":0,"max_players":24,"Bots":0,"server_type":"Dedicated","server_os":"Linux","password":false,"vac":true,"version":"7961495","steam_id":85568392924515187,"keywords":["cp","nocrits","nodmgspread","uncletopia"],"game_id":440,"stv_port":27036,"stv_name":"Uncletopia | Atlanta | 3 | All Maps | STV","players":null},{"server_id":401,"name":"Uncletopia | Atlanta | 4 | Community","name_short":"atl-4","host":"atl-1.us.uncletopia.com","port":27045,"enabled":true,"region":"us-east","cc":"us","latitude":33.753746,"longitude":-84.38633,"reserved":0,"last_update":"0001-01-01T00:00:00Z","name_a2s":"Uncletopia | Atlanta | 4 | Community","protocol":17,"map":"koth_lakeside_final","folder":"tf","game":"Team Fortress","app_id":440,"player_count":0,"max_players":24,"Bots":0,"server_type":"Dedicated","server_os":"Linux","password":false,"vac":true,"version":"7961495","steam_id":85568392924515188,"keywords":["cp","nocrits","nodmgspread","uncletopia"],"game_id":440,"stv_port":27046,"stv_name":"Uncletopia | Atlanta | 4 | Community | STV","players":null},{"server_id":2,"name":"Uncletopia | Chicago | 1 | All Maps","name_short":"chi-1","host":"chi-1.us.uncletopia.com","port":27015,"enabled":true,"region":"us-central","cc":"us","latitude":41.881832,"longitude":-87.62318,"reserved":0,"last_update":"0001-01-01T00:00:00Z","name_a2s":"Uncletopia | Chicago | 1 | All Maps","protocol":17,"map":"pl_borneo","folder":"tf","game":"Team Fortress","app_id":440,"player_count":24,"max_players":24,"Bots":0,"server_type":"Dedicated","server_os":"Linux","password":true,"vac":true,"version":"7961495","steam_id":85568392924469984,"keywords":["nocrits","nodmgspread","payload","uncletopia"],"game_id":440,"stv_port":27016,"stv_name":"Uncletopia | Chicago | 1 | All Maps | STV","players":[{"user_id":685,"name":"Drooop","steam_id":76561198856700517,"connected_time":2761000000000,"state":"active","ping":72},{"user_id":565,"name":"Ademar","steam_id":76561199391802581,"connected_time":11806000000000,"state":"active","ping":55},{"user_id":707,"name":"Posture Check","steam_id":76561198998634786,"connected_time":1032000000000,"state":"active","ping":75},{"user_id":708,"name":"pancake ●","steam_id":76561198999217575,"connected_time":684000000000,"state":"active","ping":65},{"user_id":717,"name":"Kero","steam_id":76561198343231436,"connected_time":365000000000,"state":"active","ping":64},{"user_id":718,"name":"O_O","steam_id":76561198049258493,"connected_time":355000000000,"state":"active","ping":113},{"user_id":710,"name":"Green Mario","steam_id":76561198922644496,"connected_time":500000000000,"state":"active","ping":89},{"user_id":700,"name":"Asura","steam_id":76561199026590878,"connected_time":2036000000000,"state":"active","ping":69},{"user_id":703,"name":"TheOneZoot","steam_id":76561198121944243,"connected_time":1732000000000,"state":"active","ping":75},{"user_id":673,"name":"BloopDeKloop","steam_id":76561198416703611,"connected_time":3139000000000,"state":"active","ping":95},{"user_id":722,"name":"LEGO® Indiana Jones","steam_id":76561198091266742,"connected_time":286000000000,"state":"active","ping":181},{"user_id":701,"name":"Snom","steam_id":76561198333827920,"connected_time":2012000000000,"state":"active","ping":95},{"user_id":714,"name":"McDonald's Chicken Big Mac","steam_id":76561198254991505,"connected_time":380000000000,"state":"active","ping":59},{"user_id":720,"name":"Sanic_Bum","steam_id":76561198094179822,"connected_time":321000000000,"state":"active","ping":57},{"user_id":671,"name":"momlovie","steam_id":76561198843933742,"connected_time":3385000000000,"state":"active","ping":104},{"user_id":715,"name":"Rear Admiral Crunch","steam_id":76561198020007558,"connected_time":380000000000,"state":"active","ping":67},{"user_id":711,"name":"TallBit","steam_id":76561199059748976,"connected_time":499000000000,"state":"active","ping":51},{"user_id":725,"name":"Soulidity","steam_id":76561198429603550,"connected_time":140000000000,"state":"active","ping":70},{"user_id":721,"name":"Bronze Age Furvert","steam_id":76561198859118263,"connected_time":303000000000,"state":"active","ping":69},{"user_id":713,"name":"SaltyManok","steam_id":76561198160082948,"connected_time":394000000000,"state":"active","ping":55},{"user_id":724,"name":"drukqs","steam_id":76561198253172399,"connected_time":166000000000,"state":"active","ping":85},{"user_id":695,"name":".JIFF","steam_id":76561198045181760,"connected_time":2521000000000,"state":"active","ping":61},{"user_id":679,"name":"Celestial Bodies","steam_id":76561198212572955,"connected_time":3031000000000,"state":"active","ping":78},{"user_id":699,"name":"Tito","steam_id":76561198041702529,"connected_time":2066000000000,"state":"active","ping":84}]},{"server_id":106,"name":"Uncletopia | Chicago | 2 | All Maps","name_short":"chi-2","host":"chi-1.us.uncletopia.com","port":27025,"enabled":true,"region":"us-central","cc":"us","latitude":41.881832,"longitude":-87.62318,"reserved":0,"last_update":"0001-01-01T00:00:00Z","name_a2s":"Uncletopia | Chicago | 2 | All Maps","protocol":17,"map":"pl_upward","folder":"tf","game":"Team Fortress","app_id":440,"player_count":24,"max_players":24,"Bots":0,"server_type":"Dedicated","server_os":"Linux","password":true,"vac":true,"version":"7961495","steam_id":85568392924469985,"keywords":["nocrits","nodmgspread","payload","uncletopia"],"game_id":440,"stv_port":27026,"stv_name":"Uncletopia | Chicago | 2 | All Maps | STV","players":[{"user_id":632,"name":"astron","steam_id":76561198058546328,"connected_time":213000000000,"state":"active","ping":76},{"user_id":603,"name":"Moonman327","steam_id":76561197992616059,"connected_time":1991000000000,"state":"active","ping":73},{"user_id":633,"name":"spooky","steam_id":76561198122964663,"connected_time":206000000000,"state":"active","ping":61},{"user_id":590,"name":"Aaron","steam_id":76561198091157802,"connected_time":2978000000000,"state":"active","ping":75},{"user_id":606,"name":"qjkxkcd","steam_id":76561198035922283,"connected_time":1850000000000,"state":"active","ping":71},{"user_id":610,"name":"Pengi","steam_id":76561198333097000,"connected_time":1826000000000,"state":"active","ping":41},{"user_id":628,"name":"c64guy","steam_id":76561198023022744,"connected_time":1110000000000,"state":"active","ping":61},{"user_id":605,"name":"Mr. Goat","steam_id":76561198801616417,"connected_time":1851000000000,"state":"active","ping":68},{"user_id":629,"name":"Crim","steam_id":76561198301292105,"connected_time":758000000000,"state":"active","ping":73},{"user_id":611,"name":"im ultrakill (official)","steam_id":76561198415528114,"connected_time":1823000000000,"state":"active","ping":153},{"user_id":592,"name":"k3ramb1t","steam_id":76561198097880352,"connected_time":2748000000000,"state":"active","ping":80},{"user_id":613,"name":"Johnny Lawrence #JohnnyMaxxing","steam_id":76561199367141671,"connected_time":1810000000000,"state":"active","ping":60},{"user_id":614,"name":"CrunchCisco","steam_id":76561199162724832,"connected_time":1810000000000,"state":"active","ping":88},{"user_id":586,"name":"cozy","steam_id":76561199044037628,"connected_time":3882000000000,"state":"active","ping":76},{"user_id":621,"name":"Ranger Plague","steam_id":76561198174647666,"connected_time":1557000000000,"state":"active","ping":82},{"user_id":566,"name":"Eyeless","steam_id":76561198094772431,"connected_time":5654000000000,"state":"active","ping":53},{"user_id":630,"name":"meo ♥","steam_id":76561197992719272,"connected_time":752000000000,"state":"active","ping":52},{"user_id":594,"name":"Bee","steam_id":76561198074681324,"connected_time":2531000000000,"state":"active","ping":68},{"user_id":568,"name":"Skaboopy","steam_id":76561198121079438,"connected_time":5626000000000,"state":"active","ping":66},{"user_id":631,"name":"Rocky","steam_id":76561198048158539,"connected_time":752000000000,"state":"active","ping":64},{"user_id":540,"name":"gnoll filth","steam_id":76561198066123607,"connected_time":7392000000000,"state":"active","ping":104},{"user_id":619,"name":"sock","steam_id":76561199117597830,"connected_time":1753000000000,"state":"active","ping":61},{"user_id":541,"name":"GOLDIE","steam_id":76561199375258674,"connected_time":7372000000000,"state":"active","ping":95},{"user_id":627,"name":"novu","steam_id":76561198886997024,"connected_time":1137000000000,"state":"active","ping":89}]},{"server_id":402,"name":"Uncletopia | Chicago | 3 | All Maps","name_short":"chi-3","host":"chi-1.us.uncletopia.com","port":27035,"enabled":true,"region":"us-central","cc":"us","latitude":41.881832,"longitude":-87.62318,"reserved":0,"last_update":"0001-01-01T00:00:00Z","name_a2s":"Uncletopia | Chicago | 3 | All Maps","protocol":17,"map":"pl_upward","folder":"tf","game":"Team Fortress","app_id":440,"player_count":24,"max_players":24,"Bots":0,"server_type":"Dedicated","server_os":"Linux","password":true,"vac":true,"version":"7961495","steam_id":85568392924515191,"keywords":["nocrits","nodmgspread","payload","uncletopia"],"game_id":440,"stv_port":27036,"stv_name":"Uncletopia | Chicago | 3 | All Maps | STV","players":[{"user_id":546,"name":"pabloramirez1998@gmail.com","steam_id":76561198969675306,"connected_time":4132000000000,"state":"active","ping":63},{"user_id":586,"name":"3hunna56k.n3t","steam_id":76561198404564240,"connected_time":1368000000000,"state":"active","ping":61},{"user_id":598,"name":"averted","steam_id":76561198067784310,"connected_time":300000000000,"state":"active","ping":74},{"user_id":591,"name":"socializedCryptid","steam_id":76561198991665007,"connected_time":928000000000,"state":"active","ping":57},{"user_id":602,"name":"Charlotte","steam_id":76561199084344266,"connected_time":143000000000,"state":"active","ping":61},{"user_id":582,"name":"Boomerish","steam_id":76561198083946878,"connected_time":1692000000000,"state":"active","ping":83},{"user_id":595,"name":"gary","steam_id":76561198140226890,"connected_time":357000000000,"state":"active","ping":60},{"user_id":592,"name":"ip09 i-0;olk;lj9u","steam_id":76561199490115981,"connected_time":715000000000,"state":"active","ping":50},{"user_id":576,"name":"[DATS➡] Sugar Meowth","steam_id":76561197995251793,"connected_time":2138000000000,"state":"active","ping":92},{"user_id":562,"name":"Slow Baby","steam_id":76561198116235745,"connected_time":3364000000000,"state":"active","ping":68},{"user_id":583,"name":"I have no idea what I am doing?","steam_id":76561198093152207,"connected_time":1504000000000,"state":"active","ping":79},{"user_id":548,"name":"Rodgedan","steam_id":76561198226236524,"connected_time":4106000000000,"state":"active","ping":84},{"user_id":596,"name":"Holdie","steam_id":76561198070378200,"connected_time":332000000000,"state":"active","ping":47},{"user_id":603,"name":"Röntgen","steam_id":76561197993492325,"connected_time":5000000000,"state":"spawning","ping":107},{"user_id":584,"name":"nonagon infinity","steam_id":76561198397662124,"connected_time":1480000000000,"state":"active","ping":88},{"user_id":563,"name":"drunk driver","steam_id":76561198400058665,"connected_time":3342000000000,"state":"active","ping":74},{"user_id":587,"name":"Stray","steam_id":76561198966147607,"connected_time":1223000000000,"state":"active","ping":51},{"user_id":593,"name":"-π- BakaD","steam_id":76561197960559169,"connected_time":648000000000,"state":"active","ping":59},{"user_id":600,"name":"MEDIC!","steam_id":76561199111430580,"connected_time":278000000000,"state":"active","ping":77},{"user_id":594,"name":"bacon :D","steam_id":76561199121940464,"connected_time":371000000000,"state":"active","ping":100},{"user_id":601,"name":"Juan Pablo Gonzalez 2023","steam_id":76561199197961413,"connected_time":258000000000,"state":"active","ping":60},{"user_id":588,"name":"dipp","steam_id":76561198395577807,"connected_time":1220000000000,"state":"active","ping":60},{"user_id":597,"name":"st0n3mast3r48","steam_id":76561199141431059,"connected_time":323000000000,"state":"active","ping":73},{"user_id":573,"name":"defect player","steam_id":76561198055855534,"connected_time":2262000000000,"state":"active","ping":59}]},{"server_id":403,"name":"Uncletopia | Chicago | 4 | All Maps","name_short":"chi-4","host":"chi-1.us.uncletopia.com","port":27045,"enabled":true,"region":"us-central","cc":"us","latitude":41.881832,"longitude":-87.62318,"reserved":0,"last_update":"0001-01-01T00:00:00Z","name_a2s":"Uncletopia | Chicago | 4 | All Maps","protocol":17,"map":"cp_process_final","folder":"tf","game":"Team Fortress","app_id":440,"player_count":24,"max_players":24,"Bots":0,"server_type":"Dedicated","server_os":"Linux","password":true,"vac":true,"version":"7961495","steam_id":85568392924515193,"keywords":["cp","nocrits","nodmgspread","uncletopia"],"game_id":440,"stv_port":27046,"stv_name":"Uncletopia | Chicago | 4 | All Maps | STV","players":[{"user_id":135,"name":"Bajanga.co","steam_id":76561199122049654,"connected_time":3675000000000,"state":"active","ping":86},{"user_id":167,"name":"feliser","steam_id":76561198084336096,"connected_time":1598000000000,"state":"active","ping":49},{"user_id":163,"name":"Les Claypool","steam_id":76561198237827742,"connected_time":1956000000000,"state":"active","ping":64},{"user_id":198,"name":"Crabby","steam_id":76561198942472512,"connected_time":367000000000,"state":"active","ping":78},{"user_id":149,"name":"sonikro","steam_id":76561197989428692,"connected_time":2603000000000,"state":"active","ping":60},{"user_id":102,"name":"lili","steam_id":76561199391478575,"connected_time":5486000000000,"state":"active","ping":113},{"user_id":173,"name":"mikey","steam_id":76561198095803763,"connected_time":1571000000000,"state":"active","ping":65},{"user_id":188,"name":"Tripll-L","steam_id":76561197998077437,"connected_time":689000000000,"state":"active","ping":76},{"user_id":165,"name":"gIBBY","steam_id":76561198080099598,"connected_time":1905000000000,"state":"active","ping":55},{"user_id":191,"name":"jstn","steam_id":76561198845283665,"connected_time":650000000000,"state":"active","ping":75},{"user_id":196,"name":"FrostStorm","steam_id":76561198142685151,"connected_time":471000000000,"state":"active","ping":86},{"user_id":192,"name":"Flubby","steam_id":76561198069171252,"connected_time":646000000000,"state":"active","ping":63},{"user_id":122,"name":"NikoOS (NO SOUND)","steam_id":76561198180020521,"connected_time":4514000000000,"state":"active","ping":157},{"user_id":169,"name":"Kuddly Kay (She/Her)","steam_id":76561198353432576,"connected_time":1597000000000,"state":"active","ping":61},{"user_id":195,"name":"Jango","steam_id":76561198121922413,"connected_time":525000000000,"state":"active","ping":98},{"user_id":181,"name":"JamJohn","steam_id":76561198812294103,"connected_time":1215000000000,"state":"active","ping":63},{"user_id":123,"name":"msay","steam_id":76561198170888029,"connected_time":4513000000000,"state":"active","ping":92},{"user_id":199,"name":"Epha","steam_id":76561198079379951,"connected_time":12000000000,"state":"spawning","ping":102},{"user_id":79,"name":"._.","steam_id":76561198300316801,"connected_time":7618000000000,"state":"active","ping":57},{"user_id":185,"name":"LukeLeal","steam_id":76561198049822995,"connected_time":754000000000,"state":"active","ping":169},{"user_id":143,"name":"Sneaky_Tank","steam_id":76561198078814793,"connected_time":3159000000000,"state":"active","ping":56},{"user_id":176,"name":"fisherman","steam_id":76561198157435832,"connected_time":1551000000000,"state":"active","ping":72},{"user_id":190,"name":"ceres","steam_id":76561198291976960,"connected_time":675000000000,"state":"active","ping":105},{"user_id":180,"name":"MY LOVE DRIPS IN RED","steam_id":76561198072179483,"connected_time":1362000000000,"state":"active","ping":94}]},{"server_id":36,"name":"Uncletopia | Chicago | 5 | All Maps","name_short":"chi-5","host":"chi-2.us.uncletopia.com","port":27015,"enabled":true,"region":"us-central","cc":"us","latitude":41.881832,"longitude":-87.62318,"reserved":0,"last_update":"0001-01-01T00:00:00Z","name_a2s":"Uncletopia | Chicago | 5 | All Maps","protocol":17,"map":"pl_snowycoast","folder":"tf","game":"Team Fortress","app_id":440,"player_count":24,"max_players":24,"Bots":0,"server_type":"Dedicated","server_os":"Linux","password":true,"vac":true,"version":"7961495","steam_id":85568392924866362,"keywords":["nocrits","nodmgspread","payload","uncletopia"],"game_id":440,"stv_port":27016,"stv_name":"Uncletopia | Chicago | 5 | All Maps | STV","players":[{"user_id":62,"name":"spencil","steam_id":76561198053727976,"connected_time":4899000000000,"state":"active","ping":63},{"user_id":116,"name":"Jewy","steam_id":76561198140540443,"connected_time":741000000000,"state":"active","ping":62},{"user_id":90,"name":"Space⭐Taffy","steam_id":76561198002271720,"connected_time":3117000000000,"state":"active","ping":65},{"user_id":114,"name":"DeSynthed","steam_id":76561198098768007,"connected_time":819000000000,"state":"active","ping":77},{"user_id":85,"name":"munch","steam_id":76561198820480684,"connected_time":3231000000000,"state":"active","ping":67},{"user_id":111,"name":"shmacs","steam_id":76561198305712548,"connected_time":1400000000000,"state":"active","ping":71},{"user_id":95,"name":"roast pig with apple in mouth","steam_id":76561198051353647,"connected_time":3033000000000,"state":"active","ping":64},{"user_id":70,"name":"poopshitter9000","steam_id":76561198074624639,"connected_time":4234000000000,"state":"active","ping":56},{"user_id":110,"name":"Jelqing Table","steam_id":76561198051373750,"connected_time":1473000000000,"state":"active","ping":79},{"user_id":72,"name":"Cantankerous Tim","steam_id":76561198119483989,"connected_time":4189000000000,"state":"active","ping":84},{"user_id":113,"name":"Goober","steam_id":76561198988863807,"connected_time":862000000000,"state":"active","ping":79},{"user_id":106,"name":"Chhaam","steam_id":76561198058508132,"connected_time":1986000000000,"state":"active","ping":60},{"user_id":61,"name":"In Soviet America","steam_id":76561197998261826,"connected_time":5158000000000,"state":"active","ping":58},{"user_id":115,"name":"Rivulet","steam_id":76561198897122890,"connected_time":781000000000,"state":"active","ping":58},{"user_id":96,"name":"TwistedSoda","steam_id":76561198142785616,"connected_time":2838000000000,"state":"active","ping":83},{"user_id":39,"name":"Zeusplane","steam_id":76561198075052022,"connected_time":7131000000000,"state":"active","ping":87},{"user_id":34,"name":"degeneracy","steam_id":76561198836102519,"connected_time":7227000000000,"state":"active","ping":70},{"user_id":82,"name":"♥krystal301♥","steam_id":76561198118772664,"connected_time":3315000000000,"state":"active","ping":106},{"user_id":99,"name":"x","steam_id":76561198013735714,"connected_time":2193000000000,"state":"active","ping":92},{"user_id":103,"name":"Buttery","steam_id":76561198086053311,"connected_time":2109000000000,"state":"active","ping":75},{"user_id":97,"name":"wow120000000000000098","steam_id":76561198016826181,"connected_time":2675000000000,"state":"active","ping":72},{"user_id":89,"name":"c00kie","steam_id":76561198418178297,"connected_time":3176000000000,"state":"active","ping":48},{"user_id":117,"name":"ProfessorCagan","steam_id":76561198141372356,"connected_time":305000000000,"state":"active","ping":52},{"user_id":118,"name":"Tuvok Shakur","steam_id":76561198018875334,"connected_time":43000000000,"state":"active","ping":103}]},{"server_id":37,"name":"Uncletopia | Chicago | 6 | All Maps","name_short":"chi-6","host":"chi-2.us.uncletopia.com","port":27025,"enabled":true,"region":"us-central","cc":"us","latitude":41.881832,"longitude":-87.62318,"reserved":0,"last_update":"0001-01-01T00:00:00Z","name_a2s":"Uncletopia | Chicago | 6 | All Maps","protocol":17,"map":"koth_harvest_final","folder":"tf","game":"Team Fortress","app_id":440,"player_count":24,"max_players":24,"Bots":0,"server_type":"Dedicated","server_os":"Linux","password":true,"vac":true,"version":"7961495","steam_id":85568392924866363,"keywords":["cp","nocrits","nodmgspread","uncletopia"],"game_id":440,"stv_port":27026,"stv_name":"Uncletopia | Chicago | 6 | All Maps | STV","players":[{"user_id":325,"name":"SneakySneak","steam_id":76561198064847921,"connected_time":973000000000,"state":"active","ping":67},{"user_id":279,"name":"Jimbo Slice","steam_id":76561198064830847,"connected_time":2375000000000,"state":"active","ping":70},{"user_id":326,"name":"marcie","steam_id":76561198170642407,"connected_time":734000000000,"state":"active","ping":67},{"user_id":335,"name":"Thella Making","steam_id":76561198125828837,"connected_time":297000000000,"state":"active","ping":63},{"user_id":284,"name":"RIP John Pork","steam_id":76561198241948526,"connected_time":2342000000000,"state":"active","ping":60},{"user_id":147,"name":"N U T T","steam_id":76561198139661511,"connected_time":5662000000000,"state":"active","ping":68},{"user_id":82,"name":"POVRyanGoslingBreaksIn","steam_id":76561198978561198,"connected_time":10784000000000,"state":"active","ping":74},{"user_id":327,"name":"Miller","steam_id":76561198818670166,"connected_time":717000000000,"state":"active","ping":66},{"user_id":333,"name":"Eblizard","steam_id":76561198111481965,"connected_time":427000000000,"state":"active","ping":70},{"user_id":285,"name":"Sky","steam_id":76561198145016581,"connected_time":2337000000000,"state":"active","ping":82},{"user_id":334,"name":"Ahhpple","steam_id":76561197993322448,"connected_time":379000000000,"state":"active","ping":72},{"user_id":321,"name":"Queen Pussyfoot","steam_id":76561199491197550,"connected_time":1711000000000,"state":"active","ping":55},{"user_id":134,"name":"wheresgeorge","steam_id":76561198986281248,"connected_time":6503000000000,"state":"active","ping":86},{"user_id":282,"name":"im drunk, help m,e","steam_id":76561199055488028,"connected_time":2357000000000,"state":"active","ping":99},{"user_id":204,"name":"BRO_TEIN_SHAKE","steam_id":76561198035547173,"connected_time":3915000000000,"state":"active","ping":108},{"user_id":116,"name":"Fatal Top Deficiency","steam_id":76561198141738612,"connected_time":8119000000000,"state":"active","ping":70},{"user_id":151,"name":"avant","steam_id":76561198104921055,"connected_time":5179000000000,"state":"active","ping":79},{"user_id":332,"name":"gagobears","steam_id":76561198086008437,"connected_time":439000000000,"state":"active","ping":74},{"user_id":159,"name":"Horse","steam_id":76561198004583631,"connected_time":4640000000000,"state":"active","ping":78},{"user_id":293,"name":"skipper","steam_id":76561198395965181,"connected_time":2287000000000,"state":"active","ping":78},{"user_id":329,"name":"㋛ countblanc","steam_id":76561197993171771,"connected_time":700000000000,"state":"active","ping":46},{"user_id":337,"name":"Maybe","steam_id":76561198268304564,"connected_time":145000000000,"state":"active","ping":65},{"user_id":303,"name":"Ninten","steam_id":76561198131409710,"connected_time":2088000000000,"state":"active","ping":67},{"user_id":324,"name":"Mr. No","steam_id":76561198130536526,"connected_time":1593000000000,"state":"active","ping":61}]},{"server_id":38,"name":"Uncletopia | Chicago | 7 | Stopwatch Beta","name_short":"chi-7","host":"chi-2.us.uncletopia.com","port":27035,"enabled":true,"region":"us-central","cc":"us","latitude":41.881832,"longitude":-87.62318,"reserved":0,"last_update":"0001-01-01T00:00:00Z","name_a2s":"Uncletopia | Chicago | 7 | Stopwatch Beta","protocol":17,"map":"pl_badwater","folder":"tf","game":"Team Fortress","app_id":440,"player_count":2,"max_players":24,"Bots":0,"server_type":"Dedicated","server_os":"Linux","password":true,"vac":true,"version":"7961495","steam_id":85568392924866364,"keywords":["nocrits","nodmgspread","payload","uncletopia"],"game_id":440,"stv_port":27036,"stv_name":"Uncletopia | Chicago | 7 | Stopwatch Beta | STV","players":[{"user_id":15,"name":"Ohio shark","steam_id":76561199006324673,"connected_time":158000000000,"state":"active","ping":54},{"user_id":16,"name":"Krispy_BaconBoy","steam_id":76561199345031861,"connected_time":147000000000,"state":"active","ping":85}]},{"server_id":39,"name":"Uncletopia | Chicago | 8 | Community","name_short":"chi-8","host":"chi-2.us.uncletopia.com","port":27045,"enabled":true,"region":"us-central","cc":"us","latitude":41.881832,"longitude":-87.62318,"reserved":0,"last_update":"0001-01-01T00:00:00Z","name_a2s":"Uncletopia | Chicago | 8 | Community","protocol":17,"map":"workshop/cp_glacier_rc6.ugc2905735376","folder":"tf","game":"Team Fortress","app_id":440,"player_count":24,"max_players":24,"Bots":0,"server_type":"Dedicated","server_os":"Linux","password":true,"vac":true,"version":"7961495","steam_id":85568392924866365,"keywords":["cp","nocrits","nodmgspread","uncletopia"],"game_id":440,"stv_port":27046,"stv_name":"Uncletopia | Chicago | 8 | Community | STV","players":[{"user_id":325,"name":"bluebluepickles","steam_id":76561198119503953,"connected_time":416000000000,"state":"active","ping":59},{"user_id":315,"name":"Swifgz","steam_id":76561198162875756,"connected_time":727000000000,"state":"active","ping":60},{"user_id":271,"name":"Archchancellor64","steam_id":76561198175239578,"connected_time":3791000000000,"state":"active","ping":85},{"user_id":300,"name":"Ze_Über_Nerd","steam_id":76561198091148675,"connected_time":1744000000000,"state":"active","ping":72},{"user_id":316,"name":"MarauderOP","steam_id":76561199087316861,"connected_time":722000000000,"state":"active","ping":72},{"user_id":327,"name":"TheEmeraldDuck","steam_id":76561197999692032,"connected_time":165000000000,"state":"active","ping":62},{"user_id":329,"name":"Saul Goodman","steam_id":76561199218237028,"connected_time":56000000000,"state":"active","ping":88},{"user_id":328,"name":"Raccoon.Of.Waffle.House","steam_id":76561199018770554,"connected_time":150000000000,"state":"active","ping":85},{"user_id":288,"name":"the rizzler","steam_id":76561198012917426,"connected_time":3163000000000,"state":"active","ping":69},{"user_id":320,"name":"TwelvePackofSaltyBones","steam_id":76561198224764664,"connected_time":586000000000,"state":"active","ping":49},{"user_id":239,"name":"monkeycake","steam_id":76561198272061915,"connected_time":5195000000000,"state":"active","ping":60},{"user_id":309,"name":"stuffer as i have","steam_id":76561198060762287,"connected_time":1359000000000,"state":"active","ping":103},{"user_id":326,"name":"floppy muppet","steam_id":76561198003076261,"connected_time":386000000000,"state":"active","ping":89},{"user_id":263,"name":"Opium","steam_id":76561198396340174,"connected_time":4513000000000,"state":"active","ping":69},{"user_id":290,"name":"Freewave","steam_id":76561198156282541,"connected_time":2886000000000,"state":"active","ping":45},{"user_id":330,"name":"Butters495","steam_id":76561197998689042,"connected_time":55000000000,"state":"active","ping":87},{"user_id":298,"name":"Tungstentoad","steam_id":76561198364160221,"connected_time":2209000000000,"state":"active","ping":78},{"user_id":317,"name":"Fio4","steam_id":76561199221171536,"connected_time":653000000000,"state":"active","ping":71},{"user_id":265,"name":"Shadowman52501","steam_id":76561198162508582,"connected_time":4279000000000,"state":"active","ping":80},{"user_id":297,"name":"argon","steam_id":76561198896671996,"connected_time":2544000000000,"state":"active","ping":65},{"user_id":312,"name":"the rizzard","steam_id":76561198431594430,"connected_time":983000000000,"state":"active","ping":60},{"user_id":286,"name":"Swiftmend","steam_id":76561197995595692,"connected_time":3305000000000,"state":"active","ping":76},{"user_id":143,"name":"[MRY] Sk-iLite","steam_id":76561198041797350,"connected_time":10084000000000,"state":"active","ping":72},{"user_id":319,"name":"Gubbington","steam_id":76561198959381302,"connected_time":647000000000,"state":"active","ping":62}]},{"server_id":8,"name":"Uncletopia | Dallas | 1 | All Maps","name_short":"dal-1","host":"dal-1.us.uncletopia.com","port":27015,"enabled":true,"region":"us-central","cc":"us","latitude":32.779167,"longitude":-96.80889,"reserved":0,"last_update":"0001-01-01T00:00:00Z","name_a2s":"Uncletopia | Dallas | 1 | All Maps","protocol":17,"map":"pl_enclosure_final","folder":"tf","game":"Team Fortress","app_id":440,"player_count":24,"max_players":24,"Bots":0,"server_type":"Dedicated","server_os":"Linux","password":true,"vac":true,"version":"7961495","steam_id":85568392924469986,"keywords":["nocrits","nodmgspread","payload","uncletopia"],"game_id":440,"stv_port":27016,"stv_name":"Uncletopia | Dallas | 1 | All Maps | STV","players":[{"user_id":617,"name":"flippercurve","steam_id":76561199238295034,"connected_time":37000000000,"state":"spawning","ping":50},{"user_id":613,"name":"schmuck","steam_id":76561198143789773,"connected_time":180000000000,"state":"active","ping":46},{"user_id":589,"name":"Ballista","steam_id":76561197983182562,"connected_time":2319000000000,"state":"active","ping":53},{"user_id":593,"name":"sebjzy ♥","steam_id":76561198009959034,"connected_time":1825000000000,"state":"active","ping":52},{"user_id":551,"name":"Heathcliff","steam_id":76561198044288534,"connected_time":4791000000000,"state":"active","ping":93},{"user_id":614,"name":"The destroyer of foreskin","steam_id":76561198135275966,"connected_time":177000000000,"state":"active","ping":56},{"user_id":601,"name":"Jennifer Aniston's Nipples","steam_id":76561198086107548,"connected_time":1551000000000,"state":"active","ping":48},{"user_id":586,"name":"Legless Amphibian","steam_id":76561198880476222,"connected_time":2499000000000,"state":"active","ping":58},{"user_id":599,"name":"chaffy","steam_id":76561198021754567,"connected_time":1721000000000,"state":"active","ping":60},{"user_id":557,"name":"{ST} Oxythemoron","steam_id":76561198060089965,"connected_time":3887000000000,"state":"active","ping":63},{"user_id":610,"name":"Biden does cocaine","steam_id":76561198254049835,"connected_time":342000000000,"state":"active","ping":71},{"user_id":615,"name":"Snugboo","steam_id":76561198147970327,"connected_time":159000000000,"state":"active","ping":75},{"user_id":600,"name":"Amoxicilina","steam_id":76561198168486429,"connected_time":1671000000000,"state":"active","ping":97},{"user_id":612,"name":"errant","steam_id":76561197961758410,"connected_time":324000000000,"state":"active","ping":55},{"user_id":616,"name":"Kaestal","steam_id":76561198033174157,"connected_time":158000000000,"state":"active","ping":54},{"user_id":597,"name":"Fletcher","steam_id":76561198317846538,"connected_time":1773000000000,"state":"active","ping":83},{"user_id":583,"name":"SiltyStar85","steam_id":76561198309175923,"connected_time":2608000000000,"state":"active","ping":107},{"user_id":585,"name":"RusticCarp42989","steam_id":76561198361151865,"connected_time":2578000000000,"state":"active","ping":102},{"user_id":606,"name":"TheSecretNewbie","steam_id":76561198194671218,"connected_time":1284000000000,"state":"active","ping":55},{"user_id":605,"name":"CampinCarl","steam_id":76561197997373624,"connected_time":1394000000000,"state":"active","ping":82},{"user_id":598,"name":"Hope","steam_id":76561199201900779,"connected_time":1759000000000,"state":"active","ping":101},{"user_id":609,"name":"stungoperation","steam_id":76561199162409918,"connected_time":796000000000,"state":"active","ping":107},{"user_id":560,"name":"nayonhaha","steam_id":76561198066507360,"connected_time":3776000000000,"state":"active","ping":72},{"user_id":480,"name":"small meth pouch","steam_id":76561198130412963,"connected_time":10518000000000,"state":"active","ping":68}]},{"server_id":108,"name":"Uncletopia | Dallas | 2 | All Maps","name_short":"dal-2","host":"dal-1.us.uncletopia.com","port":27025,"enabled":true,"region":"us-central","cc":"us","latitude":32.779167,"longitude":-96.80889,"reserved":0,"last_update":"0001-01-01T00:00:00Z","name_a2s":"Uncletopia | Dallas | 2 | All Maps","protocol":17,"map":"pl_badwater","folder":"tf","game":"Team Fortress","app_id":440,"player_count":24,"max_players":24,"Bots":0,"server_type":"Dedicated","server_os":"Linux","password":true,"vac":true,"version":"7961495","steam_id":85568392924469988,"keywords":["nocrits","nodmgspread","payload","uncletopia"],"game_id":440,"stv_port":27026,"stv_name":"Uncletopia | Dallas | 2 | All Maps | STV","players":[{"user_id":483,"name":"joe mama","steam_id":76561198180696981,"connected_time":710000000000,"state":"active","ping":92},{"user_id":456,"name":"Speejoink","steam_id":76561198076863045,"connected_time":3851000000000,"state":"active","ping":59},{"user_id":376,"name":"SOGGY DOGGY","steam_id":76561199158847498,"connected_time":9787000000000,"state":"active","ping":97},{"user_id":482,"name":"gaminpanda52","steam_id":76561199090922778,"connected_time":1533000000000,"state":"active","ping":101},{"user_id":449,"name":"oph","steam_id":76561198130182991,"connected_time":4136000000000,"state":"active","ping":99},{"user_id":475,"name":"Furrio","steam_id":76561198174104607,"connected_time":1818000000000,"state":"active","ping":68},{"user_id":467,"name":"cursed altar servant","steam_id":76561199206853525,"connected_time":2700000000000,"state":"active","ping":76},{"user_id":457,"name":"Blake...","steam_id":76561198064090974,"connected_time":3805000000000,"state":"active","ping":99},{"user_id":461,"name":"Terminally Ill Downie Brownie","steam_id":76561198356484354,"connected_time":3573000000000,"state":"active","ping":118},{"user_id":469,"name":"blazzeh","steam_id":76561198053407069,"connected_time":2245000000000,"state":"active","ping":129},{"user_id":409,"name":"FrostNova","steam_id":76561198348354629,"connected_time":7591000000000,"state":"active","ping":80},{"user_id":478,"name":"Missing Minus","steam_id":76561198120822928,"connected_time":1700000000000,"state":"active","ping":63},{"user_id":480,"name":"A new medic(F2p)","steam_id":76561199388826335,"connected_time":1604000000000,"state":"active","ping":104},{"user_id":487,"name":"InvaderAlex","steam_id":76561198039232451,"connected_time":345000000000,"state":"active","ping":71},{"user_id":477,"name":"Sacknana","steam_id":76561199001811226,"connected_time":1770000000000,"state":"active","ping":67},{"user_id":468,"name":"Maxxycat","steam_id":76561198194062681,"connected_time":2550000000000,"state":"active","ping":77},{"user_id":481,"name":"Spike","steam_id":76561198141356571,"connected_time":1563000000000,"state":"active","ping":78},{"user_id":479,"name":"rAnch","steam_id":76561198024562587,"connected_time":1608000000000,"state":"active","ping":35},{"user_id":428,"name":"Apetometrist","steam_id":76561198045391635,"connected_time":6302000000000,"state":"active","ping":87},{"user_id":466,"name":"StealthGirl","steam_id":76561198024760666,"connected_time":2824000000000,"state":"active","ping":68},{"user_id":485,"name":"dailydiamond","steam_id":76561199123582502,"connected_time":675000000000,"state":"active","ping":100},{"user_id":446,"name":"cypherzero","steam_id":76561199182960322,"connected_time":4543000000000,"state":"active","ping":53},{"user_id":474,"name":"Drake from State Farm","steam_id":76561199069029812,"connected_time":1968000000000,"state":"active","ping":96},{"user_id":454,"name":"motherfucker 2.0","steam_id":76561198141189209,"connected_time":4074000000000,"state":"active","ping":34}]},{"server_id":404,"name":"Uncletopia | Dallas | 3 | All Maps","name_short":"dal-3","host":"dal-1.us.uncletopia.com","port":27035,"enabled":true,"region":"us-central","cc":"us","latitude":32.779167,"longitude":-96.80889,"reserved":0,"last_update":"0001-01-01T00:00:00Z","name_a2s":"Uncletopia | Dallas | 3 | All Maps","protocol":17,"map":"cp_snakewater_final1","folder":"tf","game":"Team Fortress","app_id":440,"player_count":24,"max_players":24,"Bots":0,"server_type":"Dedicated","server_os":"Linux","password":true,"vac":true,"version":"7961495","steam_id":85568392924515219,"keywords":["cp","nocrits","nodmgspread","uncletopia"],"game_id":440,"stv_port":27036,"stv_name":"Uncletopia | Dallas | 3 | All Maps | STV","players":[{"user_id":409,"name":"Legit_Jaxer","steam_id":76561198172234053,"connected_time":862000000000,"state":"active","ping":110},{"user_id":413,"name":"xLeoparrd","steam_id":76561198940657194,"connected_time":740000000000,"state":"active","ping":67},{"user_id":422,"name":"Scut","steam_id":76561198973734291,"connected_time":189000000000,"state":"active","ping":90},{"user_id":331,"name":"eternal blue","steam_id":76561198048992536,"connected_time":5182000000000,"state":"active","ping":51},{"user_id":414,"name":"ÇAFFIEND","steam_id":76561198062993241,"connected_time":678000000000,"state":"active","ping":83},{"user_id":388,"name":"JIGRON","steam_id":76561197998694076,"connected_time":1478000000000,"state":"active","ping":60},{"user_id":403,"name":"FIREPOW!","steam_id":76561198111259720,"connected_time":947000000000,"state":"active","ping":87},{"user_id":404,"name":"Spy (I Love spy)","steam_id":76561199138738952,"connected_time":938000000000,"state":"active","ping":68},{"user_id":370,"name":"Feistypanda34","steam_id":76561198260910134,"connected_time":2456000000000,"state":"active","ping":86},{"user_id":424,"name":"firulais","steam_id":76561198860460013,"connected_time":66000000000,"state":"active","ping":73},{"user_id":406,"name":"Aura","steam_id":76561198149941542,"connected_time":921000000000,"state":"active","ping":54},{"user_id":318,"name":"YellowCellPhone","steam_id":76561198015070315,"connected_time":6040000000000,"state":"active","ping":75},{"user_id":423,"name":"chilis baby back ribs","steam_id":76561198813516435,"connected_time":188000000000,"state":"active","ping":76},{"user_id":400,"name":"Dumpster Child","steam_id":76561198317007913,"connected_time":1004000000000,"state":"active","ping":96},{"user_id":374,"name":"Evenaris","steam_id":76561198087544319,"connected_time":2400000000000,"state":"active","ping":75},{"user_id":419,"name":"Arnelcardis","steam_id":76561198018063858,"connected_time":557000000000,"state":"active","ping":88},{"user_id":217,"name":"leonardo doujinshi","steam_id":76561198025810326,"connected_time":12467000000000,"state":"active","ping":104},{"user_id":355,"name":"ly","steam_id":76561198062922146,"connected_time":3531000000000,"state":"active","ping":56},{"user_id":411,"name":"Kamin","steam_id":76561198255299559,"connected_time":793000000000,"state":"active","ping":66},{"user_id":415,"name":"Nick_Haley","steam_id":76561198287642250,"connected_time":658000000000,"state":"active","ping":135},{"user_id":292,"name":"sheybey","steam_id":76561198013023668,"connected_time":8062000000000,"state":"active","ping":88},{"user_id":412,"name":"Scrumpy Main","steam_id":76561198146302597,"connected_time":783000000000,"state":"active","ping":75},{"user_id":408,"name":"Sup m8","steam_id":76561198081659121,"connected_time":877000000000,"state":"active","ping":45},{"user_id":401,"name":"Trashgaming","steam_id":76561199184268442,"connected_time":991000000000,"state":"active","ping":115}]},{"server_id":405,"name":"Uncletopia | Dallas | 4 | Community","name_short":"dal-4","host":"dal-1.us.uncletopia.com","port":27045,"enabled":true,"region":"us-central","cc":"us","latitude":32.779167,"longitude":-96.80889,"reserved":0,"last_update":"0001-01-01T00:00:00Z","name_a2s":"Uncletopia | Dallas | 4 | Community","protocol":17,"map":"workshop/pl_cactuscanyon_redux_final2.ugc2579644293","folder":"tf","game":"Team Fortress","app_id":440,"player_count":22,"max_players":24,"Bots":0,"server_type":"Dedicated","server_os":"Linux","password":true,"vac":true,"version":"7961495","steam_id":85568392924515220,"keywords":["nocrits","nodmgspread","payload","uncletopia"],"game_id":440,"stv_port":27046,"stv_name":"Uncletopia | Dallas | 4 | Community | STV","players":[{"user_id":109,"name":"Scoop #ReviveTF2Ware","steam_id":76561197990539611,"connected_time":1387000000000,"state":"active","ping":103},{"user_id":112,"name":"Monkey Mode","steam_id":76561197961267543,"connected_time":1339000000000,"state":"active","ping":71},{"user_id":102,"name":"Diamondclaws","steam_id":76561198998841063,"connected_time":1891000000000,"state":"active","ping":82},{"user_id":130,"name":"I-die-often","steam_id":76561197996780327,"connected_time":246000000000,"state":"active","ping":71},{"user_id":88,"name":"alset333","steam_id":76561198405345260,"connected_time":3221000000000,"state":"active","ping":85},{"user_id":103,"name":"jbroogie05","steam_id":76561198338676299,"connected_time":1869000000000,"state":"active","ping":44},{"user_id":123,"name":"Rain","steam_id":76561198123437878,"connected_time":613000000000,"state":"active","ping":68},{"user_id":58,"name":"Grimbo","steam_id":76561198826767537,"connected_time":4425000000000,"state":"active","ping":79},{"user_id":90,"name":"Garfield","steam_id":76561198147300599,"connected_time":3155000000000,"state":"active","ping":99},{"user_id":110,"name":"denzell05","steam_id":76561198086987061,"connected_time":1377000000000,"state":"active","ping":90},{"user_id":122,"name":"Bottle","steam_id":76561199057108384,"connected_time":654000000000,"state":"active","ping":73},{"user_id":117,"name":"Organ Harvester","steam_id":76561198069948353,"connected_time":939000000000,"state":"active","ping":71},{"user_id":124,"name":"Bheem","steam_id":76561198170453459,"connected_time":588000000000,"state":"active","ping":105},{"user_id":126,"name":"canakblasteran","steam_id":76561199472518822,"connected_time":537000000000,"state":"active","ping":84},{"user_id":71,"name":"Coach McFish","steam_id":76561198210456405,"connected_time":3853000000000,"state":"active","ping":91},{"user_id":73,"name":"Red Physical","steam_id":76561198151864382,"connected_time":3662000000000,"state":"active","ping":97},{"user_id":127,"name":"Trash Man","steam_id":76561198874518834,"connected_time":494000000000,"state":"active","ping":82},{"user_id":128,"name":"zapphique","steam_id":76561198083575802,"connected_time":465000000000,"state":"active","ping":71},{"user_id":95,"name":"Photoshop","steam_id":76561198122192838,"connected_time":2803000000000,"state":"active","ping":81},{"user_id":129,"name":"beefmachine","steam_id":76561198001196512,"connected_time":460000000000,"state":"active","ping":64},{"user_id":100,"name":"Rin \"Hindwing\" Redtail","steam_id":76561199074865638,"connected_time":2277000000000,"state":"active","ping":61},{"user_id":121,"name":"webaline :3","steam_id":76561199052450127,"connected_time":741000000000,"state":"active","ping":77}]},{"server_id":5,"name":"Uncletopia | Frankfurt | 1 | All Maps","name_short":"frk-1","host":"frk-1.de.uncletopia.com","port":27015,"enabled":true,"region":"eu","cc":"de","latitude":50.110924,"longitude":8.682127,"reserved":0,"last_update":"0001-01-01T00:00:00Z","name_a2s":"Uncletopia | Frankfurt | 1 | All Maps","protocol":17,"map":"pl_pier","folder":"tf","game":"Team Fortress","app_id":440,"player_count":6,"max_players":24,"Bots":0,"server_type":"Dedicated","server_os":"Linux","password":true,"vac":true,"version":"7961495","steam_id":85568392924469989,"keywords":["nocrits","nodmgspread","payload","uncletopia"],"game_id":440,"stv_port":27016,"stv_name":"Uncletopia | Frankfurt | 1 | All Maps | STV","players":[{"user_id":355,"name":"yuno appreciator","steam_id":76561198083286511,"connected_time":3274000000000,"state":"active","ping":60},{"user_id":398,"name":"Randolf","steam_id":76561198093009729,"connected_time":909000000000,"state":"active","ping":60},{"user_id":378,"name":"sunny","steam_id":76561198194849578,"connected_time":2105000000000,"state":"active","ping":55},{"user_id":379,"name":"GrammyGrammyGram","steam_id":76561199158347565,"connected_time":2084000000000,"state":"active","ping":60},{"user_id":380,"name":"Sir William Gaming","steam_id":76561198037676472,"connected_time":2073000000000,"state":"active","ping":82},{"user_id":385,"name":"Kabachok Aeronavt","steam_id":76561198123659806,"connected_time":1811000000000,"state":"active","ping":93}]},{"server_id":110,"name":"Uncletopia | Frankfurt | 2 | All Maps","name_short":"frk-2","host":"frk-1.de.uncletopia.com","port":27025,"enabled":true,"region":"eu","cc":"de","latitude":50.110924,"longitude":8.682127,"reserved":0,"last_update":"0001-01-01T00:00:00Z","name_a2s":"Uncletopia | Frankfurt | 2 | All Maps","protocol":17,"map":"cp_snakewater_final1","folder":"tf","game":"Team Fortress","app_id":440,"player_count":0,"max_players":24,"Bots":0,"server_type":"Dedicated","server_os":"Linux","password":true,"vac":true,"version":"7961495","steam_id":85568392924469990,"keywords":["cp","nocrits","nodmgspread","uncletopia"],"game_id":440,"stv_port":27026,"stv_name":"Uncletopia | Frankfurt | 2 | All Maps | STV","players":null},{"server_id":308,"name":"Uncletopia | Frankfurt | 3 | All Maps","name_short":"frk-3","host":"frk-1.de.uncletopia.com","port":27035,"enabled":true,"region":"eu","cc":"de","latitude":50.110924,"longitude":8.682127,"reserved":0,"last_update":"0001-01-01T00:00:00Z","name_a2s":"Uncletopia | Frankfurt | 3 | All Maps","protocol":17,"map":"koth_highpass","folder":"tf","game":"Team Fortress","app_id":440,"player_count":6,"max_players":24,"Bots":0,"server_type":"Dedicated","server_os":"Linux","password":true,"vac":true,"version":"7961495","steam_id":85568392924504274,"keywords":["cp","nocrits","nodmgspread","uncletopia"],"game_id":440,"stv_port":27036,"stv_name":"Uncletopia | Frankfurt | 3 | All Maps | STV","players":[{"user_id":7,"name":"RheaReset","steam_id":76561198086352561,"connected_time":3494000000000,"state":"active","ping":203},{"user_id":8,"name":"BeachSMG","steam_id":76561198187121739,"connected_time":3491000000000,"state":"active","ping":177},{"user_id":9,"name":"aba","steam_id":76561198070618621,"connected_time":3486000000000,"state":"active","ping":71},{"user_id":17,"name":"FPart","steam_id":76561199443810321,"connected_time":520000000000,"state":"active","ping":569},{"user_id":18,"name":"meriones","steam_id":76561198034234373,"connected_time":1000000000,"state":"spawning","ping":99},{"user_id":14,"name":"Glitch","steam_id":76561198081895538,"connected_time":2911000000000,"state":"active","ping":81}]},{"server_id":309,"name":"Uncletopia | Frankfurt | 4 | All Maps","name_short":"frk-4","host":"frk-1.de.uncletopia.com","port":27045,"enabled":true,"region":"eu","cc":"de","latitude":50.110924,"longitude":8.682127,"reserved":0,"last_update":"0001-01-01T00:00:00Z","name_a2s":"Uncletopia | Frankfurt | 4 | All Maps","protocol":17,"map":"cp_altitude","folder":"tf","game":"Team Fortress","app_id":440,"player_count":0,"max_players":24,"Bots":0,"server_type":"Dedicated","server_os":"Linux","password":true,"vac":true,"version":"7961495","steam_id":85568392924504275,"keywords":["cp","nocrits","nodmgspread","uncletopia"],"game_id":440,"stv_port":27046,"stv_name":"Uncletopia | Frankfurt | 4 | All Maps | STV","players":null},{"server_id":310,"name":"Uncletopia | Frankfurt | 5 | All Maps","name_short":"frk-5","host":"frk-1.de.uncletopia.com","port":27055,"enabled":true,"region":"eu","cc":"de","latitude":50.110924,"longitude":8.682127,"reserved":0,"last_update":"0001-01-01T00:00:00Z","name_a2s":"Uncletopia | Frankfurt | 5 | All Maps","protocol":17,"map":"cp_process_final","folder":"tf","game":"Team Fortress","app_id":440,"player_count":0,"max_players":24,"Bots":0,"server_type":"Dedicated","server_os":"Linux","password":true,"vac":true,"version":"7961495","steam_id":85568392924504277,"keywords":["cp","nocrits","nodmgspread","uncletopia"],"game_id":440,"stv_port":27056,"stv_name":"Uncletopia | Frankfurt | 5 | All Maps | STV","players":null},{"server_id":311,"name":"Uncletopia | Frankfurt | 6 | All Maps","name_short":"frk-6","host":"frk-1.de.uncletopia.com","port":27065,"enabled":true,"region":"eu","cc":"de","latitude":50.110924,"longitude":8.682127,"reserved":0,"last_update":"0001-01-01T00:00:00Z","name_a2s":"Uncletopia | Frankfurt | 6 | All Maps","protocol":17,"map":"pl_swiftwater_final1","folder":"tf","game":"Team Fortress","app_id":440,"player_count":24,"max_players":24,"Bots":0,"server_type":"Dedicated","server_os":"Linux","password":true,"vac":true,"version":"7961495","steam_id":85568392924504278,"keywords":["nocrits","nodmgspread","payload","uncletopia"],"game_id":440,"stv_port":27066,"stv_name":"Uncletopia | Frankfurt | 6 | All Maps | STV","players":[{"user_id":99,"name":"spinning on tf2center","steam_id":76561199233979726,"connected_time":4113000000000,"state":"active","ping":81},{"user_id":163,"name":"shr1mple","steam_id":76561198173537027,"connected_time":170000000000,"state":"active","ping":39},{"user_id":160,"name":"capitan jamacia aka jayden","steam_id":76561198071440081,"connected_time":335000000000,"state":"active","ping":90},{"user_id":157,"name":"some noob","steam_id":76561199081452666,"connected_time":779000000000,"state":"active","ping":57},{"user_id":117,"name":"Sixie","steam_id":76561198251675360,"connected_time":3458000000000,"state":"active","ping":69},{"user_id":153,"name":"WATCH EMESIS BLUE","steam_id":76561199172260370,"connected_time":899000000000,"state":"active","ping":73},{"user_id":108,"name":"GunGuy","steam_id":76561198124510978,"connected_time":3781000000000,"state":"active","ping":59},{"user_id":139,"name":"♉ LEIGULAS ♉","steam_id":76561198006815007,"connected_time":2427000000000,"state":"active","ping":78},{"user_id":142,"name":"Frag \"Frag Johnson\" Johnson","steam_id":76561197970114051,"connected_time":2361000000000,"state":"active","ping":60},{"user_id":155,"name":"meow (they/them)","steam_id":76561198416657815,"connected_time":892000000000,"state":"active","ping":73},{"user_id":158,"name":"Seanstarman Phillips","steam_id":76561198059812384,"connected_time":623000000000,"state":"active","ping":73},{"user_id":145,"name":"Gent","steam_id":76561198037167890,"connected_time":2351000000000,"state":"active","ping":79},{"user_id":161,"name":"etc","steam_id":76561197998394797,"connected_time":288000000000,"state":"active","ping":58},{"user_id":114,"name":"filthy ☆","steam_id":76561198089069719,"connected_time":3671000000000,"state":"active","ping":74},{"user_id":115,"name":"selzic ★","steam_id":76561198068100717,"connected_time":3630000000000,"state":"active","ping":66},{"user_id":150,"name":"beebo","steam_id":76561199120277007,"connected_time":2060000000000,"state":"active","ping":62},{"user_id":135,"name":"khan","steam_id":76561198099245500,"connected_time":2532000000000,"state":"active","ping":73},{"user_id":154,"name":"h","steam_id":76561198149967445,"connected_time":899000000000,"state":"active","ping":48},{"user_id":122,"name":"JujuBalu","steam_id":76561198207253071,"connected_time":3265000000000,"state":"active","ping":50},{"user_id":144,"name":"breakfast burrito","steam_id":76561198148606969,"connected_time":2353000000000,"state":"active","ping":107},{"user_id":162,"name":"Julio Bashmore","steam_id":76561198257836694,"connected_time":189000000000,"state":"active","ping":59},{"user_id":130,"name":"deloreg (playing medic)","steam_id":76561199487318962,"connected_time":2936000000000,"state":"active","ping":70},{"user_id":137,"name":"Kosmonaukt","steam_id":76561198168108777,"connected_time":2488000000000,"state":"active","ping":63},{"user_id":71,"name":"Zedifo","steam_id":76561198044032070,"connected_time":7459000000000,"state":"active","ping":64}]},{"server_id":23,"name":"Uncletopia | Frankfurt | 7 | Stopwatch Beta","name_short":"frk-7","host":"frk-1.de.uncletopia.com","port":27075,"enabled":true,"region":"eu","cc":"de","latitude":50.110924,"longitude":8.682127,"reserved":0,"last_update":"0001-01-01T00:00:00Z","name_a2s":"Uncletopia | Frankfurt | 7 | Stopwatch Beta","protocol":17,"map":"workshop/pl_summercoast_rc8e.ugc1761528829","folder":"tf","game":"Team Fortress","app_id":440,"player_count":0,"max_players":24,"Bots":0,"server_type":"Dedicated","server_os":"Linux","password":true,"vac":true,"version":"7961495","steam_id":85568392924742827,"keywords":["nocrits","nodmgspread","payload","uncletopia"],"game_id":440,"stv_port":27076,"stv_name":"Uncletopia | Frankfurt | 7 | Stopwatch Beta | STV","players":null},{"server_id":24,"name":"Uncletopia | Frankfurt | 8 | Community","name_short":"frk-8","host":"frk-1.de.uncletopia.com","port":27085,"enabled":true,"region":"eu","cc":"de","latitude":50.110924,"longitude":8.682127,"reserved":0,"last_update":"0001-01-01T00:00:00Z","name_a2s":"Uncletopia | Frankfurt | 8 | Community","protocol":17,"map":"cp_dustbowl","folder":"tf","game":"Team Fortress","app_id":440,"player_count":0,"max_players":24,"Bots":0,"server_type":"Dedicated","server_os":"Linux","password":true,"vac":true,"version":"7961495","steam_id":85568392924742828,"keywords":["cp","nocrits","nodmgspread","uncletopia"],"game_id":440,"stv_port":27086,"stv_name":"Uncletopia | Frankfurt | 8 | Community | STV","players":null},{"server_id":202,"name":"Uncletopia | Hong Kong | 1 | All Maps","name_short":"hgk-1","host":"hgk-1.hk.uncletopia.com","port":27015,"enabled":true,"region":"asia","cc":"hk","latitude":22.302711,"longitude":114.177216,"reserved":0,"last_update":"0001-01-01T00:00:00Z","name_a2s":"Uncletopia | Hong Kong | 1 | All Maps","protocol":17,"map":"pl_pier","folder":"tf","game":"Team Fortress","app_id":440,"player_count":3,"max_players":24,"Bots":0,"server_type":"Dedicated","server_os":"Linux","password":true,"vac":true,"version":"7961495","steam_id":85568392924494504,"keywords":["nocrits","nodmgspread","payload","uncletopia"],"game_id":440,"stv_port":27016,"stv_name":"Uncletopia | Hong Kong | 1 | All Maps | STV","players":[{"user_id":10,"name":"TheOneWhoIsDogwater","steam_id":76561199287754329,"connected_time":3019000000000,"state":"active","ping":68},{"user_id":11,"name":"MeetTeMedic99","steam_id":76561199208706868,"connected_time":2715000000000,"state":"active","ping":69},{"user_id":8,"name":"Operate EX [F2P]","steam_id":76561199351297136,"connected_time":5653000000000,"state":"active","ping":70}]},{"server_id":1,"name":"Uncletopia | Los Angeles | 1 | All Maps","name_short":"lax-1","host":"lax-1.us.uncletopia.com","port":27015,"enabled":true,"region":"us-west","cc":"us","latitude":33.94279,"longitude":-118.41004,"reserved":0,"last_update":"0001-01-01T00:00:00Z","name_a2s":"Uncletopia | Los Angeles | 1 | All Maps","protocol":17,"map":"pl_pier","folder":"tf","game":"Team Fortress","app_id":440,"player_count":24,"max_players":24,"Bots":0,"server_type":"Dedicated","server_os":"Linux","password":true,"vac":true,"version":"7961495","steam_id":85568392924469991,"keywords":["nocrits","nodmgspread","payload","uncletopia"],"game_id":440,"stv_port":27016,"stv_name":"Uncletopia | Los Angeles | 1 | All Maps | STV","players":[{"user_id":253,"name":"Vlone","steam_id":76561199119064542,"connected_time":687000000000,"state":"active","ping":64},{"user_id":267,"name":"HAT-WEARING™ Maggot Gamer Cat","steam_id":76561197973992705,"connected_time":164000000000,"state":"active","ping":69},{"user_id":269,"name":"Ockulus","steam_id":76561199069638460,"connected_time":72000000000,"state":"active","ping":41},{"user_id":266,"name":"HYZA (enthusiastic and calming)","steam_id":76561199100342013,"connected_time":253000000000,"state":"active","ping":47},{"user_id":189,"name":"moe","steam_id":76561198929586245,"connected_time":5191000000000,"state":"active","ping":36},{"user_id":262,"name":"Perc Angle","steam_id":76561198397822518,"connected_time":337000000000,"state":"active","ping":117},{"user_id":237,"name":"1998 Mazda b2500","steam_id":76561198883172857,"connected_time":1346000000000,"state":"active","ping":59},{"user_id":263,"name":"❤[S'more]❤","steam_id":76561198817361963,"connected_time":333000000000,"state":"active","ping":72},{"user_id":236,"name":"meme","steam_id":76561199170771700,"connected_time":1373000000000,"state":"active","ping":60},{"user_id":264,"name":"(TPT) Ghost","steam_id":76561198123262873,"connected_time":328000000000,"state":"active","ping":64},{"user_id":232,"name":"Smiles","steam_id":76561198107197973,"connected_time":1447000000000,"state":"active","ping":139},{"user_id":136,"name":"MELON NotAWeeb","steam_id":76561198165530739,"connected_time":9538000000000,"state":"active","ping":56},{"user_id":233,"name":"Sinclair!","steam_id":76561198804662005,"connected_time":1441000000000,"state":"active","ping":51},{"user_id":238,"name":"Quibl","steam_id":76561199110591930,"connected_time":1312000000000,"state":"active","ping":95},{"user_id":227,"name":"TheDoctorIsIn","steam_id":76561198322058639,"connected_time":1514000000000,"state":"active","ping":96},{"user_id":219,"name":"Taco+Taco=Burrito","steam_id":76561198063128663,"connected_time":2868000000000,"state":"active","ping":48},{"user_id":257,"name":"Salverz","steam_id":76561198095514968,"connected_time":491000000000,"state":"active","ping":47},{"user_id":215,"name":":p","steam_id":76561198047786061,"connected_time":2899000000000,"state":"active","ping":79},{"user_id":247,"name":"Human Resources Manager","steam_id":76561198066386411,"connected_time":1082000000000,"state":"active","ping":62},{"user_id":265,"name":"green demon","steam_id":76561198203353732,"connected_time":306000000000,"state":"active","ping":99},{"user_id":258,"name":"Roon","steam_id":76561198381478636,"connected_time":481000000000,"state":"active","ping":51},{"user_id":243,"name":"elephant thumb","steam_id":76561198118859752,"connected_time":1224000000000,"state":"active","ping":45},{"user_id":244,"name":"Keamy","steam_id":76561199471434875,"connected_time":1213000000000,"state":"active","ping":75},{"user_id":222,"name":"spherewithahat","steam_id":76561199122192660,"connected_time":2726000000000,"state":"active","ping":119}]},{"server_id":112,"name":"Uncletopia | Los Angeles | 2 | All Maps","name_short":"lax-2","host":"lax-1.us.uncletopia.com","port":27025,"enabled":true,"region":"us-west","cc":"us","latitude":33.94279,"longitude":-118.41004,"reserved":0,"last_update":"0001-01-01T00:00:00Z","name_a2s":"Uncletopia | Los Angeles | 2 | All Maps","protocol":17,"map":"ctf_2fort","folder":"tf","game":"Team Fortress","app_id":440,"player_count":22,"max_players":24,"Bots":0,"server_type":"Dedicated","server_os":"Linux","password":true,"vac":true,"version":"7961495","steam_id":85568392924469992,"keywords":["ctf","nocrits","nodmgspread","uncletopia"],"game_id":440,"stv_port":27026,"stv_name":"Uncletopia | Los Angeles | 2 | All Maps | STV","players":[{"user_id":295,"name":"Freddi Fish owes me $5","steam_id":76561198112705880,"connected_time":2172000000000,"state":"active","ping":47},{"user_id":201,"name":"Silly Shark","steam_id":76561198130714378,"connected_time":9680000000000,"state":"active","ping":89},{"user_id":301,"name":"“Captain Autism” Beta158","steam_id":76561198131319714,"connected_time":2061000000000,"state":"active","ping":118},{"user_id":317,"name":"cataconik","steam_id":76561198145530829,"connected_time":174000000000,"state":"active","ping":111},{"user_id":318,"name":"Squatter1","steam_id":76561198078987734,"connected_time":154000000000,"state":"active","ping":75},{"user_id":307,"name":"BJ","steam_id":76561198004307563,"connected_time":1287000000000,"state":"active","ping":161},{"user_id":294,"name":"Person Man","steam_id":76561198293857963,"connected_time":2267000000000,"state":"active","ping":66},{"user_id":319,"name":"Pah-Wraith Gul Dukat","steam_id":76561198033918106,"connected_time":146000000000,"state":"active","ping":46},{"user_id":285,"name":"Fronsy","steam_id":76561198157321706,"connected_time":2731000000000,"state":"active","ping":66},{"user_id":276,"name":"BrowniesCake","steam_id":76561198164081149,"connected_time":3237000000000,"state":"active","ping":63},{"user_id":316,"name":"Ralph Kramden (Slim Charles)","steam_id":76561197981687895,"connected_time":301000000000,"state":"active","ping":71},{"user_id":320,"name":"jenna ortega","steam_id":76561199492289739,"connected_time":106000000000,"state":"active","ping":96},{"user_id":261,"name":"no vc no c","steam_id":76561197989503095,"connected_time":4714000000000,"state":"active","ping":156},{"user_id":299,"name":"resh!","steam_id":76561198066619792,"connected_time":2145000000000,"state":"active","ping":79},{"user_id":229,"name":"Will o' Wisp","steam_id":76561198836379749,"connected_time":8500000000000,"state":"active","ping":57},{"user_id":321,"name":"Shalom","steam_id":76561198410005222,"connected_time":77000000000,"state":"active","ping":82},{"user_id":322,"name":"aunt pat","steam_id":76561198001488041,"connected_time":37000000000,"state":"active","ping":92},{"user_id":154,"name":"Arcane Flame","steam_id":76561198360024422,"connected_time":13477000000000,"state":"active","ping":59},{"user_id":222,"name":"l u n a r .","steam_id":76561198075773796,"connected_time":8725000000000,"state":"active","ping":65},{"user_id":323,"name":"2framespersec","steam_id":76561198994004371,"connected_time":32000000000,"state":"active","ping":140},{"user_id":284,"name":"blazen","steam_id":76561198921007863,"connected_time":2978000000000,"state":"active","ping":64},{"user_id":200,"name":"Starkiller","steam_id":76561198101643120,"connected_time":9758000000000,"state":"active","ping":80}]},{"server_id":324,"name":"Uncletopia | Los Angeles | 3 | All Maps","name_short":"lax-3","host":"lax-1.us.uncletopia.com","port":27035,"enabled":true,"region":"us-west","cc":"us","latitude":33.94279,"longitude":-118.41004,"reserved":0,"last_update":"0001-01-01T00:00:00Z","name_a2s":"Uncletopia | Los Angeles | 3 | All Maps","protocol":17,"map":"koth_viaduct","folder":"tf","game":"Team Fortress","app_id":440,"player_count":3,"max_players":24,"Bots":0,"server_type":"Dedicated","server_os":"Linux","password":true,"vac":true,"version":"7961495","steam_id":85568392924510198,"keywords":["cp","nocrits","nodmgspread","uncletopia"],"game_id":440,"stv_port":27036,"stv_name":"Uncletopia | Los Angeles | 3 | All Maps | STV","players":[{"user_id":72,"name":"Thequirka","steam_id":76561198968058652,"connected_time":1147000000000,"state":"active","ping":75},{"user_id":76,"name":"mrthugpug1732","steam_id":76561198881200768,"connected_time":722000000000,"state":"active","ping":54},{"user_id":43,"name":"Samsung Sam","steam_id":76561198949410536,"connected_time":3680000000000,"state":"active","ping":82}]},{"server_id":25,"name":"Uncletopia | Los Angeles | 4 | Stopwatch Beta","name_short":"lax-4","host":"lax-1.us.uncletopia.com","port":27045,"enabled":true,"region":"us-west","cc":"us","latitude":33.94279,"longitude":-118.41004,"reserved":0,"last_update":"0001-01-01T00:00:00Z","name_a2s":"Uncletopia | Los Angeles | 4 | Stopwatch Beta","protocol":17,"map":"pl_upward","folder":"tf","game":"Team Fortress","app_id":440,"player_count":0,"max_players":24,"Bots":0,"server_type":"Dedicated","server_os":"Linux","password":true,"vac":true,"version":"7961495","steam_id":85568392924510199,"keywords":["nocrits","nodmgspread","payload","uncletopia"],"game_id":440,"stv_port":27046,"stv_name":"Uncletopia | Los Angeles | 4 | Stopwatch Beta | STV","players":null},{"server_id":11,"name":"Uncletopia | London | 1 | All Maps","name_short":"lon-1","host":"lon-1.uk.uncletopia.com","port":27015,"enabled":true,"region":"eu","cc":"gb","latitude":51.509865,"longitude":-0.118092,"reserved":0,"last_update":"0001-01-01T00:00:00Z","name_a2s":"Uncletopia | London | 1 | All Maps","protocol":17,"map":"cp_badlands","folder":"tf","game":"Team Fortress","app_id":440,"player_count":1,"max_players":24,"Bots":0,"server_type":"Dedicated","server_os":"Linux","password":true,"vac":true,"version":"7961495","steam_id":85568392924367362,"keywords":["cp","nocrits","nodmgspread","uncletopia"],"game_id":440,"stv_port":27016,"stv_name":"Uncletopia | London | 1 | All Maps | STV","players":[{"user_id":5,"name":"shooer!","steam_id":76561198110531281,"connected_time":2401000000000,"state":"active","ping":62}]},{"server_id":114,"name":"Uncletopia | London | 2 | All Maps","name_short":"lon-2","host":"lon-1.uk.uncletopia.com","port":27025,"enabled":true,"region":"eu","cc":"gb","latitude":51.509865,"longitude":-0.118092,"reserved":0,"last_update":"0001-01-01T00:00:00Z","name_a2s":"Uncletopia | London | 2 | All Maps","protocol":17,"map":"cp_snakewater_final1","folder":"tf","game":"Team Fortress","app_id":440,"player_count":0,"max_players":24,"Bots":0,"server_type":"Dedicated","server_os":"Linux","password":true,"vac":true,"version":"7961495","steam_id":85568392924470941,"keywords":["cp","nocrits","nodmgspread","uncletopia"],"game_id":440,"stv_port":27026,"stv_name":"Uncletopia | London | 2 | All Maps | STV","players":null},{"server_id":320,"name":"Uncletopia | London | 3 | All Maps","name_short":"lon-3","host":"lon-1.uk.uncletopia.com","port":27035,"enabled":true,"region":"eu","cc":"gb","latitude":51.509865,"longitude":-0.118092,"reserved":0,"last_update":"0001-01-01T00:00:00Z","name_a2s":"Uncletopia | London | 3 | All Maps","protocol":17,"map":"pl_pier","folder":"tf","game":"Team Fortress","app_id":440,"player_count":0,"max_players":24,"Bots":0,"server_type":"Dedicated","server_os":"Linux","password":true,"vac":true,"version":"7961495","steam_id":85568392924510192,"keywords":["nocrits","nodmgspread","payload","uncletopia"],"game_id":440,"stv_port":27036,"stv_name":"Uncletopia | London | 3 | All Maps | STV","players":null},{"server_id":321,"name":"Uncletopia | London | 4 | All Maps","name_short":"lon-4","host":"lon-1.uk.uncletopia.com","port":27045,"enabled":true,"region":"eu","cc":"gb","latitude":51.509865,"longitude":-0.118092,"reserved":0,"last_update":"0001-01-01T00:00:00Z","name_a2s":"Uncletopia | London | 4 | All Maps","protocol":17,"map":"koth_viaduct","folder":"tf","game":"Team Fortress","app_id":440,"player_count":0,"max_players":24,"Bots":0,"server_type":"Dedicated","server_os":"Linux","password":true,"vac":true,"version":"7961495","steam_id":85568392924510193,"keywords":["cp","nocrits","nodmgspread","uncletopia"],"game_id":440,"stv_port":27046,"stv_name":"Uncletopia | London | 4 | All Maps | STV","players":null},{"server_id":21,"name":"Uncletopia | London | 5 | All Maps","name_short":"lon-5","host":"lon-1.uk.uncletopia.com","port":27055,"enabled":true,"region":"eu","cc":"gb","latitude":51.509865,"longitude":-0.118092,"reserved":0,"last_update":"0001-01-01T00:00:00Z","name_a2s":"Uncletopia | London | 5 | All Maps","protocol":17,"map":"pl_barnblitz","folder":"tf","game":"Team Fortress","app_id":440,"player_count":0,"max_players":24,"Bots":0,"server_type":"Dedicated","server_os":"Linux","password":true,"vac":true,"version":"7961495","steam_id":85568392924742829,"keywords":["nocrits","nodmgspread","payload","uncletopia"],"game_id":440,"stv_port":27056,"stv_name":"Uncletopia | London | 5 | All Maps | STV","players":null},{"server_id":22,"name":"Uncletopia | London | 6 | All Maps","name_short":"lon-6","host":"lon-1.uk.uncletopia.com","port":27065,"enabled":true,"region":"eu","cc":"gb","latitude":51.509865,"longitude":-0.118092,"reserved":0,"last_update":"0001-01-01T00:00:00Z","name_a2s":"Uncletopia | London | 6 | All Maps","protocol":17,"map":"pl_borneo","folder":"tf","game":"Team Fortress","app_id":440,"player_count":0,"max_players":24,"Bots":0,"server_type":"Dedicated","server_os":"Linux","password":true,"vac":true,"version":"7961495","steam_id":85568392924742830,"keywords":["nocrits","nodmgspread","payload","uncletopia"],"game_id":440,"stv_port":27066,"stv_name":"Uncletopia | London | 6 | All Maps | STV","players":null},{"server_id":40,"name":"Uncletopia | London | 7 | No Payload","name_short":"lon-7","host":"lon-1.uk.uncletopia.com","port":27075,"enabled":true,"region":"eu","cc":"gb","latitude":51.509865,"longitude":-0.118092,"reserved":0,"last_update":"0001-01-01T00:00:00Z","name_a2s":"Uncletopia | London | 7 | No Payload","protocol":17,"map":"pl_pier","folder":"tf","game":"Team Fortress","app_id":440,"player_count":0,"max_players":24,"Bots":0,"server_type":"Dedicated","server_os":"Linux","password":true,"vac":true,"version":"7961495","steam_id":85568392924964314,"keywords":["nocrits","nodmgspread","payload","uncletopia"],"game_id":440,"stv_port":27076,"stv_name":"Uncletopia | London | 7 | No Payload | STV","players":null},{"server_id":41,"name":"Uncletopia | London | 8 | Community","name_short":"lon-8","host":"lon-1.uk.uncletopia.com","port":27085,"enabled":true,"region":"eu","cc":"gb","latitude":51.509865,"longitude":-0.118092,"reserved":0,"last_update":"0001-01-01T00:00:00Z","name_a2s":"Uncletopia | London | 8 | Community","protocol":17,"map":"pl_borneo","folder":"tf","game":"Team Fortress","app_id":440,"player_count":0,"max_players":24,"Bots":0,"server_type":"Dedicated","server_os":"Linux","password":true,"vac":true,"version":"7961495","steam_id":85568392924964315,"keywords":["nocrits","nodmgspread","payload","uncletopia"],"game_id":440,"stv_port":27086,"stv_name":"Uncletopia | London | 8 | Community | STV","players":null},{"server_id":300,"name":"Uncletopia | Montréal | 1 | All Maps","name_short":"mtl-1","host":"mtl-1.ca.uncletopia.com","port":27015,"enabled":true,"region":"us-east","cc":"ca","latitude":45.50889,"longitude":-73.56167,"reserved":0,"last_update":"0001-01-01T00:00:00Z","name_a2s":"Uncletopia | Montréal | 1 | All Maps","protocol":17,"map":"ctf_2fort","folder":"tf","game":"Team Fortress","app_id":440,"player_count":10,"max_players":24,"Bots":0,"server_type":"Dedicated","server_os":"Linux","password":true,"vac":true,"version":"7961495","steam_id":85568392924500087,"keywords":["ctf","nocrits","nodmgspread","uncletopia"],"game_id":440,"stv_port":27016,"stv_name":"Uncletopia | Montréal | 1 | All Maps | STV","players":[{"user_id":67,"name":"Pig master","steam_id":76561199388075545,"connected_time":2420000000000,"state":"active","ping":130},{"user_id":90,"name":"Mediocre Gaming","steam_id":76561199230467980,"connected_time":369000000000,"state":"active","ping":76},{"user_id":99,"name":"brian damage","steam_id":76561198118455606,"connected_time":139000000000,"state":"active","ping":32},{"user_id":95,"name":"kdhbuilder","steam_id":76561199058095193,"connected_time":324000000000,"state":"active","ping":103},{"user_id":78,"name":"Johnny Peepance","steam_id":76561198056271809,"connected_time":1063000000000,"state":"active","ping":56},{"user_id":74,"name":"TimeWarper","steam_id":76561198307258839,"connected_time":1482000000000,"state":"active","ping":44},{"user_id":79,"name":"the ovipositron","steam_id":76561198063064857,"connected_time":1041000000000,"state":"active","ping":63},{"user_id":98,"name":"Engineer TF2","steam_id":76561199087480628,"connected_time":242000000000,"state":"active","ping":114},{"user_id":77,"name":"Imperatoad","steam_id":76561198051066441,"connected_time":1090000000000,"state":"active","ping":61},{"user_id":81,"name":"Cheeki","steam_id":76561198024375176,"connected_time":952000000000,"state":"active","ping":43}]},{"server_id":301,"name":"Uncletopia | Montréal | 2 | All Maps","name_short":"mtl-2","host":"mtl-1.ca.uncletopia.com","port":27025,"enabled":true,"region":"us-east","cc":"ca","latitude":45.50889,"longitude":-73.56167,"reserved":0,"last_update":"0001-01-01T00:00:00Z","name_a2s":"Uncletopia | Montréal | 2 | All Maps","protocol":17,"map":"pl_swiftwater_final1","folder":"tf","game":"Team Fortress","app_id":440,"player_count":0,"max_players":24,"Bots":0,"server_type":"Dedicated","server_os":"Linux","password":true,"vac":true,"version":"7961495","steam_id":85568392924500088,"keywords":["nocrits","nodmgspread","payload","uncletopia"],"game_id":440,"stv_port":27026,"stv_name":"Uncletopia | Montréal | 2 | All Maps | STV","players":null},{"server_id":302,"name":"Uncletopia | Montréal | 3 | All Maps","name_short":"mtl-3","host":"mtl-1.ca.uncletopia.com","port":27035,"enabled":true,"region":"us-east","cc":"ca","latitude":45.50889,"longitude":-73.56167,"reserved":0,"last_update":"0001-01-01T00:00:00Z","name_a2s":"Uncletopia | Montréal | 3 | All Maps","protocol":17,"map":"koth_cascade","folder":"tf","game":"Team Fortress","app_id":440,"player_count":0,"max_players":24,"Bots":0,"server_type":"Dedicated","server_os":"Linux","password":true,"vac":true,"version":"7961495","steam_id":85568392924500089,"keywords":["cp","nocrits","nodmgspread","uncletopia"],"game_id":440,"stv_port":27036,"stv_name":"Uncletopia | Montréal | 3 | All Maps | STV","players":null},{"server_id":303,"name":"Uncletopia | Montréal | 4 | No Payload","name_short":"mtl-4","host":"mtl-1.ca.uncletopia.com","port":27045,"enabled":true,"region":"us-east","cc":"ca","latitude":45.50889,"longitude":-73.56167,"reserved":0,"last_update":"0001-01-01T00:00:00Z","name_a2s":"Uncletopia | Montréal | 4 | No Payload","protocol":17,"map":"koth_lakeside_final","folder":"tf","game":"Team Fortress","app_id":440,"player_count":0,"max_players":24,"Bots":0,"server_type":"Dedicated","server_os":"Linux","password":true,"vac":true,"version":"7961495","steam_id":85568392924500090,"keywords":["cp","nocrits","nodmgspread","uncletopia"],"game_id":440,"stv_port":27046,"stv_name":"Uncletopia | Montréal | 4 | No Payload | STV","players":null},{"server_id":13,"name":"Uncletopia | New York City | 1 | All Maps","name_short":"nyc-1","host":"nyc-1.us.uncletopia.com","port":27015,"enabled":true,"region":"us-east","cc":"us","latitude":40.73061,"longitude":-73.93524,"reserved":0,"last_update":"0001-01-01T00:00:00Z","name_a2s":"Uncletopia | New York City | 1 | All Maps","protocol":17,"map":"pl_snowycoast","folder":"tf","game":"Team Fortress","app_id":440,"player_count":24,"max_players":24,"Bots":0,"server_type":"Dedicated","server_os":"Linux","password":true,"vac":true,"version":"7961495","steam_id":85568392924469993,"keywords":["nocrits","nodmgspread","payload","uncletopia"],"game_id":440,"stv_port":27016,"stv_name":"Uncletopia | New York City | 1 | All Maps | STV","players":[{"user_id":500,"name":"ZerCroix","steam_id":76561198199523226,"connected_time":3983000000000,"state":"active","ping":125},{"user_id":489,"name":"stink","steam_id":76561198099318923,"connected_time":4481000000000,"state":"active","ping":66},{"user_id":531,"name":"Piss God","steam_id":76561198090504334,"connected_time":975000000000,"state":"active","ping":57},{"user_id":528,"name":"Queso2469","steam_id":76561197993024580,"connected_time":1395000000000,"state":"active","ping":45},{"user_id":544,"name":"ricebox","steam_id":76561197998059533,"connected_time":401000000000,"state":"active","ping":42},{"user_id":536,"name":"Kaluka","steam_id":76561198036861445,"connected_time":735000000000,"state":"active","ping":48},{"user_id":541,"name":"tesagi","steam_id":76561198026664629,"connected_time":544000000000,"state":"active","ping":44},{"user_id":478,"name":"I eat Bassachusetts","steam_id":76561198073769916,"connected_time":5696000000000,"state":"active","ping":121},{"user_id":535,"name":"MitcheyHD","steam_id":76561198066489645,"connected_time":774000000000,"state":"active","ping":69},{"user_id":546,"name":"Raisincineroar","steam_id":76561198116295334,"connected_time":57000000000,"state":"active","ping":46},{"user_id":537,"name":"donkey","steam_id":76561198288539461,"connected_time":728000000000,"state":"active","ping":82},{"user_id":527,"name":"Kapu1178","steam_id":76561198107212766,"connected_time":1756000000000,"state":"active","ping":55},{"user_id":487,"name":"♡Alyx♡","steam_id":76561198024303978,"connected_time":4630000000000,"state":"active","ping":49},{"user_id":504,"name":"triple_range_merge","steam_id":76561198991225026,"connected_time":3638000000000,"state":"active","ping":64},{"user_id":542,"name":"BigMan","steam_id":76561198277150955,"connected_time":437000000000,"state":"active","ping":53},{"user_id":539,"name":"Bottle","steam_id":76561198044031558,"connected_time":722000000000,"state":"active","ping":53},{"user_id":342,"name":"..!","steam_id":76561198882483441,"connected_time":10590000000000,"state":"active","ping":86},{"user_id":496,"name":"jun.","steam_id":76561198820058199,"connected_time":4161000000000,"state":"active","ping":100},{"user_id":540,"name":"he suckin on my rick til i mort","steam_id":76561198310711692,"connected_time":718000000000,"state":"active","ping":158},{"user_id":448,"name":"Voracious Puma","steam_id":76561197963621649,"connected_time":7869000000000,"state":"active","ping":75},{"user_id":520,"name":"Raine","steam_id":76561198055761141,"connected_time":2165000000000,"state":"active","ping":103},{"user_id":482,"name":"Indyee","steam_id":76561198352317274,"connected_time":5555000000000,"state":"active","ping":57},{"user_id":529,"name":"Let ε \u003e 0","steam_id":76561198111790388,"connected_time":1287000000000,"state":"active","ping":108},{"user_id":545,"name":"wheeledcheese","steam_id":76561198398611901,"connected_time":379000000000,"state":"active","ping":86}]},{"server_id":14,"name":"Uncletopia | New York City | 2 | All Maps","name_short":"nyc-2","host":"nyc-1.us.uncletopia.com","port":27025,"enabled":true,"region":"us-east","cc":"us","latitude":40.73061,"longitude":-73.93524,"reserved":0,"last_update":"0001-01-01T00:00:00Z","name_a2s":"Uncletopia | New York City | 2 | All Maps","protocol":17,"map":"pl_snowycoast","folder":"tf","game":"Team Fortress","app_id":440,"player_count":24,"max_players":24,"Bots":0,"server_type":"Dedicated","server_os":"Linux","password":true,"vac":true,"version":"7961495","steam_id":85568392924469994,"keywords":["nocrits","nodmgspread","payload","uncletopia"],"game_id":440,"stv_port":27026,"stv_name":"Uncletopia | New York City | 2 | All Maps | STV","players":[{"user_id":348,"name":"Walmart Employee","steam_id":76561198840373909,"connected_time":1221000000000,"state":"active","ping":96},{"user_id":334,"name":"InchMan","steam_id":76561198272658825,"connected_time":2310000000000,"state":"active","ping":103},{"user_id":379,"name":"Aurel","steam_id":76561198265072810,"connected_time":79000000000,"state":"active","ping":70},{"user_id":376,"name":"JambaJuice","steam_id":76561198806736231,"connected_time":101000000000,"state":"active","ping":60},{"user_id":364,"name":"Flexo","steam_id":76561198111618506,"connected_time":790000000000,"state":"active","ping":148},{"user_id":352,"name":"Park","steam_id":76561198057222814,"connected_time":1140000000000,"state":"active","ping":50},{"user_id":268,"name":"catfish from toontown","steam_id":76561198060070002,"connected_time":3968000000000,"state":"active","ping":116},{"user_id":365,"name":"Tarmac Tomato","steam_id":76561198025011044,"connected_time":768000000000,"state":"active","ping":74},{"user_id":353,"name":"Randomguy234a","steam_id":76561198167334491,"connected_time":1091000000000,"state":"active","ping":48},{"user_id":370,"name":"AmazingCow60","steam_id":76561199122034325,"connected_time":749000000000,"state":"active","ping":82},{"user_id":380,"name":"AreYouMyMummy?","steam_id":76561197995101745,"connected_time":72000000000,"state":"active","ping":67},{"user_id":374,"name":"stampdawg","steam_id":76561198050500060,"connected_time":126000000000,"state":"active","ping":75},{"user_id":263,"name":"Lawtumn","steam_id":76561198347286009,"connected_time":4021000000000,"state":"active","ping":60},{"user_id":351,"name":"Dreszerg","steam_id":76561198838757422,"connected_time":1209000000000,"state":"active","ping":86},{"user_id":325,"name":"Thunderous","steam_id":76561198192752793,"connected_time":2883000000000,"state":"active","ping":45},{"user_id":328,"name":"themouseofchaos","steam_id":76561198256777743,"connected_time":2411000000000,"state":"active","ping":69},{"user_id":375,"name":"Classy","steam_id":76561198128415840,"connected_time":105000000000,"state":"active","ping":43},{"user_id":377,"name":"HemoTox","steam_id":76561197999713466,"connected_time":95000000000,"state":"active","ping":71},{"user_id":381,"name":"bogus","steam_id":76561198377555279,"connected_time":70000000000,"state":"active","ping":84},{"user_id":372,"name":"smooth brain","steam_id":76561198049253541,"connected_time":473000000000,"state":"active","ping":81},{"user_id":382,"name":"leumas","steam_id":76561198240408540,"connected_time":70000000000,"state":"active","ping":45},{"user_id":228,"name":"Grand Piano Tuna","steam_id":76561198135137213,"connected_time":5071000000000,"state":"active","ping":77},{"user_id":229,"name":"eish","steam_id":76561198089463603,"connected_time":5044000000000,"state":"active","ping":139},{"user_id":323,"name":"Rat","steam_id":76561198187698871,"connected_time":2905000000000,"state":"active","ping":61}]},{"server_id":15,"name":"Uncletopia | New York City | 3 | Stopwatch Beta","name_short":"nyc-3","host":"nyc-1.us.uncletopia.com","port":27035,"enabled":true,"region":"us-east","cc":"us","latitude":40.73061,"longitude":-73.93524,"reserved":0,"last_update":"0001-01-01T00:00:00Z","name_a2s":"Uncletopia | New York City | 3 | Stopwatch Beta","protocol":17,"map":"workshop/koth_ramjam_rc1.ugc459778887","folder":"tf","game":"Team Fortress","app_id":440,"player_count":0,"max_players":24,"Bots":0,"server_type":"Dedicated","server_os":"Linux","password":true,"vac":true,"version":"7961495","steam_id":85568392924742820,"keywords":["cp","nocrits","nodmgspread","uncletopia"],"game_id":440,"stv_port":27036,"stv_name":"Uncletopia | New York City | 3 | Stopwatch Beta | STV","players":null},{"server_id":16,"name":"Uncletopia | New York City | 4 | Community","name_short":"nyc-4","host":"nyc-1.us.uncletopia.com","port":27045,"enabled":true,"region":"us-east","cc":"us","latitude":40.73061,"longitude":-73.93524,"reserved":0,"last_update":"0001-01-01T00:00:00Z","name_a2s":"Uncletopia | New York City | 4 | Community","protocol":17,"map":"workshop/cp_indulge.ugc528106646","folder":"tf","game":"Team Fortress","app_id":440,"player_count":0,"max_players":24,"Bots":0,"server_type":"Dedicated","server_os":"Linux","password":true,"vac":true,"version":"7961495","steam_id":85568392924742821,"keywords":["cp","nocrits","nodmgspread","uncletopia"],"game_id":440,"stv_port":27046,"stv_name":"Uncletopia | New York City | 4 | Community | STV","players":null},{"server_id":142,"name":"Uncletopia | São Paulo | 1 | All Maps","name_short":"sao-1","host":"sao-1.br.uncletopia.com","port":27015,"enabled":true,"region":"sa","cc":"br","latitude":-23.533773,"longitude":-46.62529,"reserved":0,"last_update":"0001-01-01T00:00:00Z","name_a2s":"Uncletopia | São Paulo | 1 | All Maps","protocol":17,"map":"pl_borneo","folder":"tf","game":"Team Fortress","app_id":440,"player_count":0,"max_players":24,"Bots":0,"server_type":"Dedicated","server_os":"Linux","password":true,"vac":true,"version":"7961495","steam_id":85568392924469996,"keywords":["nocrits","nodmgspread","payload","uncletopia"],"game_id":440,"stv_port":27016,"stv_name":"Uncletopia | São Paulo | 1 | All Maps | STV","players":null},{"server_id":143,"name":"Uncletopia | São Paulo | 2 | Community","name_short":"sao-2","host":"sao-2.br.uncletopia.com","port":27015,"enabled":true,"region":"sa","cc":"br","latitude":-23.533773,"longitude":-46.62529,"reserved":0,"last_update":"0001-01-01T00:00:00Z","name_a2s":"Uncletopia | São Paulo | 2 | Community","protocol":17,"map":"workshop/pl_corrode_rc2.ugc546577989","folder":"tf","game":"Team Fortress","app_id":440,"player_count":10,"max_players":24,"Bots":0,"server_type":"Dedicated","server_os":"Linux","password":true,"vac":true,"version":"7961495","steam_id":85568392924485349,"keywords":["nocrits","nodmgspread","payload","uncletopia"],"game_id":440,"stv_port":27016,"stv_name":"Uncletopia | São Paulo | 2 | Community | STV","players":[{"user_id":6,"name":"veada bem dotada","steam_id":76561198305477134,"connected_time":3586000000000,"state":"active","ping":46},{"user_id":23,"name":"いこ","steam_id":76561198965538287,"connected_time":161000000000,"state":"active","ping":43},{"user_id":24,"name":"TsD","steam_id":76561198841772517,"connected_time":152000000000,"state":"active","ping":91},{"user_id":9,"name":"guarda-chuva","steam_id":76561198078694330,"connected_time":2574000000000,"state":"active","ping":61},{"user_id":21,"name":"matheus whatsapp","steam_id":76561199359501901,"connected_time":1197000000000,"state":"active","ping":44},{"user_id":11,"name":"Silverback","steam_id":76561198928735294,"connected_time":2405000000000,"state":"active","ping":62},{"user_id":25,"name":"Sr Joe","steam_id":76561199060306500,"connected_time":119000000000,"state":"spawning","ping":135},{"user_id":17,"name":"RHD BRAZIL [\u003c O \u003e]","steam_id":76561198028190080,"connected_time":1721000000000,"state":"active","ping":37},{"user_id":15,"name":"Gigi","steam_id":76561198348971878,"connected_time":2092000000000,"state":"active","ping":57},{"user_id":18,"name":"Marce0012YT","steam_id":76561199483195186,"connected_time":1587000000000,"state":"active","ping":93}]},{"server_id":7,"name":"Uncletopia | Seattle | 1 | All Maps","name_short":"sea-1","host":"sea-1.us.uncletopia.com","port":27015,"enabled":true,"region":"us-west","cc":"us","latitude":47.608013,"longitude":-122.33517,"reserved":0,"last_update":"0001-01-01T00:00:00Z","name_a2s":"Uncletopia | Seattle | 1 | All Maps","protocol":17,"map":"pl_frontier_final","folder":"tf","game":"Team Fortress","app_id":440,"player_count":24,"max_players":24,"Bots":0,"server_type":"Dedicated","server_os":"Linux","password":true,"vac":true,"version":"7961495","steam_id":85568392924469997,"keywords":["nocrits","nodmgspread","payload","uncletopia"],"game_id":440,"stv_port":27016,"stv_name":"Uncletopia | Seattle | 1 | All Maps | STV","players":[{"user_id":441,"name":"Villchip","steam_id":76561198198599982,"connected_time":1287000000000,"state":"active","ping":51},{"user_id":458,"name":"D34dR4bbit","steam_id":76561198167411455,"connected_time":490000000000,"state":"active","ping":56},{"user_id":448,"name":"Why does glass taste like blood","steam_id":76561198253922494,"connected_time":891000000000,"state":"active","ping":91},{"user_id":438,"name":"35 years without a footjob...","steam_id":76561198799299193,"connected_time":1353000000000,"state":"active","ping":64},{"user_id":392,"name":"Luca","steam_id":76561198125087140,"connected_time":5405000000000,"state":"active","ping":45},{"user_id":437,"name":"Bee","steam_id":76561199489934354,"connected_time":2041000000000,"state":"active","ping":116},{"user_id":413,"name":"RainboomCrash","steam_id":76561198065612273,"connected_time":3608000000000,"state":"active","ping":45},{"user_id":432,"name":"Tideflat","steam_id":76561198179850851,"connected_time":2255000000000,"state":"active","ping":61},{"user_id":443,"name":"comet sooicidy","steam_id":76561198025173479,"connected_time":1249000000000,"state":"active","ping":136},{"user_id":449,"name":"OPKILLER99 (g.e.w.p)","steam_id":76561198213385439,"connected_time":810000000000,"state":"active","ping":69},{"user_id":380,"name":"The_Changsta","steam_id":76561198042185053,"connected_time":5906000000000,"state":"active","ping":91},{"user_id":460,"name":"master prestige cod gamer","steam_id":76561198152149679,"connected_time":353000000000,"state":"active","ping":41},{"user_id":426,"name":"EXTREME FEVER","steam_id":76561198282764599,"connected_time":2660000000000,"state":"active","ping":95},{"user_id":383,"name":"Spruce","steam_id":76561198081684676,"connected_time":5870000000000,"state":"active","ping":64},{"user_id":421,"name":"Dextersbrain","steam_id":76561198011831579,"connected_time":2755000000000,"state":"active","ping":69},{"user_id":454,"name":"bbbbb","steam_id":76561198095480838,"connected_time":694000000000,"state":"active","ping":49},{"user_id":452,"name":"fried water","steam_id":76561198360311110,"connected_time":707000000000,"state":"active","ping":47},{"user_id":434,"name":"FatCuddlyBear","steam_id":76561198133613253,"connected_time":2223000000000,"state":"active","ping":117},{"user_id":456,"name":"Leifvs","steam_id":76561198255946142,"connected_time":642000000000,"state":"active","ping":81},{"user_id":461,"name":"ORANGE","steam_id":76561198000401769,"connected_time":43000000000,"state":"active","ping":46},{"user_id":436,"name":"giant_dork","steam_id":76561199105606956,"connected_time":2193000000000,"state":"active","ping":124},{"user_id":428,"name":"captain red","steam_id":76561198191587983,"connected_time":2365000000000,"state":"active","ping":77},{"user_id":455,"name":"oliver biscuit","steam_id":76561197989058876,"connected_time":663000000000,"state":"active","ping":91},{"user_id":457,"name":"Cartwright","steam_id":76561197975491705,"connected_time":638000000000,"state":"active","ping":71}]},{"server_id":119,"name":"Uncletopia | Seattle | 2 | All Maps","name_short":"sea-2","host":"sea-1.us.uncletopia.com","port":27025,"enabled":true,"region":"us-west","cc":"us","latitude":47.608013,"longitude":-122.33517,"reserved":0,"last_update":"0001-01-01T00:00:00Z","name_a2s":"Uncletopia | Seattle | 2 | All Maps","protocol":17,"map":"pl_swiftwater_final1","folder":"tf","game":"Team Fortress","app_id":440,"player_count":24,"max_players":24,"Bots":0,"server_type":"Dedicated","server_os":"Linux","password":true,"vac":true,"version":"7961495","steam_id":85568392924469998,"keywords":["nocrits","nodmgspread","payload","uncletopia"],"game_id":440,"stv_port":27026,"stv_name":"Uncletopia | Seattle | 2 | All Maps | STV","players":[{"user_id":585,"name":"dust | she/it","steam_id":76561198045218909,"connected_time":6513000000000,"state":"active","ping":44},{"user_id":634,"name":"louise sneeze","steam_id":76561198062451648,"connected_time":1895000000000,"state":"active","ping":91},{"user_id":655,"name":"BirBinGo","steam_id":76561198356529600,"connected_time":539000000000,"state":"active","ping":118},{"user_id":627,"name":"a cat plushie","steam_id":76561198080046542,"connected_time":2511000000000,"state":"active","ping":46},{"user_id":651,"name":"Dimple #TF2Center","steam_id":76561198980324190,"connected_time":630000000000,"state":"active","ping":75},{"user_id":600,"name":"Gerbias","steam_id":76561198001002427,"connected_time":5284000000000,"state":"active","ping":65},{"user_id":653,"name":"syncronoms","steam_id":76561198059808982,"connected_time":559000000000,"state":"active","ping":69},{"user_id":632,"name":"Robert","steam_id":76561198091171326,"connected_time":1910000000000,"state":"active","ping":46},{"user_id":657,"name":"Seriously Bruh","steam_id":76561198070408485,"connected_time":181000000000,"state":"active","ping":56},{"user_id":645,"name":"Angela :3","steam_id":76561198991101353,"connected_time":1111000000000,"state":"active","ping":46},{"user_id":636,"name":"EMPTY WITCH","steam_id":76561198068800572,"connected_time":1876000000000,"state":"active","ping":129},{"user_id":641,"name":"Miro","steam_id":76561198936412406,"connected_time":1544000000000,"state":"active","ping":130},{"user_id":648,"name":"CashGordon","steam_id":76561197975594096,"connected_time":735000000000,"state":"active","ping":43},{"user_id":658,"name":"Nightstalker","steam_id":76561199004204111,"connected_time":180000000000,"state":"active","ping":66},{"user_id":659,"name":"craftylongsword","steam_id":76561198340102940,"connected_time":162000000000,"state":"active","ping":63},{"user_id":644,"name":"lasky","steam_id":76561198017030029,"connected_time":1323000000000,"state":"active","ping":71},{"user_id":660,"name":"deletedtimes","steam_id":76561198412353895,"connected_time":161000000000,"state":"active","ping":44},{"user_id":629,"name":"ilun","steam_id":76561198042913843,"connected_time":2177000000000,"state":"active","ping":61},{"user_id":649,"name":"blueboy23","steam_id":76561199121889873,"connected_time":676000000000,"state":"active","ping":45},{"user_id":661,"name":"Boop Master","steam_id":76561198091582046,"connected_time":160000000000,"state":"active","ping":79},{"user_id":623,"name":"Bottom Trans Cowgirl","steam_id":76561198304239680,"connected_time":3201000000000,"state":"active","ping":130},{"user_id":643,"name":"Tibetan Pop Star","steam_id":76561198844903984,"connected_time":1492000000000,"state":"active","ping":87},{"user_id":656,"name":"Terror","steam_id":76561198188685728,"connected_time":479000000000,"state":"active","ping":123},{"user_id":553,"name":"rat gets the cheese","steam_id":76561198031234032,"connected_time":9189000000000,"state":"active","ping":103}]},{"server_id":406,"name":"Uncletopia | Seattle | 3 | Stopwatch Beta","name_short":"sea-3","host":"sea-1.us.uncletopia.com","port":27035,"enabled":true,"region":"us-west","cc":"us","latitude":47.608013,"longitude":-122.33517,"reserved":0,"last_update":"0001-01-01T00:00:00Z","name_a2s":"Uncletopia | Seattle | 3 | Stopwatch Beta","protocol":17,"map":"workshop/koth_bagel_rc6.ugc2514036946","folder":"tf","game":"Team Fortress","app_id":440,"player_count":0,"max_players":24,"Bots":0,"server_type":"Dedicated","server_os":"Linux","password":true,"vac":true,"version":"7961495","steam_id":85568392924515217,"keywords":["cp","nocrits","nodmgspread","uncletopia"],"game_id":440,"stv_port":27036,"stv_name":"Uncletopia | Seattle | 3 | Stopwatch Beta | STV","players":null},{"server_id":17,"name":"Uncletopia | San Francisco | 1 | All Maps","name_short":"sfo-1","host":"sfo-1.us.uncletopia.com","port":27015,"enabled":true,"region":"us-west","cc":"us","latitude":37.77397,"longitude":-122.4313,"reserved":0,"last_update":"0001-01-01T00:00:00Z","name_a2s":"Uncletopia | San Francisco | 1 | All Maps","protocol":17,"map":"cp_dustbowl","folder":"tf","game":"Team Fortress","app_id":440,"player_count":24,"max_players":24,"Bots":0,"server_type":"Dedicated","server_os":"Linux","password":true,"vac":true,"version":"7961495","steam_id":85568392924469999,"keywords":["cp","nocrits","nodmgspread","uncletopia"],"game_id":440,"stv_port":27016,"stv_name":"Uncletopia | San Francisco | 1 | All Maps | STV","players":[{"user_id":16,"name":"EMPEROR","steam_id":76561198333093167,"connected_time":3130000000000,"state":"active","ping":158},{"user_id":87,"name":"Acolyte of Goatse","steam_id":76561198046526036,"connected_time":130000000000,"state":"active","ping":51},{"user_id":70,"name":"GladosBackpack","steam_id":76561199219020294,"connected_time":927000000000,"state":"active","ping":130},{"user_id":88,"name":"jailbreak","steam_id":76561198802085218,"connected_time":34000000000,"state":"active","ping":91},{"user_id":72,"name":"define ok","steam_id":76561198068190834,"connected_time":896000000000,"state":"active","ping":61},{"user_id":79,"name":"HanakoToast","steam_id":76561198045233131,"connected_time":697000000000,"state":"active","ping":70},{"user_id":80,"name":"Caspian","steam_id":76561199041466962,"connected_time":680000000000,"state":"active","ping":63},{"user_id":89,"name":"Simply Devine","steam_id":76561198079023104,"connected_time":28000000000,"state":"active","ping":106},{"user_id":21,"name":"lamb cutlet","steam_id":76561199063557758,"connected_time":2857000000000,"state":"active","ping":115},{"user_id":37,"name":"skooma_consuma","steam_id":76561197974009843,"connected_time":2492000000000,"state":"active","ping":76},{"user_id":23,"name":"gayest MF DOOM fan","steam_id":76561198065801979,"connected_time":2777000000000,"state":"active","ping":123},{"user_id":24,"name":"DeckofDragons","steam_id":76561198057398213,"connected_time":2774000000000,"state":"active","ping":82},{"user_id":55,"name":"Decuplets","steam_id":76561198080661586,"connected_time":1716000000000,"state":"active","ping":88},{"user_id":26,"name":"skent6621","steam_id":76561199210134404,"connected_time":2685000000000,"state":"active","ping":112},{"user_id":76,"name":"VooDoo","steam_id":76561198133163191,"connected_time":792000000000,"state":"active","ping":98},{"user_id":78,"name":"|KPF|r0cks","steam_id":76561198023597573,"connected_time":752000000000,"state":"active","ping":134},{"user_id":30,"name":"LEE","steam_id":76561199127408846,"connected_time":2629000000000,"state":"active","ping":69},{"user_id":68,"name":"tr","steam_id":76561198046944222,"connected_time":1062000000000,"state":"active","ping":66},{"user_id":81,"name":"Portal2Player","steam_id":76561198062870114,"connected_time":667000000000,"state":"active","ping":155},{"user_id":36,"name":"HH","steam_id":76561198002302818,"connected_time":2514000000000,"state":"active","ping":62},{"user_id":69,"name":"spec","steam_id":76561199078179827,"connected_time":1054000000000,"state":"active","ping":68},{"user_id":82,"name":"Chevlanae","steam_id":76561198038180603,"connected_time":636000000000,"state":"active","ping":94},{"user_id":66,"name":"chunkysquare","steam_id":76561199076468383,"connected_time":1257000000000,"state":"active","ping":46},{"user_id":86,"name":"Ranger","steam_id":76561199478494933,"connected_time":224000000000,"state":"active","ping":204}]},{"server_id":18,"name":"Uncletopia | San Francisco | 2 | All Maps","name_short":"sfo-2","host":"sfo-1.us.uncletopia.com","port":27025,"enabled":true,"region":"us-west","cc":"us","latitude":37.77397,"longitude":-122.4313,"reserved":0,"last_update":"0001-01-01T00:00:00Z","name_a2s":"Uncletopia | San Francisco | 2 | All Maps","protocol":17,"map":"cp_sunshine","folder":"tf","game":"Team Fortress","app_id":440,"player_count":18,"max_players":24,"Bots":0,"server_type":"Dedicated","server_os":"Linux","password":true,"vac":true,"version":"7961495","steam_id":85568392924470000,"keywords":["cp","nocrits","nodmgspread","uncletopia"],"game_id":440,"stv_port":27026,"stv_name":"Uncletopia | San Francisco | 2 | All Maps | STV","players":[{"user_id":62,"name":"Jiffy","steam_id":76561198043338415,"connected_time":81000000000,"state":"active","ping":105},{"user_id":59,"name":"K2f","steam_id":76561198049600563,"connected_time":165000000000,"state":"active","ping":45},{"user_id":47,"name":"Chinfu1189","steam_id":76561198067063652,"connected_time":563000000000,"state":"active","ping":96},{"user_id":12,"name":"theamazingZ","steam_id":76561198418430859,"connected_time":2433000000000,"state":"active","ping":93},{"user_id":63,"name":"Wehttam","steam_id":76561199229493583,"connected_time":78000000000,"state":"active","ping":116},{"user_id":18,"name":"The Imagiknight","steam_id":76561198980851161,"connected_time":1770000000000,"state":"active","ping":46},{"user_id":15,"name":"[SAW] Lost Darkrai","steam_id":76561198021034873,"connected_time":2320000000000,"state":"active","ping":89},{"user_id":50,"name":"MTGbigdog","steam_id":76561198838760637,"connected_time":525000000000,"state":"active","ping":119},{"user_id":35,"name":"rad killl raccoon","steam_id":76561198980975595,"connected_time":1083000000000,"state":"active","ping":76},{"user_id":56,"name":"1000 Ping","steam_id":76561198098330939,"connected_time":200000000000,"state":"active","ping":75},{"user_id":66,"name":"thisisSteve","steam_id":76561198420882318,"connected_time":36000000000,"state":"spawning","ping":44},{"user_id":53,"name":"The_RainbowTrout","steam_id":76561199309554436,"connected_time":344000000000,"state":"active","ping":59},{"user_id":24,"name":"1965tobydowd","steam_id":76561198858551969,"connected_time":1574000000000,"state":"active","ping":55},{"user_id":54,"name":"The Pizza Guy","steam_id":76561198163810829,"connected_time":260000000000,"state":"active","ping":89},{"user_id":64,"name":"ronald","steam_id":76561197960691622,"connected_time":66000000000,"state":"active","ping":62},{"user_id":67,"name":"Roberto Del Fuego","steam_id":76561198043458554,"connected_time":29000000000,"state":"active","ping":92},{"user_id":39,"name":"Idiotden","steam_id":76561199340950135,"connected_time":1004000000000,"state":"active","ping":53},{"user_id":44,"name":"Talented","steam_id":76561198800259660,"connected_time":944000000000,"state":"active","ping":102}]},{"server_id":19,"name":"Uncletopia | San Francisco | 3 | Stopwatch Beta","name_short":"sfo-3","host":"sfo-1.us.uncletopia.com","port":27035,"enabled":true,"region":"us-west","cc":"us","latitude":37.77397,"longitude":-122.4313,"reserved":0,"last_update":"0001-01-01T00:00:00Z","name_a2s":"Uncletopia | San Francisco | 3 | Stopwatch Beta","protocol":17,"map":"pl_borneo","folder":"tf","game":"Team Fortress","app_id":440,"player_count":0,"max_players":24,"Bots":0,"server_type":"Dedicated","server_os":"Linux","password":true,"vac":true,"version":"7961495","steam_id":85568392924742824,"keywords":["nocrits","nodmgspread","payload","uncletopia"],"game_id":440,"stv_port":27036,"stv_name":"Uncletopia | San Francisco | 3 | Stopwatch Beta | STV","players":null},{"server_id":20,"name":"Uncletopia | San Francisco | 4 | Community","name_short":"sfo-4","host":"sfo-1.us.uncletopia.com","port":27045,"enabled":true,"region":"us-west","cc":"us","latitude":37.77397,"longitude":-122.4313,"reserved":0,"last_update":"0001-01-01T00:00:00Z","name_a2s":"Uncletopia | San Francisco | 4 | Community","protocol":17,"map":"workshop/pl_shoreleave_rc2.ugc1238849347","folder":"tf","game":"Team Fortress","app_id":440,"player_count":24,"max_players":24,"Bots":0,"server_type":"Dedicated","server_os":"Linux","password":true,"vac":true,"version":"7961495","steam_id":85568392924742826,"keywords":["nocrits","nodmgspread","payload","uncletopia"],"game_id":440,"stv_port":27046,"stv_name":"Uncletopia | San Francisco | 4 | Community | STV","players":[{"user_id":144,"name":"Kalir","steam_id":76561197996125658,"connected_time":3862000000000,"state":"active","ping":81},{"user_id":157,"name":"♦♣Quadric♥♠","steam_id":76561198061003853,"connected_time":3594000000000,"state":"active","ping":114},{"user_id":136,"name":"chanoc","steam_id":76561198026734746,"connected_time":4368000000000,"state":"active","ping":46},{"user_id":187,"name":"Chaptain","steam_id":76561198452725739,"connected_time":1163000000000,"state":"active","ping":92},{"user_id":194,"name":"devamar","steam_id":76561198069115467,"connected_time":777000000000,"state":"active","ping":46},{"user_id":174,"name":"Poopisviel Von Einzbern","steam_id":76561198259260433,"connected_time":2061000000000,"state":"active","ping":123},{"user_id":184,"name":"Cheesed Burger","steam_id":76561198066425198,"connected_time":1587000000000,"state":"active","ping":61},{"user_id":165,"name":"rice","steam_id":76561198037565441,"connected_time":3110000000000,"state":"active","ping":119},{"user_id":85,"name":"u4me","steam_id":76561198001669743,"connected_time":6886000000000,"state":"active","ping":116},{"user_id":177,"name":"The Irish Ghost","steam_id":76561199021970654,"connected_time":1972000000000,"state":"active","ping":73},{"user_id":200,"name":"zogs (she/her)","steam_id":76561198323491654,"connected_time":117000000000,"state":"active","ping":75},{"user_id":176,"name":"Rock Kickass","steam_id":76561198450510841,"connected_time":2011000000000,"state":"active","ping":114},{"user_id":202,"name":"Ashe","steam_id":76561198311363172,"connected_time":77000000000,"state":"active","ping":71},{"user_id":116,"name":"green bean","steam_id":76561198113099204,"connected_time":5129000000000,"state":"active","ping":34},{"user_id":149,"name":"IMM0RTAL","steam_id":76561198013747901,"connected_time":3774000000000,"state":"active","ping":104},{"user_id":180,"name":"ShellBug","steam_id":76561198144187527,"connected_time":1917000000000,"state":"active","ping":118},{"user_id":198,"name":"ThePrinceApollo","steam_id":76561198974111032,"connected_time":196000000000,"state":"active","ping":109},{"user_id":195,"name":"Three(3)SlicesOfBread","steam_id":76561199386210740,"connected_time":456000000000,"state":"active","ping":82},{"user_id":162,"name":"StillNotGinger","steam_id":76561198063419189,"connected_time":3310000000000,"state":"active","ping":88},{"user_id":83,"name":"Grand Champion of Cyrodiil","steam_id":76561198029072412,"connected_time":6913000000000,"state":"active","ping":93},{"user_id":193,"name":"mothsprings","steam_id":76561198928604937,"connected_time":845000000000,"state":"active","ping":121},{"user_id":137,"name":"Gas in a Glass","steam_id":76561198044925861,"connected_time":4367000000000,"state":"active","ping":45},{"user_id":158,"name":"sagekiss","steam_id":76561198038831240,"connected_time":3519000000000,"state":"active","ping":75},{"user_id":203,"name":"PippinRope","steam_id":76561198196670873,"connected_time":49000000000,"state":"active","ping":70}]},{"server_id":141,"name":"Uncletopia | Sydney | 1 | All Maps","name_short":"syd-1","host":"syd-1.au.uncletopia.com","port":27015,"enabled":true,"region":"au","cc":"au","latitude":-33.865143,"longitude":151.2099,"reserved":0,"last_update":"0001-01-01T00:00:00Z","name_a2s":"Uncletopia | Sydney | 1 | All Maps","protocol":17,"map":"cp_altitude","folder":"tf","game":"Team Fortress","app_id":440,"player_count":0,"max_players":24,"Bots":0,"server_type":"Dedicated","server_os":"Linux","password":true,"vac":true,"version":"7961495","steam_id":85568392924470001,"keywords":["cp","nocrits","nodmgspread","uncletopia"],"game_id":440,"stv_port":27016,"stv_name":"Uncletopia | Sydney | 1 | All Maps | STV","players":null},{"server_id":123,"name":"Uncletopia | Sydney | 2 | All Maps","name_short":"syd-2","host":"syd-1.au.uncletopia.com","port":27025,"enabled":true,"region":"au","cc":"au","latitude":-33.865143,"longitude":151.2099,"reserved":0,"last_update":"0001-01-01T00:00:00Z","name_a2s":"Uncletopia | Sydney | 2 | All Maps","protocol":17,"map":"cp_mountainlab","folder":"tf","game":"Team Fortress","app_id":440,"player_count":1,"max_players":24,"Bots":0,"server_type":"Dedicated","server_os":"Linux","password":true,"vac":true,"version":"7961495","steam_id":85568392924470002,"keywords":["cp","nocrits","nodmgspread","uncletopia"],"game_id":440,"stv_port":27026,"stv_name":"Uncletopia | Sydney | 2 | All Maps | STV","players":[{"user_id":5,"name":"Empolé","steam_id":76561198363939040,"connected_time":151000000000,"state":"active","ping":91}]},{"server_id":395,"name":"Uncletopia | Sydney | 3 | All Maps","name_short":"syd-3","host":"syd-1.au.uncletopia.com","port":27035,"enabled":true,"region":"au","cc":"au","latitude":-33.865143,"longitude":151.2099,"reserved":0,"last_update":"0001-01-01T00:00:00Z","name_a2s":"Uncletopia | Sydney | 3 | All Maps","protocol":17,"map":"cp_dustbowl","folder":"tf","game":"Team Fortress","app_id":440,"player_count":0,"max_players":24,"Bots":0,"server_type":"Dedicated","server_os":"Linux","password":true,"vac":true,"version":"7961495","steam_id":85568392925194467,"keywords":["cp","nocrits","nodmgspread","uncletopia"],"game_id":440,"stv_port":27036,"stv_name":"Uncletopia | Sydney | 3 | All Maps | STV","players":null},{"server_id":396,"name":"Uncletopia | Sydney | 4 | All Maps","name_short":"syd-4","host":"syd-1.au.uncletopia.com","port":27045,"enabled":true,"region":"au","cc":"au","latitude":-33.865143,"longitude":151.2099,"reserved":0,"last_update":"0001-01-01T00:00:00Z","name_a2s":"Uncletopia | Sydney | 4 | All Maps","protocol":17,"map":"cp_dustbowl","folder":"tf","game":"Team Fortress","app_id":440,"player_count":0,"max_players":24,"Bots":0,"server_type":"Dedicated","server_os":"Linux","password":true,"vac":true,"version":"7961495","steam_id":85568392925397958,"keywords":["cp","nocrits","nodmgspread","uncletopia"],"game_id":440,"stv_port":27046,"stv_name":"Uncletopia | Sydney | 4 | All Maps | STV","players":null},{"server_id":58,"name":"Uncletopia | Sydney | 5 | Stopwatch Beta","name_short":"syd-5","host":"syd-1.au.uncletopia.com","port":27055,"enabled":true,"region":"au","cc":"au","latitude":-33.865143,"longitude":151.2099,"reserved":0,"last_update":"0001-01-01T00:00:00Z","name_a2s":"Uncletopia | Sydney | 5 | Stopwatch Beta","protocol":17,"map":"workshop/koth_clearcut_b15.ugc2107050255","folder":"tf","game":"Team Fortress","app_id":440,"player_count":2,"max_players":24,"Bots":0,"server_type":"Dedicated","server_os":"Linux","password":true,"vac":true,"version":"7961495","steam_id":85568392925397959,"keywords":["cp","nocrits","nodmgspread","uncletopia"],"game_id":440,"stv_port":27056,"stv_name":"Uncletopia | Sydney | 5 | Stopwatch Beta | STV","players":[{"user_id":6,"name":"NorMatt","steam_id":76561199000227438,"connected_time":366000000000,"state":"active","ping":269},{"user_id":4,"name":"LoremIpsum","steam_id":76561198401854615,"connected_time":2126000000000,"state":"active","ping":310}]},{"server_id":59,"name":"Uncletopia | Sydney | 6 | Community","name_short":"syd-6","host":"syd-1.au.uncletopia.com","port":27065,"enabled":true,"region":"au","cc":"au","latitude":-33.865143,"longitude":151.2099,"reserved":0,"last_update":"0001-01-01T00:00:00Z","name_a2s":"Uncletopia | Sydney | 6 | Community","protocol":17,"map":"koth_cascade","folder":"tf","game":"Team Fortress","app_id":440,"player_count":0,"max_players":24,"Bots":0,"server_type":"Dedicated","server_os":"Linux","password":true,"vac":true,"version":"7961495","steam_id":85568392925397960,"keywords":["cp","nocrits","nodmgspread","uncletopia"],"game_id":440,"stv_port":27066,"stv_name":"Uncletopia | Sydney | 6 | Community | STV","players":null},{"server_id":49,"name":"Uncletopia | Warsaw | 1 | All Maps","name_short":"waw-1","host":"waw-1.pl.uncletopia.com","port":27015,"enabled":true,"region":"eu","cc":"pl","latitude":52.2297,"longitude":21.017532,"reserved":0,"last_update":"0001-01-01T00:00:00Z","name_a2s":"Uncletopia | Warsaw | 1 | All Maps","protocol":17,"map":"koth_cascade","folder":"tf","game":"Team Fortress","app_id":440,"player_count":0,"max_players":24,"Bots":0,"server_type":"Dedicated","server_os":"Linux","password":true,"vac":true,"version":"7961495","steam_id":85568392925397850,"keywords":["cp","nocrits","nodmgspread","uncletopia"],"game_id":440,"stv_port":27016,"stv_name":"Uncletopia | Warsaw | 1 | All Maps | STV","players":null},{"server_id":50,"name":"Uncletopia | Warsaw | 2 | All Maps","name_short":"waw-2","host":"waw-1.pl.uncletopia.com","port":27025,"enabled":true,"region":"eu","cc":"pl","latitude":52.2297,"longitude":21.017532,"reserved":0,"last_update":"0001-01-01T00:00:00Z","name_a2s":"Uncletopia | Warsaw | 2 | All Maps","protocol":17,"map":"koth_lakeside_final","folder":"tf","game":"Team Fortress","app_id":440,"player_count":0,"max_players":24,"Bots":0,"server_type":"Dedicated","server_os":"Linux","password":true,"vac":true,"version":"7961495","steam_id":85568392925397851,"keywords":["cp","nocrits","nodmgspread","uncletopia"],"game_id":440,"stv_port":27026,"stv_name":"Uncletopia | Warsaw | 2 | All Maps | STV","players":null},{"server_id":51,"name":"Uncletopia | Warsaw | 3 | All Maps","name_short":"waw-3","host":"waw-1.pl.uncletopia.com","port":27035,"enabled":true,"region":"eu","cc":"pl","latitude":52.2297,"longitude":21.017532,"reserved":0,"last_update":"0001-01-01T00:00:00Z","name_a2s":"Uncletopia | Warsaw | 3 | All Maps","protocol":17,"map":"koth_highpass","folder":"tf","game":"Team Fortress","app_id":440,"player_count":0,"max_players":24,"Bots":0,"server_type":"Dedicated","server_os":"Linux","password":true,"vac":true,"version":"7961495","steam_id":85568392925397852,"keywords":["cp","nocrits","nodmgspread","uncletopia"],"game_id":440,"stv_port":27036,"stv_name":"Uncletopia | Warsaw | 3 | All Maps | STV","players":null},{"server_id":52,"name":"Uncletopia | Warsaw | 4 | All Maps","name_short":"waw-4","host":"waw-1.pl.uncletopia.com","port":27045,"enabled":true,"region":"eu","cc":"pl","latitude":52.2297,"longitude":21.017532,"reserved":0,"last_update":"0001-01-01T00:00:00Z","name_a2s":"Uncletopia | Warsaw | 4 | All Maps","protocol":17,"map":"koth_viaduct","folder":"tf","game":"Team Fortress","app_id":440,"player_count":0,"max_players":24,"Bots":0,"server_type":"Dedicated","server_os":"Linux","password":true,"vac":true,"version":"7961495","steam_id":85568392925397853,"keywords":["cp","nocrits","nodmgspread","uncletopia"],"game_id":440,"stv_port":27046,"stv_name":"Uncletopia | Warsaw | 4 | All Maps | STV","players":null},{"server_id":53,"name":"Uncletopia | Warsaw | 5 | Stopwatch Beta","name_short":"waw-5","host":"waw-1.pl.uncletopia.com","port":27055,"enabled":true,"region":"eu","cc":"pl","latitude":52.2297,"longitude":21.017532,"reserved":0,"last_update":"0001-01-01T00:00:00Z","name_a2s":"Uncletopia | Warsaw | 5 | Stopwatch Beta","protocol":17,"map":"pl_swiftwater_final1","folder":"tf","game":"Team Fortress","app_id":440,"player_count":0,"max_players":24,"Bots":0,"server_type":"Dedicated","server_os":"Linux","password":true,"vac":true,"version":"7961495","steam_id":85568392925397854,"keywords":["nocrits","nodmgspread","payload","uncletopia"],"game_id":440,"stv_port":27056,"stv_name":"Uncletopia | Warsaw | 5 | Stopwatch Beta | STV","players":null},{"server_id":54,"name":"Uncletopia | Warsaw | 6 | Community","name_short":"waw-6","host":"waw-1.pl.uncletopia.com","port":27065,"enabled":true,"region":"eu","cc":"pl","latitude":52.2297,"longitude":21.017532,"reserved":0,"last_update":"0001-01-01T00:00:00Z","name_a2s":"Uncletopia | Warsaw | 6 | Community","protocol":17,"map":"workshop/rd_asteroid_redux_b1.ugc2154902912","folder":"tf","game":"Team Fortress","app_id":440,"player_count":0,"max_players":24,"Bots":0,"server_type":"Dedicated","server_os":"Linux","password":true,"vac":true,"version":"7961495","steam_id":85568392925397856,"keywords":["beta","nocrits","nodmgspread","rd","uncletopia"],"game_id":440,"stv_port":27066,"stv_name":"Uncletopia | Warsaw | 6 | Community | STV","players":null}]}