{"status":true,"message":"","result":[{"server_id":9,"name":"Uncletopia | Atlanta | 1 | All Maps","name_short":"atl-1","host":"atl-1.us.uncletopia.com","port":27015,"enabled":true,"region":"us-east","cc":"us","latitude":33.753746,"longitude":-84.38633,"reserved":0,"last_update":"0001-01-01T00:00:00Z","name_a2s":"Uncletopia | Atlanta | 1 | All Maps","protocol":17,"map":"pl_frontier_final","folder":"tf","game":"Team Fortress","app_id":440,"player_count":0,"max_players":24,"Bots":0,"server_type":"Dedicated","server_os":"Linux","password":true,"vac":true,"version":"7757534","steam_id":85568392924469982,"keywords":["nocrits","nodmgspread","payload","uncletopia"],"game_id":440,"stv_port":27016,"stv_name":"Uncletopia | Atlanta | 1 | All Maps | STV","players":null},{"server_id":400,"name":"Uncletopia | Atlanta | 3 | Stopwatch Beta","name_short":"atl-3","host":"atl-1.us.uncletopia.com","port":27035,"enabled":true,"region":"us-east","cc":"us","latitude":33.753746,"longitude":-84.38633,"reserved":0,"last_update":"0001-01-01T00:00:00Z","name_a2s":"Uncletopia | Atlanta | 3 | Stopwatch Beta","protocol":17,"map":"pl_upward","folder":"tf","game":"Team Fortress","app_id":440,"player_count":0,"max_players":24,"Bots":0,"server_type":"Dedicated","server_os":"Linux","password":true,"vac":true,"version":"7757534","steam_id":85568392924515187,"keywords":["nocrits","nodmgspread","payload","uncletopia"],"game_id":440,"stv_port":27036,"stv_name":"Uncletopia | Atlanta | 3 | Stopwatch Beta | STV","players":null},{"server_id":401,"name":"Uncletopia | Atlanta | 4 | No Payload","name_short":"atl-4","host":"atl-1.us.uncletopia.com","port":27045,"enabled":true,"region":"us-east","cc":"us","latitude":33.753746,"longitude":-84.38633,"reserved":0,"last_update":"0001-01-01T00:00:00Z","name_a2s":"Uncletopia | Atlanta | 4 | No Payload","protocol":17,"map":"pl_pier","folder":"tf","game":"Team Fortress","app_id":440,"player_count":0,"max_players":24,"Bots":0,"server_type":"Dedicated","server_os":"Linux","password":true,"vac":true,"version":"7723704","steam_id":85568392924515188,"keywords":["nocrits","nodmgspread","payload","uncletopia"],"game_id":440,"stv_port":27046,"stv_name":"Uncletopia | Atlanta | 4 | No Payload | STV","players":null},{"server_id":2,"name":"Uncletopia | Chicago | 1 | All Maps","name_short":"chi-1","host":"chi-1.us.uncletopia.com","port":27015,"enabled":true,"region":"us-central","cc":"us","latitude":41.881832,"longitude":-87.62318,"reserved":0,"last_update":"0001-01-01T00:00:00Z","name_a2s":"Uncletopia | Chicago | 1 | All Maps","protocol":17,"map":"pl_badwater","folder":"tf","game":"Team Fortress","app_id":440,"player_count":24,"max_players":24,"Bots":0,"server_type":"Dedicated","server_os":"Linux","password":true,"vac":true,"version":"7757534","steam_id":85568392924469984,"keywords":["nocrits","nodmgspread","payload","uncletopia"],"game_id":440,"stv_port":27016,"stv_name":"Uncletopia | Chicago | 1 | All Maps | STV","players":[{"user_id":888,"name":"Tabris","steam_id":76561198123608690,"connected_time":1563000000000,"state":"active","ping":70},{"user_id":874,"name":"porcelain","steam_id":76561198311004039,"connected_time":3284000000000,"state":"active","ping":93},{"user_id":877,"name":"Quentin","steam_id":76561198032941413,"connected_time":3096000000000,"state":"active","ping":70},{"user_id":896,"name":"IFDABOOTYFATUKNOWHEREIM@","steam_id":76561198144766439,"connected_time":1246000000000,"state":"active","ping":44},{"user_id":904,"name":"Barracuda","steam_id":76561198013022083,"connected_time":722000000000,"state":"active","ping":60},{"user_id":788,"name":"USAF badboy6996","steam_id":76561197969386201,"connected_time":10016000000000,"state":"active","ping":57},{"user_id":908,"name":"Sid","steam_id":76561198028011668,"connected_time":121000000000,"state":"active","ping":56},{"user_id":879,"name":"yomommasabitch","steam_id":76561198323217150,"connected_time":2332000000000,"state":"active","ping":61},{"user_id":856,"name":"M1lk","steam_id":76561198053554906,"connected_time":4387000000000,"state":"active","ping":111},{"user_id":889,"name":"senya","steam_id":76561198077902438,"connected_time":1536000000000,"state":"active","ping":75},{"user_id":891,"name":"Mythius","steam_id":76561198401392472,"connected_time":1506000000000,"state":"active","ping":75},{"user_id":903,"name":"hehehaha","steam_id":76561198124225397,"connected_time":735000000000,"state":"active","ping":84},{"user_id":837,"name":"Joker's Skull","steam_id":76561199185320627,"connected_time":5565000000000,"state":"active","ping":157},{"user_id":876,"name":"koyori","steam_id":76561198107784011,"connected_time":3119000000000,"state":"active","ping":44},{"user_id":899,"name":"Captain Save-A-Hoe","steam_id":76561198296671088,"connected_time":1056000000000,"state":"active","ping":73},{"user_id":907,"name":"Chromatic","steam_id":76561198355976286,"connected_time":418000000000,"state":"active","ping":147},{"user_id":887,"name":"HandyHerbcock","steam_id":76561198074648416,"connected_time":1789000000000,"state":"active","ping":83},{"user_id":775,"name":"Riftex","steam_id":76561198124639698,"connected_time":11491000000000,"state":"active","ping":69},{"user_id":902,"name":"dartwing","steam_id":76561197998575360,"connected_time":942000000000,"state":"active","ping":99},{"user_id":892,"name":"BuddStuddard","steam_id":76561198031660510,"connected_time":1473000000000,"state":"active","ping":107},{"user_id":850,"name":"Atomic Waffles","steam_id":76561197970935570,"connected_time":4755000000000,"state":"active","ping":73},{"user_id":863,"name":"snOwO","steam_id":76561198109783729,"connected_time":4302000000000,"state":"active","ping":46},{"user_id":901,"name":"Mothership","steam_id":76561198044029501,"connected_time":996000000000,"state":"active","ping":145},{"user_id":905,"name":"Crow","steam_id":76561199058358884,"connected_time":706000000000,"state":"active","ping":102}]},{"server_id":106,"name":"Uncletopia | Chicago | 2 | All Maps","name_short":"chi-2","host":"chi-1.us.uncletopia.com","port":27025,"enabled":true,"region":"us-central","cc":"us","latitude":41.881832,"longitude":-87.62318,"reserved":0,"last_update":"0001-01-01T00:00:00Z","name_a2s":"Uncletopia | Chicago | 2 | All Maps","protocol":17,"map":"pl_badwater","folder":"tf","game":"Team Fortress","app_id":440,"player_count":24,"max_players":24,"Bots":0,"server_type":"Dedicated","server_os":"Linux","password":true,"vac":true,"version":"7757534","steam_id":85568392924469985,"keywords":["nocrits","nodmgspread","payload","uncletopia"],"game_id":440,"stv_port":27026,"stv_name":"Uncletopia | Chicago | 2 | All Maps | STV","players":[{"user_id":733,"name":"Prestoneon003","steam_id":76561198348279581,"connected_time":973000000000,"state":"active","ping":52},{"user_id":709,"name":"Lumberjane37 (She/Her)","steam_id":76561198014841793,"connected_time":3304000000000,"state":"active","ping":98},{"user_id":700,"name":"facecheck","steam_id":76561198115269587,"connected_time":3617000000000,"state":"active","ping":74},{"user_id":720,"name":"StarShadow","steam_id":76561198173159121,"connected_time":2016000000000,"state":"active","ping":75},{"user_id":721,"name":"stoned jester","steam_id":76561198079609974,"connected_time":1874000000000,"state":"active","ping":112},{"user_id":714,"name":"SomeRandomPerson (f2p)","steam_id":76561198977045933,"connected_time":3017000000000,"state":"active","ping":86},{"user_id":722,"name":"Lukero","steam_id":76561198301594341,"connected_time":1790000000000,"state":"active","ping":166},{"user_id":742,"name":"hi","steam_id":76561198809577048,"connected_time":365000000000,"state":"active","ping":102},{"user_id":731,"name":"pinglefingle","steam_id":76561198216580197,"connected_time":1234000000000,"state":"active","ping":78},{"user_id":705,"name":"a grade 9 fixer","steam_id":76561198116908911,"connected_time":3508000000000,"state":"active","ping":75},{"user_id":717,"name":"Nas","steam_id":76561198259885007,"connected_time":2071000000000,"state":"active","ping":146},{"user_id":743,"name":"Xylemon","steam_id":76561197965297420,"connected_time":360000000000,"state":"active","ping":103},{"user_id":734,"name":"Chaspen","steam_id":76561198098269939,"connected_time":852000000000,"state":"active","ping":75},{"user_id":735,"name":"Yung Dusty OTP","steam_id":76561198179755645,"connected_time":842000000000,"state":"active","ping":101},{"user_id":736,"name":"Bones","steam_id":76561198811553472,"connected_time":831000000000,"state":"active","ping":65},{"user_id":739,"name":"❤Graphite Muncher❤","steam_id":76561199200969139,"connected_time":650000000000,"state":"active","ping":117},{"user_id":740,"name":"Dr Frasier Crane","steam_id":76561198071790583,"connected_time":648000000000,"state":"active","ping":61},{"user_id":741,"name":"czarchasm","steam_id":76561198055712749,"connected_time":621000000000,"state":"active","ping":74},{"user_id":693,"name":"Bocrabs","steam_id":76561198030092475,"connected_time":4804000000000,"state":"active","ping":59},{"user_id":744,"name":"Tachi","steam_id":76561198158581216,"connected_time":203000000000,"state":"active","ping":109},{"user_id":745,"name":"Mystic man of potatoe","steam_id":76561198027267207,"connected_time":202000000000,"state":"active","ping":93},{"user_id":746,"name":"rice white","steam_id":76561198320732910,"connected_time":160000000000,"state":"active","ping":75},{"user_id":716,"name":"AirborneAnarchist","steam_id":76561199116042550,"connected_time":2108000000000,"state":"active","ping":62},{"user_id":713,"name":"uncle kringle gaming","steam_id":76561198063024859,"connected_time":3174000000000,"state":"active","ping":87}]},{"server_id":402,"name":"Uncletopia | Chicago | 3 | All Maps","name_short":"chi-3","host":"chi-1.us.uncletopia.com","port":27035,"enabled":true,"region":"us-central","cc":"us","latitude":41.881832,"longitude":-87.62318,"reserved":0,"last_update":"0001-01-01T00:00:00Z","name_a2s":"Uncletopia | Chicago | 3 | All Maps","protocol":17,"map":"koth_cascade","folder":"tf","game":"Team Fortress","app_id":440,"player_count":0,"max_players":24,"Bots":0,"server_type":"Dedicated","server_os":"Linux","password":true,"vac":true,"version":"7757534","steam_id":85568392924515191,"keywords":["cp","nocrits","nodmgspread","uncletopia"],"game_id":440,"stv_port":27036,"stv_name":"Uncletopia | Chicago | 3 | All Maps | STV","players":null},{"server_id":403,"name":"Uncletopia | Chicago | 4 | All Maps","name_short":"chi-4","host":"chi-1.us.uncletopia.com","port":27045,"enabled":true,"region":"us-central","cc":"us","latitude":41.881832,"longitude":-87.62318,"reserved":0,"last_update":"0001-01-01T00:00:00Z","name_a2s":"Uncletopia | Chicago | 4 | All Maps","protocol":17,"map":"pl_upward","folder":"tf","game":"Team Fortress","app_id":440,"player_count":0,"max_players":24,"Bots":0,"server_type":"Dedicated","server_os":"Linux","password":true,"vac":true,"version":"7757534","steam_id":85568392924515193,"keywords":["nocrits","nodmgspread","payload","uncletopia"],"game_id":440,"stv_port":27046,"stv_name":"Uncletopia | Chicago | 4 | All Maps | STV","players":null},{"server_id":36,"name":"Uncletopia | Chicago | 5 | All Maps","name_short":"chi-5","host":"chi-2.us.uncletopia.com","port":27015,"enabled":true,"region":"us-central","cc":"us","latitude":41.881832,"longitude":-87.62318,"reserved":0,"last_update":"0001-01-01T00:00:00Z","name_a2s":"Uncletopia | Chicago | 5 | All Maps","protocol":17,"map":"koth_highpass","folder":"tf","game":"Team Fortress","app_id":440,"player_count":0,"max_players":24,"Bots":0,"server_type":"Dedicated","server_os":"Linux","password":true,"vac":true,"version":"7757534","steam_id":85568392924866362,"keywords":["cp","nocrits","nodmgspread","uncletopia"],"game_id":440,"stv_port":27016,"stv_name":"Uncletopia | Chicago | 5 | All Maps | STV","players":null},{"server_id":37,"name":"Uncletopia | Chicago | 6 | All Maps","name_short":"chi-6","host":"chi-2.us.uncletopia.com","port":27025,"enabled":true,"region":"us-central","cc":"us","latitude":41.881832,"longitude":-87.62318,"reserved":0,"last_update":"0001-01-01T00:00:00Z","name_a2s":"Uncletopia | Chicago | 6 | All Maps","protocol":17,"map":"cp_sunshine","folder":"tf","game":"Team Fortress","app_id":440,"player_count":0,"max_players":24,"Bots":0,"server_type":"Dedicated","server_os":"Linux","password":true,"vac":true,"version":"7757534","steam_id":85568392924866363,"keywords":["cp","nocrits","nodmgspread","uncletopia"],"game_id":440,"stv_port":27026,"stv_name":"Uncletopia | Chicago | 6 | All Maps | STV","players":null},{"server_id":38,"name":"Uncletopia | Chicago | 7 | Stopwatch Beta","name_short":"chi-7","host":"chi-2.us.uncletopia.com","port":27035,"enabled":true,"region":"us-central","cc":"us","latitude":41.881832,"longitude":-87.62318,"reserved":0,"last_update":"0001-01-01T00:00:00Z","name_a2s":"Uncletopia | Chicago | 7 | Stopwatch Beta","protocol":17,"map":"workshop/koth_bagel_rc5.ugc2514036946","folder":"tf","game":"Team Fortress","app_id":440,"player_count":0,"max_players":24,"Bots":0,"server_type":"Dedicated","server_os":"Linux","password":true,"vac":true,"version":"7757534","steam_id":85568392924866364,"keywords":["cp","nocrits","nodmgspread","uncletopia"],"game_id":440,"stv_port":27036,"stv_name":"Uncletopia | Chicago | 7 | Stopwatch Beta | STV","players":null},{"server_id":39,"name":"Uncletopia | Chicago | 8 | Community","name_short":"chi-8","host":"chi-2.us.uncletopia.com","port":27045,"enabled":true,"region":"us-central","cc":"us","latitude":41.881832,"longitude":-87.62318,"reserved":0,"last_update":"0001-01-01T00:00:00Z","name_a2s":"Uncletopia | Chicago | 8 | Community","protocol":17,"map":"workshop/koth_product_final.ugc454272353","folder":"tf","game":"Team Fortress","app_id":440,"player_count":0,"max_players":24,"Bots":0,"server_type":"Dedicated","server_os":"Linux","password":true,"vac":true,"version":"7757534","steam_id":85568392924866365,"keywords":["cp","nocrits","nodmgspread","uncletopia"],"game_id":440,"stv_port":27046,"stv_name":"Uncletopia | Chicago | 8 | Community | STV","players":null},{"server_id":8,"name":"Uncletopia | Dallas | 1 | All Maps","name_short":"dal-1","host":"dal-1.us.uncletopia.com","port":27015,"enabled":true,"region":"us-central","cc":"us","latitude":32.779167,"longitude":-96.80889,"reserved":0,"last_update":"0001-01-01T00:00:00Z","name_a2s":"Uncletopia | Dallas | 1 | All Maps","protocol":17,"map":"cp_dustbowl","folder":"tf","game":"Team Fortress","app_id":440,"player_count":0,"max_players":24,"Bots":0,"server_type":"Dedicated","server_os":"Linux","password":true,"vac":true,"version":"7757534","steam_id":85568392924469986,"keywords":["cp","nocrits","nodmgspread","uncletopia"],"game_id":440,"stv_port":27016,"stv_name":"Uncletopia | Dallas | 1 | All Maps | STV","players":null},{"server_id":108,"name":"Uncletopia | Dallas | 2 | All Maps","name_short":"dal-2","host":"dal-1.us.uncletopia.com","port":27025,"enabled":true,"region":"us-central","cc":"us","latitude":32.779167,"longitude":-96.80889,"reserved":0,"last_update":"0001-01-01T00:00:00Z","name_a2s":"Uncletopia | Dallas | 2 | All Maps","protocol":17,"map":"koth_highpass","folder":"tf","game":"Team Fortress","app_id":440,"player_count":0,"max_players":24,"Bots":0,"server_type":"Dedicated","server_os":"Linux","password":true,"vac":true,"version":"7757534","steam_id":85568392924469988,"keywords":["cp","nocrits","nodmgspread","uncletopia"],"game_id":440,"stv_port":27026,"stv_name":"Uncletopia | Dallas | 2 | All Maps | STV","players":null},{"server_id":5,"name":"Uncletopia | Frankfurt | 1 | All Maps","name_short":"frk-1","host":"frk-1.de.uncletopia.com","port":27015,"enabled":true,"region":"eu","cc":"de","latitude":50.110924,"longitude":8.682127,"reserved":0,"last_update":"0001-01-01T00:00:00Z","name_a2s":"Uncletopia | Frankfurt | 1 | All Maps","protocol":17,"map":"pl_pier","folder":"tf","game":"Team Fortress","app_id":440,"player_count":24,"max_players":24,"Bots":0,"server_type":"Dedicated","server_os":"Linux","password":true,"vac":true,"version":"7757534","steam_id":85568392924469989,"keywords":["nocrits","nodmgspread","payload","uncletopia"],"game_id":440,"stv_port":27016,"stv_name":"Uncletopia | Frankfurt | 1 | All Maps | STV","players":[{"user_id":137,"name":"LegitACarWithAGun","steam_id":76561198081742337,"connected_time":1384000000000,"state":"active","ping":95},{"user_id":160,"name":"DJ_Pommes","steam_id":76561198100620102,"connected_time":271000000000,"state":"active","ping":37},{"user_id":90,"name":"Yony","steam_id":76561199070569941,"connected_time":5067000000000,"state":"active","ping":59},{"user_id":130,"name":"Allereinan","steam_id":76561198342239906,"connected_time":1874000000000,"state":"active","ping":106},{"user_id":161,"name":"panakid","steam_id":76561198364121077,"connected_time":245000000000,"state":"active","ping":102},{"user_id":138,"name":"Mi PRO | FIH","steam_id":76561199023108666,"connected_time":1377000000000,"state":"active","ping":107},{"user_id":146,"name":"Segata Sanshiro","steam_id":76561198032359132,"connected_time":1266000000000,"state":"active","ping":59},{"user_id":148,"name":"Mozzaza","steam_id":76561198156316111,"connected_time":1195000000000,"state":"active","ping":134},{"user_id":86,"name":"grandpa's post-mortem photo","steam_id":76561198130116078,"connected_time":5282000000000,"state":"active","ping":90},{"user_id":132,"name":"beurgeur","steam_id":76561198872426314,"connected_time":1674000000000,"state":"active","ping":45},{"user_id":158,"name":"Leibeigener","steam_id":76561199275478305,"connected_time":293000000000,"state":"active","ping":41},{"user_id":144,"name":"henoadam","steam_id":76561198151350377,"connected_time":1310000000000,"state":"active","ping":74},{"user_id":162,"name":"Alice can't hit pipes","steam_id":76561198052410860,"connected_time":243000000000,"state":"active","ping":145},{"user_id":159,"name":"Pitmin_","steam_id":76561198005342133,"connected_time":293000000000,"state":"active","ping":58},{"user_id":163,"name":"Commander DM","steam_id":76561198059236770,"connected_time":234000000000,"state":"active","ping":74},{"user_id":140,"name":"pepper","steam_id":76561198059782462,"connected_time":1362000000000,"state":"active","ping":51},{"user_id":141,"name":"Mayor Wank from Wanker Town","steam_id":76561197998253588,"connected_time":1360000000000,"state":"active","ping":46},{"user_id":157,"name":"Killer8880","steam_id":76561199094449560,"connected_time":459000000000,"state":"active","ping":101},{"user_id":147,"name":"amir-alaki","steam_id":76561198447025734,"connected_time":1261000000000,"state":"active","ping":155},{"user_id":154,"name":"Jonskans","steam_id":76561198448680595,"connected_time":675000000000,"state":"active","ping":91},{"user_id":164,"name":"Ali","steam_id":76561199133701271,"connected_time":171000000000,"state":"active","ping":79},{"user_id":150,"name":"ᴍɪʟᴋ Cryspoeth47","steam_id":76561198892776023,"connected_time":1116000000000,"state":"active","ping":112},{"user_id":142,"name":"Vikep'S","steam_id":76561199002274689,"connected_time":1357000000000,"state":"active","ping":83},{"user_id":166,"name":"Grape. \u003c3","steam_id":76561198855628966,"connected_time":154000000000,"state":"active","ping":78}]},{"server_id":110,"name":"Uncletopia | Frankfurt | 2 | All Maps","name_short":"frk-2","host":"frk-1.de.uncletopia.com","port":27025,"enabled":true,"region":"eu","cc":"de","latitude":50.110924,"longitude":8.682127,"reserved":0,"last_update":"0001-01-01T00:00:00Z","name_a2s":"Uncletopia | Frankfurt | 2 | All Maps","protocol":17,"map":"pl_barnblitz","folder":"tf","game":"Team Fortress","app_id":440,"player_count":2,"max_players":24,"Bots":0,"server_type":"Dedicated","server_os":"Linux","password":true,"vac":true,"version":"7757534","steam_id":85568392924469990,"keywords":["nocrits","nodmgspread","payload","uncletopia"],"game_id":440,"stv_port":27026,"stv_name":"Uncletopia | Frankfurt | 2 | All Maps | STV","players":[{"user_id":12,"name":"Адепт Абдуловеры","steam_id":76561199167718101,"connected_time":581000000000,"state":"active","ping":85},{"user_id":13,"name":"Alec_76a","steam_id":76561198054305165,"connected_time":192000000000,"state":"active","ping":69}]},{"server_id":308,"name":"Uncletopia | Frankfurt | 3 | All Maps","name_short":"frk-3","host":"frk-1.de.uncletopia.com","port":27035,"enabled":true,"region":"eu","cc":"de","latitude":50.110924,"longitude":8.682127,"reserved":0,"last_update":"0001-01-01T00:00:00Z","name_a2s":"Uncletopia | Frankfurt | 3 | All Maps","protocol":17,"map":"pl_frontier_final","folder":"tf","game":"Team Fortress","app_id":440,"player_count":24,"max_players":24,"Bots":0,"server_type":"Dedicated","server_os":"Linux","password":true,"vac":true,"version":"7757534","steam_id":85568392924504274,"keywords":["nocrits","nodmgspread","payload","uncletopia"],"game_id":440,"stv_port":27036,"stv_name":"Uncletopia | Frankfurt | 3 | All Maps | STV","players":[{"user_id":42,"name":"Edgey","steam_id":76561198271461309,"connected_time":5361000000000,"state":"active","ping":174},{"user_id":71,"name":"Jakk","steam_id":76561198041537908,"connected_time":4133000000000,"state":"active","ping":72},{"user_id":83,"name":"_zipfile","steam_id":76561198066133808,"connected_time":3816000000000,"state":"active","ping":78},{"user_id":138,"name":"Savlon","steam_id":76561198011597274,"connected_time":864000000000,"state":"active","ping":53},{"user_id":115,"name":"Sweat Plantation","steam_id":76561198025086883,"connected_time":1847000000000,"state":"active","ping":77},{"user_id":148,"name":"yasser","steam_id":76561198103973320,"connected_time":135000000000,"state":"active","ping":101},{"user_id":95,"name":"Neytan","steam_id":76561198027024747,"connected_time":3162000000000,"state":"active","ping":132},{"user_id":136,"name":"Aqua188","steam_id":76561198817772963,"connected_time":1002000000000,"state":"active","ping":105},{"user_id":145,"name":"Gurr","steam_id":76561198802006368,"connected_time":187000000000,"state":"active","ping":71},{"user_id":141,"name":"Cippo95","steam_id":76561198255311582,"connected_time":577000000000,"state":"active","ping":67},{"user_id":103,"name":"better call selo","steam_id":76561198976793469,"connected_time":2562000000000,"state":"active","ping":90},{"user_id":81,"name":"Albert Einstein","steam_id":76561198351190006,"connected_time":3949000000000,"state":"active","ping":89},{"user_id":140,"name":"Pr0p3r_","steam_id":76561198071260200,"connected_time":806000000000,"state":"active","ping":59},{"user_id":139,"name":"me name is LEGOlas","steam_id":76561198128091924,"connected_time":832000000000,"state":"active","ping":72},{"user_id":99,"name":"cr.","steam_id":76561197993508562,"connected_time":2639000000000,"state":"active","ping":59},{"user_id":149,"name":"Seail_M","steam_id":76561198002405605,"connected_time":112000000000,"state":"active","ping":51},{"user_id":132,"name":"Yassine","steam_id":76561198140565712,"connected_time":1142000000000,"state":"active","ping":58},{"user_id":131,"name":"GRcrafter","steam_id":76561198372186715,"connected_time":1149000000000,"state":"active","ping":97},{"user_id":142,"name":"FoxRealGaming","steam_id":76561199363992142,"connected_time":450000000000,"state":"active","ping":88},{"user_id":113,"name":"Malte","steam_id":76561198326324739,"connected_time":1908000000000,"state":"active","ping":61},{"user_id":150,"name":"skai fell off","steam_id":76561198184881255,"connected_time":87000000000,"state":"active","ping":73},{"user_id":144,"name":"Nick","steam_id":76561198036109469,"connected_time":249000000000,"state":"active","ping":81},{"user_id":104,"name":"Light601","steam_id":76561198134998492,"connected_time":2560000000000,"state":"active","ping":94},{"user_id":118,"name":"Lord of the Lockerroom","steam_id":76561198080619697,"connected_time":1764000000000,"state":"active","ping":97}]},{"server_id":309,"name":"Uncletopia | Frankfurt | 4 | All Maps","name_short":"frk-4","host":"frk-1.de.uncletopia.com","port":27045,"enabled":true,"region":"eu","cc":"de","latitude":50.110924,"longitude":8.682127,"reserved":0,"last_update":"0001-01-01T00:00:00Z","name_a2s":"Uncletopia | Frankfurt | 4 | All Maps","protocol":17,"map":"koth_highpass","folder":"tf","game":"Team Fortress","app_id":440,"player_count":0,"max_players":24,"Bots":0,"server_type":"Dedicated","server_os":"Linux","password":true,"vac":true,"version":"7757534","steam_id":85568392924504275,"keywords":["cp","nocrits","nodmgspread","uncletopia"],"game_id":440,"stv_port":27046,"stv_name":"Uncletopia | Frankfurt | 4 | All Maps | STV","players":null},{"server_id":310,"name":"Uncletopia | Frankfurt | 5 | All Maps","name_short":"frk-5","host":"frk-1.de.uncletopia.com","port":27055,"enabled":true,"region":"eu","cc":"de","latitude":50.110924,"longitude":8.682127,"reserved":0,"last_update":"0001-01-01T00:00:00Z","name_a2s":"Uncletopia | Frankfurt | 5 | All Maps","protocol":17,"map":"pl_upward","folder":"tf","game":"Team Fortress","app_id":440,"player_count":1,"max_players":24,"Bots":0,"server_type":"Dedicated","server_os":"Linux","password":true,"vac":true,"version":"7757534","steam_id":85568392924504277,"keywords":["nocrits","nodmgspread","payload","uncletopia"],"game_id":440,"stv_port":27056,"stv_name":"Uncletopia | Frankfurt | 5 | All Maps | STV","players":[{"user_id":13,"name":"Leon The Professional","steam_id":76561198865371617,"connected_time":207000000000,"state":"active","ping":74}]},{"server_id":311,"name":"Uncletopia | Frankfurt | 6 | All Maps","name_short":"frk-6","host":"frk-1.de.uncletopia.com","port":27065,"enabled":true,"region":"eu","cc":"de","latitude":50.110924,"longitude":8.682127,"reserved":0,"last_update":"0001-01-01T00:00:00Z","name_a2s":"Uncletopia | Frankfurt | 6 | All Maps","protocol":17,"map":"pl_badwater","folder":"tf","game":"Team Fortress","app_id":440,"player_count":24,"max_players":24,"Bots":0,"server_type":"Dedicated","server_os":"Linux","password":true,"vac":true,"version":"7757534","steam_id":85568392924504278,"keywords":["nocrits","nodmgspread","payload","uncletopia"],"game_id":440,"stv_port":27066,"stv_name":"Uncletopia | Frankfurt | 6 | All Maps | STV","players":[{"user_id":46,"name":"Ixion","steam_id":76561198041660675,"connected_time":2703000000000,"state":"active","ping":89},{"user_id":77,"name":"jge","steam_id":76561198123186387,"connected_time":1403000000000,"state":"active","ping":58},{"user_id":92,"name":"lord-carlos","steam_id":76561198025150761,"connected_time":764000000000,"state":"active","ping":50},{"user_id":72,"name":"UBER MAN","steam_id":76561198809430255,"connected_time":1751000000000,"state":"active","ping":45},{"user_id":29,"name":"LasagnaLarry22","steam_id":76561198089478290,"connected_time":2881000000000,"state":"active","ping":59},{"user_id":30,"name":"bob","steam_id":76561198309295580,"connected_time":2876000000000,"state":"active","ping":57},{"user_id":89,"name":"MatesThePlayer","steam_id":76561198066156449,"connected_time":813000000000,"state":"active","ping":60},{"user_id":59,"name":"jack's vitamin d","steam_id":76561198036032168,"connected_time":1928000000000,"state":"active","ping":137},{"user_id":90,"name":"videogames1000","steam_id":76561198086976963,"connected_time":790000000000,"state":"active","ping":85},{"user_id":101,"name":"ItachiBar","steam_id":76561198074188432,"connected_time":552000000000,"state":"active","ping":73},{"user_id":32,"name":"Fat Pigeon","steam_id":76561198817940142,"connected_time":2839000000000,"state":"active","ping":53},{"user_id":91,"name":"Jahusi!*","steam_id":76561197992445165,"connected_time":777000000000,"state":"active","ping":45},{"user_id":95,"name":"фурримальчик","steam_id":76561199433913089,"connected_time":714000000000,"state":"active","ping":85},{"user_id":102,"name":"Nasty","steam_id":76561198116810647,"connected_time":479000000000,"state":"active","ping":68},{"user_id":105,"name":"pavlik rohlik","steam_id":76561198110544279,"connected_time":59000000000,"state":"active","ping":48},{"user_id":97,"name":"Syd","steam_id":76561198020515027,"connected_time":675000000000,"state":"active","ping":83},{"user_id":106,"name":"Some Random Guy","steam_id":76561198214459669,"connected_time":12000000000,"state":"spawning","ping":77},{"user_id":39,"name":"Pixel_Flamex","steam_id":76561198398929110,"connected_time":2771000000000,"state":"active","ping":92},{"user_id":81,"name":"Marcos","steam_id":76561198798925721,"connected_time":1103000000000,"state":"active","ping":103},{"user_id":41,"name":"Joy","steam_id":76561198155314925,"connected_time":2756000000000,"state":"active","ping":74},{"user_id":103,"name":"Gryoss","steam_id":76561197999837111,"connected_time":170000000000,"state":"active","ping":102},{"user_id":79,"name":"Dr.Vladibummbias Ali","steam_id":76561198311299320,"connected_time":1269000000000,"state":"active","ping":68},{"user_id":88,"name":"Perämiehenä","steam_id":76561197968945306,"connected_time":868000000000,"state":"active","ping":76},{"user_id":99,"name":"Kerry","steam_id":76561198453315433,"connected_time":666000000000,"state":"active","ping":79}]},{"server_id":23,"name":"Uncletopia | Frankfurt | 7 | Stopwatch Beta","name_short":"frk-7","host":"frk-1.de.uncletopia.com","port":27075,"enabled":true,"region":"eu","cc":"de","latitude":50.110924,"longitude":8.682127,"reserved":0,"last_update":"0001-01-01T00:00:00Z","name_a2s":"Uncletopia | Frankfurt | 7 | Stopwatch Beta","protocol":17,"map":"pl_borneo","folder":"tf","game":"Team Fortress","app_id":440,"player_count":0,"max_players":24,"Bots":0,"server_type":"Dedicated","server_os":"Linux","password":true,"vac":true,"version":"7757534","steam_id":85568392924742827,"keywords":["nocrits","nodmgspread","payload","uncletopia"],"game_id":440,"stv_port":27076,"stv_name":"Uncletopia | Frankfurt | 7 | Stopwatch Beta | STV","players":null},{"server_id":24,"name":"Uncletopia | Frankfurt | 8 | Community","name_short":"frk-8","host":"frk-1.de.uncletopia.com","port":27085,"enabled":true,"region":"eu","cc":"de","latitude":50.110924,"longitude":8.682127,"reserved":0,"last_update":"0001-01-01T00:00:00Z","name_a2s":"Uncletopia | Frankfurt | 8 | Community","protocol":17,"map":"koth_cascade","folder":"tf","game":"Team Fortress","app_id":440,"player_count":0,"max_players":24,"Bots":0,"server_type":"Dedicated","server_os":"Linux","password":true,"vac":true,"version":"7757534","steam_id":85568392924742828,"keywords":["cp","nocrits","nodmgspread","uncletopia"],"game_id":440,"stv_port":27086,"stv_name":"Uncletopia | Frankfurt | 8 | Community | STV","players":null},{"server_id":202,"name":"Uncletopia | Hong Kong | 1 | All Maps","name_short":"hgk-1","host":"hgk-1.hk.uncletopia.com","port":27015,"enabled":true,"region":"asia","cc":"hk","latitude":22.302711,"longitude":114.177216,"reserved":0,"last_update":"0001-01-01T00:00:00Z","name_a2s":"Uncletopia | Hong Kong | 1 | All Maps","protocol":17,"map":"pl_pier","folder":"tf","game":"Team Fortress","app_id":440,"player_count":25,"max_players":24,"Bots":0,"server_type":"Dedicated","server_os":"Linux","password":true,"vac":true,"version":"7757534","steam_id":85568392924494504,"keywords":["nocrits","nodmgspread","payload","uncletopia"],"game_id":440,"stv_port":27016,"stv_name":"Uncletopia | Hong Kong | 1 | All Maps | STV","players":[{"user_id":406,"name":"qb","steam_id":76561198412329672,"connected_time":1894000000000,"state":"active","ping":95},{"user_id":421,"name":"corpse_cadaver","steam_id":76561199225360457,"connected_time":598000000000,"state":"active","ping":68},{"user_id":424,"name":"Crazywayne","steam_id":76561198056504010,"connected_time":393000000000,"state":"active","ping":75},{"user_id":398,"name":"greeny","steam_id":76561198024666371,"connected_time":2382000000000,"state":"active","ping":90},{"user_id":283,"name":":D","steam_id":76561198009692495,"connected_time":13932000000000,"state":"active","ping":88},{"user_id":293,"name":"tiden2000","steam_id":76561198092969425,"connected_time":13268000000000,"state":"active","ping":97},{"user_id":423,"name":"ducksaremean","steam_id":76561199093126935,"connected_time":469000000000,"state":"active","ping":79},{"user_id":431,"name":":)","steam_id":76561198437941450,"connected_time":87000000000,"state":"active","ping":86},{"user_id":417,"name":"Otto von Bismarck","steam_id":76561199108750010,"connected_time":1130000000000,"state":"active","ping":140},{"user_id":418,"name":"sinyeon","steam_id":76561198125363469,"connected_time":997000000000,"state":"active","ping":84},{"user_id":309,"name":"felis","steam_id":76561198230213828,"connected_time":11540000000000,"state":"active","ping":68},{"user_id":359,"name":"screaming sniper","steam_id":76561199085568674,"connected_time":5685000000000,"state":"active","ping":74},{"user_id":427,"name":"Cloud","steam_id":76561198272454184,"connected_time":278000000000,"state":"active","ping":100},{"user_id":394,"name":"Smile :)","steam_id":76561199125493462,"connected_time":3080000000000,"state":"active","ping":117},{"user_id":432,"name":"amogus","steam_id":76561198094982152,"connected_time":47000000000,"state":"active","ping":119},{"user_id":405,"name":"MR. BUTTER","steam_id":76561198329902657,"connected_time":1938000000000,"state":"active","ping":105},{"user_id":428,"name":"kaito","steam_id":76561198129205357,"connected_time":232000000000,"state":"active","ping":106},{"user_id":419,"name":"sauceyert","steam_id":76561199085409122,"connected_time":861000000000,"state":"active","ping":59},{"user_id":429,"name":"cheese royal guard","steam_id":76561199236014301,"connected_time":211000000000,"state":"connecting","ping":0},{"user_id":420,"name":"momosneakeradventure","steam_id":76561199046440440,"connected_time":680000000000,"state":"active","ping":48},{"user_id":407,"name":"Smarks123","steam_id":76561198132170503,"connected_time":1854000000000,"state":"active","ping":144},{"user_id":416,"name":"Oog + Cuban Pissing man","steam_id":76561199258899979,"connected_time":1190000000000,"state":"active","ping":56},{"user_id":373,"name":"ellz71","steam_id":76561199216074568,"connected_time":4451000000000,"state":"active","ping":140},{"user_id":430,"name":"iMac G3","steam_id":76561199039424416,"connected_time":197000000000,"state":"active","ping":139},{"user_id":393,"name":"P","steam_id":76561198304514505,"connected_time":3313000000000,"state":"active","ping":76}]},{"server_id":1,"name":"Uncletopia | Los Angeles | 1 | All Maps","name_short":"lax-1","host":"lax-1.us.uncletopia.com","port":27015,"enabled":true,"region":"us-west","cc":"us","latitude":33.94279,"longitude":-118.41004,"reserved":0,"last_update":"0001-01-01T00:00:00Z","name_a2s":"Uncletopia | Los Angeles | 1 | All Maps","protocol":17,"map":"pl_snowycoast","folder":"tf","game":"Team Fortress","app_id":440,"player_count":0,"max_players":24,"Bots":0,"server_type":"Dedicated","server_os":"Linux","password":true,"vac":true,"version":"7757534","steam_id":85568392924469991,"keywords":["nocrits","nodmgspread","payload","uncletopia"],"game_id":440,"stv_port":27016,"stv_name":"Uncletopia | Los Angeles | 1 | All Maps | STV","players":null},{"server_id":112,"name":"Uncletopia | Los Angeles | 2 | All Maps","name_short":"lax-2","host":"lax-1.us.uncletopia.com","port":27025,"enabled":true,"region":"us-west","cc":"us","latitude":33.94279,"longitude":-118.41004,"reserved":0,"last_update":"0001-01-01T00:00:00Z","name_a2s":"Uncletopia | Los Angeles | 2 | All Maps","protocol":17,"map":"koth_lakeside_final","folder":"tf","game":"Team Fortress","app_id":440,"player_count":0,"max_players":24,"Bots":0,"server_type":"Dedicated","server_os":"Linux","password":true,"vac":true,"version":"7757534","steam_id":85568392924469992,"keywords":["cp","nocrits","nodmgspread","uncletopia"],"game_id":440,"stv_port":27026,"stv_name":"Uncletopia | Los Angeles | 2 | All Maps | STV","players":null},{"server_id":324,"name":"Uncletopia | Los Angeles | 3 | All Maps","name_short":"lax-3","host":"lax-1.us.uncletopia.com","port":27035,"enabled":true,"region":"us-west","cc":"us","latitude":33.94279,"longitude":-118.41004,"reserved":0,"last_update":"0001-01-01T00:00:00Z","name_a2s":"Uncletopia | Los Angeles | 3 | All Maps","protocol":17,"map":"koth_viaduct","folder":"tf","game":"Team Fortress","app_id":440,"player_count":0,"max_players":24,"Bots":0,"server_type":"Dedicated","server_os":"Linux","password":true,"vac":true,"version":"7757534","steam_id":85568392924510198,"keywords":["cp","nocrits","nodmgspread","uncletopia"],"game_id":440,"stv_port":27036,"stv_name":"Uncletopia | Los Angeles | 3 | All Maps | STV","players":null},{"server_id":25,"name":"Uncletopia | Los Angeles | 4 | Stopwatch Beta","name_short":"lax-4","host":"lax-1.us.uncletopia.com","port":27045,"enabled":true,"region":"us-west","cc":"us","latitude":33.94279,"longitude":-118.41004,"reserved":0,"last_update":"0001-01-01T00:00:00Z","name_a2s":"Uncletopia | Los Angeles | 4 | Stopwatch Beta","protocol":17,"map":"workshop/cp_reckoner_rc6.ugc674719999","folder":"tf","game":"Team Fortress","app_id":440,"player_count":0,"max_players":24,"Bots":0,"server_type":"Dedicated","server_os":"Linux","password":true,"vac":true,"version":"7757534","steam_id":85568392924510199,"keywords":["cp","nocrits","nodmgspread","uncletopia"],"game_id":440,"stv_port":27046,"stv_name":"Uncletopia | Los Angeles | 4 | Stopwatch Beta | STV","players":null},{"server_id":11,"name":"Uncletopia | London | 1 | All Maps","name_short":"lon-1","host":"lon-1.uk.uncletopia.com","port":27015,"enabled":true,"region":"eu","cc":"gb","latitude":51.509865,"longitude":-0.118092,"reserved":0,"last_update":"0001-01-01T00:00:00Z","name_a2s":"Uncletopia | London | 1 | All Maps","protocol":17,"map":"pl_badwater","folder":"tf","game":"Team Fortress","app_id":440,"player_count":24,"max_players":24,"Bots":0,"server_type":"Dedicated","server_os":"Linux","password":true,"vac":true,"version":"7757534","steam_id":85568392924367362,"keywords":["nocrits","nodmgspread","payload","uncletopia"],"game_id":440,"stv_port":27016,"stv_name":"Uncletopia | London | 1 | All Maps | STV","players":[{"user_id":152,"name":"Purplenoogie","steam_id":76561198081872160,"connected_time":2468000000000,"state":"active","ping":30},{"user_id":166,"name":"Silent Person","steam_id":76561198107763537,"connected_time":1144000000000,"state":"active","ping":74},{"user_id":172,"name":"BCFire","steam_id":76561198070663279,"connected_time":632000000000,"state":"active","ping":52},{"user_id":137,"name":"Topme","steam_id":76561198091734693,"connected_time":3977000000000,"state":"active","ping":74},{"user_id":154,"name":"Dominus.","steam_id":76561199065917088,"connected_time":2054000000000,"state":"active","ping":59},{"user_id":107,"name":"erobrine2","steam_id":76561198173218318,"connected_time":7033000000000,"state":"active","ping":45},{"user_id":167,"name":"DarkFady","steam_id":76561198179099523,"connected_time":1052000000000,"state":"active","ping":105},{"user_id":163,"name":"JaZx_","steam_id":76561198377400273,"connected_time":1377000000000,"state":"active","ping":61},{"user_id":134,"name":"ayu","steam_id":76561198871342329,"connected_time":4452000000000,"state":"active","ping":98},{"user_id":164,"name":"nachtraaf","steam_id":76561197960473205,"connected_time":1227000000000,"state":"active","ping":56},{"user_id":144,"name":"Vikud","steam_id":76561199110575856,"connected_time":3389000000000,"state":"active","ping":147},{"user_id":122,"name":"JOHN GAMING (based)","steam_id":76561199085822219,"connected_time":5518000000000,"state":"active","ping":82},{"user_id":40,"name":"Noodle","steam_id":76561197997208006,"connected_time":11120000000000,"state":"active","ping":60},{"user_id":161,"name":"PoseidonKnight","steam_id":76561198810878805,"connected_time":1910000000000,"state":"active","ping":116},{"user_id":170,"name":"*Dies From Cringe*","steam_id":76561198357871760,"connected_time":854000000000,"state":"active","ping":108},{"user_id":132,"name":"Masuika","steam_id":76561199186856773,"connected_time":4820000000000,"state":"active","ping":56},{"user_id":157,"name":"TÊÄ_mãn","steam_id":76561198163048826,"connected_time":2033000000000,"state":"active","ping":89},{"user_id":130,"name":"qiLaK l","steam_id":76561198048767371,"connected_time":4891000000000,"state":"active","ping":62},{"user_id":174,"name":"DN77","steam_id":76561199121396324,"connected_time":10000000000,"state":"active","ping":87},{"user_id":151,"name":"Dude Time","steam_id":76561198092991160,"connected_time":2484000000000,"state":"active","ping":176},{"user_id":165,"name":"R3inis","steam_id":76561199030393569,"connected_time":1147000000000,"state":"active","ping":90},{"user_id":171,"name":"IKARUS","steam_id":76561198850898422,"connected_time":649000000000,"state":"active","ping":78},{"user_id":136,"name":".::[SerafeTTiN]::.","steam_id":76561198009471724,"connected_time":4001000000000,"state":"active","ping":101},{"user_id":149,"name":"LOBZIK","steam_id":76561198114830120,"connected_time":2659000000000,"state":"active","ping":78}]},{"server_id":114,"name":"Uncletopia | London | 2 | All Maps","name_short":"lon-2","host":"lon-1.uk.uncletopia.com","port":27025,"enabled":true,"region":"eu","cc":"gb","latitude":51.509865,"longitude":-0.118092,"reserved":0,"last_update":"0001-01-01T00:00:00Z","name_a2s":"Uncletopia | London | 2 | All Maps","protocol":17,"map":"pl_barnblitz","folder":"tf","game":"Team Fortress","app_id":440,"player_count":24,"max_players":24,"Bots":0,"server_type":"Dedicated","server_os":"Linux","password":true,"vac":true,"version":"7757534","steam_id":85568392924470941,"keywords":["nocrits","nodmgspread","payload","uncletopia"],"game_id":440,"stv_port":27026,"stv_name":"Uncletopia | London | 2 | All Maps | STV","players":[{"user_id":193,"name":"sabaka jebanoia","steam_id":76561198147249160,"connected_time":6843000000000,"state":"active","ping":105},{"user_id":276,"name":"Dictatorial Karelian","steam_id":76561198196736457,"connected_time":867000000000,"state":"active","ping":83},{"user_id":271,"name":"hwat","steam_id":76561199223139797,"connected_time":1046000000000,"state":"active","ping":57},{"user_id":210,"name":"2011 Seat León","steam_id":76561197994310420,"connected_time":5796000000000,"state":"active","ping":102},{"user_id":272,"name":"Stümpy","steam_id":76561198255904077,"connected_time":956000000000,"state":"active","ping":74},{"user_id":231,"name":"fector","steam_id":76561199204249586,"connected_time":4880000000000,"state":"active","ping":131},{"user_id":195,"name":"Sacreshiea","steam_id":76561198169853697,"connected_time":6714000000000,"state":"active","ping":68},{"user_id":285,"name":"Milk","steam_id":76561198125876588,"connected_time":23000000000,"state":"active","ping":45},{"user_id":203,"name":"sharty in my head","steam_id":76561198106049954,"connected_time":5964000000000,"state":"active","ping":85},{"user_id":274,"name":"AtaTheMen","steam_id":76561199310425804,"connected_time":905000000000,"state":"active","ping":98},{"user_id":280,"name":"dafydd","steam_id":76561198052200325,"connected_time":587000000000,"state":"active","ping":80},{"user_id":275,"name":"TheBushMan","steam_id":76561198277399969,"connected_time":894000000000,"state":"active","ping":91},{"user_id":192,"name":"P0SHT0:((","steam_id":76561198106182078,"connected_time":6976000000000,"state":"active","ping":108},{"user_id":243,"name":"ducks","steam_id":76561198166148685,"connected_time":3333000000000,"state":"active","ping":30},{"user_id":268,"name":"no. 1 lucki fan","steam_id":76561198022382969,"connected_time":1206000000000,"state":"active","ping":75},{"user_id":248,"name":"Meilymo Totolymo","steam_id":76561198094993151,"connected_time":3270000000000,"state":"active","ping":37},{"user_id":277,"name":"Potato","steam_id":76561198883934935,"connected_time":853000000000,"state":"active","ping":101},{"user_id":254,"name":"Dolcelatte","steam_id":76561198038501770,"connected_time":2338000000000,"state":"active","ping":60},{"user_id":199,"name":"Spieller","steam_id":76561198057197847,"connected_time":6402000000000,"state":"active","ping":77},{"user_id":279,"name":"Drdarlekzzz","steam_id":76561198160141785,"connected_time":760000000000,"state":"active","ping":44},{"user_id":282,"name":"The Blues Brother","steam_id":76561198043935491,"connected_time":540000000000,"state":"active","ping":116},{"user_id":250,"name":"internet pls work","steam_id":76561198039347335,"connected_time":3143000000000,"state":"active","ping":71},{"user_id":252,"name":"s1nr","steam_id":76561198025158610,"connected_time":2493000000000,"state":"active","ping":64},{"user_id":263,"name":"❤ Sparx ❤","steam_id":76561198095009261,"connected_time":2253000000000,"state":"active","ping":55}]},{"server_id":320,"name":"Uncletopia | London | 3 | All Maps","name_short":"lon-3","host":"lon-1.uk.uncletopia.com","port":27035,"enabled":true,"region":"eu","cc":"gb","latitude":51.509865,"longitude":-0.118092,"reserved":0,"last_update":"0001-01-01T00:00:00Z","name_a2s":"Uncletopia | London | 3 | All Maps","protocol":17,"map":"pl_barnblitz","folder":"tf","game":"Team Fortress","app_id":440,"player_count":24,"max_players":24,"Bots":0,"server_type":"Dedicated","server_os":"Linux","password":true,"vac":true,"version":"7757534","steam_id":85568392924510192,"keywords":["nocrits","nodmgspread","payload","uncletopia"],"game_id":440,"stv_port":27036,"stv_name":"Uncletopia | London | 3 | All Maps | STV","players":[{"user_id":197,"name":"Zilouw","steam_id":76561198026596988,"connected_time":932000000000,"state":"active","ping":58},{"user_id":177,"name":"Yaire","steam_id":76561198017343510,"connected_time":2237000000000,"state":"active","ping":59},{"user_id":189,"name":"utrustedme","steam_id":76561198112838001,"connected_time":1143000000000,"state":"active","ping":46},{"user_id":193,"name":"ladder goat","steam_id":76561198069723264,"connected_time":1085000000000,"state":"active","ping":48},{"user_id":207,"name":"d00bie","steam_id":76561198025295218,"connected_time":320000000000,"state":"active","ping":70},{"user_id":204,"name":"Wattseyy","steam_id":76561198248567360,"connected_time":460000000000,"state":"active","ping":39},{"user_id":132,"name":"fume.","steam_id":76561197960476801,"connected_time":5818000000000,"state":"active","ping":55},{"user_id":171,"name":"Craig Crusade","steam_id":76561199225918086,"connected_time":2786000000000,"state":"active","ping":66},{"user_id":184,"name":"maakgis","steam_id":76561198851703804,"connected_time":1699000000000,"state":"active","ping":128},{"user_id":182,"name":"BobMarleyGod","steam_id":76561198344966538,"connected_time":1797000000000,"state":"active","ping":59},{"user_id":147,"name":"Fogic yo!","steam_id":76561198084624833,"connected_time":4378000000000,"state":"active","ping":77},{"user_id":201,"name":"drunk man","steam_id":76561198073016365,"connected_time":736000000000,"state":"active","ping":91},{"user_id":187,"name":"disposablesuperbread","steam_id":76561199074703607,"connected_time":1154000000000,"state":"active","ping":74},{"user_id":191,"name":"Akirus","steam_id":76561198369831090,"connected_time":1099000000000,"state":"active","ping":119},{"user_id":202,"name":"Thors","steam_id":76561197968739075,"connected_time":577000000000,"state":"active","ping":44},{"user_id":165,"name":"QuorglepleegJR","steam_id":76561198984658438,"connected_time":3078000000000,"state":"active","ping":49},{"user_id":208,"name":"anson2623","steam_id":76561198147658525,"connected_time":179000000000,"state":"active","ping":50},{"user_id":170,"name":"Gaston","steam_id":76561198198710626,"connected_time":2850000000000,"state":"active","ping":113},{"user_id":194,"name":"Videogamer","steam_id":76561198106012909,"connected_time":1073000000000,"state":"active","ping":74},{"user_id":196,"name":"willoksi","steam_id":76561198157273709,"connected_time":1037000000000,"state":"active","ping":75},{"user_id":124,"name":"tactical783","steam_id":76561199051688560,"connected_time":6731000000000,"state":"active","ping":83},{"user_id":169,"name":"Puboy","steam_id":76561197984617142,"connected_time":2928000000000,"state":"active","ping":65},{"user_id":185,"name":"MtnDew","steam_id":76561199100059743,"connected_time":1648000000000,"state":"active","ping":111},{"user_id":199,"name":"Pogi820","steam_id":76561198320573568,"connected_time":869000000000,"state":"active","ping":122}]},{"server_id":321,"name":"Uncletopia | London | 4 | All Maps","name_short":"lon-4","host":"lon-1.uk.uncletopia.com","port":27045,"enabled":true,"region":"eu","cc":"gb","latitude":51.509865,"longitude":-0.118092,"reserved":0,"last_update":"0001-01-01T00:00:00Z","name_a2s":"Uncletopia | London | 4 | All Maps","protocol":17,"map":"pl_barnblitz","folder":"tf","game":"Team Fortress","app_id":440,"player_count":0,"max_players":24,"Bots":0,"server_type":"Dedicated","server_os":"Linux","password":true,"vac":true,"version":"7757534","steam_id":85568392924510193,"keywords":["nocrits","nodmgspread","payload","uncletopia"],"game_id":440,"stv_port":27046,"stv_name":"Uncletopia | London | 4 | All Maps | STV","players":null},{"server_id":21,"name":"Uncletopia | London | 5 | All Maps","name_short":"lon-5","host":"lon-1.uk.uncletopia.com","port":27055,"enabled":true,"region":"eu","cc":"gb","latitude":51.509865,"longitude":-0.118092,"reserved":0,"last_update":"0001-01-01T00:00:00Z","name_a2s":"Uncletopia | London | 5 | All Maps","protocol":17,"map":"pl_snowycoast","folder":"tf","game":"Team Fortress","app_id":440,"player_count":0,"max_players":24,"Bots":0,"server_type":"Dedicated","server_os":"Linux","password":true,"vac":true,"version":"7757534","steam_id":85568392924742829,"keywords":["nocrits","nodmgspread","payload","uncletopia"],"game_id":440,"stv_port":27056,"stv_name":"Uncletopia | London | 5 | All Maps | STV","players":null},{"server_id":22,"name":"Uncletopia | London | 6 | All Maps","name_short":"lon-6","host":"lon-1.uk.uncletopia.com","port":27065,"enabled":true,"region":"eu","cc":"gb","latitude":51.509865,"longitude":-0.118092,"reserved":0,"last_update":"0001-01-01T00:00:00Z","name_a2s":"Uncletopia | London | 6 | All Maps","protocol":17,"map":"cp_altitude","folder":"tf","game":"Team Fortress","app_id":440,"player_count":0,"max_players":24,"Bots":0,"server_type":"Dedicated","server_os":"Linux","password":true,"vac":true,"version":"7757534","steam_id":85568392924742830,"keywords":["cp","nocrits","nodmgspread","uncletopia"],"game_id":440,"stv_port":27066,"stv_name":"Uncletopia | London | 6 | All Maps | STV","players":null},{"server_id":40,"name":"Uncletopia | London | 7 | No Payload","name_short":"lon-7","host":"lon-1.uk.uncletopia.com","port":27075,"enabled":true,"region":"eu","cc":"gb","latitude":51.509865,"longitude":-0.118092,"reserved":0,"last_update":"0001-01-01T00:00:00Z","name_a2s":"Uncletopia | London | 7 | No Payload","protocol":17,"map":"koth_sawmill","folder":"tf","game":"Team Fortress","app_id":440,"player_count":0,"max_players":24,"Bots":0,"server_type":"Dedicated","server_os":"Linux","password":true,"vac":true,"version":"7757534","steam_id":85568392924964314,"keywords":["cp","nocrits","nodmgspread","uncletopia"],"game_id":440,"stv_port":27076,"stv_name":"Uncletopia | London | 7 | No Payload | STV","players":null},{"server_id":41,"name":"Uncletopia | London | 8 | Community","name_short":"lon-8","host":"lon-1.uk.uncletopia.com","port":27085,"enabled":true,"region":"eu","cc":"gb","latitude":51.509865,"longitude":-0.118092,"reserved":0,"last_update":"0001-01-01T00:00:00Z","name_a2s":"Uncletopia | London | 8 | Community","protocol":17,"map":"workshop/koth_slaughter_rc1.ugc1712845210","folder":"tf","game":"Team Fortress","app_id":440,"player_count":0,"max_players":24,"Bots":0,"server_type":"Dedicated","server_os":"Linux","password":true,"vac":true,"version":"7757534","steam_id":85568392924964315,"keywords":["cp","nocrits","nodmgspread","uncletopia"],"game_id":440,"stv_port":27086,"stv_name":"Uncletopia | London | 8 | Community | STV","players":null},{"server_id":300,"name":"Uncletopia | Montréal | 1 | All Maps","name_short":"mtl-1","host":"mtl-1.ca.uncletopia.com","port":27015,"enabled":true,"region":"us-east","cc":"ca","latitude":45.50889,"longitude":-73.56167,"reserved":0,"last_update":"0001-01-01T00:00:00Z","name_a2s":"Uncletopia | Montréal | 1 | All Maps","protocol":17,"map":"koth_cascade","folder":"tf","game":"Team Fortress","app_id":440,"player_count":0,"max_players":24,"Bots":0,"server_type":"Dedicated","server_os":"Linux","password":true,"vac":true,"version":"7757534","steam_id":85568392924500087,"keywords":["cp","nocrits","nodmgspread","uncletopia"],"game_id":440,"stv_port":27016,"stv_name":"Uncletopia | Montréal | 1 | All Maps | STV","players":null},{"server_id":301,"name":"Uncletopia | Montréal | 2 | All Maps","name_short":"mtl-2","host":"mtl-1.ca.uncletopia.com","port":27025,"enabled":true,"region":"us-east","cc":"ca","latitude":45.50889,"longitude":-73.56167,"reserved":0,"last_update":"0001-01-01T00:00:00Z","name_a2s":"Uncletopia | Montréal | 2 | All Maps","protocol":17,"map":"pl_borneo","folder":"tf","game":"Team Fortress","app_id":440,"player_count":0,"max_players":24,"Bots":0,"server_type":"Dedicated","server_os":"Linux","password":true,"vac":true,"version":"7757534","steam_id":85568392924500088,"keywords":["nocrits","nodmgspread","payload","uncletopia"],"game_id":440,"stv_port":27026,"stv_name":"Uncletopia | Montréal | 2 | All Maps | STV","players":null},{"server_id":302,"name":"Uncletopia | Montréal | 3 | All Maps","name_short":"mtl-3","host":"mtl-1.ca.uncletopia.com","port":27035,"enabled":true,"region":"us-east","cc":"ca","latitude":45.50889,"longitude":-73.56167,"reserved":0,"last_update":"0001-01-01T00:00:00Z","name_a2s":"Uncletopia | Montréal | 3 | All Maps","protocol":17,"map":"cp_sunshine","folder":"tf","game":"Team Fortress","app_id":440,"player_count":0,"max_players":24,"Bots":0,"server_type":"Dedicated","server_os":"Linux","password":true,"vac":true,"version":"7757534","steam_id":85568392924500089,"keywords":["cp","nocrits","nodmgspread","uncletopia"],"game_id":440,"stv_port":27036,"stv_name":"Uncletopia | Montréal | 3 | All Maps | STV","players":null},{"server_id":303,"name":"Uncletopia | Montréal | 4 | No Payload","name_short":"mtl-4","host":"mtl-1.ca.uncletopia.com","port":27045,"enabled":true,"region":"us-east","cc":"ca","latitude":45.50889,"longitude":-73.56167,"reserved":0,"last_update":"0001-01-01T00:00:00Z","name_a2s":"Uncletopia | Montréal | 4 | No Payload","protocol":17,"map":"koth_lakeside_final","folder":"tf","game":"Team Fortress","app_id":440,"player_count":0,"max_players":24,"Bots":0,"server_type":"Dedicated","server_os":"Linux","password":true,"vac":true,"version":"7757534","steam_id":85568392924500090,"keywords":["cp","nocrits","nodmgspread","uncletopia"],"game_id":440,"stv_port":27046,"stv_name":"Uncletopia | Montréal | 4 | No Payload | STV","players":null},{"server_id":13,"name":"Uncletopia | New York City | 1 | All Maps","name_short":"nyc-1","host":"nyc-1.us.uncletopia.com","port":27015,"enabled":true,"region":"us-east","cc":"us","latitude":40.73061,"longitude":-73.93524,"reserved":0,"last_update":"0001-01-01T00:00:00Z","name_a2s":"Uncletopia | New York City | 1 | All Maps","protocol":17,"map":"pl_borneo","folder":"tf","game":"Team Fortress","app_id":440,"player_count":0,"max_players":24,"Bots":0,"server_type":"Dedicated","server_os":"Linux","password":true,"vac":true,"version":"7757534","steam_id":85568392924469993,"keywords":["nocrits","nodmgspread","payload","uncletopia"],"game_id":440,"stv_port":27016,"stv_name":"Uncletopia | New York City | 1 | All Maps | STV","players":null},{"server_id":14,"name":"Uncletopia | New York City | 2 | All Maps","name_short":"nyc-2","host":"nyc-1.us.uncletopia.com","port":27025,"enabled":true,"region":"us-east","cc":"us","latitude":40.73061,"longitude":-73.93524,"reserved":0,"last_update":"0001-01-01T00:00:00Z","name_a2s":"Uncletopia | New York City | 2 | All Maps","protocol":17,"map":"pl_snowycoast","folder":"tf","game":"Team Fortress","app_id":440,"player_count":0,"max_players":24,"Bots":0,"server_type":"Dedicated","server_os":"Linux","password":true,"vac":true,"version":"7757534","steam_id":85568392924469994,"keywords":["nocrits","nodmgspread","payload","uncletopia"],"game_id":440,"stv_port":27026,"stv_name":"Uncletopia | New York City | 2 | All Maps | STV","players":null},{"server_id":15,"name":"Uncletopia | New York City | 3 | Stopwatch Beta","name_short":"nyc-3","host":"nyc-1.us.uncletopia.com","port":27035,"enabled":true,"region":"us-east","cc":"us","latitude":40.73061,"longitude":-73.93524,"reserved":0,"last_update":"0001-01-01T00:00:00Z","name_a2s":"Uncletopia | New York City | 3 | Stopwatch Beta","protocol":17,"map":"koth_lakeside_final","folder":"tf","game":"Team Fortress","app_id":440,"player_count":0,"max_players":24,"Bots":0,"server_type":"Dedicated","server_os":"Linux","password":true,"vac":true,"version":"7757534","steam_id":85568392924742820,"keywords":["cp","nocrits","nodmgspread","uncletopia"],"game_id":440,"stv_port":27036,"stv_name":"Uncletopia | New York City | 3 | Stopwatch Beta | STV","players":null},{"server_id":16,"name":"Uncletopia | New York City | 4 | Community","name_short":"nyc-4","host":"nyc-1.us.uncletopia.com","port":27045,"enabled":true,"region":"us-east","cc":"us","latitude":40.73061,"longitude":-73.93524,"reserved":0,"last_update":"0001-01-01T00:00:00Z","name_a2s":"Uncletopia | New York City | 4 | Community","protocol":17,"map":"pl_borneo","folder":"tf","game":"Team Fortress","app_id":440,"player_count":0,"max_players":24,"Bots":0,"server_type":"Dedicated","server_os":"Linux","password":true,"vac":true,"version":"7757534","steam_id":85568392924742821,"keywords":["nocrits","nodmgspread","payload","uncletopia"],"game_id":440,"stv_port":27046,"stv_name":"Uncletopia | New York City | 4 | Community | STV","players":null},{"server_id":142,"name":"Uncletopia | São Paulo | 1 | All Maps","name_short":"sao-1","host":"sao-1.br.uncletopia.com","port":27015,"enabled":true,"region":"sa","cc":"br","latitude":-23.533773,"longitude":-46.62529,"reserved":0,"last_update":"0001-01-01T00:00:00Z","name_a2s":"Uncletopia | São Paulo | 1 | All Maps","protocol":17,"map":"pl_snowycoast","folder":"tf","game":"Team Fortress","app_id":440,"player_count":0,"max_players":24,"Bots":0,"server_type":"Dedicated","server_os":"Linux","password":true,"vac":true,"version":"7757534","steam_id":85568392924469996,"keywords":["nocrits","nodmgspread","payload","uncletopia"],"game_id":440,"stv_port":27016,"stv_name":"Uncletopia | São Paulo | 1 | All Maps | STV","players":null},{"server_id":143,"name":"Uncletopia | São Paulo | 2 | All Maps","name_short":"sao-2","host":"sao-2.br.uncletopia.com","port":27015,"enabled":true,"region":"sa","cc":"br","latitude":-23.533773,"longitude":-46.62529,"reserved":0,"last_update":"0001-01-01T00:00:00Z","name_a2s":"Uncletopia | São Paulo | 2 | All Maps","protocol":17,"map":"pl_barnblitz","folder":"tf","game":"Team Fortress","app_id":440,"player_count":0,"max_players":24,"Bots":0,"server_type":"Dedicated","server_os":"Linux","password":true,"vac":true,"version":"7757534","steam_id":85568392924485349,"keywords":["nocrits","nodmgspread","payload","uncletopia"],"game_id":440,"stv_port":27016,"stv_name":"Uncletopia | São Paulo | 2 | All Maps | STV","players":null},{"server_id":7,"name":"Uncletopia | Seattle | 1 | All Maps","name_short":"sea-1","host":"sea-1.us.uncletopia.com","port":27015,"enabled":true,"region":"us-west","cc":"us","latitude":47.608013,"longitude":-122.33517,"reserved":0,"last_update":"0001-01-01T00:00:00Z","name_a2s":"Uncletopia | Seattle | 1 | All Maps","protocol":17,"map":"cp_sunshine","folder":"tf","game":"Team Fortress","app_id":440,"player_count":0,"max_players":24,"Bots":0,"server_type":"Dedicated","server_os":"Linux","password":true,"vac":true,"version":"7757534","steam_id":85568392924469997,"keywords":["cp","nocrits","nodmgspread","uncletopia"],"game_id":440,"stv_port":27016,"stv_name":"Uncletopia | Seattle | 1 | All Maps | STV","players":null},{"server_id":119,"name":"Uncletopia | Seattle | 2 | All Maps","name_short":"sea-2","host":"sea-1.us.uncletopia.com","port":27025,"enabled":true,"region":"us-west","cc":"us","latitude":47.608013,"longitude":-122.33517,"reserved":0,"last_update":"0001-01-01T00:00:00Z","name_a2s":"Uncletopia | Seattle | 2 | All Maps","protocol":17,"map":"koth_viaduct","folder":"tf","game":"Team Fortress","app_id":440,"player_count":0,"max_players":24,"Bots":0,"server_type":"Dedicated","server_os":"Linux","password":true,"vac":true,"version":"7757534","steam_id":85568392924469998,"keywords":["cp","nocrits","nodmgspread","uncletopia"],"game_id":440,"stv_port":27026,"stv_name":"Uncletopia | Seattle | 2 | All Maps | STV","players":null},{"server_id":406,"name":"Uncletopia | Seattle | 3 | Stopwatch Beta","name_short":"sea-3","host":"sea-1.us.uncletopia.com","port":27035,"enabled":true,"region":"us-west","cc":"us","latitude":47.608013,"longitude":-122.33517,"reserved":0,"last_update":"0001-01-01T00:00:00Z","name_a2s":"Uncletopia | Seattle | 3 | Stopwatch Beta","protocol":17,"map":"workshop/koth_ramjam_rc1.ugc459778887","folder":"tf","game":"Team Fortress","app_id":440,"player_count":0,"max_players":24,"Bots":0,"server_type":"Dedicated","server_os":"Linux","password":true,"vac":true,"version":"7757534","steam_id":85568392924515217,"keywords":["cp","nocrits","nodmgspread","uncletopia"],"game_id":440,"stv_port":27036,"stv_name":"Uncletopia | Seattle | 3 | Stopwatch Beta | STV","players":null},{"server_id":17,"name":"Uncletopia | San Francisco | 1 | All Maps","name_short":"sfo-1","host":"sfo-1.us.uncletopia.com","port":27015,"enabled":true,"region":"us-west","cc":"us","latitude":37.77397,"longitude":-122.4313,"reserved":0,"last_update":"0001-01-01T00:00:00Z","name_a2s":"Uncletopia | San Francisco | 1 | All Maps","protocol":17,"map":"koth_cascade","folder":"tf","game":"Team Fortress","app_id":440,"player_count":0,"max_players":24,"Bots":0,"server_type":"Dedicated","server_os":"Linux","password":true,"vac":true,"version":"7757534","steam_id":85568392924469999,"keywords":["cp","nocrits","nodmgspread","uncletopia"],"game_id":440,"stv_port":27016,"stv_name":"Uncletopia | San Francisco | 1 | All Maps | STV","players":null},{"server_id":18,"name":"Uncletopia | San Francisco | 2 | All Maps","name_short":"sfo-2","host":"sfo-1.us.uncletopia.com","port":27025,"enabled":true,"region":"us-west","cc":"us","latitude":37.77397,"longitude":-122.4313,"reserved":0,"last_update":"0001-01-01T00:00:00Z","name_a2s":"Uncletopia | San Francisco | 2 | All Maps","protocol":17,"map":"koth_viaduct","folder":"tf","game":"Team Fortress","app_id":440,"player_count":0,"max_players":24,"Bots":0,"server_type":"Dedicated","server_os":"Linux","password":true,"vac":true,"version":"7757534","steam_id":85568392924470000,"keywords":["cp","nocrits","nodmgspread","uncletopia"],"game_id":440,"stv_port":27026,"stv_name":"Uncletopia | San Francisco | 2 | All Maps | STV","players":null},{"server_id":19,"name":"Uncletopia | San Francisco | 3 | Stopwatch Beta","name_short":"sfo-3","host":"sfo-1.us.uncletopia.com","port":27035,"enabled":true,"region":"us-west","cc":"us","latitude":37.77397,"longitude":-122.4313,"reserved":0,"last_update":"0001-01-01T00:00:00Z","name_a2s":"Uncletopia | San Francisco | 3 | Stopwatch Beta","protocol":17,"map":"koth_viaduct","folder":"tf","game":"Team Fortress","app_id":440,"player_count":0,"max_players":24,"Bots":0,"server_type":"Dedicated","server_os":"Linux","password":true,"vac":true,"version":"7757534","steam_id":85568392924742824,"keywords":["cp","nocrits","nodmgspread","uncletopia"],"game_id":440,"stv_port":27036,"stv_name":"Uncletopia | San Francisco | 3 | Stopwatch Beta | STV","players":null},{"server_id":20,"name":"Uncletopia | San Francisco | 4 | Community","name_short":"sfo-4","host":"sfo-1.us.uncletopia.com","port":27045,"enabled":true,"region":"us-west","cc":"us","latitude":37.77397,"longitude":-122.4313,"reserved":0,"last_update":"0001-01-01T00:00:00Z","name_a2s":"Uncletopia | San Francisco | 4 | Community","protocol":17,"map":"workshop/koth_synthetic_rc6a.ugc1549817316","folder":"tf","game":"Team Fortress","app_id":440,"player_count":0,"max_players":24,"Bots":0,"server_type":"Dedicated","server_os":"Linux","password":true,"vac":true,"version":"7757534","steam_id":85568392924742826,"keywords":["cp","nocrits","nodmgspread","uncletopia"],"game_id":440,"stv_port":27046,"stv_name":"Uncletopia | San Francisco | 4 | Community | STV","players":null},{"server_id":141,"name":"Uncletopia | Sydney | 1 | All Maps","name_short":"syd-1","host":"syd-1.au.uncletopia.com","port":27015,"enabled":true,"region":"au","cc":"au","latitude":-33.865143,"longitude":151.2099,"reserved":0,"last_update":"0001-01-01T00:00:00Z","name_a2s":"Uncletopia | Sydney | 1 | All Maps","protocol":17,"map":"ctf_doublecross","folder":"tf","game":"Team Fortress","app_id":440,"player_count":14,"max_players":24,"Bots":0,"server_type":"Dedicated","server_os":"Linux","password":true,"vac":true,"version":"7757534","steam_id":85568392924470001,"keywords":["ctf","nocrits","nodmgspread","uncletopia"],"game_id":440,"stv_port":27016,"stv_name":"Uncletopia | Sydney | 1 | All Maps | STV","players":[{"user_id":508,"name":"bison","steam_id":76561198183851230,"connected_time":1481000000000,"state":"active","ping":68},{"user_id":525,"name":"FizzCan","steam_id":76561198209782572,"connected_time":401000000000,"state":"active","ping":73},{"user_id":526,"name":"ComputerINYear","steam_id":76561199124853355,"connected_time":398000000000,"state":"active","ping":74},{"user_id":509,"name":"Bing Soy","steam_id":76561198057093383,"connected_time":1463000000000,"state":"active","ping":45},{"user_id":510,"name":"wombraider","steam_id":76561199375834537,"connected_time":1357000000000,"state":"active","ping":123},{"user_id":511,"name":"Mr.Deathclaw","steam_id":76561198025419320,"connected_time":1350000000000,"state":"active","ping":44},{"user_id":512,"name":"random.","steam_id":76561198848689967,"connected_time":1326000000000,"state":"active","ping":45},{"user_id":513,"name":"Pickled Cow","steam_id":76561198292517991,"connected_time":1300000000000,"state":"active","ping":40},{"user_id":514,"name":"D,Knight","steam_id":76561198434385732,"connected_time":1211000000000,"state":"active","ping":229},{"user_id":530,"name":"BeJeSTe","steam_id":76561198089440178,"connected_time":74000000000,"state":"active","ping":304},{"user_id":524,"name":"crack","steam_id":76561198077370413,"connected_time":671000000000,"state":"active","ping":64},{"user_id":521,"name":"Yeehaw","steam_id":76561198039684922,"connected_time":876000000000,"state":"active","ping":49},{"user_id":527,"name":"I suck at everything","steam_id":76561199379145463,"connected_time":358000000000,"state":"active","ping":55},{"user_id":522,"name":"Barbatruc","steam_id":76561198119019916,"connected_time":832000000000,"state":"active","ping":296}]},{"server_id":123,"name":"Uncletopia | Sydney | 2 | All Maps","name_short":"syd-2","host":"syd-1.au.uncletopia.com","port":27025,"enabled":true,"region":"au","cc":"au","latitude":-33.865143,"longitude":151.2099,"reserved":0,"last_update":"0001-01-01T00:00:00Z","name_a2s":"Uncletopia | Sydney | 2 | All Maps","protocol":17,"map":"pl_barnblitz","folder":"tf","game":"Team Fortress","app_id":440,"player_count":23,"max_players":24,"Bots":0,"server_type":"Dedicated","server_os":"Linux","password":true,"vac":true,"version":"7757534","steam_id":85568392924470002,"keywords":["nocrits","nodmgspread","payload","uncletopia"],"game_id":440,"stv_port":27026,"stv_name":"Uncletopia | Sydney | 2 | All Maps | STV","players":[{"user_id":526,"name":"B o S s","steam_id":76561199201678715,"connected_time":774000000000,"state":"active","ping":60},{"user_id":362,"name":"abcdef","steam_id":76561198083700749,"connected_time":10263000000000,"state":"active","ping":41},{"user_id":508,"name":"Kiwipisiki","steam_id":76561198063134372,"connected_time":1763000000000,"state":"active","ping":55},{"user_id":530,"name":"Fatarse Yoshi","steam_id":76561198033784848,"connected_time":681000000000,"state":"active","ping":52},{"user_id":492,"name":"nojnosbod11","steam_id":76561199176012151,"connected_time":2512000000000,"state":"active","ping":55},{"user_id":514,"name":"EpicGuy4227","steam_id":76561198094132328,"connected_time":1465000000000,"state":"active","ping":52},{"user_id":511,"name":"Bradlpops","steam_id":76561198059853596,"connected_time":1552000000000,"state":"active","ping":107},{"user_id":536,"name":"gaming time","steam_id":76561198127848228,"connected_time":283000000000,"state":"active","ping":60},{"user_id":496,"name":"Catto","steam_id":76561197999111589,"connected_time":2393000000000,"state":"active","ping":43},{"user_id":527,"name":"Tнûи∂уяѕ∂.","steam_id":76561197992346511,"connected_time":762000000000,"state":"active","ping":52},{"user_id":512,"name":"Oranch","steam_id":76561198134730206,"connected_time":1526000000000,"state":"active","ping":52},{"user_id":539,"name":"Arkangel_","steam_id":76561198309650404,"connected_time":172000000000,"state":"active","ping":123},{"user_id":538,"name":"el [?!]","steam_id":76561198077802034,"connected_time":223000000000,"state":"active","ping":84},{"user_id":540,"name":"HazmatH","steam_id":76561199003107869,"connected_time":91000000000,"state":"active","ping":248},{"user_id":535,"name":"rastaFROG730","steam_id":76561198058812647,"connected_time":360000000000,"state":"active","ping":44},{"user_id":504,"name":"01001110 01101111","steam_id":76561198290288735,"connected_time":2167000000000,"state":"active","ping":73},{"user_id":541,"name":"Meerkat","steam_id":76561198298662979,"connected_time":91000000000,"state":"active","ping":37},{"user_id":517,"name":"Chooka","steam_id":76561197992307814,"connected_time":1449000000000,"state":"active","ping":73},{"user_id":529,"name":"um erm uh","steam_id":76561198838208913,"connected_time":739000000000,"state":"active","ping":70},{"user_id":534,"name":"Rizeo","steam_id":76561198147901488,"connected_time":475000000000,"state":"active","ping":71},{"user_id":532,"name":"ben","steam_id":76561198223331996,"connected_time":627000000000,"state":"active","ping":66},{"user_id":477,"name":"Empr","steam_id":76561198024387396,"connected_time":3517000000000,"state":"active","ping":67},{"user_id":543,"name":"Cris.p bacon","steam_id":76561199230423491,"connected_time":22000000000,"state":"spawning","ping":102}]},{"server_id":395,"name":"Uncletopia | Sydney | 3 | All Maps","name_short":"syd-3","host":"syd-1.au.uncletopia.com","port":27035,"enabled":true,"region":"au","cc":"au","latitude":-33.865143,"longitude":151.2099,"reserved":0,"last_update":"0001-01-01T00:00:00Z","name_a2s":"Uncletopia | Sydney | 3 | All Maps","protocol":17,"map":"koth_highpass","folder":"tf","game":"Team Fortress","app_id":440,"player_count":2,"max_players":24,"Bots":0,"server_type":"Dedicated","server_os":"Linux","password":true,"vac":true,"version":"7757534","steam_id":85568392925194467,"keywords":["cp","nocrits","nodmgspread","uncletopia"],"game_id":440,"stv_port":27036,"stv_name":"Uncletopia | Sydney | 3 | All Maps | STV","players":[{"user_id":271,"name":"gun spy TF2","steam_id":76561199446773766,"connected_time":1081000000000,"state":"active","ping":84},{"user_id":272,"name":"Branko","steam_id":76561199262196710,"connected_time":993000000000,"state":"active","ping":67}]},{"server_id":396,"name":"Uncletopia | Sydney | 4 | All Maps","name_short":"syd-4","host":"syd-1.au.uncletopia.com","port":27045,"enabled":true,"region":"au","cc":"au","latitude":-33.865143,"longitude":151.2099,"reserved":0,"last_update":"0001-01-01T00:00:00Z","name_a2s":"Uncletopia | Sydney | 4 | All Maps","protocol":17,"map":"koth_cascade","folder":"tf","game":"Team Fortress","app_id":440,"player_count":1,"max_players":24,"Bots":0,"server_type":"Dedicated","server_os":"Linux","password":true,"vac":true,"version":"7757534","steam_id":85568392925397958,"keywords":["cp","nocrits","nodmgspread","uncletopia"],"game_id":440,"stv_port":27046,"stv_name":"Uncletopia | Sydney | 4 | All Maps | STV","players":[{"user_id":19,"name":"Consolidated Fart","steam_id":76561198924101909,"connected_time":145000000000,"state":"active","ping":62}]},{"server_id":58,"name":"Uncletopia | Sydney | 5 | Stopwatch Beta","name_short":"syd-5","host":"syd-1.au.uncletopia.com","port":27055,"enabled":true,"region":"au","cc":"au","latitude":-33.865143,"longitude":151.2099,"reserved":0,"last_update":"0001-01-01T00:00:00Z","name_a2s":"Uncletopia | Sydney | 5 | Stopwatch Beta","protocol":17,"map":"workshop/pl_badwater_pro_v12.ugc2142942074","folder":"tf","game":"Team Fortress","app_id":440,"player_count":0,"max_players":24,"Bots":0,"server_type":"Dedicated","server_os":"Linux","password":true,"vac":true,"version":"7757534","steam_id":85568392925397959,"keywords":["nocrits","nodmgspread","payload","uncletopia"],"game_id":440,"stv_port":27056,"stv_name":"Uncletopia | Sydney | 5 | Stopwatch Beta | STV","players":null},{"server_id":59,"name":"Uncletopia | Sydney | 6 | Community","name_short":"syd-6","host":"syd-1.au.uncletopia.com","port":27065,"enabled":true,"region":"au","cc":"au","latitude":-33.865143,"longitude":151.2099,"reserved":0,"last_update":"0001-01-01T00:00:00Z","name_a2s":"Uncletopia | Sydney | 6 | Community","protocol":17,"map":"workshop/koth_ashville_final.ugc2130459942","folder":"tf","game":"Team Fortress","app_id":440,"player_count":0,"max_players":24,"Bots":0,"server_type":"Dedicated","server_os":"Linux","password":true,"vac":true,"version":"7757534","steam_id":85568392925397960,"keywords":["cp","nocrits","nodmgspread","uncletopia"],"game_id":440,"stv_port":27066,"stv_name":"Uncletopia | Sydney | 6 | Community | STV","players":null},{"server_id":49,"name":"Uncletopia | Warsaw | 1 | All Maps","name_short":"waw-1","host":"waw-1.pl.uncletopia.com","port":27015,"enabled":true,"region":"eu","cc":"pl","latitude":52.2297,"longitude":21.017532,"reserved":0,"last_update":"0001-01-01T00:00:00Z","name_a2s":"","protocol":0,"map":"","folder":"","game":"","app_id":0,"player_count":0,"max_players":0,"Bots":0,"server_type":"","server_os":"","password":false,"vac":false,"version":"","steam_id":0,"keywords":null,"game_id":0,"stv_port":0,"stv_name":"","players":null},{"server_id":50,"name":"Uncletopia | Warsaw | 2 | All Maps","name_short":"waw-2","host":"waw-1.pl.uncletopia.com","port":27025,"enabled":true,"region":"eu","cc":"pl","latitude":52.2297,"longitude":21.017532,"reserved":0,"last_update":"0001-01-01T00:00:00Z","name_a2s":"Uncletopia | Warsaw | 2 | All Maps","protocol":17,"map":"koth_viaduct","folder":"tf","game":"Team Fortress","app_id":440,"player_count":0,"max_players":24,"Bots":0,"server_type":"Dedicated","server_os":"Linux","password":true,"vac":true,"version":"7757534","steam_id":85568392925397851,"keywords":["cp","nocrits","nodmgspread","uncletopia"],"game_id":440,"stv_port":27026,"stv_name":"Uncletopia | Warsaw | 2 | All Maps | STV","players":null},{"server_id":51,"name":"Uncletopia | Warsaw | 3 | All Maps","name_short":"waw-3","host":"waw-1.pl.uncletopia.com","port":27035,"enabled":true,"region":"eu","cc":"pl","latitude":52.2297,"longitude":21.017532,"reserved":0,"last_update":"0001-01-01T00:00:00Z","name_a2s":"Uncletopia | Warsaw | 3 | All Maps","protocol":17,"map":"pl_snowycoast","folder":"tf","game":"Team Fortress","app_id":440,"player_count":0,"max_players":24,"Bots":0,"server_type":"Dedicated","server_os":"Linux","password":true,"vac":true,"version":"7757534","steam_id":85568392925397852,"keywords":["nocrits","nodmgspread","payload","uncletopia"],"game_id":440,"stv_port":27036,"stv_name":"Uncletopia | Warsaw | 3 | All Maps | STV","players":null},{"server_id":52,"name":"Uncletopia | Warsaw | 4 | All Maps","name_short":"waw-4","host":"waw-1.pl.uncletopia.com","port":27045,"enabled":true,"region":"eu","cc":"pl","latitude":52.2297,"longitude":21.017532,"reserved":0,"last_update":"0001-01-01T00:00:00Z","name_a2s":"Uncletopia | Warsaw | 4 | All Maps","protocol":17,"map":"pl_snowycoast","folder":"tf","game":"Team Fortress","app_id":440,"player_count":0,"max_players":24,"Bots":0,"server_type":"Dedicated","server_os":"Linux","password":true,"vac":true,"version":"7757534","steam_id":85568392925397853,"keywords":["nocrits","nodmgspread","payload","uncletopia"],"game_id":440,"stv_port":27046,"stv_name":"Uncletopia | Warsaw | 4 | All Maps | STV","players":null},{"server_id":53,"name":"Uncletopia | Warsaw | 5 | Stopwatch Beta","name_short":"waw-5","host":"waw-1.pl.uncletopia.com","port":27055,"enabled":true,"region":"eu","cc":"pl","latitude":52.2297,"longitude":21.017532,"reserved":0,"last_update":"0001-01-01T00:00:00Z","name_a2s":"Uncletopia | Warsaw | 5 | Stopwatch Beta","protocol":17,"map":"pl_upward","folder":"tf","game":"Team Fortress","app_id":440,"player_count":0,"max_players":24,"Bots":0,"server_type":"Dedicated","server_os":"Linux","password":true,"vac":true,"version":"7757534","steam_id":85568392925397854,"keywords":["nocrits","nodmgspread","payload","uncletopia"],"game_id":440,"stv_port":27056,"stv_name":"Uncletopia | Warsaw | 5 | Stopwatch Beta | STV","players":null},{"server_id":54,"name":"Uncletopia | Warsaw | 6 | Community","name_short":"waw-6","host":"waw-1.pl.uncletopia.com","port":27065,"enabled":true,"region":"eu","cc":"pl","latitude":52.2297,"longitude":21.017532,"reserved":0,"last_update":"0001-01-01T00:00:00Z","name_a2s":"Uncletopia | Warsaw | 6 | Community","protocol":17,"map":"workshop/pl_fifthcurve_rc1.ugc648227046","folder":"tf","game":"Team Fortress","app_id":440,"player_count":0,"max_players":24,"Bots":0,"server_type":"Dedicated","server_os":"Linux","password":true,"vac":true,"version":"7757534","steam_id":85568392925397856,"keywords":["nocrits","nodmgspread","payload","uncletopia"],"game_id":440,"stv_port":27066,"stv_name":"Uncletopia | Warsaw | 6 | Community | STV","players":null}]}