{"status":true,"message":"","result":[{"server_id":9,"name":"Uncletopia | Atlanta | 1 | All Maps","name_short":"atl-1","host":"atl-1.us.uncletopia.com","port":27015,"enabled":true,"region":"us-east","cc":"us","latitude":33.753746,"longitude":-84.38633,"reserved":0,"last_update":"0001-01-01T00:00:00Z","name_a2s":"Uncletopia | Atlanta | 1 | All Maps","protocol":17,"map":"pl_snowycoast","folder":"tf","game":"Team Fortress","app_id":440,"player_count":24,"max_players":24,"Bots":0,"server_type":"Dedicated","server_os":"Linux","password":true,"vac":true,"version":"7882260","steam_id":85568392924469982,"keywords":["nocrits","nodmgspread","payload","uncletopia"],"game_id":440,"stv_port":27016,"stv_name":"Uncletopia | Atlanta | 1 | All Maps | STV","players":[{"user_id":422,"name":"Ramin Jamin","steam_id":76561198086516541,"connected_time":4506000000000,"state":"active","ping":87},{"user_id":472,"name":"paetho YT","steam_id":76561198152690003,"connected_time":1002000000000,"state":"active","ping":41},{"user_id":376,"name":"Intro Bonito","steam_id":76561198119478838,"connected_time":7176000000000,"state":"active","ping":47},{"user_id":441,"name":"crunchy obama","steam_id":76561198044485217,"connected_time":3108000000000,"state":"active","ping":117},{"user_id":462,"name":"Pascal","steam_id":76561198902657591,"connected_time":2241000000000,"state":"active","ping":56},{"user_id":454,"name":"ƐՌѴƳ","steam_id":76561198099470277,"connected_time":2551000000000,"state":"active","ping":65},{"user_id":424,"name":"bogginwater","steam_id":76561198155547142,"connected_time":4470000000000,"state":"active","ping":63},{"user_id":474,"name":"Boop","steam_id":76561198376703875,"connected_time":994000000000,"state":"active","ping":62},{"user_id":374,"name":"BIG HOG","steam_id":76561198079923652,"connected_time":7194000000000,"state":"active","ping":75},{"user_id":368,"name":"bkiller","steam_id":76561198029265697,"connected_time":8244000000000,"state":"active","ping":60},{"user_id":469,"name":"SteeredAxe","steam_id":76561198081309492,"connected_time":1047000000000,"state":"active","ping":57},{"user_id":473,"name":"Save your wifi","steam_id":76561198286147372,"connected_time":1001000000000,"state":"active","ping":68},{"user_id":471,"name":"rose","steam_id":76561198048882285,"connected_time":1041000000000,"state":"active","ping":73},{"user_id":379,"name":"cola","steam_id":76561198374390458,"connected_time":7160000000000,"state":"active","ping":71},{"user_id":447,"name":"boylover54","steam_id":76561199030726701,"connected_time":2886000000000,"state":"active","ping":102},{"user_id":459,"name":"Bocchi the Cock","steam_id":76561198152455316,"connected_time":2478000000000,"state":"active","ping":99},{"user_id":494,"name":"lil hog","steam_id":76561199230929836,"connected_time":510000000000,"state":"active","ping":83},{"user_id":475,"name":"Jabawakai","steam_id":76561198088881254,"connected_time":941000000000,"state":"active","ping":79},{"user_id":491,"name":"tr_rocket_shooting2","steam_id":76561198249206656,"connected_time":692000000000,"state":"active","ping":80},{"user_id":493,"name":"morphine","steam_id":76561198072124799,"connected_time":586000000000,"state":"active","ping":99},{"user_id":465,"name":"chexo4","steam_id":76561198150532531,"connected_time":1677000000000,"state":"active","ping":53},{"user_id":451,"name":"Pumbloom","steam_id":76561198024481281,"connected_time":2789000000000,"state":"active","ping":45},{"user_id":450,"name":"Skinny Pete","steam_id":76561198801608576,"connected_time":2809000000000,"state":"active","ping":93},{"user_id":467,"name":"joe","steam_id":76561198045781320,"connected_time":1347000000000,"state":"active","ping":67}]},{"server_id":104,"name":"Uncletopia | Atlanta | 2 | All Maps","name_short":"atl-2","host":"atl-1.us.uncletopia.com","port":27025,"enabled":true,"region":"us-east","cc":"us","latitude":33.753746,"longitude":-84.38633,"reserved":0,"last_update":"0001-01-01T00:00:00Z","name_a2s":"Uncletopia | Atlanta | 2 | All Maps","protocol":17,"map":"pl_swiftwater_final1","folder":"tf","game":"Team Fortress","app_id":440,"player_count":24,"max_players":24,"Bots":0,"server_type":"Dedicated","server_os":"Linux","password":true,"vac":true,"version":"7882260","steam_id":85568392924469983,"keywords":["nocrits","nodmgspread","payload","uncletopia"],"game_id":440,"stv_port":27026,"stv_name":"Uncletopia | Atlanta | 2 | All Maps | STV","players":[{"user_id":440,"name":"Disability Haver","steam_id":76561198072879485,"connected_time":1355000000000,"state":"active","ping":108},{"user_id":306,"name":"LiftN","steam_id":76561198167974713,"connected_time":6778000000000,"state":"active","ping":59},{"user_id":425,"name":"Gamerdude313","steam_id":76561198869211435,"connected_time":2661000000000,"state":"active","ping":72},{"user_id":436,"name":"Cream Corn","steam_id":76561198043791586,"connected_time":2099000000000,"state":"active","ping":51},{"user_id":450,"name":"MiKE","steam_id":76561198115112269,"connected_time":143000000000,"state":"active","ping":87},{"user_id":411,"name":"tupac alive in serbia","steam_id":76561198035695976,"connected_time":3316000000000,"state":"active","ping":119},{"user_id":449,"name":"Nova","steam_id":76561198421340963,"connected_time":182000000000,"state":"active","ping":64},{"user_id":451,"name":"Deewey","steam_id":76561198084768933,"connected_time":140000000000,"state":"active","ping":70},{"user_id":439,"name":"orange porridge","steam_id":76561198044102244,"connected_time":1675000000000,"state":"active","ping":63},{"user_id":415,"name":"Blossom","steam_id":76561198088220476,"connected_time":3186000000000,"state":"active","ping":77},{"user_id":410,"name":"--_Cook_--","steam_id":76561198080855748,"connected_time":3463000000000,"state":"active","ping":45},{"user_id":452,"name":"Punkin","steam_id":76561198334301755,"connected_time":82000000000,"state":"active","ping":66},{"user_id":447,"name":"highschool drop-out","steam_id":76561198366299848,"connected_time":441000000000,"state":"active","ping":49},{"user_id":458,"name":"boyconflicx","steam_id":76561199016750966,"connected_time":16000000000,"state":"active","ping":152},{"user_id":423,"name":"//MPinkStahli //_^","steam_id":76561198014421477,"connected_time":2808000000000,"state":"active","ping":60},{"user_id":453,"name":"kat","steam_id":76561198121070295,"connected_time":74000000000,"state":"active","ping":81},{"user_id":454,"name":"StraySheep","steam_id":76561198256003811,"connected_time":70000000000,"state":"active","ping":63},{"user_id":456,"name":"A Weird Bunny","steam_id":76561198302882736,"connected_time":36000000000,"state":"active","ping":185},{"user_id":457,"name":"Mac","steam_id":76561198081296586,"connected_time":30000000000,"state":"active","ping":61},{"user_id":419,"name":"Moonage Lobotomy","steam_id":76561198045837710,"connected_time":3152000000000,"state":"active","ping":64},{"user_id":430,"name":"Poopy Butthead","steam_id":76561198201862415,"connected_time":2292000000000,"state":"active","ping":48},{"user_id":448,"name":"al-Kohol","steam_id":76561197998530400,"connected_time":406000000000,"state":"active","ping":105},{"user_id":446,"name":"nuclear bomb plans (used)","steam_id":76561198849316769,"connected_time":599000000000,"state":"active","ping":62},{"user_id":459,"name":"ain't that wild?","steam_id":76561198140679751,"connected_time":1000000000,"state":"spawning","ping":45}]},{"server_id":400,"name":"Uncletopia | Atlanta | 3 | Community","name_short":"atl-3","host":"atl-1.us.uncletopia.com","port":27035,"enabled":true,"region":"us-east","cc":"us","latitude":33.753746,"longitude":-84.38633,"reserved":0,"last_update":"0001-01-01T00:00:00Z","name_a2s":"Uncletopia | Atlanta | 3 | Community","protocol":17,"map":"workshop/koth_trenchfoot_b1a.ugc731436616","folder":"tf","game":"Team Fortress","app_id":440,"player_count":0,"max_players":24,"Bots":0,"server_type":"Dedicated","server_os":"Linux","password":true,"vac":true,"version":"7882260","steam_id":85568392924515187,"keywords":["cp","nocrits","nodmgspread","uncletopia"],"game_id":440,"stv_port":27036,"stv_name":"Uncletopia | Atlanta | 3 | Community | STV","players":null},{"server_id":401,"name":"Uncletopia | Atlanta | 4 | No Payload","name_short":"atl-4","host":"atl-1.us.uncletopia.com","port":27045,"enabled":true,"region":"us-east","cc":"us","latitude":33.753746,"longitude":-84.38633,"reserved":0,"last_update":"0001-01-01T00:00:00Z","name_a2s":"","protocol":0,"map":"","folder":"","game":"","app_id":0,"player_count":0,"max_players":0,"Bots":0,"server_type":"","server_os":"","password":false,"vac":false,"version":"","steam_id":0,"keywords":null,"game_id":0,"stv_port":0,"stv_name":"","players":null},{"server_id":2,"name":"Uncletopia | Chicago | 1 | All Maps","name_short":"chi-1","host":"chi-1.us.uncletopia.com","port":27015,"enabled":true,"region":"us-central","cc":"us","latitude":41.881832,"longitude":-87.62318,"reserved":0,"last_update":"0001-01-01T00:00:00Z","name_a2s":"Uncletopia | Chicago | 1 | All Maps","protocol":17,"map":"cp_mossrock","folder":"tf","game":"Team Fortress","app_id":440,"player_count":24,"max_players":24,"Bots":0,"server_type":"Dedicated","server_os":"Linux","password":true,"vac":true,"version":"7882260","steam_id":85568392924469984,"keywords":["cp","nocrits","nodmgspread","uncletopia"],"game_id":440,"stv_port":27016,"stv_name":"Uncletopia | Chicago | 1 | All Maps | STV","players":[{"user_id":529,"name":"Gorgon Freeman","steam_id":76561198000367036,"connected_time":2493000000000,"state":"active","ping":57},{"user_id":552,"name":"Wizardfort","steam_id":76561198095320741,"connected_time":1195000000000,"state":"active","ping":94},{"user_id":542,"name":"Thundermonkey (SMOKE)","steam_id":76561198017631728,"connected_time":1712000000000,"state":"active","ping":53},{"user_id":486,"name":"Your Local Queer Librarian","steam_id":76561198013077080,"connected_time":6039000000000,"state":"active","ping":57},{"user_id":539,"name":"StonedGiant","steam_id":76561197984386932,"connected_time":1898000000000,"state":"active","ping":57},{"user_id":518,"name":"Snoogs","steam_id":76561198444880931,"connected_time":3436000000000,"state":"active","ping":76},{"user_id":512,"name":"Iceman10a","steam_id":76561198171922098,"connected_time":3659000000000,"state":"active","ping":113},{"user_id":536,"name":"Astoriae!","steam_id":76561199090168858,"connected_time":2305000000000,"state":"active","ping":85},{"user_id":507,"name":"pink","steam_id":76561198143290835,"connected_time":4946000000000,"state":"active","ping":60},{"user_id":527,"name":"Frajer","steam_id":76561198059129680,"connected_time":2530000000000,"state":"active","ping":73},{"user_id":537,"name":"*","steam_id":76561198173047169,"connected_time":2263000000000,"state":"active","ping":59},{"user_id":541,"name":"Bear of the Polar Variety","steam_id":76561198370330710,"connected_time":1733000000000,"state":"active","ping":49},{"user_id":543,"name":"Horrizan","steam_id":76561197965028480,"connected_time":1710000000000,"state":"active","ping":93},{"user_id":504,"name":"Takyon","steam_id":76561198172075186,"connected_time":4966000000000,"state":"active","ping":170},{"user_id":566,"name":"rat","steam_id":76561198313364985,"connected_time":578000000000,"state":"active","ping":71},{"user_id":557,"name":"Cornelius","steam_id":76561198123447388,"connected_time":924000000000,"state":"active","ping":50},{"user_id":556,"name":"lampin","steam_id":76561197964367078,"connected_time":927000000000,"state":"active","ping":47},{"user_id":519,"name":"SubZeroDestruction","steam_id":76561198145082209,"connected_time":3433000000000,"state":"active","ping":74},{"user_id":558,"name":"porfer","steam_id":76561199118049168,"connected_time":894000000000,"state":"active","ping":94},{"user_id":559,"name":"Pop","steam_id":76561199012562851,"connected_time":885000000000,"state":"active","ping":90},{"user_id":523,"name":"Captain S. Forrest","steam_id":76561198062463029,"connected_time":2906000000000,"state":"active","ping":82},{"user_id":554,"name":"Sandy","steam_id":76561198150108571,"connected_time":1152000000000,"state":"active","ping":89},{"user_id":564,"name":"M@verick","steam_id":76561198006363519,"connected_time":655000000000,"state":"active","ping":76},{"user_id":561,"name":"Jim Lahey","steam_id":76561198024596083,"connected_time":819000000000,"state":"active","ping":105}]},{"server_id":106,"name":"Uncletopia | Chicago | 2 | All Maps","name_short":"chi-2","host":"chi-1.us.uncletopia.com","port":27025,"enabled":true,"region":"us-central","cc":"us","latitude":41.881832,"longitude":-87.62318,"reserved":0,"last_update":"0001-01-01T00:00:00Z","name_a2s":"Uncletopia | Chicago | 2 | All Maps","protocol":17,"map":"pl_barnblitz","folder":"tf","game":"Team Fortress","app_id":440,"player_count":24,"max_players":24,"Bots":0,"server_type":"Dedicated","server_os":"Linux","password":true,"vac":true,"version":"7882260","steam_id":85568392924469985,"keywords":["nocrits","nodmgspread","payload","uncletopia"],"game_id":440,"stv_port":27026,"stv_name":"Uncletopia | Chicago | 2 | All Maps | STV","players":[{"user_id":311,"name":"Bliztank | RGL.gg","steam_id":76561198019252798,"connected_time":1515000000000,"state":"active","ping":57},{"user_id":309,"name":"TheGhostThatWas","steam_id":76561198055836483,"connected_time":1549000000000,"state":"active","ping":60},{"user_id":313,"name":"Ice cream sandwich","steam_id":76561198172748357,"connected_time":1451000000000,"state":"active","ping":95},{"user_id":336,"name":"Sage","steam_id":76561198143101697,"connected_time":39000000000,"state":"active","ping":100},{"user_id":305,"name":"omnipotent_chicken","steam_id":76561199142911468,"connected_time":1590000000000,"state":"active","ping":115},{"user_id":332,"name":"sithreis","steam_id":76561198000564263,"connected_time":153000000000,"state":"active","ping":74},{"user_id":333,"name":"Terror","steam_id":76561198188685728,"connected_time":131000000000,"state":"active","ping":47},{"user_id":326,"name":"Lohskyl","steam_id":76561199193237621,"connected_time":622000000000,"state":"active","ping":59},{"user_id":302,"name":"bojack from the show bojack hor","steam_id":76561198053006712,"connected_time":1705000000000,"state":"active","ping":60},{"user_id":298,"name":"ispongebobz11","steam_id":76561198862843572,"connected_time":2307000000000,"state":"active","ping":73},{"user_id":287,"name":"Architect","steam_id":76561198015242016,"connected_time":3690000000000,"state":"active","ping":54},{"user_id":303,"name":"nekoknight tf2","steam_id":76561198400058665,"connected_time":1614000000000,"state":"active","ping":74},{"user_id":221,"name":"The Jar","steam_id":76561198146013385,"connected_time":8456000000000,"state":"active","ping":73},{"user_id":334,"name":"$lime k✔ng WHYYYTEb0y^-^","steam_id":76561198283687382,"connected_time":131000000000,"state":"active","ping":75},{"user_id":314,"name":"gummygeek","steam_id":76561198244543486,"connected_time":1439000000000,"state":"active","ping":114},{"user_id":330,"name":"ʕ•ᴥ•ʔ the bear","steam_id":76561197989591976,"connected_time":192000000000,"state":"active","ping":78},{"user_id":322,"name":"lanoc","steam_id":76561198055415367,"connected_time":946000000000,"state":"active","ping":60},{"user_id":316,"name":"java","steam_id":76561198030276792,"connected_time":1316000000000,"state":"active","ping":60},{"user_id":335,"name":"The HobGoblin","steam_id":76561198427768714,"connected_time":124000000000,"state":"active","ping":86},{"user_id":331,"name":"cheetara","steam_id":76561198010019214,"connected_time":178000000000,"state":"active","ping":46},{"user_id":325,"name":"chest cutter","steam_id":76561199132268907,"connected_time":649000000000,"state":"active","ping":60},{"user_id":291,"name":"aiming with drawing tablet","steam_id":76561198397662124,"connected_time":3334000000000,"state":"active","ping":91},{"user_id":321,"name":"Mr. Tickle","steam_id":76561198126684647,"connected_time":1204000000000,"state":"active","ping":60},{"user_id":327,"name":"killer of a chinese bookie","steam_id":76561198042444734,"connected_time":461000000000,"state":"active","ping":74}]},{"server_id":402,"name":"Uncletopia | Chicago | 3 | All Maps","name_short":"chi-3","host":"chi-1.us.uncletopia.com","port":27035,"enabled":true,"region":"us-central","cc":"us","latitude":41.881832,"longitude":-87.62318,"reserved":0,"last_update":"0001-01-01T00:00:00Z","name_a2s":"Uncletopia | Chicago | 3 | All Maps","protocol":17,"map":"koth_viaduct","folder":"tf","game":"Team Fortress","app_id":440,"player_count":24,"max_players":24,"Bots":0,"server_type":"Dedicated","server_os":"Linux","password":true,"vac":true,"version":"7882260","steam_id":85568392924515191,"keywords":["cp","nocrits","nodmgspread","uncletopia"],"game_id":440,"stv_port":27036,"stv_name":"Uncletopia | Chicago | 3 | All Maps | STV","players":[{"user_id":289,"name":"Biosock Infiknit","steam_id":76561198072693794,"connected_time":3519000000000,"state":"active","ping":50},{"user_id":345,"name":"toastman","steam_id":76561198207073088,"connected_time":222000000000,"state":"active","ping":65},{"user_id":344,"name":"J21","steam_id":76561198066590783,"connected_time":230000000000,"state":"active","ping":61},{"user_id":318,"name":"A Lost CAWs","steam_id":76561198127120212,"connected_time":2491000000000,"state":"active","ping":112},{"user_id":327,"name":"pelicAn","steam_id":76561197963422599,"connected_time":1942000000000,"state":"active","ping":70},{"user_id":343,"name":"scrotal recall","steam_id":76561198135945598,"connected_time":284000000000,"state":"active","ping":75},{"user_id":337,"name":"captain red","steam_id":76561198191587983,"connected_time":1057000000000,"state":"active","ping":75},{"user_id":338,"name":"1TheExterminator","steam_id":76561198972879727,"connected_time":1057000000000,"state":"active","ping":76},{"user_id":332,"name":"ttv/Everfrost Samoyed","steam_id":76561198072580699,"connected_time":1279000000000,"state":"active","ping":74},{"user_id":329,"name":"Hatfam","steam_id":76561199192629036,"connected_time":1448000000000,"state":"active","ping":111},{"user_id":342,"name":"sweatshirt","steam_id":76561198277477109,"connected_time":749000000000,"state":"active","ping":70},{"user_id":326,"name":"Master-e","steam_id":76561198173044685,"connected_time":2148000000000,"state":"active","ping":75},{"user_id":313,"name":"spacecrustacean","steam_id":76561198061441614,"connected_time":2861000000000,"state":"active","ping":62},{"user_id":330,"name":"Witchings","steam_id":76561198247431254,"connected_time":1433000000000,"state":"active","ping":60},{"user_id":298,"name":"Banana Patrick","steam_id":76561198258067237,"connected_time":3320000000000,"state":"active","ping":74},{"user_id":293,"name":"hack fraud","steam_id":76561198015036066,"connected_time":3365000000000,"state":"active","ping":94},{"user_id":323,"name":"Mr. Crispy Lips","steam_id":76561198028157625,"connected_time":2436000000000,"state":"active","ping":89},{"user_id":339,"name":"Concolor","steam_id":76561198027734150,"connected_time":1050000000000,"state":"active","ping":71},{"user_id":341,"name":"Uber_Earp","steam_id":76561197970538523,"connected_time":802000000000,"state":"active","ping":67},{"user_id":301,"name":"DefenderOfChodes","steam_id":76561198018803214,"connected_time":3307000000000,"state":"active","ping":76},{"user_id":314,"name":"SpicyNarwhal","steam_id":76561197974360834,"connected_time":2845000000000,"state":"active","ping":61},{"user_id":315,"name":"Ironman","steam_id":76561198002190879,"connected_time":2844000000000,"state":"active","ping":74},{"user_id":340,"name":"pee pee poo poo","steam_id":76561198930017260,"connected_time":1030000000000,"state":"active","ping":134},{"user_id":346,"name":"Dongus","steam_id":76561197979056451,"connected_time":189000000000,"state":"active","ping":105}]},{"server_id":403,"name":"Uncletopia | Chicago | 4 | All Maps","name_short":"chi-4","host":"chi-1.us.uncletopia.com","port":27045,"enabled":true,"region":"us-central","cc":"us","latitude":41.881832,"longitude":-87.62318,"reserved":0,"last_update":"0001-01-01T00:00:00Z","name_a2s":"Uncletopia | Chicago | 4 | All Maps","protocol":17,"map":"koth_viaduct","folder":"tf","game":"Team Fortress","app_id":440,"player_count":21,"max_players":24,"Bots":0,"server_type":"Dedicated","server_os":"Linux","password":true,"vac":true,"version":"7882260","steam_id":85568392924515193,"keywords":["cp","nocrits","nodmgspread","uncletopia"],"game_id":440,"stv_port":27046,"stv_name":"Uncletopia | Chicago | 4 | All Maps | STV","players":[{"user_id":336,"name":"Q47","steam_id":76561198087128341,"connected_time":1506000000000,"state":"active","ping":133},{"user_id":355,"name":"xFactr","steam_id":76561198129007422,"connected_time":519000000000,"state":"active","ping":47},{"user_id":342,"name":"crashymicsplody","steam_id":76561198213916765,"connected_time":942000000000,"state":"active","ping":66},{"user_id":343,"name":"Straight White Male","steam_id":76561199234350287,"connected_time":908000000000,"state":"active","ping":53},{"user_id":354,"name":"Temm32","steam_id":76561198440657154,"connected_time":670000000000,"state":"active","ping":72},{"user_id":308,"name":"canakblasteran","steam_id":76561199472518822,"connected_time":3845000000000,"state":"active","ping":96},{"user_id":269,"name":"TheChickenChuck","steam_id":76561199192686708,"connected_time":8208000000000,"state":"active","ping":115},{"user_id":339,"name":"Nicklesmart","steam_id":76561197988306932,"connected_time":1318000000000,"state":"active","ping":73},{"user_id":361,"name":"bwuce ree","steam_id":76561198038080028,"connected_time":3000000000,"state":"spawning","ping":78},{"user_id":260,"name":"Coinclever","steam_id":76561198099972692,"connected_time":9261000000000,"state":"active","ping":100},{"user_id":356,"name":"craxyt","steam_id":76561198050192689,"connected_time":464000000000,"state":"active","ping":104},{"user_id":302,"name":"Doubting Dave","steam_id":76561198066410749,"connected_time":4567000000000,"state":"active","ping":82},{"user_id":346,"name":"nocham","steam_id":76561198097674181,"connected_time":863000000000,"state":"active","ping":68},{"user_id":341,"name":"JonBoy","steam_id":76561198082052480,"connected_time":1203000000000,"state":"active","ping":107},{"user_id":315,"name":"t","steam_id":76561198175988929,"connected_time":3016000000000,"state":"active","ping":65},{"user_id":327,"name":"Deathpill","steam_id":76561197994404793,"connected_time":2554000000000,"state":"active","ping":62},{"user_id":347,"name":"Ukes","steam_id":76561198055508999,"connected_time":862000000000,"state":"active","ping":84},{"user_id":359,"name":"chiswola","steam_id":76561198046920142,"connected_time":260000000000,"state":"active","ping":72},{"user_id":351,"name":"DiscoTraveler","steam_id":76561199240168088,"connected_time":753000000000,"state":"active","ping":56},{"user_id":352,"name":"Pants","steam_id":76561197966222755,"connected_time":743000000000,"state":"active","ping":45},{"user_id":353,"name":"munch","steam_id":76561198820480684,"connected_time":718000000000,"state":"active","ping":53}]},{"server_id":36,"name":"Uncletopia | Chicago | 5 | All Maps","name_short":"chi-5","host":"chi-2.us.uncletopia.com","port":27015,"enabled":true,"region":"us-central","cc":"us","latitude":41.881832,"longitude":-87.62318,"reserved":0,"last_update":"0001-01-01T00:00:00Z","name_a2s":"Uncletopia | Chicago | 5 | All Maps","protocol":17,"map":"koth_nucleus","folder":"tf","game":"Team Fortress","app_id":440,"player_count":23,"max_players":24,"Bots":0,"server_type":"Dedicated","server_os":"Linux","password":true,"vac":true,"version":"7882260","steam_id":85568392924866362,"keywords":["cp","nocrits","nodmgspread","uncletopia"],"game_id":440,"stv_port":27016,"stv_name":"Uncletopia | Chicago | 5 | All Maps | STV","players":[{"user_id":187,"name":"HOTA","steam_id":76561199002778841,"connected_time":704000000000,"state":"active","ping":73},{"user_id":176,"name":"starkiller_141","steam_id":76561198162426849,"connected_time":1291000000000,"state":"active","ping":57},{"user_id":159,"name":"Floaty","steam_id":76561198100029503,"connected_time":3468000000000,"state":"active","ping":148},{"user_id":191,"name":"JICK¶","steam_id":76561198134218403,"connected_time":5000000000,"state":"spawning","ping":87},{"user_id":179,"name":"Goohadam gooochi","steam_id":76561198126897264,"connected_time":1215000000000,"state":"active","ping":53},{"user_id":177,"name":"lemon","steam_id":76561198329179651,"connected_time":1269000000000,"state":"active","ping":106},{"user_id":157,"name":"Yoru","steam_id":76561198119698950,"connected_time":3528000000000,"state":"active","ping":113},{"user_id":170,"name":"Acto","steam_id":76561198043025164,"connected_time":1566000000000,"state":"active","ping":114},{"user_id":178,"name":"his flatulence","steam_id":76561198799404824,"connected_time":1256000000000,"state":"active","ping":82},{"user_id":181,"name":"weed-bro","steam_id":76561198119462232,"connected_time":1146000000000,"state":"active","ping":43},{"user_id":151,"name":"Shaper Loks","steam_id":76561198207958144,"connected_time":4273000000000,"state":"active","ping":100},{"user_id":168,"name":"SadVeggie","steam_id":76561198163430099,"connected_time":2484000000000,"state":"active","ping":102},{"user_id":166,"name":"Saucy Boy","steam_id":76561198178332031,"connected_time":3048000000000,"state":"active","ping":71},{"user_id":172,"name":"Butters495","steam_id":76561197998689042,"connected_time":1537000000000,"state":"active","ping":96},{"user_id":180,"name":"NoExit","steam_id":76561198065725996,"connected_time":1198000000000,"state":"active","ping":102},{"user_id":117,"name":"Digitic","steam_id":76561198080295536,"connected_time":6301000000000,"state":"active","ping":78},{"user_id":154,"name":"BigOrca54","steam_id":76561198181360271,"connected_time":3737000000000,"state":"active","ping":66},{"user_id":110,"name":"Giggles™","steam_id":76561198058708019,"connected_time":6681000000000,"state":"active","ping":58},{"user_id":182,"name":"wtrgun","steam_id":76561198045874690,"connected_time":1145000000000,"state":"active","ping":58},{"user_id":189,"name":"c9","steam_id":76561198136642793,"connected_time":561000000000,"state":"active","ping":66},{"user_id":190,"name":"WHY U RUNNIN PAPI","steam_id":76561198144766439,"connected_time":115000000000,"state":"active","ping":43},{"user_id":140,"name":"eat Pant","steam_id":76561197974965536,"connected_time":5045000000000,"state":"active","ping":59},{"user_id":163,"name":"DoubleX2000","steam_id":76561198164134387,"connected_time":3254000000000,"state":"active","ping":110}]},{"server_id":37,"name":"Uncletopia | Chicago | 6 | All Maps","name_short":"chi-6","host":"chi-2.us.uncletopia.com","port":27025,"enabled":true,"region":"us-central","cc":"us","latitude":41.881832,"longitude":-87.62318,"reserved":0,"last_update":"0001-01-01T00:00:00Z","name_a2s":"Uncletopia | Chicago | 6 | All Maps","protocol":17,"map":"pl_frontier_final","folder":"tf","game":"Team Fortress","app_id":440,"player_count":24,"max_players":24,"Bots":0,"server_type":"Dedicated","server_os":"Linux","password":true,"vac":true,"version":"7882260","steam_id":85568392924866363,"keywords":["nocrits","nodmgspread","payload","uncletopia"],"game_id":440,"stv_port":27026,"stv_name":"Uncletopia | Chicago | 6 | All Maps | STV","players":[{"user_id":765,"name":"2 for $3.50 McChickens","steam_id":76561198089908660,"connected_time":507000000000,"state":"active","ping":90},{"user_id":749,"name":"stinker","steam_id":76561198295640486,"connected_time":1818000000000,"state":"active","ping":101},{"user_id":739,"name":"DetectiveHorse","steam_id":76561198278726152,"connected_time":2181000000000,"state":"active","ping":72},{"user_id":767,"name":"Peppino Spaghetti","steam_id":76561198090353077,"connected_time":462000000000,"state":"active","ping":101},{"user_id":776,"name":"Tara","steam_id":76561198020696265,"connected_time":254000000000,"state":"active","ping":62},{"user_id":773,"name":"Idiotden","steam_id":76561199340950135,"connected_time":327000000000,"state":"active","ping":92},{"user_id":771,"name":"im gonna say my angry word","steam_id":76561199012239937,"connected_time":379000000000,"state":"active","ping":48},{"user_id":748,"name":"Scrumpy Main","steam_id":76561198146302597,"connected_time":1851000000000,"state":"active","ping":55},{"user_id":783,"name":"souljaboytellem.com","steam_id":76561198111975583,"connected_time":149000000000,"state":"active","ping":77},{"user_id":775,"name":"Kiwimpediment","steam_id":76561198322781400,"connected_time":268000000000,"state":"active","ping":74},{"user_id":774,"name":"A Puppy","steam_id":76561198828184456,"connected_time":302000000000,"state":"active","ping":92},{"user_id":777,"name":"imp","steam_id":76561198055603569,"connected_time":243000000000,"state":"active","ping":74},{"user_id":778,"name":"DoubleCheck","steam_id":76561198105194407,"connected_time":237000000000,"state":"active","ping":37},{"user_id":779,"name":"E4Estrogen.TTV","steam_id":76561198085813708,"connected_time":198000000000,"state":"active","ping":71},{"user_id":780,"name":"sunny","steam_id":76561198069380992,"connected_time":180000000000,"state":"active","ping":78},{"user_id":781,"name":"Sho' Nuff, the Shogun of Harlem","steam_id":76561198010708247,"connected_time":175000000000,"state":"active","ping":70},{"user_id":782,"name":"SuperNovaFox","steam_id":76561198052172564,"connected_time":166000000000,"state":"active","ping":79},{"user_id":784,"name":"They/Thembo","steam_id":76561198096221632,"connected_time":139000000000,"state":"active","ping":72},{"user_id":785,"name":"scooby","steam_id":76561198019444443,"connected_time":137000000000,"state":"active","ping":90},{"user_id":786,"name":"Monster","steam_id":76561198189429665,"connected_time":131000000000,"state":"active","ping":75},{"user_id":787,"name":"[S]Mr. X [No Monitor]","steam_id":76561197963746035,"connected_time":118000000000,"state":"active","ping":120},{"user_id":754,"name":"jeremy","steam_id":76561198081332766,"connected_time":1791000000000,"state":"active","ping":74},{"user_id":789,"name":"off the perc i be foolin","steam_id":76561198108020681,"connected_time":94000000000,"state":"active","ping":64},{"user_id":742,"name":"Real (real)","steam_id":76561199059653595,"connected_time":2158000000000,"state":"active","ping":101}]},{"server_id":38,"name":"Uncletopia | Chicago | 7 | Stopwatch Beta","name_short":"chi-7","host":"chi-2.us.uncletopia.com","port":27035,"enabled":true,"region":"us-central","cc":"us","latitude":41.881832,"longitude":-87.62318,"reserved":0,"last_update":"0001-01-01T00:00:00Z","name_a2s":"Uncletopia | Chicago | 7 | Stopwatch Beta","protocol":17,"map":"cp_granary","folder":"tf","game":"Team Fortress","app_id":440,"player_count":0,"max_players":24,"Bots":0,"server_type":"Dedicated","server_os":"Linux","password":true,"vac":true,"version":"7882260","steam_id":85568392924866364,"keywords":["cp","nocrits","nodmgspread","uncletopia"],"game_id":440,"stv_port":27036,"stv_name":"Uncletopia | Chicago | 7 | Stopwatch Beta | STV","players":null},{"server_id":39,"name":"Uncletopia | Chicago | 8 | Community","name_short":"chi-8","host":"chi-2.us.uncletopia.com","port":27045,"enabled":true,"region":"us-central","cc":"us","latitude":41.881832,"longitude":-87.62318,"reserved":0,"last_update":"0001-01-01T00:00:00Z","name_a2s":"Uncletopia | Chicago | 8 | Community","protocol":17,"map":"workshop/pl_divulgence_b4b.ugc2884808746","folder":"tf","game":"Team Fortress","app_id":440,"player_count":18,"max_players":24,"Bots":0,"server_type":"Dedicated","server_os":"Linux","password":true,"vac":true,"version":"7882260","steam_id":85568392924866365,"keywords":["nocrits","nodmgspread","payload","uncletopia"],"game_id":440,"stv_port":27046,"stv_name":"Uncletopia | Chicago | 8 | Community | STV","players":[{"user_id":178,"name":"Rafl","steam_id":76561198055222756,"connected_time":4030000000000,"state":"active","ping":65},{"user_id":203,"name":"xXx_1337_VVeed_VVizard_xXx","steam_id":76561198067436825,"connected_time":1934000000000,"state":"active","ping":87},{"user_id":223,"name":"teafital","steam_id":76561198406252824,"connected_time":84000000000,"state":"active","ping":112},{"user_id":196,"name":"Also Known As Assteeth","steam_id":76561198049837377,"connected_time":2838000000000,"state":"active","ping":52},{"user_id":224,"name":"4whoresmoregore","steam_id":76561198983967605,"connected_time":4000000000,"state":"spawning","ping":74},{"user_id":20,"name":"spreadable arse","steam_id":76561198032259680,"connected_time":9528000000000,"state":"active","ping":72},{"user_id":205,"name":"don't leave her waiting","steam_id":76561198103496593,"connected_time":1820000000000,"state":"active","ping":62},{"user_id":220,"name":"creeeeeee","steam_id":76561198392539722,"connected_time":330000000000,"state":"active","ping":83},{"user_id":128,"name":"Mister Rattlebones","steam_id":76561198065560157,"connected_time":6905000000000,"state":"active","ping":53},{"user_id":222,"name":"Compress Dong","steam_id":76561198018950826,"connected_time":185000000000,"state":"active","ping":92},{"user_id":219,"name":"Phillip Jeffries","steam_id":76561198064052174,"connected_time":637000000000,"state":"active","ping":61},{"user_id":216,"name":"HE’S IN THE GODDAMN WALLS","steam_id":76561198363267009,"connected_time":1428000000000,"state":"active","ping":64},{"user_id":218,"name":"Local Gamer","steam_id":76561198063463200,"connected_time":1052000000000,"state":"active","ping":70},{"user_id":201,"name":"Fishey42","steam_id":76561198331604373,"connected_time":2259000000000,"state":"active","ping":72},{"user_id":168,"name":"Junko","steam_id":76561198146089003,"connected_time":5062000000000,"state":"active","ping":48},{"user_id":195,"name":"Wallem","steam_id":76561198052361822,"connected_time":2845000000000,"state":"active","ping":77},{"user_id":139,"name":"Protato","steam_id":76561198061182563,"connected_time":6637000000000,"state":"active","ping":72},{"user_id":217,"name":"franzj biggest fan","steam_id":76561198088103572,"connected_time":1150000000000,"state":"active","ping":91}]},{"server_id":8,"name":"Uncletopia | Dallas | 1 | All Maps","name_short":"dal-1","host":"dal-1.us.uncletopia.com","port":27015,"enabled":true,"region":"us-central","cc":"us","latitude":32.779167,"longitude":-96.80889,"reserved":0,"last_update":"0001-01-01T00:00:00Z","name_a2s":"Uncletopia | Dallas | 1 | All Maps","protocol":17,"map":"pl_upward","folder":"tf","game":"Team Fortress","app_id":440,"player_count":24,"max_players":24,"Bots":0,"server_type":"Dedicated","server_os":"Linux","password":true,"vac":true,"version":"7882260","steam_id":85568392924469986,"keywords":["nocrits","nodmgspread","payload","uncletopia"],"game_id":440,"stv_port":27016,"stv_name":"Uncletopia | Dallas | 1 | All Maps | STV","players":[{"user_id":383,"name":"Kirbothebrony","steam_id":76561198971911330,"connected_time":702000000000,"state":"active","ping":65},{"user_id":375,"name":"PerliousFalcon","steam_id":76561198124801907,"connected_time":1280000000000,"state":"active","ping":100},{"user_id":315,"name":"Xeno808","steam_id":76561198103758081,"connected_time":6433000000000,"state":"active","ping":39},{"user_id":379,"name":"Imrgrim","steam_id":76561198135866481,"connected_time":1128000000000,"state":"active","ping":60},{"user_id":388,"name":"Boeing B-52 Stratofortress","steam_id":76561198116008410,"connected_time":625000000000,"state":"active","ping":107},{"user_id":368,"name":"great1photo","steam_id":76561198085481933,"connected_time":2063000000000,"state":"active","ping":100},{"user_id":380,"name":"juan","steam_id":76561199114089155,"connected_time":1037000000000,"state":"active","ping":60},{"user_id":358,"name":"reptar","steam_id":76561198070164185,"connected_time":2473000000000,"state":"active","ping":63},{"user_id":346,"name":"Dinofire","steam_id":76561198147468271,"connected_time":4054000000000,"state":"active","ping":99},{"user_id":351,"name":"what da dog doin","steam_id":76561198090573639,"connected_time":3251000000000,"state":"active","ping":74},{"user_id":359,"name":"NOT Susie Deltarune (not real)","steam_id":76561199007365488,"connected_time":2466000000000,"state":"active","ping":68},{"user_id":389,"name":"hunterzar","steam_id":76561198347666725,"connected_time":530000000000,"state":"active","ping":87},{"user_id":366,"name":"Stormtroper","steam_id":76561198251067522,"connected_time":2210000000000,"state":"active","ping":90},{"user_id":361,"name":"Sprite Cranberry","steam_id":76561198992755648,"connected_time":2463000000000,"state":"active","ping":58},{"user_id":382,"name":"Voodo133","steam_id":76561198042670351,"connected_time":959000000000,"state":"active","ping":104},{"user_id":362,"name":"Vestuvian","steam_id":76561199007823355,"connected_time":2450000000000,"state":"active","ping":63},{"user_id":385,"name":"Quietsharp","steam_id":76561198277968438,"connected_time":667000000000,"state":"active","ping":84},{"user_id":344,"name":"s t o n e","steam_id":76561197994525046,"connected_time":4220000000000,"state":"active","ping":95},{"user_id":286,"name":"Certified Hood Classic","steam_id":76561199086159354,"connected_time":8331000000000,"state":"active","ping":58},{"user_id":386,"name":"Hedsik","steam_id":76561198045797773,"connected_time":666000000000,"state":"active","ping":50},{"user_id":273,"name":"Mellou","steam_id":76561198212048740,"connected_time":9534000000000,"state":"active","ping":40},{"user_id":387,"name":"ChipE","steam_id":76561198137146627,"connected_time":658000000000,"state":"active","ping":95},{"user_id":376,"name":"Otterman Empire","steam_id":76561198047758442,"connected_time":1279000000000,"state":"active","ping":111},{"user_id":353,"name":"errant","steam_id":76561197961758410,"connected_time":3118000000000,"state":"active","ping":45}]},{"server_id":108,"name":"Uncletopia | Dallas | 2 | All Maps","name_short":"dal-2","host":"dal-1.us.uncletopia.com","port":27025,"enabled":true,"region":"us-central","cc":"us","latitude":32.779167,"longitude":-96.80889,"reserved":0,"last_update":"0001-01-01T00:00:00Z","name_a2s":"Uncletopia | Dallas | 2 | All Maps","protocol":17,"map":"cp_snakewater_final1","folder":"tf","game":"Team Fortress","app_id":440,"player_count":24,"max_players":24,"Bots":0,"server_type":"Dedicated","server_os":"Linux","password":true,"vac":true,"version":"7882260","steam_id":85568392924469988,"keywords":["cp","nocrits","nodmgspread","uncletopia"],"game_id":440,"stv_port":27026,"stv_name":"Uncletopia | Dallas | 2 | All Maps | STV","players":[{"user_id":436,"name":"Mr. Dick™","steam_id":76561198047309044,"connected_time":682000000000,"state":"active","ping":59},{"user_id":403,"name":"CreepyCook","steam_id":76561198242874622,"connected_time":3127000000000,"state":"active","ping":67},{"user_id":439,"name":"trash beast","steam_id":76561198015792736,"connected_time":445000000000,"state":"active","ping":86},{"user_id":420,"name":"postgres","steam_id":76561198011204750,"connected_time":2441000000000,"state":"active","ping":95},{"user_id":435,"name":"Colonel Crossfire","steam_id":76561198029521217,"connected_time":809000000000,"state":"active","ping":81},{"user_id":440,"name":"rat","steam_id":76561198078484417,"connected_time":232000000000,"state":"active","ping":67},{"user_id":441,"name":"St. Michael","steam_id":76561198037611052,"connected_time":38000000000,"state":"active","ping":47},{"user_id":401,"name":"Le Epic Redditor","steam_id":76561198808224331,"connected_time":3793000000000,"state":"active","ping":136},{"user_id":381,"name":"Apollo","steam_id":76561198162364702,"connected_time":4889000000000,"state":"active","ping":92},{"user_id":425,"name":"I'm better then u","steam_id":76561198937717599,"connected_time":1298000000000,"state":"active","ping":40},{"user_id":407,"name":"6' 4\" 270 lbs ALL MUSCLE","steam_id":76561198021308963,"connected_time":2845000000000,"state":"active","ping":71},{"user_id":427,"name":"Pombley","steam_id":76561198141227263,"connected_time":1275000000000,"state":"active","ping":62},{"user_id":430,"name":"Moonflower ✦","steam_id":76561198191782483,"connected_time":1262000000000,"state":"active","ping":49},{"user_id":382,"name":"Cofi","steam_id":76561199026721822,"connected_time":4826000000000,"state":"active","ping":83},{"user_id":429,"name":"DannyM","steam_id":76561198351165570,"connected_time":1270000000000,"state":"active","ping":39},{"user_id":376,"name":"observe a mack","steam_id":76561198040675606,"connected_time":5667000000000,"state":"active","ping":46},{"user_id":369,"name":"iaPK","steam_id":76561198056618642,"connected_time":6485000000000,"state":"active","ping":55},{"user_id":438,"name":"Bᵢg Bₒₛₛ","steam_id":76561198090271815,"connected_time":494000000000,"state":"active","ping":122},{"user_id":423,"name":"Nine-Tails Delsin","steam_id":76561198149825187,"connected_time":1998000000000,"state":"active","ping":151},{"user_id":428,"name":"HEAVY PIN","steam_id":76561199060062825,"connected_time":1274000000000,"state":"active","ping":96},{"user_id":434,"name":"seats","steam_id":76561197998756039,"connected_time":1102000000000,"state":"active","ping":76},{"user_id":432,"name":"Drilly22","steam_id":76561198068838338,"connected_time":1129000000000,"state":"active","ping":69},{"user_id":431,"name":"rabidhyperfocus","steam_id":76561198101495169,"connected_time":1226000000000,"state":"active","ping":54},{"user_id":424,"name":"Cheetose Intolerant","steam_id":76561198013399809,"connected_time":1594000000000,"state":"active","ping":61}]},{"server_id":5,"name":"Uncletopia | Frankfurt | 1 | All Maps","name_short":"frk-1","host":"frk-1.de.uncletopia.com","port":27015,"enabled":true,"region":"eu","cc":"de","latitude":50.110924,"longitude":8.682127,"reserved":0,"last_update":"0001-01-01T00:00:00Z","name_a2s":"Uncletopia | Frankfurt | 1 | All Maps","protocol":17,"map":"plr_hightower","folder":"tf","game":"Team Fortress","app_id":440,"player_count":0,"max_players":24,"Bots":0,"server_type":"Dedicated","server_os":"Linux","password":true,"vac":true,"version":"7882260","steam_id":85568392924469989,"keywords":["nocrits","nodmgspread","payload","uncletopia"],"game_id":440,"stv_port":27016,"stv_name":"Uncletopia | Frankfurt | 1 | All Maps | STV","players":null},{"server_id":110,"name":"Uncletopia | Frankfurt | 2 | All Maps","name_short":"frk-2","host":"frk-1.de.uncletopia.com","port":27025,"enabled":true,"region":"eu","cc":"de","latitude":50.110924,"longitude":8.682127,"reserved":0,"last_update":"0001-01-01T00:00:00Z","name_a2s":"Uncletopia | Frankfurt | 2 | All Maps","protocol":17,"map":"pl_pier","folder":"tf","game":"Team Fortress","app_id":440,"player_count":0,"max_players":24,"Bots":0,"server_type":"Dedicated","server_os":"Linux","password":true,"vac":true,"version":"7882260","steam_id":85568392924469990,"keywords":["nocrits","nodmgspread","payload","uncletopia"],"game_id":440,"stv_port":27026,"stv_name":"Uncletopia | Frankfurt | 2 | All Maps | STV","players":null},{"server_id":308,"name":"Uncletopia | Frankfurt | 3 | All Maps","name_short":"frk-3","host":"frk-1.de.uncletopia.com","port":27035,"enabled":true,"region":"eu","cc":"de","latitude":50.110924,"longitude":8.682127,"reserved":0,"last_update":"0001-01-01T00:00:00Z","name_a2s":"Uncletopia | Frankfurt | 3 | All Maps","protocol":17,"map":"pl_upward","folder":"tf","game":"Team Fortress","app_id":440,"player_count":0,"max_players":24,"Bots":0,"server_type":"Dedicated","server_os":"Linux","password":true,"vac":true,"version":"7882260","steam_id":85568392924504274,"keywords":["nocrits","nodmgspread","payload","uncletopia"],"game_id":440,"stv_port":27036,"stv_name":"Uncletopia | Frankfurt | 3 | All Maps | STV","players":null},{"server_id":309,"name":"Uncletopia | Frankfurt | 4 | All Maps","name_short":"frk-4","host":"frk-1.de.uncletopia.com","port":27045,"enabled":true,"region":"eu","cc":"de","latitude":50.110924,"longitude":8.682127,"reserved":0,"last_update":"0001-01-01T00:00:00Z","name_a2s":"Uncletopia | Frankfurt | 4 | All Maps","protocol":17,"map":"cp_snakewater_final1","folder":"tf","game":"Team Fortress","app_id":440,"player_count":5,"max_players":24,"Bots":0,"server_type":"Dedicated","server_os":"Linux","password":true,"vac":true,"version":"7882260","steam_id":85568392924504275,"keywords":["cp","nocrits","nodmgspread","uncletopia"],"game_id":440,"stv_port":27046,"stv_name":"Uncletopia | Frankfurt | 4 | All Maps | STV","players":[{"user_id":830,"name":"Melford","steam_id":76561198319650677,"connected_time":8824000000000,"state":"active","ping":141},{"user_id":893,"name":"wide appreciator","steam_id":76561198083286511,"connected_time":4061000000000,"state":"active","ping":59},{"user_id":906,"name":"Creasman","steam_id":76561198875379322,"connected_time":1556000000000,"state":"active","ping":109},{"user_id":898,"name":"shits in urinals","steam_id":76561199480942903,"connected_time":2996000000000,"state":"active","ping":71},{"user_id":911,"name":"quantumexistenc3","steam_id":76561199379634118,"connected_time":624000000000,"state":"active","ping":51}]},{"server_id":310,"name":"Uncletopia | Frankfurt | 5 | All Maps","name_short":"frk-5","host":"frk-1.de.uncletopia.com","port":27055,"enabled":true,"region":"eu","cc":"de","latitude":50.110924,"longitude":8.682127,"reserved":0,"last_update":"0001-01-01T00:00:00Z","name_a2s":"Uncletopia | Frankfurt | 5 | All Maps","protocol":17,"map":"koth_harvest_final","folder":"tf","game":"Team Fortress","app_id":440,"player_count":0,"max_players":24,"Bots":0,"server_type":"Dedicated","server_os":"Linux","password":true,"vac":true,"version":"7882260","steam_id":85568392924504277,"keywords":["cp","nocrits","nodmgspread","uncletopia"],"game_id":440,"stv_port":27056,"stv_name":"Uncletopia | Frankfurt | 5 | All Maps | STV","players":null},{"server_id":311,"name":"Uncletopia | Frankfurt | 6 | All Maps","name_short":"frk-6","host":"frk-1.de.uncletopia.com","port":27065,"enabled":true,"region":"eu","cc":"de","latitude":50.110924,"longitude":8.682127,"reserved":0,"last_update":"0001-01-01T00:00:00Z","name_a2s":"Uncletopia | Frankfurt | 6 | All Maps","protocol":17,"map":"koth_lakeside_final","folder":"tf","game":"Team Fortress","app_id":440,"player_count":0,"max_players":24,"Bots":0,"server_type":"Dedicated","server_os":"Linux","password":true,"vac":true,"version":"7882260","steam_id":85568392924504278,"keywords":["cp","nocrits","nodmgspread","uncletopia"],"game_id":440,"stv_port":27066,"stv_name":"Uncletopia | Frankfurt | 6 | All Maps | STV","players":null},{"server_id":23,"name":"Uncletopia | Frankfurt | 7 | Stopwatch Beta","name_short":"frk-7","host":"frk-1.de.uncletopia.com","port":27075,"enabled":true,"region":"eu","cc":"de","latitude":50.110924,"longitude":8.682127,"reserved":0,"last_update":"0001-01-01T00:00:00Z","name_a2s":"Uncletopia | Frankfurt | 7 | Stopwatch Beta","protocol":17,"map":"workshop/koth_product_final.ugc454272353","folder":"tf","game":"Team Fortress","app_id":440,"player_count":0,"max_players":24,"Bots":0,"server_type":"Dedicated","server_os":"Linux","password":true,"vac":true,"version":"7882260","steam_id":85568392924742827,"keywords":["cp","nocrits","nodmgspread","uncletopia"],"game_id":440,"stv_port":27076,"stv_name":"Uncletopia | Frankfurt | 7 | Stopwatch Beta | STV","players":null},{"server_id":24,"name":"Uncletopia | Frankfurt | 8 | Community","name_short":"frk-8","host":"frk-1.de.uncletopia.com","port":27085,"enabled":true,"region":"eu","cc":"de","latitude":50.110924,"longitude":8.682127,"reserved":0,"last_update":"0001-01-01T00:00:00Z","name_a2s":"Uncletopia | Frankfurt | 8 | Community","protocol":17,"map":"workshop/cp_overgrown_rc7b.ugc503939302","folder":"tf","game":"Team Fortress","app_id":440,"player_count":0,"max_players":24,"Bots":0,"server_type":"Dedicated","server_os":"Linux","password":true,"vac":true,"version":"7882260","steam_id":85568392924742828,"keywords":["cp","nocrits","nodmgspread","uncletopia"],"game_id":440,"stv_port":27086,"stv_name":"Uncletopia | Frankfurt | 8 | Community | STV","players":null},{"server_id":202,"name":"Uncletopia | Hong Kong | 1 | All Maps","name_short":"hgk-1","host":"hgk-1.hk.uncletopia.com","port":27015,"enabled":true,"region":"asia","cc":"hk","latitude":22.302711,"longitude":114.177216,"reserved":0,"last_update":"0001-01-01T00:00:00Z","name_a2s":"Uncletopia | Hong Kong | 1 | All Maps","protocol":17,"map":"koth_cascade","folder":"tf","game":"Team Fortress","app_id":440,"player_count":0,"max_players":24,"Bots":0,"server_type":"Dedicated","server_os":"Linux","password":true,"vac":true,"version":"7882260","steam_id":85568392924494504,"keywords":["cp","nocrits","nodmgspread","uncletopia"],"game_id":440,"stv_port":27016,"stv_name":"Uncletopia | Hong Kong | 1 | All Maps | STV","players":null},{"server_id":1,"name":"Uncletopia | Los Angeles | 1 | All Maps","name_short":"lax-1","host":"lax-1.us.uncletopia.com","port":27015,"enabled":true,"region":"us-west","cc":"us","latitude":33.94279,"longitude":-118.41004,"reserved":0,"last_update":"0001-01-01T00:00:00Z","name_a2s":"Uncletopia | Los Angeles | 1 | All Maps","protocol":17,"map":"pl_borneo","folder":"tf","game":"Team Fortress","app_id":440,"player_count":24,"max_players":24,"Bots":0,"server_type":"Dedicated","server_os":"Linux","password":true,"vac":true,"version":"7882260","steam_id":85568392924469991,"keywords":["nocrits","nodmgspread","payload","uncletopia"],"game_id":440,"stv_port":27016,"stv_name":"Uncletopia | Los Angeles | 1 | All Maps | STV","players":[{"user_id":256,"name":"Cool Ghost","steam_id":76561198440103807,"connected_time":5127000000000,"state":"active","ping":77},{"user_id":289,"name":"Ultimate Prinny Battle God!","steam_id":76561198087574100,"connected_time":2483000000000,"state":"active","ping":52},{"user_id":296,"name":"usedhalfcart","steam_id":76561198072621852,"connected_time":2374000000000,"state":"active","ping":80},{"user_id":299,"name":"lukamine","steam_id":76561198166827208,"connected_time":2160000000000,"state":"active","ping":68},{"user_id":317,"name":"Lonlily","steam_id":76561198130418647,"connected_time":702000000000,"state":"active","ping":58},{"user_id":326,"name":"Nez","steam_id":76561197963109059,"connected_time":284000000000,"state":"active","ping":64},{"user_id":318,"name":"Heckolo","steam_id":76561198168010993,"connected_time":676000000000,"state":"active","ping":70},{"user_id":311,"name":"Anthoneeee","steam_id":76561199209220671,"connected_time":1115000000000,"state":"active","ping":85},{"user_id":312,"name":"bobletoob","steam_id":76561199184464900,"connected_time":1090000000000,"state":"active","ping":58},{"user_id":278,"name":"Miro","steam_id":76561198936412406,"connected_time":3730000000000,"state":"active","ping":130},{"user_id":321,"name":"FizeePop","steam_id":76561199088679205,"connected_time":546000000000,"state":"active","ping":46},{"user_id":313,"name":"Balengu Deez","steam_id":76561198217680027,"connected_time":1051000000000,"state":"active","ping":99},{"user_id":325,"name":"Just a Good Friend","steam_id":76561198140052403,"connected_time":298000000000,"state":"active","ping":46},{"user_id":305,"name":"Landlord","steam_id":76561198987913057,"connected_time":2066000000000,"state":"active","ping":65},{"user_id":314,"name":"[DATS➡] Sugar Meowth","steam_id":76561197995251793,"connected_time":1026000000000,"state":"active","ping":66},{"user_id":270,"name":"fire","steam_id":76561198044354279,"connected_time":4074000000000,"state":"active","ping":49},{"user_id":329,"name":"Antis","steam_id":76561198055790522,"connected_time":0,"state":"spawning","ping":0},{"user_id":315,"name":"Bottom Ramen","steam_id":76561197970450546,"connected_time":1009000000000,"state":"active","ping":87},{"user_id":271,"name":"Heinz-Harald Hopeless","steam_id":76561199002203593,"connected_time":4062000000000,"state":"active","ping":100},{"user_id":323,"name":"Specter the Unchained","steam_id":76561198348354629,"connected_time":380000000000,"state":"active","ping":29},{"user_id":293,"name":"Taco+Taco=Burrito","steam_id":76561198063128663,"connected_time":2456000000000,"state":"active","ping":40},{"user_id":322,"name":"Earl","steam_id":76561198970803382,"connected_time":536000000000,"state":"active","ping":57},{"user_id":328,"name":"Mythical Lag","steam_id":76561198347031281,"connected_time":230000000000,"state":"active","ping":83},{"user_id":300,"name":"momus","steam_id":76561198966979196,"connected_time":2160000000000,"state":"active","ping":50}]},{"server_id":112,"name":"Uncletopia | Los Angeles | 2 | All Maps","name_short":"lax-2","host":"lax-1.us.uncletopia.com","port":27025,"enabled":true,"region":"us-west","cc":"us","latitude":33.94279,"longitude":-118.41004,"reserved":0,"last_update":"0001-01-01T00:00:00Z","name_a2s":"Uncletopia | Los Angeles | 2 | All Maps","protocol":17,"map":"pl_frontier_final","folder":"tf","game":"Team Fortress","app_id":440,"player_count":24,"max_players":24,"Bots":0,"server_type":"Dedicated","server_os":"Linux","password":true,"vac":true,"version":"7882260","steam_id":85568392924469992,"keywords":["nocrits","nodmgspread","payload","uncletopia"],"game_id":440,"stv_port":27026,"stv_name":"Uncletopia | Los Angeles | 2 | All Maps | STV","players":[{"user_id":219,"name":"An00bis","steam_id":76561198044084508,"connected_time":1242000000000,"state":"active","ping":46},{"user_id":232,"name":"Capitalism","steam_id":76561198068677316,"connected_time":38000000000,"state":"active","ping":75},{"user_id":220,"name":"moe","steam_id":76561198929586245,"connected_time":1194000000000,"state":"active","ping":44},{"user_id":221,"name":"The premium licking experience","steam_id":76561199213456232,"connected_time":1193000000000,"state":"active","ping":57},{"user_id":222,"name":"Communist Zobomafoo","steam_id":76561198068173978,"connected_time":1181000000000,"state":"active","ping":85},{"user_id":181,"name":"minish","steam_id":76561198086618284,"connected_time":4522000000000,"state":"active","ping":64},{"user_id":223,"name":"Fachedin","steam_id":76561198041850415,"connected_time":1141000000000,"state":"active","ping":55},{"user_id":231,"name":"Green_GarBear","steam_id":76561199468912415,"connected_time":81000000000,"state":"active","ping":64},{"user_id":215,"name":"Peter, what are you doing?","steam_id":76561198066452726,"connected_time":2256000000000,"state":"active","ping":46},{"user_id":214,"name":"Chocc","steam_id":76561198068070211,"connected_time":2300000000000,"state":"active","ping":53},{"user_id":190,"name":"RaTtYc","steam_id":76561198954419354,"connected_time":3869000000000,"state":"active","ping":79},{"user_id":200,"name":"void.","steam_id":76561198347856802,"connected_time":3102000000000,"state":"active","ping":90},{"user_id":167,"name":"BrightOrangeMango","steam_id":76561198023144607,"connected_time":5592000000000,"state":"active","ping":62},{"user_id":224,"name":"CheeseLikeSubstance","steam_id":76561197977170646,"connected_time":1129000000000,"state":"active","ping":101},{"user_id":229,"name":"smeasly","steam_id":76561198028718812,"connected_time":107000000000,"state":"active","ping":75},{"user_id":225,"name":"Empty","steam_id":76561198289696924,"connected_time":1122000000000,"state":"active","ping":49},{"user_id":201,"name":"Apprentice Pybro","steam_id":76561197996353534,"connected_time":3092000000000,"state":"active","ping":50},{"user_id":177,"name":"Sol","steam_id":76561198121500201,"connected_time":4682000000000,"state":"active","ping":50},{"user_id":164,"name":"DarkMewMew","steam_id":76561199471715552,"connected_time":5779000000000,"state":"active","ping":68},{"user_id":233,"name":"Paladin","steam_id":76561198839762958,"connected_time":24000000000,"state":"active","ping":95},{"user_id":227,"name":"Flying Emu","steam_id":76561198121632924,"connected_time":1092000000000,"state":"active","ping":84},{"user_id":210,"name":"pyrotechnic","steam_id":76561198043558709,"connected_time":2598000000000,"state":"active","ping":74},{"user_id":228,"name":"BoxCann0n","steam_id":76561199153390130,"connected_time":1068000000000,"state":"active","ping":176},{"user_id":216,"name":"jorts","steam_id":76561199041179985,"connected_time":2243000000000,"state":"active","ping":86}]},{"server_id":324,"name":"Uncletopia | Los Angeles | 3 | All Maps","name_short":"lax-3","host":"lax-1.us.uncletopia.com","port":27035,"enabled":true,"region":"us-west","cc":"us","latitude":33.94279,"longitude":-118.41004,"reserved":0,"last_update":"0001-01-01T00:00:00Z","name_a2s":"Uncletopia | Los Angeles | 3 | All Maps","protocol":17,"map":"pl_badwater","folder":"tf","game":"Team Fortress","app_id":440,"player_count":23,"max_players":24,"Bots":0,"server_type":"Dedicated","server_os":"Linux","password":true,"vac":true,"version":"7882260","steam_id":85568392924510198,"keywords":["nocrits","nodmgspread","payload","uncletopia"],"game_id":440,"stv_port":27036,"stv_name":"Uncletopia | Los Angeles | 3 | All Maps | STV","players":[{"user_id":273,"name":"diddy boppin","steam_id":76561198327633561,"connected_time":977000000000,"state":"active","ping":63},{"user_id":245,"name":"cielael","steam_id":76561198043971956,"connected_time":3010000000000,"state":"active","ping":50},{"user_id":279,"name":"Ad3ptus","steam_id":76561198272045750,"connected_time":832000000000,"state":"active","ping":61},{"user_id":285,"name":"Jolly","steam_id":76561198116357972,"connected_time":650000000000,"state":"active","ping":49},{"user_id":267,"name":"spacetoven","steam_id":76561198115821131,"connected_time":1562000000000,"state":"active","ping":54},{"user_id":274,"name":"GVoltX","steam_id":76561198992020605,"connected_time":911000000000,"state":"active","ping":77},{"user_id":275,"name":"Delimeat","steam_id":76561198043824595,"connected_time":876000000000,"state":"active","ping":48},{"user_id":290,"name":"self sufficient kitten","steam_id":76561197960592612,"connected_time":448000000000,"state":"active","ping":68},{"user_id":277,"name":"Frazzer","steam_id":76561198088679707,"connected_time":854000000000,"state":"active","ping":48},{"user_id":289,"name":"❤ Ashley ❤","steam_id":76561198056428303,"connected_time":463000000000,"state":"active","ping":43},{"user_id":280,"name":"batasy","steam_id":76561198044767185,"connected_time":762000000000,"state":"active","ping":98},{"user_id":261,"name":"Ypuoi","steam_id":76561198170203261,"connected_time":2293000000000,"state":"active","ping":58},{"user_id":291,"name":"supcupman","steam_id":76561198051513866,"connected_time":85000000000,"state":"active","ping":69},{"user_id":292,"name":"dsmagic","steam_id":76561198038601542,"connected_time":42000000000,"state":"active","ping":59},{"user_id":248,"name":"Diesel","steam_id":76561198448815852,"connected_time":2962000000000,"state":"active","ping":55},{"user_id":244,"name":"FriskyDemon","steam_id":76561198043684646,"connected_time":3056000000000,"state":"active","ping":71},{"user_id":283,"name":"JVKYSL","steam_id":76561199482157711,"connected_time":710000000000,"state":"active","ping":65},{"user_id":240,"name":"cheetaz","steam_id":76561198224614084,"connected_time":3795000000000,"state":"active","ping":99},{"user_id":287,"name":"Lumi","steam_id":76561198089978036,"connected_time":528000000000,"state":"active","ping":113},{"user_id":204,"name":"mkl","steam_id":76561197986401685,"connected_time":5746000000000,"state":"active","ping":81},{"user_id":284,"name":"nothing burger eater","steam_id":76561198046201690,"connected_time":675000000000,"state":"active","ping":174},{"user_id":256,"name":"ExplosiveGamer21","steam_id":76561198132370955,"connected_time":2760000000000,"state":"active","ping":76},{"user_id":242,"name":"Anthid","steam_id":76561198074493797,"connected_time":3598000000000,"state":"active","ping":64}]},{"server_id":25,"name":"Uncletopia | Los Angeles | 4 | Stopwatch Beta","name_short":"lax-4","host":"lax-1.us.uncletopia.com","port":27045,"enabled":true,"region":"us-west","cc":"us","latitude":33.94279,"longitude":-118.41004,"reserved":0,"last_update":"0001-01-01T00:00:00Z","name_a2s":"Uncletopia | Los Angeles | 4 | Stopwatch Beta","protocol":17,"map":"workshop/koth_ashville_final.ugc2130459942","folder":"tf","game":"Team Fortress","app_id":440,"player_count":0,"max_players":24,"Bots":0,"server_type":"Dedicated","server_os":"Linux","password":true,"vac":true,"version":"7882260","steam_id":85568392924510199,"keywords":["cp","nocrits","nodmgspread","uncletopia"],"game_id":440,"stv_port":27046,"stv_name":"Uncletopia | Los Angeles | 4 | Stopwatch Beta | STV","players":null},{"server_id":11,"name":"Uncletopia | London | 1 | All Maps","name_short":"lon-1","host":"lon-1.uk.uncletopia.com","port":27015,"enabled":true,"region":"eu","cc":"gb","latitude":51.509865,"longitude":-0.118092,"reserved":0,"last_update":"0001-01-01T00:00:00Z","name_a2s":"Uncletopia | London | 1 | All Maps","protocol":17,"map":"pl_barnblitz","folder":"tf","game":"Team Fortress","app_id":440,"player_count":0,"max_players":24,"Bots":0,"server_type":"Dedicated","server_os":"Linux","password":true,"vac":true,"version":"7882260","steam_id":85568392924367362,"keywords":["nocrits","nodmgspread","payload","uncletopia"],"game_id":440,"stv_port":27016,"stv_name":"Uncletopia | London | 1 | All Maps | STV","players":null},{"server_id":114,"name":"Uncletopia | London | 2 | All Maps","name_short":"lon-2","host":"lon-1.uk.uncletopia.com","port":27025,"enabled":true,"region":"eu","cc":"gb","latitude":51.509865,"longitude":-0.118092,"reserved":0,"last_update":"0001-01-01T00:00:00Z","name_a2s":"Uncletopia | London | 2 | All Maps","protocol":17,"map":"koth_viaduct","folder":"tf","game":"Team Fortress","app_id":440,"player_count":0,"max_players":24,"Bots":0,"server_type":"Dedicated","server_os":"Linux","password":true,"vac":true,"version":"7882260","steam_id":85568392924470941,"keywords":["cp","nocrits","nodmgspread","uncletopia"],"game_id":440,"stv_port":27026,"stv_name":"Uncletopia | London | 2 | All Maps | STV","players":null},{"server_id":320,"name":"Uncletopia | London | 3 | All Maps","name_short":"lon-3","host":"lon-1.uk.uncletopia.com","port":27035,"enabled":true,"region":"eu","cc":"gb","latitude":51.509865,"longitude":-0.118092,"reserved":0,"last_update":"0001-01-01T00:00:00Z","name_a2s":"Uncletopia | London | 3 | All Maps","protocol":17,"map":"koth_cascade","folder":"tf","game":"Team Fortress","app_id":440,"player_count":0,"max_players":24,"Bots":0,"server_type":"Dedicated","server_os":"Linux","password":true,"vac":true,"version":"7882260","steam_id":85568392924510192,"keywords":["cp","nocrits","nodmgspread","uncletopia"],"game_id":440,"stv_port":27036,"stv_name":"Uncletopia | London | 3 | All Maps | STV","players":null},{"server_id":321,"name":"Uncletopia | London | 4 | All Maps","name_short":"lon-4","host":"lon-1.uk.uncletopia.com","port":27045,"enabled":true,"region":"eu","cc":"gb","latitude":51.509865,"longitude":-0.118092,"reserved":0,"last_update":"0001-01-01T00:00:00Z","name_a2s":"Uncletopia | London | 4 | All Maps","protocol":17,"map":"cp_mountainlab","folder":"tf","game":"Team Fortress","app_id":440,"player_count":0,"max_players":24,"Bots":0,"server_type":"Dedicated","server_os":"Linux","password":true,"vac":true,"version":"7882260","steam_id":85568392924510193,"keywords":["cp","nocrits","nodmgspread","uncletopia"],"game_id":440,"stv_port":27046,"stv_name":"Uncletopia | London | 4 | All Maps | STV","players":null},{"server_id":21,"name":"Uncletopia | London | 5 | All Maps","name_short":"lon-5","host":"lon-1.uk.uncletopia.com","port":27055,"enabled":true,"region":"eu","cc":"gb","latitude":51.509865,"longitude":-0.118092,"reserved":0,"last_update":"0001-01-01T00:00:00Z","name_a2s":"Uncletopia | London | 5 | All Maps","protocol":17,"map":"koth_lakeside_final","folder":"tf","game":"Team Fortress","app_id":440,"player_count":0,"max_players":24,"Bots":0,"server_type":"Dedicated","server_os":"Linux","password":true,"vac":true,"version":"7882260","steam_id":85568392924742829,"keywords":["cp","nocrits","nodmgspread","uncletopia"],"game_id":440,"stv_port":27056,"stv_name":"Uncletopia | London | 5 | All Maps | STV","players":null},{"server_id":22,"name":"Uncletopia | London | 6 | All Maps","name_short":"lon-6","host":"lon-1.uk.uncletopia.com","port":27065,"enabled":true,"region":"eu","cc":"gb","latitude":51.509865,"longitude":-0.118092,"reserved":0,"last_update":"0001-01-01T00:00:00Z","name_a2s":"Uncletopia | London | 6 | All Maps","protocol":17,"map":"koth_highpass","folder":"tf","game":"Team Fortress","app_id":440,"player_count":0,"max_players":24,"Bots":0,"server_type":"Dedicated","server_os":"Linux","password":true,"vac":true,"version":"7882260","steam_id":85568392924742830,"keywords":["cp","nocrits","nodmgspread","uncletopia"],"game_id":440,"stv_port":27066,"stv_name":"Uncletopia | London | 6 | All Maps | STV","players":null},{"server_id":40,"name":"Uncletopia | London | 7 | No Payload","name_short":"lon-7","host":"lon-1.uk.uncletopia.com","port":27075,"enabled":true,"region":"eu","cc":"gb","latitude":51.509865,"longitude":-0.118092,"reserved":0,"last_update":"0001-01-01T00:00:00Z","name_a2s":"Uncletopia | London | 7 | No Payload","protocol":17,"map":"ctf_doublecross","folder":"tf","game":"Team Fortress","app_id":440,"player_count":0,"max_players":24,"Bots":0,"server_type":"Dedicated","server_os":"Linux","password":true,"vac":true,"version":"7882260","steam_id":85568392924964314,"keywords":["ctf","nocrits","nodmgspread","uncletopia"],"game_id":440,"stv_port":27076,"stv_name":"Uncletopia | London | 7 | No Payload | STV","players":null},{"server_id":41,"name":"Uncletopia | London | 8 | Community","name_short":"lon-8","host":"lon-1.uk.uncletopia.com","port":27085,"enabled":true,"region":"eu","cc":"gb","latitude":51.509865,"longitude":-0.118092,"reserved":0,"last_update":"0001-01-01T00:00:00Z","name_a2s":"Uncletopia | London | 8 | Community","protocol":17,"map":"workshop/pl_emerge_rc2.ugc888027758","folder":"tf","game":"Team Fortress","app_id":440,"player_count":0,"max_players":24,"Bots":0,"server_type":"Dedicated","server_os":"Linux","password":true,"vac":true,"version":"7882260","steam_id":85568392924964315,"keywords":["nocrits","nodmgspread","payload","uncletopia"],"game_id":440,"stv_port":27086,"stv_name":"Uncletopia | London | 8 | Community | STV","players":null},{"server_id":300,"name":"Uncletopia | Montréal | 1 | All Maps","name_short":"mtl-1","host":"mtl-1.ca.uncletopia.com","port":27015,"enabled":true,"region":"us-east","cc":"ca","latitude":45.50889,"longitude":-73.56167,"reserved":0,"last_update":"0001-01-01T00:00:00Z","name_a2s":"Uncletopia | Montréal | 1 | All Maps","protocol":17,"map":"cp_snakewater_final1","folder":"tf","game":"Team Fortress","app_id":440,"player_count":0,"max_players":24,"Bots":0,"server_type":"Dedicated","server_os":"Linux","password":true,"vac":true,"version":"7882260","steam_id":85568392924500087,"keywords":["cp","nocrits","nodmgspread","uncletopia"],"game_id":440,"stv_port":27016,"stv_name":"Uncletopia | Montréal | 1 | All Maps | STV","players":null},{"server_id":301,"name":"Uncletopia | Montréal | 2 | All Maps","name_short":"mtl-2","host":"mtl-1.ca.uncletopia.com","port":27025,"enabled":true,"region":"us-east","cc":"ca","latitude":45.50889,"longitude":-73.56167,"reserved":0,"last_update":"0001-01-01T00:00:00Z","name_a2s":"Uncletopia | Montréal | 2 | All Maps","protocol":17,"map":"koth_highpass","folder":"tf","game":"Team Fortress","app_id":440,"player_count":0,"max_players":24,"Bots":0,"server_type":"Dedicated","server_os":"Linux","password":true,"vac":true,"version":"7882260","steam_id":85568392924500088,"keywords":["cp","nocrits","nodmgspread","uncletopia"],"game_id":440,"stv_port":27026,"stv_name":"Uncletopia | Montréal | 2 | All Maps | STV","players":null},{"server_id":302,"name":"Uncletopia | Montréal | 3 | All Maps","name_short":"mtl-3","host":"mtl-1.ca.uncletopia.com","port":27035,"enabled":true,"region":"us-east","cc":"ca","latitude":45.50889,"longitude":-73.56167,"reserved":0,"last_update":"0001-01-01T00:00:00Z","name_a2s":"Uncletopia | Montréal | 3 | All Maps","protocol":17,"map":"cp_dustbowl","folder":"tf","game":"Team Fortress","app_id":440,"player_count":10,"max_players":24,"Bots":0,"server_type":"Dedicated","server_os":"Linux","password":true,"vac":true,"version":"7882260","steam_id":85568392924500089,"keywords":["cp","nocrits","nodmgspread","uncletopia"],"game_id":440,"stv_port":27036,"stv_name":"Uncletopia | Montréal | 3 | All Maps | STV","players":[{"user_id":95,"name":"ogre confrontation","steam_id":76561198192654455,"connected_time":126000000000,"state":"active","ping":55},{"user_id":92,"name":"Lots0","steam_id":76561198043143145,"connected_time":285000000000,"state":"active","ping":110},{"user_id":93,"name":"Kasodani Kyouko","steam_id":76561198023178589,"connected_time":279000000000,"state":"active","ping":75},{"user_id":94,"name":"Cherry Bomb!","steam_id":76561198017947020,"connected_time":196000000000,"state":"active","ping":78},{"user_id":79,"name":"thepicgamer","steam_id":76561198211354351,"connected_time":1291000000000,"state":"active","ping":59},{"user_id":85,"name":"Sleggie","steam_id":76561198027878872,"connected_time":950000000000,"state":"active","ping":42},{"user_id":26,"name":"Pettifogging Milksop","steam_id":76561198074560331,"connected_time":4703000000000,"state":"active","ping":63},{"user_id":27,"name":"ento▲","steam_id":76561199189903405,"connected_time":4699000000000,"state":"active","ping":117},{"user_id":31,"name":"MAXIMUS","steam_id":76561198085809453,"connected_time":4676000000000,"state":"active","ping":83},{"user_id":64,"name":"custodian","steam_id":76561198058793778,"connected_time":2201000000000,"state":"active","ping":57}]},{"server_id":303,"name":"Uncletopia | Montréal | 4 | No Payload","name_short":"mtl-4","host":"mtl-1.ca.uncletopia.com","port":27045,"enabled":true,"region":"us-east","cc":"ca","latitude":45.50889,"longitude":-73.56167,"reserved":0,"last_update":"0001-01-01T00:00:00Z","name_a2s":"Uncletopia | Montréal | 4 | No Payload","protocol":17,"map":"plr_pipeline","folder":"tf","game":"Team Fortress","app_id":440,"player_count":0,"max_players":24,"Bots":0,"server_type":"Dedicated","server_os":"Linux","password":true,"vac":true,"version":"7882260","steam_id":85568392924500090,"keywords":["nocrits","nodmgspread","payload","uncletopia"],"game_id":440,"stv_port":27046,"stv_name":"Uncletopia | Montréal | 4 | No Payload | STV","players":null},{"server_id":13,"name":"Uncletopia | New York City | 1 | All Maps","name_short":"nyc-1","host":"nyc-1.us.uncletopia.com","port":27015,"enabled":true,"region":"us-east","cc":"us","latitude":40.73061,"longitude":-73.93524,"reserved":0,"last_update":"0001-01-01T00:00:00Z","name_a2s":"Uncletopia | New York City | 1 | All Maps","protocol":17,"map":"cp_mountainlab","folder":"tf","game":"Team Fortress","app_id":440,"player_count":24,"max_players":24,"Bots":0,"server_type":"Dedicated","server_os":"Linux","password":true,"vac":true,"version":"7882260","steam_id":85568392924469993,"keywords":["cp","nocrits","nodmgspread","uncletopia"],"game_id":440,"stv_port":27016,"stv_name":"Uncletopia | New York City | 1 | All Maps | STV","players":[{"user_id":587,"name":"Captain Morgan","steam_id":76561198151170149,"connected_time":103000000000,"state":"active","ping":73},{"user_id":534,"name":"Tammypainto","steam_id":76561198090668254,"connected_time":4219000000000,"state":"active","ping":78},{"user_id":586,"name":"Phonky Monk_","steam_id":76561198061810085,"connected_time":125000000000,"state":"active","ping":45},{"user_id":520,"name":"Cervidé","steam_id":76561198098579497,"connected_time":4577000000000,"state":"active","ping":70},{"user_id":563,"name":"Chhaam","steam_id":76561198058508132,"connected_time":2058000000000,"state":"active","ping":46},{"user_id":556,"name":"Trash Fire","steam_id":76561198870515262,"connected_time":2513000000000,"state":"active","ping":80},{"user_id":519,"name":"Monsieur l'INGENIEUR","steam_id":76561198090504334,"connected_time":4898000000000,"state":"active","ping":60},{"user_id":578,"name":"goldgardian","steam_id":76561198319471339,"connected_time":635000000000,"state":"active","ping":101},{"user_id":546,"name":"Kirbs","steam_id":76561198970654800,"connected_time":3404000000000,"state":"active","ping":47},{"user_id":566,"name":"faxxy","steam_id":76561198079621240,"connected_time":1911000000000,"state":"active","ping":77},{"user_id":573,"name":"Tahm Selleck","steam_id":76561198138083134,"connected_time":1381000000000,"state":"active","ping":72},{"user_id":562,"name":"ROACH MAXIMUM","steam_id":76561198052444481,"connected_time":2080000000000,"state":"active","ping":70},{"user_id":575,"name":"marge","steam_id":76561198064823861,"connected_time":1061000000000,"state":"active","ping":66},{"user_id":579,"name":"\u003c3","steam_id":76561198865170684,"connected_time":589000000000,"state":"active","ping":126},{"user_id":580,"name":"lazer_tazer123","steam_id":76561198136411038,"connected_time":545000000000,"state":"active","ping":68},{"user_id":585,"name":"Rickbot","steam_id":76561198036798608,"connected_time":176000000000,"state":"active","ping":88},{"user_id":570,"name":"JD","steam_id":76561198202669250,"connected_time":1838000000000,"state":"active","ping":70},{"user_id":541,"name":"Mishey","steam_id":76561198039815515,"connected_time":4096000000000,"state":"active","ping":58},{"user_id":547,"name":"Irthene","steam_id":76561198047888351,"connected_time":3400000000000,"state":"active","ping":46},{"user_id":583,"name":"Levi","steam_id":76561198154916862,"connected_time":476000000000,"state":"active","ping":57},{"user_id":564,"name":"Caustic","steam_id":76561198004802198,"connected_time":2031000000000,"state":"active","ping":48},{"user_id":588,"name":"Rain","steam_id":76561198123437878,"connected_time":67000000000,"state":"active","ping":105},{"user_id":572,"name":"Lulo","steam_id":76561198200617911,"connected_time":1783000000000,"state":"active","ping":84},{"user_id":582,"name":"Gamoy","steam_id":76561198036434902,"connected_time":515000000000,"state":"active","ping":100}]},{"server_id":14,"name":"Uncletopia | New York City | 2 | All Maps","name_short":"nyc-2","host":"nyc-1.us.uncletopia.com","port":27025,"enabled":true,"region":"us-east","cc":"us","latitude":40.73061,"longitude":-73.93524,"reserved":0,"last_update":"0001-01-01T00:00:00Z","name_a2s":"Uncletopia | New York City | 2 | All Maps","protocol":17,"map":"pl_barnblitz","folder":"tf","game":"Team Fortress","app_id":440,"player_count":24,"max_players":24,"Bots":0,"server_type":"Dedicated","server_os":"Linux","password":true,"vac":true,"version":"7882260","steam_id":85568392924469994,"keywords":["nocrits","nodmgspread","payload","uncletopia"],"game_id":440,"stv_port":27026,"stv_name":"Uncletopia | New York City | 2 | All Maps | STV","players":[{"user_id":503,"name":"Daisy Le Nerd","steam_id":76561198149350087,"connected_time":971000000000,"state":"active","ping":167},{"user_id":506,"name":"Glub Glub I ate your Tub","steam_id":76561199013415011,"connected_time":944000000000,"state":"active","ping":135},{"user_id":504,"name":"jemma⚧☭","steam_id":76561198031709913,"connected_time":969000000000,"state":"active","ping":71},{"user_id":483,"name":"SnareString","steam_id":76561199082119457,"connected_time":2889000000000,"state":"active","ping":130},{"user_id":505,"name":"heavy main (real)","steam_id":76561199275142109,"connected_time":959000000000,"state":"active","ping":166},{"user_id":464,"name":"Flowers","steam_id":76561198031669899,"connected_time":4084000000000,"state":"active","ping":75},{"user_id":461,"name":"SHADY SWEATER SALESMAN","steam_id":76561198014616865,"connected_time":4291000000000,"state":"active","ping":49},{"user_id":456,"name":"NastyStarchy","steam_id":76561198291849732,"connected_time":4421000000000,"state":"active","ping":55},{"user_id":507,"name":"SciptaElegans","steam_id":76561199082484809,"connected_time":902000000000,"state":"active","ping":69},{"user_id":488,"name":"bepo","steam_id":76561199029030831,"connected_time":2705000000000,"state":"active","ping":51},{"user_id":510,"name":"Tough Puffin","steam_id":76561198024011010,"connected_time":514000000000,"state":"active","ping":75},{"user_id":449,"name":"Amauri","steam_id":76561198130809137,"connected_time":4688000000000,"state":"active","ping":78},{"user_id":499,"name":"Lt. Ghosty","steam_id":76561198044980501,"connected_time":1570000000000,"state":"active","ping":66},{"user_id":447,"name":"Iron","steam_id":76561198247918478,"connected_time":4844000000000,"state":"active","ping":72},{"user_id":493,"name":"MyBussyHurts","steam_id":76561198089208050,"connected_time":2265000000000,"state":"active","ping":93},{"user_id":471,"name":"AJTarcza","steam_id":76561198070800190,"connected_time":3791000000000,"state":"active","ping":70},{"user_id":478,"name":"MoonlightDragon","steam_id":76561198124808865,"connected_time":3109000000000,"state":"active","ping":71},{"user_id":457,"name":"girthmilk","steam_id":76561198054799782,"connected_time":4376000000000,"state":"active","ping":79},{"user_id":502,"name":"J.D.","steam_id":76561198265582585,"connected_time":1093000000000,"state":"active","ping":145},{"user_id":476,"name":"Heropon","steam_id":76561198105224481,"connected_time":3259000000000,"state":"active","ping":59},{"user_id":484,"name":"Virtual Zorua","steam_id":76561198196180302,"connected_time":2888000000000,"state":"active","ping":61},{"user_id":497,"name":"Super Ghostbusters (Full Album)","steam_id":76561198057415490,"connected_time":2046000000000,"state":"active","ping":79},{"user_id":508,"name":"FoxyTheFish","steam_id":76561199074190919,"connected_time":831000000000,"state":"active","ping":123},{"user_id":498,"name":"Bee","steam_id":76561198074681324,"connected_time":1932000000000,"state":"active","ping":50}]},{"server_id":15,"name":"Uncletopia | New York City | 3 | Stopwatch Beta","name_short":"nyc-3","host":"nyc-1.us.uncletopia.com","port":27035,"enabled":true,"region":"us-east","cc":"us","latitude":40.73061,"longitude":-73.93524,"reserved":0,"last_update":"0001-01-01T00:00:00Z","name_a2s":"Uncletopia | New York City | 3 | Stopwatch Beta","protocol":17,"map":"workshop/koth_product_final.ugc454272353","folder":"tf","game":"Team Fortress","app_id":440,"player_count":0,"max_players":24,"Bots":0,"server_type":"Dedicated","server_os":"Linux","password":true,"vac":true,"version":"7882260","steam_id":85568392924742820,"keywords":["cp","nocrits","nodmgspread","uncletopia"],"game_id":440,"stv_port":27036,"stv_name":"Uncletopia | New York City | 3 | Stopwatch Beta | STV","players":null},{"server_id":16,"name":"Uncletopia | New York City | 4 | Community","name_short":"nyc-4","host":"nyc-1.us.uncletopia.com","port":27045,"enabled":true,"region":"us-east","cc":"us","latitude":40.73061,"longitude":-73.93524,"reserved":0,"last_update":"0001-01-01T00:00:00Z","name_a2s":"Uncletopia | New York City | 4 | Community","protocol":17,"map":"workshop/pl_boundary_final1.ugc456799153","folder":"tf","game":"Team Fortress","app_id":440,"player_count":0,"max_players":24,"Bots":0,"server_type":"Dedicated","server_os":"Linux","password":true,"vac":true,"version":"7882260","steam_id":85568392924742821,"keywords":["nocrits","nodmgspread","payload","uncletopia"],"game_id":440,"stv_port":27046,"stv_name":"Uncletopia | New York City | 4 | Community | STV","players":null},{"server_id":142,"name":"Uncletopia | São Paulo | 1 | All Maps","name_short":"sao-1","host":"sao-1.br.uncletopia.com","port":27015,"enabled":true,"region":"sa","cc":"br","latitude":-23.533773,"longitude":-46.62529,"reserved":0,"last_update":"0001-01-01T00:00:00Z","name_a2s":"Uncletopia | São Paulo | 1 | All Maps","protocol":17,"map":"koth_highpass","folder":"tf","game":"Team Fortress","app_id":440,"player_count":0,"max_players":24,"Bots":0,"server_type":"Dedicated","server_os":"Linux","password":true,"vac":true,"version":"7882260","steam_id":85568392924469996,"keywords":["cp","nocrits","nodmgspread","uncletopia"],"game_id":440,"stv_port":27016,"stv_name":"Uncletopia | São Paulo | 1 | All Maps | STV","players":null},{"server_id":143,"name":"Uncletopia | São Paulo | 2 | All Maps","name_short":"sao-2","host":"sao-2.br.uncletopia.com","port":27015,"enabled":true,"region":"sa","cc":"br","latitude":-23.533773,"longitude":-46.62529,"reserved":0,"last_update":"0001-01-01T00:00:00Z","name_a2s":"Uncletopia | São Paulo | 2 | All Maps","protocol":17,"map":"koth_cascade","folder":"tf","game":"Team Fortress","app_id":440,"player_count":0,"max_players":24,"Bots":0,"server_type":"Dedicated","server_os":"Linux","password":true,"vac":true,"version":"7882260","steam_id":85568392924485349,"keywords":["cp","nocrits","nodmgspread","uncletopia"],"game_id":440,"stv_port":27016,"stv_name":"Uncletopia | São Paulo | 2 | All Maps | STV","players":null},{"server_id":7,"name":"Uncletopia | Seattle | 1 | All Maps","name_short":"sea-1","host":"sea-1.us.uncletopia.com","port":27015,"enabled":true,"region":"us-west","cc":"us","latitude":47.608013,"longitude":-122.33517,"reserved":0,"last_update":"0001-01-01T00:00:00Z","name_a2s":"Uncletopia | Seattle | 1 | All Maps","protocol":17,"map":"pl_badwater","folder":"tf","game":"Team Fortress","app_id":440,"player_count":24,"max_players":24,"Bots":0,"server_type":"Dedicated","server_os":"Linux","password":true,"vac":true,"version":"7882260","steam_id":85568392924469997,"keywords":["nocrits","nodmgspread","payload","uncletopia"],"game_id":440,"stv_port":27016,"stv_name":"Uncletopia | Seattle | 1 | All Maps | STV","players":[{"user_id":646,"name":"PachucoWaffle","steam_id":76561198051491032,"connected_time":3762000000000,"state":"active","ping":59},{"user_id":677,"name":"forest (girldick)","steam_id":76561198157960257,"connected_time":732000000000,"state":"active","ping":39},{"user_id":657,"name":"Jacobzeba01","steam_id":76561198131808718,"connected_time":2525000000000,"state":"active","ping":68},{"user_id":654,"name":"Fh","steam_id":76561198000903511,"connected_time":2760000000000,"state":"active","ping":63},{"user_id":669,"name":"Pre Pissed Pants","steam_id":76561198042143837,"connected_time":1277000000000,"state":"active","ping":81},{"user_id":594,"name":"Mr. Ravioli","steam_id":76561197996625649,"connected_time":8128000000000,"state":"active","ping":59},{"user_id":678,"name":"yup","steam_id":76561199190800520,"connected_time":85000000000,"state":"active","ping":29},{"user_id":680,"name":"gorlab","steam_id":76561198025089694,"connected_time":29000000000,"state":"active","ping":61},{"user_id":660,"name":"SibilantSerpent","steam_id":76561198154488754,"connected_time":2454000000000,"state":"active","ping":55},{"user_id":655,"name":"Son Goku","steam_id":76561198271939793,"connected_time":2557000000000,"state":"active","ping":48},{"user_id":667,"name":"Red Orbama","steam_id":76561198047002366,"connected_time":1399000000000,"state":"active","ping":47},{"user_id":666,"name":"Forty","steam_id":76561198257410181,"connected_time":1430000000000,"state":"active","ping":61},{"user_id":662,"name":"kree","steam_id":76561197979960008,"connected_time":2249000000000,"state":"active","ping":105},{"user_id":679,"name":"BlueDragonOracle","steam_id":76561198124318349,"connected_time":82000000000,"state":"active","ping":62},{"user_id":563,"name":"♥haunti","steam_id":76561199235580556,"connected_time":10227000000000,"state":"active","ping":47},{"user_id":650,"name":"BolognaWithOlives","steam_id":76561198101262668,"connected_time":3047000000000,"state":"active","ping":82},{"user_id":616,"name":"Fallen","steam_id":76561198206490352,"connected_time":6153000000000,"state":"active","ping":79},{"user_id":665,"name":"dust | she/it","steam_id":76561198045218909,"connected_time":1650000000000,"state":"active","ping":44},{"user_id":615,"name":"o o o o o o o o o","steam_id":76561197993757506,"connected_time":6159000000000,"state":"active","ping":64},{"user_id":651,"name":"Agent86","steam_id":76561198046794593,"connected_time":3029000000000,"state":"active","ping":166},{"user_id":673,"name":"[ G R * T T Y ]","steam_id":76561198048986218,"connected_time":889000000000,"state":"active","ping":85},{"user_id":674,"name":"The Unfriendly Friendly","steam_id":76561199216559937,"connected_time":889000000000,"state":"active","ping":54},{"user_id":653,"name":"SwoopShoot","steam_id":76561199024079388,"connected_time":3008000000000,"state":"active","ping":47},{"user_id":672,"name":"D34dR4bbit","steam_id":76561198167411455,"connected_time":902000000000,"state":"active","ping":62}]},{"server_id":119,"name":"Uncletopia | Seattle | 2 | All Maps","name_short":"sea-2","host":"sea-1.us.uncletopia.com","port":27025,"enabled":true,"region":"us-west","cc":"us","latitude":47.608013,"longitude":-122.33517,"reserved":0,"last_update":"0001-01-01T00:00:00Z","name_a2s":"Uncletopia | Seattle | 2 | All Maps","protocol":17,"map":"pl_pier","folder":"tf","game":"Team Fortress","app_id":440,"player_count":19,"max_players":24,"Bots":0,"server_type":"Dedicated","server_os":"Linux","password":true,"vac":true,"version":"7882260","steam_id":85568392924469998,"keywords":["nocrits","nodmgspread","payload","uncletopia"],"game_id":440,"stv_port":27026,"stv_name":"Uncletopia | Seattle | 2 | All Maps | STV","players":[{"user_id":578,"name":"Mothman","steam_id":76561198050672409,"connected_time":768000000000,"state":"active","ping":83},{"user_id":581,"name":"Asphodel","steam_id":76561198750101819,"connected_time":656000000000,"state":"active","ping":100},{"user_id":589,"name":"FoodzAreGoodz","steam_id":76561198309262052,"connected_time":51000000000,"state":"connecting","ping":88},{"user_id":580,"name":"gloobern","steam_id":76561198341190679,"connected_time":682000000000,"state":"active","ping":57},{"user_id":588,"name":"Algibruh","steam_id":76561199221599415,"connected_time":62000000000,"state":"active","ping":40},{"user_id":590,"name":"Battery Acid Addict","steam_id":76561198439793697,"connected_time":19000000000,"state":"active","ping":105},{"user_id":577,"name":"Melancholy Clown","steam_id":76561198110605813,"connected_time":896000000000,"state":"active","ping":56},{"user_id":569,"name":"Eli","steam_id":76561198355068665,"connected_time":1312000000000,"state":"active","ping":121},{"user_id":585,"name":"fruit brute fiend","steam_id":76561198811500361,"connected_time":305000000000,"state":"active","ping":54},{"user_id":586,"name":"carpet","steam_id":76561198207881077,"connected_time":150000000000,"state":"active","ping":104},{"user_id":591,"name":"meathook","steam_id":76561198386506988,"connected_time":12000000000,"state":"spawning","ping":71},{"user_id":548,"name":"Thanks Ants","steam_id":76561197966221018,"connected_time":2796000000000,"state":"active","ping":54},{"user_id":539,"name":"posting fail","steam_id":76561198066619792,"connected_time":2943000000000,"state":"active","ping":72},{"user_id":532,"name":"CranAppleGaming","steam_id":76561198398206209,"connected_time":3334000000000,"state":"active","ping":86},{"user_id":574,"name":"Tibetan Pop Star","steam_id":76561198844903984,"connected_time":1236000000000,"state":"active","ping":87},{"user_id":583,"name":"Willy Wonker","steam_id":76561198082944789,"connected_time":596000000000,"state":"active","ping":77},{"user_id":584,"name":"SomeFuckingGuy #SAVETF2","steam_id":76561199239165015,"connected_time":549000000000,"state":"active","ping":105},{"user_id":576,"name":"Jarryl97","steam_id":76561198055451373,"connected_time":1220000000000,"state":"active","ping":117},{"user_id":547,"name":"DungeonKeeper","steam_id":76561199475507686,"connected_time":2876000000000,"state":"active","ping":137}]},{"server_id":406,"name":"Uncletopia | Seattle | 3 | Stopwatch Beta","name_short":"sea-3","host":"sea-1.us.uncletopia.com","port":27035,"enabled":true,"region":"us-west","cc":"us","latitude":47.608013,"longitude":-122.33517,"reserved":0,"last_update":"0001-01-01T00:00:00Z","name_a2s":"Uncletopia | Seattle | 3 | Stopwatch Beta","protocol":17,"map":"koth_lakeside_final","folder":"tf","game":"Team Fortress","app_id":440,"player_count":21,"max_players":24,"Bots":0,"server_type":"Dedicated","server_os":"Linux","password":true,"vac":true,"version":"7882260","steam_id":85568392924515217,"keywords":["cp","nocrits","nodmgspread","uncletopia"],"game_id":440,"stv_port":27036,"stv_name":"Uncletopia | Seattle | 3 | Stopwatch Beta | STV","players":[{"user_id":28,"name":"Destroyer1004","steam_id":76561199367685913,"connected_time":2539000000000,"state":"active","ping":55},{"user_id":29,"name":"johnman gooberguy","steam_id":76561199014859764,"connected_time":2526000000000,"state":"active","ping":77},{"user_id":30,"name":"A UsedNom","steam_id":76561198402832756,"connected_time":2309000000000,"state":"active","ping":58},{"user_id":32,"name":"Sleempreem","steam_id":76561198131987251,"connected_time":2169000000000,"state":"active","ping":65},{"user_id":60,"name":"Waffle_Hunter","steam_id":76561198220675860,"connected_time":53000000000,"state":"active","ping":70},{"user_id":54,"name":"millerbv14","steam_id":76561198453908595,"connected_time":320000000000,"state":"active","ping":72},{"user_id":46,"name":"cat438","steam_id":76561198848606609,"connected_time":552000000000,"state":"active","ping":36},{"user_id":41,"name":"Owl of Delos","steam_id":76561198437116566,"connected_time":1296000000000,"state":"active","ping":61},{"user_id":58,"name":"Dr. Bubs","steam_id":76561198011696595,"connected_time":173000000000,"state":"active","ping":80},{"user_id":47,"name":"Neavlof","steam_id":76561198437773859,"connected_time":539000000000,"state":"active","ping":67},{"user_id":59,"name":"Arctic","steam_id":76561199134893517,"connected_time":128000000000,"state":"active","ping":124},{"user_id":44,"name":"BennBap","steam_id":76561198171881453,"connected_time":963000000000,"state":"active","ping":88},{"user_id":48,"name":"CressyFan_488","steam_id":76561199166270036,"connected_time":535000000000,"state":"active","ping":79},{"user_id":49,"name":"TwoScoops","steam_id":76561197997463332,"connected_time":444000000000,"state":"active","ping":63},{"user_id":50,"name":"Will T.TVR","steam_id":76561197999109761,"connected_time":402000000000,"state":"active","ping":60},{"user_id":51,"name":"LACTOSE","steam_id":76561198282604344,"connected_time":380000000000,"state":"active","ping":62},{"user_id":52,"name":"Pyrolimited","steam_id":76561198195455657,"connected_time":375000000000,"state":"active","ping":48},{"user_id":61,"name":"feeple murphy","steam_id":76561199069482101,"connected_time":44000000000,"state":"active","ping":69},{"user_id":55,"name":"R5-D4","steam_id":76561198025196439,"connected_time":310000000000,"state":"active","ping":52},{"user_id":56,"name":"Fluffy","steam_id":76561198213561811,"connected_time":308000000000,"state":"active","ping":69},{"user_id":57,"name":"An Alien Mango","steam_id":76561198864823970,"connected_time":269000000000,"state":"active","ping":66}]},{"server_id":17,"name":"Uncletopia | San Francisco | 1 | All Maps","name_short":"sfo-1","host":"sfo-1.us.uncletopia.com","port":27015,"enabled":true,"region":"us-west","cc":"us","latitude":37.77397,"longitude":-122.4313,"reserved":0,"last_update":"0001-01-01T00:00:00Z","name_a2s":"Uncletopia | San Francisco | 1 | All Maps","protocol":17,"map":"cp_process_final","folder":"tf","game":"Team Fortress","app_id":440,"player_count":0,"max_players":24,"Bots":0,"server_type":"Dedicated","server_os":"Linux","password":true,"vac":true,"version":"7757534","steam_id":85568392924469999,"keywords":["cp","nocrits","nodmgspread","uncletopia"],"game_id":440,"stv_port":27016,"stv_name":"Uncletopia | San Francisco | 1 | All Maps | STV","players":null},{"server_id":18,"name":"Uncletopia | San Francisco | 2 | All Maps","name_short":"sfo-2","host":"sfo-1.us.uncletopia.com","port":27025,"enabled":true,"region":"us-west","cc":"us","latitude":37.77397,"longitude":-122.4313,"reserved":0,"last_update":"0001-01-01T00:00:00Z","name_a2s":"Uncletopia | San Francisco | 2 | All Maps","protocol":17,"map":"koth_highpass","folder":"tf","game":"Team Fortress","app_id":440,"player_count":0,"max_players":24,"Bots":0,"server_type":"Dedicated","server_os":"Linux","password":true,"vac":true,"version":"7757534","steam_id":85568392924470000,"keywords":["cp","nocrits","nodmgspread","uncletopia"],"game_id":440,"stv_port":27026,"stv_name":"Uncletopia | San Francisco | 2 | All Maps | STV","players":null},{"server_id":19,"name":"Uncletopia | San Francisco | 3 | Stopwatch Beta","name_short":"sfo-3","host":"sfo-1.us.uncletopia.com","port":27035,"enabled":true,"region":"us-west","cc":"us","latitude":37.77397,"longitude":-122.4313,"reserved":0,"last_update":"0001-01-01T00:00:00Z","name_a2s":"Uncletopia | San Francisco | 3 | Stopwatch Beta","protocol":17,"map":"koth_lakeside_final","folder":"tf","game":"Team Fortress","app_id":440,"player_count":0,"max_players":24,"Bots":0,"server_type":"Dedicated","server_os":"Linux","password":true,"vac":true,"version":"7757534","steam_id":85568392924742824,"keywords":["cp","nocrits","nodmgspread","uncletopia"],"game_id":440,"stv_port":27036,"stv_name":"Uncletopia | San Francisco | 3 | Stopwatch Beta | STV","players":null},{"server_id":20,"name":"Uncletopia | San Francisco | 4 | Community","name_short":"sfo-4","host":"sfo-1.us.uncletopia.com","port":27045,"enabled":true,"region":"us-west","cc":"us","latitude":37.77397,"longitude":-122.4313,"reserved":0,"last_update":"0001-01-01T00:00:00Z","name_a2s":"Uncletopia | San Francisco | 4 | Community","protocol":17,"map":"cp_altitude","folder":"tf","game":"Team Fortress","app_id":440,"player_count":0,"max_players":24,"Bots":0,"server_type":"Dedicated","server_os":"Linux","password":true,"vac":true,"version":"7757534","steam_id":85568392924742826,"keywords":["cp","nocrits","nodmgspread","uncletopia"],"game_id":440,"stv_port":27046,"stv_name":"Uncletopia | San Francisco | 4 | Community | STV","players":null},{"server_id":141,"name":"Uncletopia | Sydney | 1 | All Maps","name_short":"syd-1","host":"syd-1.au.uncletopia.com","port":27015,"enabled":true,"region":"au","cc":"au","latitude":-33.865143,"longitude":151.2099,"reserved":0,"last_update":"0001-01-01T00:00:00Z","name_a2s":"Uncletopia | Sydney | 1 | All Maps","protocol":17,"map":"koth_lakeside_final","folder":"tf","game":"Team Fortress","app_id":440,"player_count":0,"max_players":24,"Bots":0,"server_type":"Dedicated","server_os":"Linux","password":true,"vac":true,"version":"7882260","steam_id":85568392924470001,"keywords":["cp","nocrits","nodmgspread","uncletopia"],"game_id":440,"stv_port":27016,"stv_name":"Uncletopia | Sydney | 1 | All Maps | STV","players":null},{"server_id":123,"name":"Uncletopia | Sydney | 2 | All Maps","name_short":"syd-2","host":"syd-1.au.uncletopia.com","port":27025,"enabled":true,"region":"au","cc":"au","latitude":-33.865143,"longitude":151.2099,"reserved":0,"last_update":"0001-01-01T00:00:00Z","name_a2s":"Uncletopia | Sydney | 2 | All Maps","protocol":17,"map":"cp_snakewater_final1","folder":"tf","game":"Team Fortress","app_id":440,"player_count":0,"max_players":24,"Bots":0,"server_type":"Dedicated","server_os":"Linux","password":true,"vac":true,"version":"7882260","steam_id":85568392924470002,"keywords":["cp","nocrits","nodmgspread","uncletopia"],"game_id":440,"stv_port":27026,"stv_name":"Uncletopia | Sydney | 2 | All Maps | STV","players":null},{"server_id":395,"name":"Uncletopia | Sydney | 3 | All Maps","name_short":"syd-3","host":"syd-1.au.uncletopia.com","port":27035,"enabled":true,"region":"au","cc":"au","latitude":-33.865143,"longitude":151.2099,"reserved":0,"last_update":"0001-01-01T00:00:00Z","name_a2s":"Uncletopia | Sydney | 3 | All Maps","protocol":17,"map":"pl_frontier_final","folder":"tf","game":"Team Fortress","app_id":440,"player_count":0,"max_players":24,"Bots":0,"server_type":"Dedicated","server_os":"Linux","password":true,"vac":true,"version":"7882260","steam_id":85568392925194467,"keywords":["nocrits","nodmgspread","payload","uncletopia"],"game_id":440,"stv_port":27036,"stv_name":"Uncletopia | Sydney | 3 | All Maps | STV","players":null},{"server_id":396,"name":"Uncletopia | Sydney | 4 | All Maps","name_short":"syd-4","host":"syd-1.au.uncletopia.com","port":27045,"enabled":true,"region":"au","cc":"au","latitude":-33.865143,"longitude":151.2099,"reserved":0,"last_update":"0001-01-01T00:00:00Z","name_a2s":"Uncletopia | Sydney | 4 | All Maps","protocol":17,"map":"koth_cascade","folder":"tf","game":"Team Fortress","app_id":440,"player_count":0,"max_players":24,"Bots":0,"server_type":"Dedicated","server_os":"Linux","password":true,"vac":true,"version":"7882260","steam_id":85568392925397958,"keywords":["cp","nocrits","nodmgspread","uncletopia"],"game_id":440,"stv_port":27046,"stv_name":"Uncletopia | Sydney | 4 | All Maps | STV","players":null},{"server_id":58,"name":"Uncletopia | Sydney | 5 | Stopwatch Beta","name_short":"syd-5","host":"syd-1.au.uncletopia.com","port":27055,"enabled":true,"region":"au","cc":"au","latitude":-33.865143,"longitude":151.2099,"reserved":0,"last_update":"0001-01-01T00:00:00Z","name_a2s":"Uncletopia | Sydney | 5 | Stopwatch Beta","protocol":17,"map":"pl_swiftwater_final1","folder":"tf","game":"Team Fortress","app_id":440,"player_count":0,"max_players":24,"Bots":0,"server_type":"Dedicated","server_os":"Linux","password":true,"vac":true,"version":"7882260","steam_id":85568392925397959,"keywords":["nocrits","nodmgspread","payload","uncletopia"],"game_id":440,"stv_port":27056,"stv_name":"Uncletopia | Sydney | 5 | Stopwatch Beta | STV","players":null},{"server_id":59,"name":"Uncletopia | Sydney | 6 | Community","name_short":"syd-6","host":"syd-1.au.uncletopia.com","port":27065,"enabled":true,"region":"au","cc":"au","latitude":-33.865143,"longitude":151.2099,"reserved":0,"last_update":"0001-01-01T00:00:00Z","name_a2s":"Uncletopia | Sydney | 6 | Community","protocol":17,"map":"pl_snowycoast","folder":"tf","game":"Team Fortress","app_id":440,"player_count":0,"max_players":24,"Bots":0,"server_type":"Dedicated","server_os":"Linux","password":true,"vac":true,"version":"7882260","steam_id":85568392925397960,"keywords":["nocrits","nodmgspread","payload","uncletopia"],"game_id":440,"stv_port":27066,"stv_name":"Uncletopia | Sydney | 6 | Community | STV","players":null},{"server_id":49,"name":"Uncletopia | Warsaw | 1 | All Maps","name_short":"waw-1","host":"waw-1.pl.uncletopia.com","port":27015,"enabled":true,"region":"eu","cc":"pl","latitude":52.2297,"longitude":21.017532,"reserved":0,"last_update":"0001-01-01T00:00:00Z","name_a2s":"","protocol":0,"map":"","folder":"","game":"","app_id":0,"player_count":0,"max_players":0,"Bots":0,"server_type":"","server_os":"","password":false,"vac":false,"version":"","steam_id":0,"keywords":null,"game_id":0,"stv_port":0,"stv_name":"","players":null},{"server_id":50,"name":"Uncletopia | Warsaw | 2 | All Maps","name_short":"waw-2","host":"waw-1.pl.uncletopia.com","port":27025,"enabled":true,"region":"eu","cc":"pl","latitude":52.2297,"longitude":21.017532,"reserved":0,"last_update":"0001-01-01T00:00:00Z","name_a2s":"Uncletopia | Warsaw | 2 | All Maps","protocol":17,"map":"koth_cascade","folder":"tf","game":"Team Fortress","app_id":440,"player_count":0,"max_players":24,"Bots":0,"server_type":"Dedicated","server_os":"Linux","password":true,"vac":true,"version":"7882260","steam_id":85568392925397851,"keywords":["cp","nocrits","nodmgspread","uncletopia"],"game_id":440,"stv_port":27026,"stv_name":"Uncletopia | Warsaw | 2 | All Maps | STV","players":null},{"server_id":51,"name":"Uncletopia | Warsaw | 3 | All Maps","name_short":"waw-3","host":"waw-1.pl.uncletopia.com","port":27035,"enabled":true,"region":"eu","cc":"pl","latitude":52.2297,"longitude":21.017532,"reserved":0,"last_update":"0001-01-01T00:00:00Z","name_a2s":"Uncletopia | Warsaw | 3 | All Maps","protocol":17,"map":"koth_highpass","folder":"tf","game":"Team Fortress","app_id":440,"player_count":0,"max_players":24,"Bots":0,"server_type":"Dedicated","server_os":"Linux","password":true,"vac":true,"version":"7882260","steam_id":85568392925397852,"keywords":["cp","nocrits","nodmgspread","uncletopia"],"game_id":440,"stv_port":27036,"stv_name":"Uncletopia | Warsaw | 3 | All Maps | STV","players":null},{"server_id":52,"name":"Uncletopia | Warsaw | 4 | All Maps","name_short":"waw-4","host":"waw-1.pl.uncletopia.com","port":27045,"enabled":true,"region":"eu","cc":"pl","latitude":52.2297,"longitude":21.017532,"reserved":0,"last_update":"0001-01-01T00:00:00Z","name_a2s":"Uncletopia | Warsaw | 4 | All Maps","protocol":17,"map":"koth_highpass","folder":"tf","game":"Team Fortress","app_id":440,"player_count":0,"max_players":24,"Bots":0,"server_type":"Dedicated","server_os":"Linux","password":true,"vac":true,"version":"7882260","steam_id":85568392925397853,"keywords":["cp","nocrits","nodmgspread","uncletopia"],"game_id":440,"stv_port":27046,"stv_name":"Uncletopia | Warsaw | 4 | All Maps | STV","players":null},{"server_id":53,"name":"Uncletopia | Warsaw | 5 | Stopwatch Beta","name_short":"waw-5","host":"waw-1.pl.uncletopia.com","port":27055,"enabled":true,"region":"eu","cc":"pl","latitude":52.2297,"longitude":21.017532,"reserved":0,"last_update":"0001-01-01T00:00:00Z","name_a2s":"Uncletopia | Warsaw | 5 | Stopwatch Beta","protocol":17,"map":"cp_mountainlab","folder":"tf","game":"Team Fortress","app_id":440,"player_count":0,"max_players":24,"Bots":0,"server_type":"Dedicated","server_os":"Linux","password":true,"vac":true,"version":"7882260","steam_id":85568392925397854,"keywords":["cp","nocrits","nodmgspread","uncletopia"],"game_id":440,"stv_port":27056,"stv_name":"Uncletopia | Warsaw | 5 | Stopwatch Beta | STV","players":null},{"server_id":54,"name":"Uncletopia | Warsaw | 6 | Community","name_short":"waw-6","host":"waw-1.pl.uncletopia.com","port":27065,"enabled":true,"region":"eu","cc":"pl","latitude":52.2297,"longitude":21.017532,"reserved":0,"last_update":"0001-01-01T00:00:00Z","name_a2s":"Uncletopia | Warsaw | 6 | Community","protocol":17,"map":"workshop/cp_indulge.ugc528106646","folder":"tf","game":"Team Fortress","app_id":440,"player_count":0,"max_players":24,"Bots":0,"server_type":"Dedicated","server_os":"Linux","password":true,"vac":true,"version":"7882260","steam_id":85568392925397856,"keywords":["cp","nocrits","nodmgspread","uncletopia"],"game_id":440,"stv_port":27066,"stv_name":"Uncletopia | Warsaw | 6 | Community | STV","players":null}]}