{"status":true,"message":"","result":[{"server_id":9,"name":"Uncletopia | Atlanta | 1 | All Maps","name_short":"atl-1","host":"atl-1.us.uncletopia.com","port":27015,"enabled":true,"region":"us-east","cc":"us","latitude":33.753746,"longitude":-84.38633,"reserved":0,"last_update":"0001-01-01T00:00:00Z","name_a2s":"Uncletopia | Atlanta | 1 | All Maps","protocol":17,"map":"pl_borneo","folder":"tf","game":"Team Fortress","app_id":440,"player_count":24,"max_players":24,"Bots":0,"server_type":"Dedicated","server_os":"Linux","password":true,"vac":true,"version":"7757534","steam_id":85568392924469982,"keywords":["nocrits","nodmgspread","payload","uncletopia"],"game_id":440,"stv_port":27016,"stv_name":"Uncletopia | Atlanta | 1 | All Maps | STV","players":[{"user_id":565,"name":"lil hog","steam_id":76561199230929836,"connected_time":2998000000000,"state":"active","ping":73},{"user_id":544,"name":"shaderoses","steam_id":76561198070800500,"connected_time":4216000000000,"state":"active","ping":61},{"user_id":561,"name":"ATL1 | chubbbo","steam_id":76561198943598378,"connected_time":3293000000000,"state":"active","ping":39},{"user_id":531,"name":"Crystron","steam_id":76561198880437428,"connected_time":6558000000000,"state":"active","ping":87},{"user_id":566,"name":"BIG HOG","steam_id":76561198079923652,"connected_time":2994000000000,"state":"active","ping":73},{"user_id":588,"name":"jaelyn","steam_id":76561199239926014,"connected_time":1124000000000,"state":"active","ping":76},{"user_id":578,"name":"Jin","steam_id":76561198119873148,"connected_time":2185000000000,"state":"active","ping":72},{"user_id":569,"name":"Cosmic sR","steam_id":76561198081738675,"connected_time":2851000000000,"state":"active","ping":62},{"user_id":496,"name":"daffodil","steam_id":76561198049480053,"connected_time":8530000000000,"state":"active","ping":71},{"user_id":589,"name":"Breach","steam_id":76561198045060392,"connected_time":1082000000000,"state":"active","ping":62},{"user_id":515,"name":"KBoneski ‚ô°","steam_id":76561198307409065,"connected_time":7573000000000,"state":"active","ping":101},{"user_id":590,"name":"Flint","steam_id":76561198066547582,"connected_time":1076000000000,"state":"active","ping":115},{"user_id":574,"name":"Albino Jellyfish","steam_id":76561198208561097,"connected_time":2480000000000,"state":"active","ping":69},{"user_id":593,"name":"sonic1394","steam_id":76561198054636788,"connected_time":164000000000,"state":"active","ping":95},{"user_id":582,"name":"capybara","steam_id":76561198182288455,"connected_time":1773000000000,"state":"active","ping":75},{"user_id":541,"name":"F_L Jad The Taff","steam_id":76561198095923905,"connected_time":5257000000000,"state":"active","ping":73},{"user_id":584,"name":"Oddball","steam_id":76561198040440984,"connected_time":1507000000000,"state":"active","ping":90},{"user_id":564,"name":"Higgle Poggers","steam_id":76561198043960257,"connected_time":3105000000000,"state":"active","ping":67},{"user_id":592,"name":"troll","steam_id":76561198040890252,"connected_time":179000000000,"state":"active","ping":57},{"user_id":591,"name":"blythe","steam_id":76561198254999149,"connected_time":813000000000,"state":"active","ping":69},{"user_id":586,"name":"Im High","steam_id":76561198049954886,"connected_time":1314000000000,"state":"active","ping":75},{"user_id":560,"name":"ATL1 | on my hunting trip","steam_id":76561198315341646,"connected_time":3447000000000,"state":"active","ping":82},{"user_id":594,"name":"morphine","steam_id":76561198072124799,"connected_time":108000000000,"state":"active","ping":97},{"user_id":557,"name":"David De Bergerac","steam_id":76561198010306294,"connected_time":3515000000000,"state":"active","ping":82}]},{"server_id":104,"name":"Uncletopia | Atlanta | 2 | All Maps","name_short":"atl-2","host":"atl-1.us.uncletopia.com","port":27025,"enabled":true,"region":"us-east","cc":"us","latitude":33.753746,"longitude":-84.38633,"reserved":0,"last_update":"0001-01-01T00:00:00Z","name_a2s":"Uncletopia | Atlanta | 2 | All Maps","protocol":17,"map":"pl_badwater","folder":"tf","game":"Team Fortress","app_id":440,"player_count":24,"max_players":24,"Bots":0,"server_type":"Dedicated","server_os":"Linux","password":true,"vac":true,"version":"7757534","steam_id":85568392924469983,"keywords":["nocrits","nodmgspread","payload","uncletopia"],"game_id":440,"stv_port":27026,"stv_name":"Uncletopia | Atlanta | 2 | All Maps | STV","players":[{"user_id":315,"name":"TOKENLIZARD","steam_id":76561198218765205,"connected_time":2288000000000,"state":"active","ping":86},{"user_id":333,"name":"zigby","steam_id":76561198247345278,"connected_time":968000000000,"state":"active","ping":73},{"user_id":323,"name":"wG deez","steam_id":76561198277163301,"connected_time":1749000000000,"state":"active","ping":81},{"user_id":320,"name":"TransWomanGaming","steam_id":76561198809645656,"connected_time":1779000000000,"state":"active","ping":85},{"user_id":332,"name":"my singing monsters slut","steam_id":76561198095600494,"connected_time":1240000000000,"state":"active","ping":66},{"user_id":202,"name":"aisu","steam_id":76561198043768507,"connected_time":11475000000000,"state":"active","ping":81},{"user_id":334,"name":"Pinto","steam_id":76561199105386998,"connected_time":906000000000,"state":"active","ping":87},{"user_id":331,"name":"Ëø∑Ë∑ØÁöÑÁãêÁã∏akemii‚úø","steam_id":76561198406252824,"connected_time":1315000000000,"state":"active","ping":119},{"user_id":327,"name":"Space Cops","steam_id":76561198032414253,"connected_time":1705000000000,"state":"active","ping":57},{"user_id":223,"name":"C papi","steam_id":76561198027779564,"connected_time":9472000000000,"state":"active","ping":51},{"user_id":316,"name":"Bottom-Fragging Dog Witch","steam_id":76561198103496593,"connected_time":2251000000000,"state":"active","ping":46},{"user_id":324,"name":"Roberto Del Fuego","steam_id":76561198043458554,"connected_time":1737000000000,"state":"active","ping":69},{"user_id":313,"name":"comet sooicidy","steam_id":76561198025173479,"connected_time":2409000000000,"state":"active","ping":78},{"user_id":317,"name":"-W3E- grim10465","steam_id":76561198045698581,"connected_time":2250000000000,"state":"active","ping":59},{"user_id":287,"name":"Disco Bandit","steam_id":76561198152639419,"connected_time":4388000000000,"state":"active","ping":48},{"user_id":308,"name":"drooskie","steam_id":76561198036083886,"connected_time":3022000000000,"state":"active","ping":66},{"user_id":278,"name":"trappy (soggy)","steam_id":76561198402801140,"connected_time":4686000000000,"state":"active","ping":84},{"user_id":251,"name":"plank","steam_id":76561198133608972,"connected_time":6688000000000,"state":"active","ping":63},{"user_id":325,"name":"·É¶Lotus","steam_id":76561198205338192,"connected_time":1734000000000,"state":"active","ping":94},{"user_id":335,"name":"Sorrow","steam_id":76561198050225563,"connected_time":864000000000,"state":"active","ping":86},{"user_id":205,"name":"JellyRoll Jerry","steam_id":76561198037149474,"connected_time":11463000000000,"state":"active","ping":119},{"user_id":336,"name":"Xraverz","steam_id":76561198008891628,"connected_time":581000000000,"state":"active","ping":95},{"user_id":146,"name":"Pancakes","steam_id":76561198097983190,"connected_time":14825000000000,"state":"active","ping":59},{"user_id":326,"name":"Slashes","steam_id":76561197968573499,"connected_time":1721000000000,"state":"active","ping":59}]},{"server_id":400,"name":"Uncletopia | Atlanta | 3 | Community","name_short":"atl-3","host":"atl-1.us.uncletopia.com","port":27035,"enabled":true,"region":"us-east","cc":"us","latitude":33.753746,"longitude":-84.38633,"reserved":0,"last_update":"0001-01-01T00:00:00Z","name_a2s":"Uncletopia | Atlanta | 3 | Community","protocol":17,"map":"workshop/pl_vigil_rc9.ugc1266210012","folder":"tf","game":"Team Fortress","app_id":440,"player_count":0,"max_players":24,"Bots":0,"server_type":"Dedicated","server_os":"Linux","password":true,"vac":true,"version":"7757534","steam_id":85568392924515187,"keywords":["nocrits","nodmgspread","payload","uncletopia"],"game_id":440,"stv_port":27036,"stv_name":"Uncletopia | Atlanta | 3 | Community | STV","players":null},{"server_id":401,"name":"Uncletopia | Atlanta | 4 | No Payload","name_short":"atl-4","host":"atl-1.us.uncletopia.com","port":27045,"enabled":true,"region":"us-east","cc":"us","latitude":33.753746,"longitude":-84.38633,"reserved":0,"last_update":"0001-01-01T00:00:00Z","name_a2s":"","protocol":0,"map":"","folder":"","game":"","app_id":0,"player_count":0,"max_players":0,"Bots":0,"server_type":"","server_os":"","password":false,"vac":false,"version":"","steam_id":0,"keywords":null,"game_id":0,"stv_port":0,"stv_name":"","players":null},{"server_id":2,"name":"Uncletopia | Chicago | 1 | All Maps","name_short":"chi-1","host":"chi-1.us.uncletopia.com","port":27015,"enabled":true,"region":"us-central","cc":"us","latitude":41.881832,"longitude":-87.62318,"reserved":0,"last_update":"0001-01-01T00:00:00Z","name_a2s":"Uncletopia | Chicago | 1 | All Maps","protocol":17,"map":"pl_frontier_final","folder":"tf","game":"Team Fortress","app_id":440,"player_count":24,"max_players":24,"Bots":0,"server_type":"Dedicated","server_os":"Linux","password":true,"vac":true,"version":"7757534","steam_id":85568392924469984,"keywords":["nocrits","nodmgspread","payload","uncletopia"],"game_id":440,"stv_port":27016,"stv_name":"Uncletopia | Chicago | 1 | All Maps | STV","players":[{"user_id":621,"name":"Chucklin","steam_id":76561198010823579,"connected_time":58000000000,"state":"active","ping":116},{"user_id":619,"name":"Also Known As Assteeth","steam_id":76561198049837377,"connected_time":105000000000,"state":"active","ping":51},{"user_id":561,"name":"Thundermonkey (SMOKE)","steam_id":76561198017631728,"connected_time":4964000000000,"state":"active","ping":63},{"user_id":622,"name":"I Cooka Da Pizza","steam_id":76561198084167611,"connected_time":53000000000,"state":"active","ping":62},{"user_id":588,"name":"Lamb Sauce","steam_id":76561198136059840,"connected_time":3066000000000,"state":"active","ping":65},{"user_id":600,"name":"Zoro01","steam_id":76561198407989540,"connected_time":2200000000000,"state":"active","ping":113},{"user_id":606,"name":"ayecodex","steam_id":76561199477598858,"connected_time":1752000000000,"state":"active","ping":67},{"user_id":557,"name":"Merlinzbeard","steam_id":76561199428305712,"connected_time":5294000000000,"state":"active","ping":72},{"user_id":602,"name":"kogundy","steam_id":76561198449012128,"connected_time":2184000000000,"state":"active","ping":127},{"user_id":607,"name":"Oberon","steam_id":76561199360964272,"connected_time":1732000000000,"state":"active","ping":55},{"user_id":620,"name":"L√∏st","steam_id":76561198035677801,"connected_time":64000000000,"state":"active","ping":59},{"user_id":623,"name":"[GUT] RiDiK¬Æ","steam_id":76561197969756446,"connected_time":11000000000,"state":"active","ping":55},{"user_id":502,"name":"Low DROOPing Fruit","steam_id":76561198856700517,"connected_time":8378000000000,"state":"active","ping":72},{"user_id":586,"name":"i really like this dog :)","steam_id":76561198882404753,"connected_time":3202000000000,"state":"active","ping":73},{"user_id":614,"name":"Avo","steam_id":76561197993340494,"connected_time":767000000000,"state":"active","ping":74},{"user_id":613,"name":"weezer red album","steam_id":76561198379857415,"connected_time":979000000000,"state":"active","ping":63},{"user_id":618,"name":"stink","steam_id":76561198099318923,"connected_time":508000000000,"state":"active","ping":54},{"user_id":603,"name":"Streetwise","steam_id":76561197971684268,"connected_time":2174000000000,"state":"active","ping":104},{"user_id":567,"name":"Trove","steam_id":76561198110970476,"connected_time":4771000000000,"state":"active","ping":45},{"user_id":611,"name":"Tree","steam_id":76561198195445331,"connected_time":1560000000000,"state":"active","ping":122},{"user_id":610,"name":"Mr. Crispy Lips","steam_id":76561198028157625,"connected_time":1574000000000,"state":"active","ping":97},{"user_id":582,"name":"Praise_to_the_Flashlight!","steam_id":76561199001728789,"connected_time":3561000000000,"state":"active","ping":66},{"user_id":624,"name":"Apollo","steam_id":76561198212077205,"connected_time":11000000000,"state":"active","ping":102},{"user_id":617,"name":"Farm3rJh0nson","steam_id":76561199166153873,"connected_time":748000000000,"state":"active","ping":103}]},{"server_id":106,"name":"Uncletopia | Chicago | 2 | All Maps","name_short":"chi-2","host":"chi-1.us.uncletopia.com","port":27025,"enabled":true,"region":"us-central","cc":"us","latitude":41.881832,"longitude":-87.62318,"reserved":0,"last_update":"0001-01-01T00:00:00Z","name_a2s":"Uncletopia | Chicago | 2 | All Maps","protocol":17,"map":"pl_barnblitz","folder":"tf","game":"Team Fortress","app_id":440,"player_count":22,"max_players":24,"Bots":0,"server_type":"Dedicated","server_os":"Linux","password":true,"vac":true,"version":"7757534","steam_id":85568392924469985,"keywords":["nocrits","nodmgspread","payload","uncletopia"],"game_id":440,"stv_port":27026,"stv_name":"Uncletopia | Chicago | 2 | All Maps | STV","players":[{"user_id":560,"name":"wunkem","steam_id":76561198055948497,"connected_time":700000000000,"state":"active","ping":68},{"user_id":564,"name":"mashallah","steam_id":76561198075111427,"connected_time":18000000000,"state":"active","ping":68},{"user_id":486,"name":"ARGON Soulidity","steam_id":76561198429603550,"connected_time":5631000000000,"state":"active","ping":70},{"user_id":555,"name":"catrinaisahuman","steam_id":76561198281355729,"connected_time":1063000000000,"state":"active","ping":61},{"user_id":533,"name":"Donnie Blasto","steam_id":76561198043432005,"connected_time":2993000000000,"state":"active","ping":49},{"user_id":561,"name":"ae","steam_id":76561198012945016,"connected_time":674000000000,"state":"active","ping":55},{"user_id":513,"name":"ameritech","steam_id":76561198064769089,"connected_time":3721000000000,"state":"active","ping":86},{"user_id":517,"name":"I \u003c3 Vore","steam_id":76561198980062131,"connected_time":3599000000000,"state":"active","ping":71},{"user_id":518,"name":"Jake The Snake","steam_id":76561198047722285,"connected_time":3550000000000,"state":"active","ping":85},{"user_id":553,"name":"gorf?","steam_id":76561198142286417,"connected_time":1081000000000,"state":"active","ping":60},{"user_id":511,"name":"Xaukra","steam_id":76561198180742229,"connected_time":3811000000000,"state":"active","ping":73},{"user_id":545,"name":"ntjohn","steam_id":76561198043367011,"connected_time":1555000000000,"state":"active","ping":59},{"user_id":519,"name":"Pokon","steam_id":76561198053113088,"connected_time":3548000000000,"state":"active","ping":60},{"user_id":549,"name":"Dr. Ôº¥ÔΩâÔΩçÔΩìÔΩãÔΩÅ","steam_id":76561198272075712,"connected_time":1421000000000,"state":"active","ping":69},{"user_id":548,"name":"Pepperoni King","steam_id":76561198190288063,"connected_time":1455000000000,"state":"active","ping":94},{"user_id":544,"name":"honk","steam_id":76561198050398028,"connected_time":1696000000000,"state":"active","ping":64},{"user_id":559,"name":"Dream Witch","steam_id":76561198060135722,"connected_time":866000000000,"state":"active","ping":101},{"user_id":547,"name":"Cheese Master","steam_id":76561198189176634,"connected_time":1477000000000,"state":"active","ping":101},{"user_id":521,"name":"FrozenCowJuice","steam_id":76561198130568045,"connected_time":3506000000000,"state":"active","ping":47},{"user_id":556,"name":"Uzi bin Laden","steam_id":76561198218811453,"connected_time":1057000000000,"state":"active","ping":80},{"user_id":557,"name":"Michael :D","steam_id":76561198041191113,"connected_time":1037000000000,"state":"active","ping":74},{"user_id":527,"name":"i forgor","steam_id":76561199120622265,"connected_time":3375000000000,"state":"active","ping":78}]},{"server_id":402,"name":"Uncletopia | Chicago | 3 | All Maps","name_short":"chi-3","host":"chi-1.us.uncletopia.com","port":27035,"enabled":true,"region":"us-central","cc":"us","latitude":41.881832,"longitude":-87.62318,"reserved":0,"last_update":"0001-01-01T00:00:00Z","name_a2s":"Uncletopia | Chicago | 3 | All Maps","protocol":17,"map":"pl_borneo","folder":"tf","game":"Team Fortress","app_id":440,"player_count":24,"max_players":24,"Bots":0,"server_type":"Dedicated","server_os":"Linux","password":true,"vac":true,"version":"7757534","steam_id":85568392924515191,"keywords":["nocrits","nodmgspread","payload","uncletopia"],"game_id":440,"stv_port":27036,"stv_name":"Uncletopia | Chicago | 3 | All Maps | STV","players":[{"user_id":278,"name":"Peter Popoff","steam_id":76561198027171160,"connected_time":498000000000,"state":"active","ping":30},{"user_id":281,"name":"leumas","steam_id":76561198240408540,"connected_time":338000000000,"state":"active","ping":60},{"user_id":224,"name":"Concolor","steam_id":76561198027734150,"connected_time":5862000000000,"state":"active","ping":71},{"user_id":253,"name":"Spike","steam_id":76561198141356571,"connected_time":3512000000000,"state":"active","ping":58},{"user_id":260,"name":"Bee","steam_id":76561198074681324,"connected_time":2463000000000,"state":"active","ping":66},{"user_id":244,"name":"wiiblob","steam_id":76561198109106242,"connected_time":4861000000000,"state":"active","ping":137},{"user_id":242,"name":"Wallem","steam_id":76561198052361822,"connected_time":4918000000000,"state":"active","ping":71},{"user_id":254,"name":"Remmy","steam_id":76561198268857418,"connected_time":3473000000000,"state":"active","ping":72},{"user_id":270,"name":"zpalmtree","steam_id":76561198134307620,"connected_time":1683000000000,"state":"active","ping":74},{"user_id":202,"name":"ùô¥ ùö° ùöå ùöé ùöï ùöï \ufffd","steam_id":76561198011887958,"connected_time":7202000000000,"state":"active","ping":62},{"user_id":172,"name":"java","steam_id":76561198030276792,"connected_time":10088000000000,"state":"active","ping":73},{"user_id":284,"name":"lfty","steam_id":76561198283841707,"connected_time":1000000000,"state":"spawning","ping":54},{"user_id":247,"name":"thecal","steam_id":76561198307893384,"connected_time":4452000000000,"state":"active","ping":56},{"user_id":272,"name":"caption cool","steam_id":76561197990612056,"connected_time":1164000000000,"state":"active","ping":46},{"user_id":282,"name":"turtle","steam_id":76561198112673874,"connected_time":20000000000,"state":"spawning","ping":82},{"user_id":275,"name":"cheetaz","steam_id":76561198224614084,"connected_time":628000000000,"state":"active","ping":60},{"user_id":280,"name":"beans","steam_id":76561199149582131,"connected_time":386000000000,"state":"active","ping":84},{"user_id":277,"name":"Zoot","steam_id":76561198121944243,"connected_time":600000000000,"state":"active","ping":74},{"user_id":283,"name":"Bag","steam_id":76561198012395490,"connected_time":8000000000,"state":"active","ping":100},{"user_id":229,"name":"lanoc","steam_id":76561198055415367,"connected_time":5684000000000,"state":"active","ping":72},{"user_id":190,"name":"Bad Medic Buddy","steam_id":76561198093222632,"connected_time":7730000000000,"state":"active","ping":78},{"user_id":279,"name":"OmniMoto","steam_id":76561198091298557,"connected_time":467000000000,"state":"active","ping":77},{"user_id":273,"name":"PCR","steam_id":76561198048748102,"connected_time":971000000000,"state":"active","ping":45}]},{"server_id":403,"name":"Uncletopia | Chicago | 4 | All Maps","name_short":"chi-4","host":"chi-1.us.uncletopia.com","port":27045,"enabled":true,"region":"us-central","cc":"us","latitude":41.881832,"longitude":-87.62318,"reserved":0,"last_update":"0001-01-01T00:00:00Z","name_a2s":"Uncletopia | Chicago | 4 | All Maps","protocol":17,"map":"pl_badwater","folder":"tf","game":"Team Fortress","app_id":440,"player_count":24,"max_players":24,"Bots":0,"server_type":"Dedicated","server_os":"Linux","password":true,"vac":true,"version":"7757534","steam_id":85568392924515193,"keywords":["nocrits","nodmgspread","payload","uncletopia"],"game_id":440,"stv_port":27046,"stv_name":"Uncletopia | Chicago | 4 | All Maps | STV","players":[{"user_id":405,"name":"TechnoBear2099","steam_id":76561198238863596,"connected_time":1541000000000,"state":"active","ping":63},{"user_id":406,"name":"eccuC","steam_id":76561198034818632,"connected_time":1511000000000,"state":"active","ping":146},{"user_id":424,"name":"36","steam_id":76561199482235026,"connected_time":625000000000,"state":"active","ping":72},{"user_id":427,"name":"PTR","steam_id":76561198237253772,"connected_time":381000000000,"state":"active","ping":74},{"user_id":419,"name":"Nephs","steam_id":76561198136763403,"connected_time":965000000000,"state":"active","ping":84},{"user_id":353,"name":"Lavender","steam_id":76561198142770666,"connected_time":6828000000000,"state":"active","ping":53},{"user_id":409,"name":"Sera","steam_id":76561197994547338,"connected_time":1423000000000,"state":"active","ping":73},{"user_id":425,"name":"JellyParrot","steam_id":76561199190990163,"connected_time":607000000000,"state":"active","ping":64},{"user_id":410,"name":"Wizard Raccoon","steam_id":76561198072562591,"connected_time":1400000000000,"state":"active","ping":81},{"user_id":411,"name":"Colonel Chikara","steam_id":76561198010021087,"connected_time":1314000000000,"state":"active","ping":94},{"user_id":396,"name":"Hemorrhoid Harry","steam_id":76561198092494136,"connected_time":2978000000000,"state":"active","ping":60},{"user_id":412,"name":"fnaf 3","steam_id":76561198278943839,"connected_time":1267000000000,"state":"active","ping":119},{"user_id":360,"name":"Jeremopolis","steam_id":76561198079467492,"connected_time":6287000000000,"state":"active","ping":74},{"user_id":434,"name":"AJTarcza","steam_id":76561198070800190,"connected_time":104000000000,"state":"active","ping":87},{"user_id":421,"name":"Olly","steam_id":76561198054273611,"connected_time":838000000000,"state":"active","ping":66},{"user_id":428,"name":"Dr Oshawott","steam_id":76561198042021629,"connected_time":369000000000,"state":"active","ping":65},{"user_id":429,"name":"shadowarrior","steam_id":76561198231304076,"connected_time":354000000000,"state":"active","ping":64},{"user_id":433,"name":"tide*ÔΩ•Ôæü‚úß","steam_id":76561198092224185,"connected_time":248000000000,"state":"active","ping":70},{"user_id":430,"name":"Flowers","steam_id":76561198031669899,"connected_time":333000000000,"state":"active","ping":85},{"user_id":380,"name":"unlikelycure","steam_id":76561199174450788,"connected_time":4253000000000,"state":"active","ping":102},{"user_id":399,"name":"keffers","steam_id":76561198202338796,"connected_time":2963000000000,"state":"active","ping":70},{"user_id":416,"name":"JestinJester","steam_id":76561198411846094,"connected_time":1181000000000,"state":"active","ping":71},{"user_id":436,"name":"big ol' buford","steam_id":76561198290675957,"connected_time":52000000000,"state":"active","ping":60},{"user_id":418,"name":"MusicDisc","steam_id":76561199065980569,"connected_time":978000000000,"state":"active","ping":92}]},{"server_id":36,"name":"Uncletopia | Chicago | 5 | All Maps","name_short":"chi-5","host":"chi-2.us.uncletopia.com","port":27015,"enabled":true,"region":"us-central","cc":"us","latitude":41.881832,"longitude":-87.62318,"reserved":0,"last_update":"0001-01-01T00:00:00Z","name_a2s":"Uncletopia | Chicago | 5 | All Maps","protocol":17,"map":"cp_snakewater_final1","folder":"tf","game":"Team Fortress","app_id":440,"player_count":21,"max_players":24,"Bots":0,"server_type":"Dedicated","server_os":"Linux","password":true,"vac":true,"version":"7757534","steam_id":85568392924866362,"keywords":["cp","nocrits","nodmgspread","uncletopia"],"game_id":440,"stv_port":27016,"stv_name":"Uncletopia | Chicago | 5 | All Maps | STV","players":[{"user_id":241,"name":"Aristotle Voulton","steam_id":76561198100174923,"connected_time":108000000000,"state":"active","ping":98},{"user_id":199,"name":"Jones","steam_id":76561198046037216,"connected_time":4008000000000,"state":"active","ping":89},{"user_id":185,"name":"Bee's","steam_id":76561198041888432,"connected_time":4491000000000,"state":"active","ping":86},{"user_id":186,"name":"Large Hardon Collider","steam_id":76561198023896605,"connected_time":4434000000000,"state":"active","ping":72},{"user_id":147,"name":"Winter the Witchie","steam_id":76561198151971178,"connected_time":6607000000000,"state":"active","ping":58},{"user_id":236,"name":"Depths","steam_id":76561198343435310,"connected_time":479000000000,"state":"active","ping":104},{"user_id":237,"name":"fug","steam_id":76561198043706112,"connected_time":466000000000,"state":"active","ping":54},{"user_id":209,"name":"Person","steam_id":76561198093244204,"connected_time":3149000000000,"state":"active","ping":74},{"user_id":234,"name":"Eric Cartman","steam_id":76561198798952432,"connected_time":800000000000,"state":"active","ping":103},{"user_id":238,"name":"shrub","steam_id":76561198108020681,"connected_time":190000000000,"state":"active","ping":60},{"user_id":226,"name":"the perpetrator","steam_id":76561198111975583,"connected_time":1873000000000,"state":"active","ping":76},{"user_id":235,"name":"CollDragon","steam_id":76561198067534450,"connected_time":785000000000,"state":"active","ping":68},{"user_id":227,"name":"Epha","steam_id":76561198079379951,"connected_time":1826000000000,"state":"active","ping":63},{"user_id":191,"name":"The Brain Fuckler","steam_id":76561198042601093,"connected_time":4404000000000,"state":"active","ping":70},{"user_id":239,"name":"Randumb","steam_id":76561199083286636,"connected_time":174000000000,"state":"active","ping":58},{"user_id":232,"name":"theoreminegaming","steam_id":76561198175573917,"connected_time":1249000000000,"state":"active","ping":65},{"user_id":240,"name":"M9 Shyamalan","steam_id":76561198149425560,"connected_time":131000000000,"state":"active","ping":87},{"user_id":219,"name":"briggs","steam_id":76561198045655893,"connected_time":2549000000000,"state":"active","ping":60},{"user_id":221,"name":"hud_saytext_time 0","steam_id":76561198010327228,"connected_time":2162000000000,"state":"active","ping":165},{"user_id":220,"name":"Meet The Amazing Bret","steam_id":76561198137326099,"connected_time":2519000000000,"state":"active","ping":98},{"user_id":222,"name":"Baoshan Iron \u0026 Steel Co., Ltd.","steam_id":76561198095313463,"connected_time":2116000000000,"state":"active","ping":60}]},{"server_id":37,"name":"Uncletopia | Chicago | 6 | All Maps","name_short":"chi-6","host":"chi-2.us.uncletopia.com","port":27025,"enabled":true,"region":"us-central","cc":"us","latitude":41.881832,"longitude":-87.62318,"reserved":0,"last_update":"0001-01-01T00:00:00Z","name_a2s":"Uncletopia | Chicago | 6 | All Maps","protocol":17,"map":"pl_snowycoast","folder":"tf","game":"Team Fortress","app_id":440,"player_count":24,"max_players":24,"Bots":0,"server_type":"Dedicated","server_os":"Linux","password":true,"vac":true,"version":"7757534","steam_id":85568392924866363,"keywords":["nocrits","nodmgspread","payload","uncletopia"],"game_id":440,"stv_port":27026,"stv_name":"Uncletopia | Chicago | 6 | All Maps | STV","players":[{"user_id":390,"name":"TheVoidPotatUwU","steam_id":76561198869981759,"connected_time":261000000000,"state":"spawning","ping":112},{"user_id":345,"name":"Sychke","steam_id":76561198067144055,"connected_time":5423000000000,"state":"active","ping":45},{"user_id":358,"name":"Peppino Spaghetti","steam_id":76561198155403131,"connected_time":4339000000000,"state":"active","ping":73},{"user_id":388,"name":"Ortadragon","steam_id":76561198023058412,"connected_time":1145000000000,"state":"active","ping":99},{"user_id":391,"name":"Pugzilla","steam_id":76561198108088960,"connected_time":225000000000,"state":"active","ping":60},{"user_id":392,"name":"hedahman","steam_id":76561198052398134,"connected_time":211000000000,"state":"active","ping":95},{"user_id":346,"name":"garbo","steam_id":76561198149280150,"connected_time":5400000000000,"state":"active","ping":88},{"user_id":394,"name":"Taze","steam_id":76561198000708462,"connected_time":176000000000,"state":"active","ping":61},{"user_id":373,"name":"Mike From Jordan","steam_id":76561198121217982,"connected_time":3258000000000,"state":"active","ping":58},{"user_id":378,"name":"Novatonix","steam_id":76561198150980760,"connected_time":3130000000000,"state":"active","ping":75},{"user_id":374,"name":"Juevos","steam_id":76561198066142119,"connected_time":3235000000000,"state":"active","ping":116},{"user_id":393,"name":"pigswill","steam_id":76561197999081865,"connected_time":200000000000,"state":"active","ping":90},{"user_id":395,"name":"Titan Exodos","steam_id":76561198063852935,"connected_time":164000000000,"state":"active","ping":100},{"user_id":396,"name":"demoknight tf2","steam_id":76561198070393998,"connected_time":161000000000,"state":"active","ping":64},{"user_id":383,"name":"Stan_The_Stick_Man","steam_id":76561198158340112,"connected_time":1915000000000,"state":"active","ping":122},{"user_id":342,"name":"vertical orientation correction","steam_id":76561198007464245,"connected_time":5461000000000,"state":"active","ping":75},{"user_id":381,"name":"Countputzala","steam_id":76561198121150316,"connected_time":2781000000000,"state":"active","ping":110},{"user_id":343,"name":"hashmap","steam_id":76561198043794014,"connected_time":5461000000000,"state":"active","ping":52},{"user_id":398,"name":"silvanae324","steam_id":76561199150642573,"connected_time":108000000000,"state":"active","ping":103},{"user_id":365,"name":"vcx","steam_id":76561198139371143,"connected_time":4139000000000,"state":"active","ping":80},{"user_id":399,"name":"Amogous Supreme","steam_id":76561198025476774,"connected_time":106000000000,"state":"active","ping":114},{"user_id":350,"name":"Wimojimo12","steam_id":76561198370459596,"connected_time":5322000000000,"state":"active","ping":64},{"user_id":369,"name":"Recursive Gamer","steam_id":76561198042102952,"connected_time":4008000000000,"state":"active","ping":59},{"user_id":377,"name":"just another frag","steam_id":76561198249650234,"connected_time":3205000000000,"state":"active","ping":66}]},{"server_id":38,"name":"Uncletopia | Chicago | 7 | Stopwatch Beta","name_short":"chi-7","host":"chi-2.us.uncletopia.com","port":27035,"enabled":true,"region":"us-central","cc":"us","latitude":41.881832,"longitude":-87.62318,"reserved":0,"last_update":"0001-01-01T00:00:00Z","name_a2s":"Uncletopia | Chicago | 7 | Stopwatch Beta","protocol":17,"map":"workshop/pl_barnblitz_pro7.ugc582280235","folder":"tf","game":"Team Fortress","app_id":440,"player_count":8,"max_players":24,"Bots":0,"server_type":"Dedicated","server_os":"Linux","password":true,"vac":true,"version":"7757534","steam_id":85568392924866364,"keywords":["nocrits","nodmgspread","payload","uncletopia"],"game_id":440,"stv_port":27036,"stv_name":"Uncletopia | Chicago | 7 | Stopwatch Beta | STV","players":[{"user_id":164,"name":"yuki562","steam_id":76561198355068405,"connected_time":888000000000,"state":"active","ping":60},{"user_id":165,"name":"Goldensliv","steam_id":76561198161673891,"connected_time":863000000000,"state":"active","ping":87},{"user_id":166,"name":"Sprit ‚ô•","steam_id":76561198268780781,"connected_time":852000000000,"state":"active","ping":50},{"user_id":167,"name":"Truly Cryo","steam_id":76561198347497484,"connected_time":830000000000,"state":"active","ping":83},{"user_id":171,"name":"frizzle fried","steam_id":76561198062991744,"connected_time":74000000000,"state":"spawning","ping":187},{"user_id":169,"name":"Stick","steam_id":76561198001509374,"connected_time":411000000000,"state":"active","ping":73},{"user_id":141,"name":"lesio","steam_id":76561198064249174,"connected_time":2660000000000,"state":"active","ping":71},{"user_id":151,"name":"sciencenerd42","steam_id":76561198274563320,"connected_time":2370000000000,"state":"active","ping":51}]},{"server_id":39,"name":"Uncletopia | Chicago | 8 | Community","name_short":"chi-8","host":"chi-2.us.uncletopia.com","port":27045,"enabled":true,"region":"us-central","cc":"us","latitude":41.881832,"longitude":-87.62318,"reserved":0,"last_update":"0001-01-01T00:00:00Z","name_a2s":"Uncletopia | Chicago | 8 | Community","protocol":17,"map":"workshop/pl_emerge_rc2.ugc888027758","folder":"tf","game":"Team Fortress","app_id":440,"player_count":23,"max_players":24,"Bots":0,"server_type":"Dedicated","server_os":"Linux","password":true,"vac":true,"version":"7757534","steam_id":85568392924866365,"keywords":["nocrits","nodmgspread","payload","uncletopia"],"game_id":440,"stv_port":27046,"stv_name":"Uncletopia | Chicago | 8 | Community | STV","players":[{"user_id":303,"name":"Clifford Banes","steam_id":76561198145921847,"connected_time":1850000000000,"state":"active","ping":60},{"user_id":296,"name":"Flip","steam_id":76561198858374321,"connected_time":2284000000000,"state":"active","ping":60},{"user_id":282,"name":"My dad owns Club Penguin.","steam_id":76561198032864436,"connected_time":2657000000000,"state":"active","ping":72},{"user_id":283,"name":"AllShamNoWow","steam_id":76561198987929393,"connected_time":2589000000000,"state":"active","ping":134},{"user_id":324,"name":"cactus stealer","steam_id":76561199103120314,"connected_time":670000000000,"state":"active","ping":113},{"user_id":332,"name":"Rock Kickass","steam_id":76561198450510841,"connected_time":88000000000,"state":"active","ping":172},{"user_id":246,"name":"Robin","steam_id":76561198121165149,"connected_time":5110000000000,"state":"active","ping":29},{"user_id":309,"name":"Greg Rock","steam_id":76561198111548861,"connected_time":1739000000000,"state":"active","ping":75},{"user_id":334,"name":"Raccoon.Of.Waffle.House","steam_id":76561199018770554,"connected_time":16000000000,"state":"spawning","ping":112},{"user_id":318,"name":"Jamrag","steam_id":76561199031241776,"connected_time":1129000000000,"state":"active","ping":75},{"user_id":320,"name":"girl smell","steam_id":76561198118962168,"connected_time":1071000000000,"state":"active","ping":89},{"user_id":291,"name":"SaucyKakes","steam_id":76561198253907657,"connected_time":2435000000000,"state":"active","ping":51},{"user_id":325,"name":"night.light","steam_id":76561198014557455,"connected_time":646000000000,"state":"active","ping":54},{"user_id":287,"name":"bl8demast3r","steam_id":76561198006308462,"connected_time":2505000000000,"state":"active","ping":72},{"user_id":330,"name":"MR. BEEEEEEEEEEAAAAAAAAAST","steam_id":76561198205346760,"connected_time":546000000000,"state":"active","ping":58},{"user_id":298,"name":"LEGALIZE NUCLEAR BOMBS","steam_id":76561198031675881,"connected_time":2166000000000,"state":"active","ping":43},{"user_id":331,"name":"Menacing Pile of Frogs","steam_id":76561198360134800,"connected_time":258000000000,"state":"active","ping":74},{"user_id":326,"name":"swiftyy","steam_id":76561198142939433,"connected_time":637000000000,"state":"active","ping":73},{"user_id":317,"name":"L0b5terlick","steam_id":76561198134990930,"connected_time":1172000000000,"state":"active","ping":61},{"user_id":307,"name":"Kered13","steam_id":76561197985666167,"connected_time":1760000000000,"state":"active","ping":59},{"user_id":239,"name":"‡πñ√êiestow","steam_id":76561198046662484,"connected_time":6016000000000,"state":"active","ping":68},{"user_id":327,"name":"cactus eater","steam_id":76561199107499844,"connected_time":625000000000,"state":"active","ping":117},{"user_id":328,"name":"Loleo","steam_id":76561198348132374,"connected_time":600000000000,"state":"active","ping":54}]},{"server_id":8,"name":"Uncletopia | Dallas | 1 | All Maps","name_short":"dal-1","host":"dal-1.us.uncletopia.com","port":27015,"enabled":true,"region":"us-central","cc":"us","latitude":32.779167,"longitude":-96.80889,"reserved":0,"last_update":"0001-01-01T00:00:00Z","name_a2s":"Uncletopia | Dallas | 1 | All Maps","protocol":17,"map":"ctf_turbine","folder":"tf","game":"Team Fortress","app_id":440,"player_count":24,"max_players":24,"Bots":0,"server_type":"Dedicated","server_os":"Linux","password":true,"vac":true,"version":"7757534","steam_id":85568392924469986,"keywords":["ctf","nocrits","nodmgspread","uncletopia"],"game_id":440,"stv_port":27016,"stv_name":"Uncletopia | Dallas | 1 | All Maps | STV","players":[{"user_id":255,"name":"Jarate Jihadi","steam_id":76561197999837455,"connected_time":5848000000000,"state":"active","ping":75},{"user_id":304,"name":"Scrambledeggs","steam_id":76561198988504962,"connected_time":2018000000000,"state":"active","ping":80},{"user_id":227,"name":"iaPK","steam_id":76561198056618642,"connected_time":8729000000000,"state":"active","ping":48},{"user_id":323,"name":"Mellow Marshal","steam_id":76561198828607652,"connected_time":465000000000,"state":"active","ping":80},{"user_id":314,"name":"Oro from Simpsons","steam_id":76561199481745795,"connected_time":977000000000,"state":"active","ping":52},{"user_id":320,"name":"Op banana","steam_id":76561198303231451,"connected_time":671000000000,"state":"active","ping":44},{"user_id":308,"name":"slonked","steam_id":76561198124191084,"connected_time":1479000000000,"state":"active","ping":60},{"user_id":310,"name":"BoopBerry","steam_id":76561198871571711,"connected_time":1446000000000,"state":"active","ping":84},{"user_id":333,"name":"Kyzer","steam_id":76561198048034600,"connected_time":157000000000,"state":"active","ping":90},{"user_id":330,"name":"mac_cheese","steam_id":76561198071334162,"connected_time":285000000000,"state":"active","ping":90},{"user_id":316,"name":"DAS SCHNITZELSTIEN","steam_id":76561198051137159,"connected_time":759000000000,"state":"active","ping":126},{"user_id":326,"name":"Just Chuck","steam_id":76561198121697504,"connected_time":305000000000,"state":"active","ping":74},{"user_id":327,"name":"Puppermint Latte","steam_id":76561198076054697,"connected_time":289000000000,"state":"active","ping":74},{"user_id":296,"name":"hycoda","steam_id":76561198045197971,"connected_time":2409000000000,"state":"active","ping":72},{"user_id":328,"name":"WILDF1RE","steam_id":76561198050098483,"connected_time":289000000000,"state":"active","ping":87},{"user_id":306,"name":"Brendan","steam_id":76561198041079914,"connected_time":1727000000000,"state":"active","ping":83},{"user_id":329,"name":"Space_Cowboy","steam_id":76561198202240772,"connected_time":287000000000,"state":"active","ping":56},{"user_id":309,"name":"Arrluk","steam_id":76561198396679452,"connected_time":1463000000000,"state":"active","ping":70},{"user_id":277,"name":"Harold","steam_id":76561198057317770,"connected_time":3995000000000,"state":"active","ping":74},{"user_id":334,"name":"Asian Satan","steam_id":76561198165834444,"connected_time":71000000000,"state":"active","ping":70},{"user_id":221,"name":"Ballista","steam_id":76561197983182562,"connected_time":9537000000000,"state":"active","ping":54},{"user_id":335,"name":"DesertFroggo","steam_id":76561198015607829,"connected_time":34000000000,"state":"active","ping":135},{"user_id":322,"name":"fuckterry","steam_id":76561198271957738,"connected_time":518000000000,"state":"active","ping":74},{"user_id":312,"name":"Goofball","steam_id":76561198061211537,"connected_time":1329000000000,"state":"active","ping":76}]},{"server_id":108,"name":"Uncletopia | Dallas | 2 | All Maps","name_short":"dal-2","host":"dal-1.us.uncletopia.com","port":27025,"enabled":true,"region":"us-central","cc":"us","latitude":32.779167,"longitude":-96.80889,"reserved":0,"last_update":"0001-01-01T00:00:00Z","name_a2s":"Uncletopia | Dallas | 2 | All Maps","protocol":17,"map":"cp_mountainlab","folder":"tf","game":"Team Fortress","app_id":440,"player_count":17,"max_players":24,"Bots":0,"server_type":"Dedicated","server_os":"Linux","password":true,"vac":true,"version":"7757534","steam_id":85568392924469988,"keywords":["cp","nocrits","nodmgspread","uncletopia"],"game_id":440,"stv_port":27026,"stv_name":"Uncletopia | Dallas | 2 | All Maps | STV","players":[{"user_id":816,"name":"Brother Pudge","steam_id":76561198247815090,"connected_time":433000000000,"state":"active","ping":90},{"user_id":775,"name":"TheFryingDutchman","steam_id":76561199193784099,"connected_time":4262000000000,"state":"active","ping":67},{"user_id":820,"name":"AudaCD","steam_id":76561198202775853,"connected_time":125000000000,"state":"active","ping":59},{"user_id":815,"name":"Mythius","steam_id":76561198401392472,"connected_time":455000000000,"state":"active","ping":89},{"user_id":818,"name":"Sammich Slinger","steam_id":76561198007644532,"connected_time":206000000000,"state":"active","ping":67},{"user_id":814,"name":"—Å—á–∏–∑—è—≥","steam_id":76561199182960322,"connected_time":634000000000,"state":"active","ping":59},{"user_id":804,"name":"CupOJo","steam_id":76561198067153390,"connected_time":1566000000000,"state":"active","ping":74},{"user_id":819,"name":"Carnamate","steam_id":76561198138077990,"connected_time":167000000000,"state":"active","ping":54},{"user_id":803,"name":"John16Mark","steam_id":76561198119445407,"connected_time":1586000000000,"state":"active","ping":60},{"user_id":821,"name":"Aino","steam_id":76561198053662930,"connected_time":83000000000,"state":"active","ping":111},{"user_id":813,"name":"A Straw","steam_id":76561199367935846,"connected_time":976000000000,"state":"active","ping":74},{"user_id":750,"name":"Joe Swanson","steam_id":76561199089907740,"connected_time":7518000000000,"state":"active","ping":71},{"user_id":812,"name":"pizza hutsman","steam_id":76561199026721822,"connected_time":1086000000000,"state":"active","ping":90},{"user_id":790,"name":"Chad","steam_id":76561198222313772,"connected_time":3184000000000,"state":"active","ping":103},{"user_id":792,"name":"MrNarwhale","steam_id":76561198222364020,"connected_time":3096000000000,"state":"active","ping":99},{"user_id":793,"name":"beleaguered harlot","steam_id":76561198036884600,"connected_time":3057000000000,"state":"active","ping":89},{"user_id":771,"name":"swag messiah","steam_id":76561197983860697,"connected_time":4601000000000,"state":"active","ping":168}]},{"server_id":5,"name":"Uncletopia | Frankfurt | 1 | All Maps","name_short":"frk-1","host":"frk-1.de.uncletopia.com","port":27015,"enabled":true,"region":"eu","cc":"de","latitude":50.110924,"longitude":8.682127,"reserved":0,"last_update":"0001-01-01T00:00:00Z","name_a2s":"Uncletopia | Frankfurt | 1 | All Maps","protocol":17,"map":"pl_swiftwater_final1","folder":"tf","game":"Team Fortress","app_id":440,"player_count":0,"max_players":24,"Bots":0,"server_type":"Dedicated","server_os":"Linux","password":true,"vac":true,"version":"7757534","steam_id":85568392924469989,"keywords":["nocrits","nodmgspread","payload","uncletopia"],"game_id":440,"stv_port":27016,"stv_name":"Uncletopia | Frankfurt | 1 | All Maps | STV","players":null},{"server_id":110,"name":"Uncletopia | Frankfurt | 2 | All Maps","name_short":"frk-2","host":"frk-1.de.uncletopia.com","port":27025,"enabled":true,"region":"eu","cc":"de","latitude":50.110924,"longitude":8.682127,"reserved":0,"last_update":"0001-01-01T00:00:00Z","name_a2s":"Uncletopia | Frankfurt | 2 | All Maps","protocol":17,"map":"koth_cascade","folder":"tf","game":"Team Fortress","app_id":440,"player_count":0,"max_players":24,"Bots":0,"server_type":"Dedicated","server_os":"Linux","password":true,"vac":true,"version":"7757534","steam_id":85568392924469990,"keywords":["cp","nocrits","nodmgspread","uncletopia"],"game_id":440,"stv_port":27026,"stv_name":"Uncletopia | Frankfurt | 2 | All Maps | STV","players":null},{"server_id":308,"name":"Uncletopia | Frankfurt | 3 | All Maps","name_short":"frk-3","host":"frk-1.de.uncletopia.com","port":27035,"enabled":true,"region":"eu","cc":"de","latitude":50.110924,"longitude":8.682127,"reserved":0,"last_update":"0001-01-01T00:00:00Z","name_a2s":"Uncletopia | Frankfurt | 3 | All Maps","protocol":17,"map":"pl_borneo","folder":"tf","game":"Team Fortress","app_id":440,"player_count":0,"max_players":24,"Bots":0,"server_type":"Dedicated","server_os":"Linux","password":true,"vac":true,"version":"7757534","steam_id":85568392924504274,"keywords":["nocrits","nodmgspread","payload","uncletopia"],"game_id":440,"stv_port":27036,"stv_name":"Uncletopia | Frankfurt | 3 | All Maps | STV","players":null},{"server_id":309,"name":"Uncletopia | Frankfurt | 4 | All Maps","name_short":"frk-4","host":"frk-1.de.uncletopia.com","port":27045,"enabled":true,"region":"eu","cc":"de","latitude":50.110924,"longitude":8.682127,"reserved":0,"last_update":"0001-01-01T00:00:00Z","name_a2s":"Uncletopia | Frankfurt | 4 | All Maps","protocol":17,"map":"pl_snowycoast","folder":"tf","game":"Team Fortress","app_id":440,"player_count":0,"max_players":24,"Bots":0,"server_type":"Dedicated","server_os":"Linux","password":true,"vac":true,"version":"7757534","steam_id":85568392924504275,"keywords":["nocrits","nodmgspread","payload","uncletopia"],"game_id":440,"stv_port":27046,"stv_name":"Uncletopia | Frankfurt | 4 | All Maps | STV","players":null},{"server_id":310,"name":"Uncletopia | Frankfurt | 5 | All Maps","name_short":"frk-5","host":"frk-1.de.uncletopia.com","port":27055,"enabled":true,"region":"eu","cc":"de","latitude":50.110924,"longitude":8.682127,"reserved":0,"last_update":"0001-01-01T00:00:00Z","name_a2s":"Uncletopia | Frankfurt | 5 | All Maps","protocol":17,"map":"cp_mountainlab","folder":"tf","game":"Team Fortress","app_id":440,"player_count":0,"max_players":24,"Bots":0,"server_type":"Dedicated","server_os":"Linux","password":true,"vac":true,"version":"7757534","steam_id":85568392924504277,"keywords":["cp","nocrits","nodmgspread","uncletopia"],"game_id":440,"stv_port":27056,"stv_name":"Uncletopia | Frankfurt | 5 | All Maps | STV","players":null},{"server_id":311,"name":"Uncletopia | Frankfurt | 6 | All Maps","name_short":"frk-6","host":"frk-1.de.uncletopia.com","port":27065,"enabled":true,"region":"eu","cc":"de","latitude":50.110924,"longitude":8.682127,"reserved":0,"last_update":"0001-01-01T00:00:00Z","name_a2s":"Uncletopia | Frankfurt | 6 | All Maps","protocol":17,"map":"koth_cascade","folder":"tf","game":"Team Fortress","app_id":440,"player_count":0,"max_players":24,"Bots":0,"server_type":"Dedicated","server_os":"Linux","password":true,"vac":true,"version":"7757534","steam_id":85568392924504278,"keywords":["cp","nocrits","nodmgspread","uncletopia"],"game_id":440,"stv_port":27066,"stv_name":"Uncletopia | Frankfurt | 6 | All Maps | STV","players":null},{"server_id":23,"name":"Uncletopia | Frankfurt | 7 | Stopwatch Beta","name_short":"frk-7","host":"frk-1.de.uncletopia.com","port":27075,"enabled":true,"region":"eu","cc":"de","latitude":50.110924,"longitude":8.682127,"reserved":0,"last_update":"0001-01-01T00:00:00Z","name_a2s":"Uncletopia | Frankfurt | 7 | Stopwatch Beta","protocol":17,"map":"koth_highpass","folder":"tf","game":"Team Fortress","app_id":440,"player_count":0,"max_players":24,"Bots":0,"server_type":"Dedicated","server_os":"Linux","password":true,"vac":true,"version":"7757534","steam_id":85568392924742827,"keywords":["cp","nocrits","nodmgspread","uncletopia"],"game_id":440,"stv_port":27076,"stv_name":"Uncletopia | Frankfurt | 7 | Stopwatch Beta | STV","players":null},{"server_id":24,"name":"Uncletopia | Frankfurt | 8 | Community","name_short":"frk-8","host":"frk-1.de.uncletopia.com","port":27085,"enabled":true,"region":"eu","cc":"de","latitude":50.110924,"longitude":8.682127,"reserved":0,"last_update":"0001-01-01T00:00:00Z","name_a2s":"Uncletopia | Frankfurt | 8 | Community","protocol":17,"map":"workshop/pl_vigil_rc9.ugc1266210012","folder":"tf","game":"Team Fortress","app_id":440,"player_count":0,"max_players":24,"Bots":0,"server_type":"Dedicated","server_os":"Linux","password":true,"vac":true,"version":"7757534","steam_id":85568392924742828,"keywords":["nocrits","nodmgspread","payload","uncletopia"],"game_id":440,"stv_port":27086,"stv_name":"Uncletopia | Frankfurt | 8 | Community | STV","players":null},{"server_id":202,"name":"Uncletopia | Hong Kong | 1 | All Maps","name_short":"hgk-1","host":"hgk-1.hk.uncletopia.com","port":27015,"enabled":true,"region":"asia","cc":"hk","latitude":22.302711,"longitude":114.177216,"reserved":0,"last_update":"0001-01-01T00:00:00Z","name_a2s":"Uncletopia | Hong Kong | 1 | All Maps","protocol":17,"map":"pl_swiftwater_final1","folder":"tf","game":"Team Fortress","app_id":440,"player_count":15,"max_players":24,"Bots":0,"server_type":"Dedicated","server_os":"Linux","password":true,"vac":true,"version":"7757534","steam_id":85568392924494504,"keywords":["nocrits","nodmgspread","payload","uncletopia"],"game_id":440,"stv_port":27016,"stv_name":"Uncletopia | Hong Kong | 1 | All Maps | STV","players":[{"user_id":39,"name":"Xx_EpicTrickstabber_xX","steam_id":76561199024960087,"connected_time":1202000000000,"state":"active","ping":61},{"user_id":18,"name":"Gefin","steam_id":76561198944317181,"connected_time":4588000000000,"state":"active","ping":74},{"user_id":36,"name":"\"SKS\"","steam_id":76561198187995386,"connected_time":1468000000000,"state":"active","ping":85},{"user_id":21,"name":"Fis1cA","steam_id":76561199273824817,"connected_time":3820000000000,"state":"active","ping":86},{"user_id":11,"name":"„Éó„É≠„Ç≤„Éº„Éû„Éº","steam_id":76561199017344476,"connected_time":6401000000000,"state":"active","ping":77},{"user_id":38,"name":"monkeyman536","steam_id":76561197997717737,"connected_time":1273000000000,"state":"active","ping":128},{"user_id":46,"name":"cellum95","steam_id":76561198172146871,"connected_time":197000000000,"state":"active","ping":79},{"user_id":26,"name":"‚ô±  I LuV Loona  ‚ô±","steam_id":76561199020745258,"connected_time":2655000000000,"state":"active","ping":75},{"user_id":30,"name":"Hmmm","steam_id":76561198860991924,"connected_time":1945000000000,"state":"active","ping":105},{"user_id":40,"name":"Duck Gaming","steam_id":76561199233387593,"connected_time":802000000000,"state":"active","ping":96},{"user_id":42,"name":"_kobic","steam_id":76561199166938276,"connected_time":499000000000,"state":"active","ping":65},{"user_id":44,"name":"LoKomi","steam_id":76561198419919248,"connected_time":379000000000,"state":"active","ping":120},{"user_id":45,"name":"Likes","steam_id":76561198012769267,"connected_time":353000000000,"state":"active","ping":75},{"user_id":33,"name":"TheChainsaw","steam_id":76561198312001455,"connected_time":1852000000000,"state":"active","ping":108},{"user_id":47,"name":"Air Peanut","steam_id":76561198060068000,"connected_time":101000000000,"state":"active","ping":70}]},{"server_id":1,"name":"Uncletopia | Los Angeles | 1 | All Maps","name_short":"lax-1","host":"lax-1.us.uncletopia.com","port":27015,"enabled":true,"region":"us-west","cc":"us","latitude":33.94279,"longitude":-118.41004,"reserved":0,"last_update":"0001-01-01T00:00:00Z","name_a2s":"Uncletopia | Los Angeles | 1 | All Maps","protocol":17,"map":"pl_upward","folder":"tf","game":"Team Fortress","app_id":440,"player_count":23,"max_players":24,"Bots":0,"server_type":"Dedicated","server_os":"Linux","password":true,"vac":true,"version":"7757534","steam_id":85568392924469991,"keywords":["nocrits","nodmgspread","payload","uncletopia"],"game_id":440,"stv_port":27016,"stv_name":"Uncletopia | Los Angeles | 1 | All Maps | STV","players":[{"user_id":337,"name":"sammie.tebo","steam_id":76561199212495985,"connected_time":4856000000000,"state":"active","ping":100},{"user_id":407,"name":"imtoofadedicantevendapuup","steam_id":76561198180372310,"connected_time":445000000000,"state":"active","ping":89},{"user_id":395,"name":"Geight","steam_id":76561197991645292,"connected_time":1101000000000,"state":"active","ping":87},{"user_id":388,"name":"Dragonsalt","steam_id":76561198141927559,"connected_time":1544000000000,"state":"active","ping":72},{"user_id":409,"name":"John Wick's puppy","steam_id":76561198064662875,"connected_time":225000000000,"state":"active","ping":50},{"user_id":353,"name":"[DATS‚û°] Sugar Meowth","steam_id":76561197995251793,"connected_time":3547000000000,"state":"active","ping":74},{"user_id":397,"name":"gromit","steam_id":76561198037746805,"connected_time":949000000000,"state":"active","ping":119},{"user_id":411,"name":"Forty","steam_id":76561198257410181,"connected_time":4000000000,"state":"spawning","ping":82},{"user_id":399,"name":"Satori Komeiji","steam_id":76561198158211423,"connected_time":936000000000,"state":"active","ping":48},{"user_id":400,"name":"slime ( ,'' w'' )","steam_id":76561198198984282,"connected_time":920000000000,"state":"active","ping":117},{"user_id":386,"name":"twitch.tv/Don_Bongo","steam_id":76561197976735155,"connected_time":1570000000000,"state":"active","ping":86},{"user_id":401,"name":"yurty","steam_id":76561198036307721,"connected_time":905000000000,"state":"active","ping":105},{"user_id":402,"name":"how do i control my guy?","steam_id":76561198158855211,"connected_time":890000000000,"state":"active","ping":73},{"user_id":379,"name":"Kave_in","steam_id":76561198032713622,"connected_time":2037000000000,"state":"active","ping":109},{"user_id":357,"name":"TBNRBusStop","steam_id":76561199001440066,"connected_time":3404000000000,"state":"active","ping":69},{"user_id":390,"name":"xx360noscope","steam_id":76561198018018106,"connected_time":1508000000000,"state":"active","ping":120},{"user_id":410,"name":"Slim Charles","steam_id":76561197981687895,"connected_time":184000000000,"state":"active","ping":58},{"user_id":403,"name":"tim1975","steam_id":76561199328301077,"connected_time":885000000000,"state":"active","ping":62},{"user_id":391,"name":"BigBadger","steam_id":76561197996567694,"connected_time":1506000000000,"state":"active","ping":84},{"user_id":394,"name":"Shu","steam_id":76561198086205207,"connected_time":1143000000000,"state":"active","ping":53},{"user_id":406,"name":"Vincent Van Bro","steam_id":76561197966919802,"connected_time":498000000000,"state":"active","ping":84},{"user_id":279,"name":"LAN!!K^","steam_id":76561199229169363,"connected_time":8091000000000,"state":"active","ping":116},{"user_id":405,"name":"Paper Clipp","steam_id":76561199065796296,"connected_time":853000000000,"state":"active","ping":54}]},{"server_id":112,"name":"Uncletopia | Los Angeles | 2 | All Maps","name_short":"lax-2","host":"lax-1.us.uncletopia.com","port":27025,"enabled":true,"region":"us-west","cc":"us","latitude":33.94279,"longitude":-118.41004,"reserved":0,"last_update":"0001-01-01T00:00:00Z","name_a2s":"Uncletopia | Los Angeles | 2 | All Maps","protocol":17,"map":"pl_thundermountain","folder":"tf","game":"Team Fortress","app_id":440,"player_count":23,"max_players":24,"Bots":0,"server_type":"Dedicated","server_os":"Linux","password":true,"vac":true,"version":"7757534","steam_id":85568392924469992,"keywords":["nocrits","nodmgspread","payload","uncletopia"],"game_id":440,"stv_port":27026,"stv_name":"Uncletopia | Los Angeles | 2 | All Maps | STV","players":[{"user_id":402,"name":"the world is watching","steam_id":76561198875376206,"connected_time":494000000000,"state":"active","ping":48},{"user_id":390,"name":"Deathkillsme","steam_id":76561198059468746,"connected_time":1427000000000,"state":"active","ping":73},{"user_id":400,"name":"Flunk","steam_id":76561198012070780,"connected_time":676000000000,"state":"active","ping":100},{"user_id":323,"name":"Agent BSoD","steam_id":76561198050346368,"connected_time":5333000000000,"state":"active","ping":76},{"user_id":327,"name":"MonkeyNobody","steam_id":76561199451266605,"connected_time":5027000000000,"state":"active","ping":55},{"user_id":394,"name":"A man with no plan","steam_id":76561198031075099,"connected_time":1201000000000,"state":"active","ping":99},{"user_id":378,"name":"Dededoo","steam_id":76561198279033471,"connected_time":2102000000000,"state":"active","ping":107},{"user_id":336,"name":"A UsedNom","steam_id":76561198402832756,"connected_time":4722000000000,"state":"active","ping":60},{"user_id":403,"name":"aiden","steam_id":76561198170381402,"connected_time":385000000000,"state":"active","ping":101},{"user_id":379,"name":"The Foolish Samurai","steam_id":76561198094494945,"connected_time":2076000000000,"state":"active","ping":73},{"user_id":405,"name":"Jpzarde","steam_id":76561197978240364,"connected_time":107000000000,"state":"active","ping":87},{"user_id":369,"name":"RipHunter77","steam_id":76561198272973014,"connected_time":2494000000000,"state":"active","ping":97},{"user_id":386,"name":"AST Sir Pantoja","steam_id":76561198118858300,"connected_time":1790000000000,"state":"active","ping":92},{"user_id":367,"name":"VoodooPapa","steam_id":76561199160439066,"connected_time":2681000000000,"state":"active","ping":62},{"user_id":359,"name":"greg","steam_id":76561199206080182,"connected_time":2990000000000,"state":"active","ping":102},{"user_id":389,"name":"Glar","steam_id":76561198341907150,"connected_time":1587000000000,"state":"active","ping":70},{"user_id":404,"name":"Clagger","steam_id":76561198066701092,"connected_time":234000000000,"state":"active","ping":70},{"user_id":392,"name":"Lemonade Juice","steam_id":76561198402892608,"connected_time":1371000000000,"state":"active","ping":48},{"user_id":381,"name":"Baggage","steam_id":76561198215128080,"connected_time":2066000000000,"state":"active","ping":64},{"user_id":399,"name":"SPAMTON NFT","steam_id":76561198263004448,"connected_time":751000000000,"state":"active","ping":45},{"user_id":396,"name":"Scorpianswag","steam_id":76561198260651036,"connected_time":1030000000000,"state":"active","ping":31},{"user_id":371,"name":"Smells","steam_id":76561197985297402,"connected_time":2459000000000,"state":"active","ping":69},{"user_id":397,"name":"i cant aim","steam_id":76561198065873462,"connected_time":1026000000000,"state":"active","ping":52}]},{"server_id":324,"name":"Uncletopia | Los Angeles | 3 | All Maps","name_short":"lax-3","host":"lax-1.us.uncletopia.com","port":27035,"enabled":true,"region":"us-west","cc":"us","latitude":33.94279,"longitude":-118.41004,"reserved":0,"last_update":"0001-01-01T00:00:00Z","name_a2s":"Uncletopia | Los Angeles | 3 | All Maps","protocol":17,"map":"cp_sunshine","folder":"tf","game":"Team Fortress","app_id":440,"player_count":20,"max_players":24,"Bots":0,"server_type":"Dedicated","server_os":"Linux","password":true,"vac":true,"version":"7757534","steam_id":85568392924510198,"keywords":["cp","nocrits","nodmgspread","uncletopia"],"game_id":440,"stv_port":27036,"stv_name":"Uncletopia | Los Angeles | 3 | All Maps | STV","players":[{"user_id":182,"name":"Thunder","steam_id":76561198097721532,"connected_time":2056000000000,"state":"active","ping":47},{"user_id":193,"name":"ecto cooler","steam_id":76561198068409067,"connected_time":1372000000000,"state":"active","ping":137},{"user_id":208,"name":"St. Michael","steam_id":76561198037611052,"connected_time":121000000000,"state":"active","ping":74},{"user_id":168,"name":"128 GB RAM SENTRY","steam_id":76561198059500571,"connected_time":2995000000000,"state":"active","ping":98},{"user_id":183,"name":"VicLoL","steam_id":76561198045580784,"connected_time":2031000000000,"state":"active","ping":55},{"user_id":209,"name":"a chicken","steam_id":76561198313121580,"connected_time":60000000000,"state":"active","ping":57},{"user_id":185,"name":"Ellis","steam_id":76561198993634489,"connected_time":1945000000000,"state":"active","ping":48},{"user_id":199,"name":"SN0W","steam_id":76561198153665468,"connected_time":1182000000000,"state":"active","ping":88},{"user_id":203,"name":"the stallion","steam_id":76561198212242403,"connected_time":800000000000,"state":"active","ping":44},{"user_id":204,"name":"Jolly","steam_id":76561198116357972,"connected_time":454000000000,"state":"active","ping":46},{"user_id":188,"name":"Power Jake","steam_id":76561198051510260,"connected_time":1845000000000,"state":"active","ping":61},{"user_id":195,"name":"RapidXenophage","steam_id":76561198175149973,"connected_time":1300000000000,"state":"active","ping":83},{"user_id":190,"name":"Squirrel","steam_id":76561198010113101,"connected_time":1769000000000,"state":"active","ping":62},{"user_id":196,"name":"whathashit69","steam_id":76561199013105760,"connected_time":1289000000000,"state":"active","ping":116},{"user_id":205,"name":"Pah-Wraith Gul Dukat","steam_id":76561198033918106,"connected_time":316000000000,"state":"active","ping":53},{"user_id":201,"name":"Honky Bobocop #Cheeba","steam_id":76561198264288798,"connected_time":1027000000000,"state":"active","ping":53},{"user_id":181,"name":"Frank (#ripJimmyCarter)","steam_id":76561198126681511,"connected_time":2297000000000,"state":"active","ping":71},{"user_id":202,"name":"SevereTireDamage","steam_id":76561198866019085,"connected_time":985000000000,"state":"active","ping":118},{"user_id":179,"name":"Truffles","steam_id":76561198095868800,"connected_time":2599000000000,"state":"active","ping":98},{"user_id":198,"name":"airbudenjoyer2012","steam_id":76561198150428763,"connected_time":1215000000000,"state":"active","ping":56}]},{"server_id":25,"name":"Uncletopia | Los Angeles | 4 | Stopwatch Beta","name_short":"lax-4","host":"lax-1.us.uncletopia.com","port":27045,"enabled":true,"region":"us-west","cc":"us","latitude":33.94279,"longitude":-118.41004,"reserved":0,"last_update":"0001-01-01T00:00:00Z","name_a2s":"Uncletopia | Los Angeles | 4 | Stopwatch Beta","protocol":17,"map":"pl_swiftwater_final1","folder":"tf","game":"Team Fortress","app_id":440,"player_count":0,"max_players":24,"Bots":0,"server_type":"Dedicated","server_os":"Linux","password":true,"vac":true,"version":"7757534","steam_id":85568392924510199,"keywords":["nocrits","nodmgspread","payload","uncletopia"],"game_id":440,"stv_port":27046,"stv_name":"Uncletopia | Los Angeles | 4 | Stopwatch Beta | STV","players":null},{"server_id":11,"name":"Uncletopia | London | 1 | All Maps","name_short":"lon-1","host":"lon-1.uk.uncletopia.com","port":27015,"enabled":true,"region":"eu","cc":"gb","latitude":51.509865,"longitude":-0.118092,"reserved":0,"last_update":"0001-01-01T00:00:00Z","name_a2s":"Uncletopia | London | 1 | All Maps","protocol":17,"map":"cp_dustbowl","folder":"tf","game":"Team Fortress","app_id":440,"player_count":19,"max_players":24,"Bots":0,"server_type":"Dedicated","server_os":"Linux","password":true,"vac":true,"version":"7757534","steam_id":85568392924367362,"keywords":["cp","nocrits","nodmgspread","uncletopia"],"game_id":440,"stv_port":27016,"stv_name":"Uncletopia | London | 1 | All Maps | STV","players":[{"user_id":1090,"name":"cat_in_the_chat","steam_id":76561198028618742,"connected_time":445000000000,"state":"active","ping":69},{"user_id":1093,"name":"Kavary","steam_id":76561198024792146,"connected_time":407000000000,"state":"active","ping":89},{"user_id":1074,"name":"Taha ,","steam_id":76561199259524970,"connected_time":1602000000000,"state":"active","ping":110},{"user_id":1092,"name":"SuperBob103","steam_id":76561199175360012,"connected_time":411000000000,"state":"active","ping":59},{"user_id":1089,"name":"i_dunno_how_to_type","steam_id":76561198995020535,"connected_time":482000000000,"state":"active","ping":120},{"user_id":1094,"name":"MK-Ultra","steam_id":76561198799692444,"connected_time":361000000000,"state":"active","ping":130},{"user_id":1096,"name":"Juliocrivera","steam_id":76561198003186978,"connected_time":306000000000,"state":"active","ping":137},{"user_id":1078,"name":"originalakalil","steam_id":76561199481172481,"connected_time":1191000000000,"state":"active","ping":156},{"user_id":1079,"name":"Miacelium","steam_id":76561198021638448,"connected_time":1166000000000,"state":"active","ping":57},{"user_id":1101,"name":"oldy","steam_id":76561198031899043,"connected_time":2000000000,"state":"spawning","ping":90},{"user_id":1056,"name":"Lewylow","steam_id":76561198005425686,"connected_time":2986000000000,"state":"active","ping":55},{"user_id":1097,"name":"bumo","steam_id":76561197963231514,"connected_time":299000000000,"state":"active","ping":187},{"user_id":1098,"name":"HauntedNobu","steam_id":76561199202411385,"connected_time":212000000000,"state":"active","ping":175},{"user_id":1099,"name":"Grabby Aliens","steam_id":76561198041076837,"connected_time":123000000000,"state":"active","ping":174},{"user_id":1100,"name":"Flex","steam_id":76561198192010526,"connected_time":13000000000,"state":"spawning","ping":233},{"user_id":1071,"name":"Arkainiel Silver","steam_id":76561198188302519,"connected_time":1854000000000,"state":"active","ping":56},{"user_id":1084,"name":"Orion","steam_id":76561198000418837,"connected_time":667000000000,"state":"active","ping":164},{"user_id":1087,"name":"kyuta","steam_id":76561198382281653,"connected_time":549000000000,"state":"active","ping":75},{"user_id":1088,"name":"Subliminal Siren","steam_id":76561198068928154,"connected_time":500000000000,"state":"active","ping":50}]},{"server_id":114,"name":"Uncletopia | London | 2 | All Maps","name_short":"lon-2","host":"lon-1.uk.uncletopia.com","port":27025,"enabled":true,"region":"eu","cc":"gb","latitude":51.509865,"longitude":-0.118092,"reserved":0,"last_update":"0001-01-01T00:00:00Z","name_a2s":"Uncletopia | London | 2 | All Maps","protocol":17,"map":"koth_viaduct","folder":"tf","game":"Team Fortress","app_id":440,"player_count":0,"max_players":24,"Bots":0,"server_type":"Dedicated","server_os":"Linux","password":true,"vac":true,"version":"7757534","steam_id":85568392924470941,"keywords":["cp","nocrits","nodmgspread","uncletopia"],"game_id":440,"stv_port":27026,"stv_name":"Uncletopia | London | 2 | All Maps | STV","players":null},{"server_id":320,"name":"Uncletopia | London | 3 | All Maps","name_short":"lon-3","host":"lon-1.uk.uncletopia.com","port":27035,"enabled":true,"region":"eu","cc":"gb","latitude":51.509865,"longitude":-0.118092,"reserved":0,"last_update":"0001-01-01T00:00:00Z","name_a2s":"Uncletopia | London | 3 | All Maps","protocol":17,"map":"koth_lakeside_final","folder":"tf","game":"Team Fortress","app_id":440,"player_count":0,"max_players":24,"Bots":0,"server_type":"Dedicated","server_os":"Linux","password":true,"vac":true,"version":"7757534","steam_id":85568392924510192,"keywords":["cp","nocrits","nodmgspread","uncletopia"],"game_id":440,"stv_port":27036,"stv_name":"Uncletopia | London | 3 | All Maps | STV","players":null},{"server_id":321,"name":"Uncletopia | London | 4 | All Maps","name_short":"lon-4","host":"lon-1.uk.uncletopia.com","port":27045,"enabled":true,"region":"eu","cc":"gb","latitude":51.509865,"longitude":-0.118092,"reserved":0,"last_update":"0001-01-01T00:00:00Z","name_a2s":"Uncletopia | London | 4 | All Maps","protocol":17,"map":"koth_viaduct","folder":"tf","game":"Team Fortress","app_id":440,"player_count":0,"max_players":24,"Bots":0,"server_type":"Dedicated","server_os":"Linux","password":true,"vac":true,"version":"7757534","steam_id":85568392924510193,"keywords":["cp","nocrits","nodmgspread","uncletopia"],"game_id":440,"stv_port":27046,"stv_name":"Uncletopia | London | 4 | All Maps | STV","players":null},{"server_id":21,"name":"Uncletopia | London | 5 | All Maps","name_short":"lon-5","host":"lon-1.uk.uncletopia.com","port":27055,"enabled":true,"region":"eu","cc":"gb","latitude":51.509865,"longitude":-0.118092,"reserved":0,"last_update":"0001-01-01T00:00:00Z","name_a2s":"Uncletopia | London | 5 | All Maps","protocol":17,"map":"koth_highpass","folder":"tf","game":"Team Fortress","app_id":440,"player_count":0,"max_players":24,"Bots":0,"server_type":"Dedicated","server_os":"Linux","password":true,"vac":true,"version":"7757534","steam_id":85568392924742829,"keywords":["cp","nocrits","nodmgspread","uncletopia"],"game_id":440,"stv_port":27056,"stv_name":"Uncletopia | London | 5 | All Maps | STV","players":null},{"server_id":22,"name":"Uncletopia | London | 6 | All Maps","name_short":"lon-6","host":"lon-1.uk.uncletopia.com","port":27065,"enabled":true,"region":"eu","cc":"gb","latitude":51.509865,"longitude":-0.118092,"reserved":0,"last_update":"0001-01-01T00:00:00Z","name_a2s":"Uncletopia | London | 6 | All Maps","protocol":17,"map":"cp_dustbowl","folder":"tf","game":"Team Fortress","app_id":440,"player_count":0,"max_players":24,"Bots":0,"server_type":"Dedicated","server_os":"Linux","password":true,"vac":true,"version":"7757534","steam_id":85568392924742830,"keywords":["cp","nocrits","nodmgspread","uncletopia"],"game_id":440,"stv_port":27066,"stv_name":"Uncletopia | London | 6 | All Maps | STV","players":null},{"server_id":40,"name":"Uncletopia | London | 7 | No Payload","name_short":"lon-7","host":"lon-1.uk.uncletopia.com","port":27075,"enabled":true,"region":"eu","cc":"gb","latitude":51.509865,"longitude":-0.118092,"reserved":0,"last_update":"0001-01-01T00:00:00Z","name_a2s":"Uncletopia | London | 7 | No Payload","protocol":17,"map":"ctf_doublecross","folder":"tf","game":"Team Fortress","app_id":440,"player_count":0,"max_players":24,"Bots":0,"server_type":"Dedicated","server_os":"Linux","password":true,"vac":true,"version":"7757534","steam_id":85568392924964314,"keywords":["ctf","nocrits","nodmgspread","uncletopia"],"game_id":440,"stv_port":27076,"stv_name":"Uncletopia | London | 7 | No Payload | STV","players":null},{"server_id":41,"name":"Uncletopia | London | 8 | Community","name_short":"lon-8","host":"lon-1.uk.uncletopia.com","port":27085,"enabled":true,"region":"eu","cc":"gb","latitude":51.509865,"longitude":-0.118092,"reserved":0,"last_update":"0001-01-01T00:00:00Z","name_a2s":"Uncletopia | London | 8 | Community","protocol":17,"map":"pl_barnblitz","folder":"tf","game":"Team Fortress","app_id":440,"player_count":0,"max_players":24,"Bots":0,"server_type":"Dedicated","server_os":"Linux","password":true,"vac":true,"version":"7757534","steam_id":85568392924964315,"keywords":["nocrits","nodmgspread","payload","uncletopia"],"game_id":440,"stv_port":27086,"stv_name":"Uncletopia | London | 8 | Community | STV","players":null},{"server_id":300,"name":"Uncletopia | Montr√©al | 1 | All Maps","name_short":"mtl-1","host":"mtl-1.ca.uncletopia.com","port":27015,"enabled":true,"region":"us-east","cc":"ca","latitude":45.50889,"longitude":-73.56167,"reserved":0,"last_update":"0001-01-01T00:00:00Z","name_a2s":"Uncletopia | Montr√©al | 1 | All Maps","protocol":17,"map":"ctf_2fort","folder":"tf","game":"Team Fortress","app_id":440,"player_count":4,"max_players":24,"Bots":0,"server_type":"Dedicated","server_os":"Linux","password":true,"vac":true,"version":"7757534","steam_id":85568392924500087,"keywords":["ctf","nocrits","nodmgspread","uncletopia"],"game_id":440,"stv_port":27016,"stv_name":"Uncletopia | Montr√©al | 1 | All Maps | STV","players":[{"user_id":37,"name":"Bip","steam_id":76561199022962204,"connected_time":199000000000,"state":"active","ping":78},{"user_id":38,"name":"averagesoldiermain","steam_id":76561198158447466,"connected_time":145000000000,"state":"active","ping":79},{"user_id":39,"name":"CivilWarMike","steam_id":76561198141188839,"connected_time":144000000000,"state":"active","ping":83},{"user_id":40,"name":"Challenger Charles","steam_id":76561198005576553,"connected_time":84000000000,"state":"active","ping":55}]},{"server_id":301,"name":"Uncletopia | Montr√©al | 2 | All Maps","name_short":"mtl-2","host":"mtl-1.ca.uncletopia.com","port":27025,"enabled":true,"region":"us-east","cc":"ca","latitude":45.50889,"longitude":-73.56167,"reserved":0,"last_update":"0001-01-01T00:00:00Z","name_a2s":"Uncletopia | Montr√©al | 2 | All Maps","protocol":17,"map":"pl_badwater","folder":"tf","game":"Team Fortress","app_id":440,"player_count":0,"max_players":24,"Bots":0,"server_type":"Dedicated","server_os":"Linux","password":true,"vac":true,"version":"7757534","steam_id":85568392924500088,"keywords":["nocrits","nodmgspread","payload","uncletopia"],"game_id":440,"stv_port":27026,"stv_name":"Uncletopia | Montr√©al | 2 | All Maps | STV","players":null},{"server_id":302,"name":"Uncletopia | Montr√©al | 3 | All Maps","name_short":"mtl-3","host":"mtl-1.ca.uncletopia.com","port":27035,"enabled":true,"region":"us-east","cc":"ca","latitude":45.50889,"longitude":-73.56167,"reserved":0,"last_update":"0001-01-01T00:00:00Z","name_a2s":"Uncletopia | Montr√©al | 3 | All Maps","protocol":17,"map":"pl_borneo","folder":"tf","game":"Team Fortress","app_id":440,"player_count":0,"max_players":24,"Bots":0,"server_type":"Dedicated","server_os":"Linux","password":true,"vac":true,"version":"7757534","steam_id":85568392924500089,"keywords":["nocrits","nodmgspread","payload","uncletopia"],"game_id":440,"stv_port":27036,"stv_name":"Uncletopia | Montr√©al | 3 | All Maps | STV","players":null},{"server_id":303,"name":"Uncletopia | Montr√©al | 4 | No Payload","name_short":"mtl-4","host":"mtl-1.ca.uncletopia.com","port":27045,"enabled":true,"region":"us-east","cc":"ca","latitude":45.50889,"longitude":-73.56167,"reserved":0,"last_update":"0001-01-01T00:00:00Z","name_a2s":"Uncletopia | Montr√©al | 4 | No Payload","protocol":17,"map":"koth_suijin","folder":"tf","game":"Team Fortress","app_id":440,"player_count":4,"max_players":24,"Bots":0,"server_type":"Dedicated","server_os":"Linux","password":true,"vac":true,"version":"7757534","steam_id":85568392924500090,"keywords":["cp","nocrits","nodmgspread","uncletopia"],"game_id":440,"stv_port":27046,"stv_name":"Uncletopia | Montr√©al | 4 | No Payload | STV","players":[{"user_id":11,"name":"Santa Claus","steam_id":76561198084091714,"connected_time":1102000000000,"state":"active","ping":56},{"user_id":12,"name":"F√´an√°ro Curufinwussy","steam_id":76561198141314142,"connected_time":1067000000000,"state":"active","ping":73},{"user_id":13,"name":"I_am_friend_Matt","steam_id":76561198101457112,"connected_time":1043000000000,"state":"active","ping":50},{"user_id":14,"name":"smoose","steam_id":76561198134321792,"connected_time":1037000000000,"state":"active","ping":47}]},{"server_id":13,"name":"Uncletopia | New York City | 1 | All Maps","name_short":"nyc-1","host":"nyc-1.us.uncletopia.com","port":27015,"enabled":true,"region":"us-east","cc":"us","latitude":40.73061,"longitude":-73.93524,"reserved":0,"last_update":"0001-01-01T00:00:00Z","name_a2s":"Uncletopia | New York City | 1 | All Maps","protocol":17,"map":"ctf_2fort","folder":"tf","game":"Team Fortress","app_id":440,"player_count":15,"max_players":24,"Bots":0,"server_type":"Dedicated","server_os":"Linux","password":true,"vac":true,"version":"7757534","steam_id":85568392924469993,"keywords":["ctf","nocrits","nodmgspread","uncletopia"],"game_id":440,"stv_port":27016,"stv_name":"Uncletopia | New York City | 1 | All Maps | STV","players":[{"user_id":725,"name":"Takeover","steam_id":76561197996081461,"connected_time":181000000000,"state":"active","ping":42},{"user_id":723,"name":"low res sasuke jpg","steam_id":76561198035288369,"connected_time":321000000000,"state":"active","ping":64},{"user_id":721,"name":"Inadequate","steam_id":76561198108263810,"connected_time":376000000000,"state":"active","ping":133},{"user_id":701,"name":"Rei Ayanami","steam_id":76561198853092631,"connected_time":2086000000000,"state":"active","ping":81},{"user_id":684,"name":"vragozin","steam_id":76561199342162423,"connected_time":3282000000000,"state":"active","ping":69},{"user_id":726,"name":"ThePirateKenway","steam_id":76561198115156181,"connected_time":178000000000,"state":"active","ping":67},{"user_id":724,"name":"hatchetax","steam_id":76561199013337543,"connected_time":307000000000,"state":"active","ping":62},{"user_id":713,"name":"AustinSV","steam_id":76561198013394808,"connected_time":1471000000000,"state":"active","ping":63},{"user_id":695,"name":"googy doogy","steam_id":76561199025852100,"connected_time":2578000000000,"state":"active","ping":43},{"user_id":706,"name":"Slazzer","steam_id":76561198404351844,"connected_time":1893000000000,"state":"active","ping":62},{"user_id":671,"name":"Bobfleadip","steam_id":76561198043788642,"connected_time":4434000000000,"state":"active","ping":82},{"user_id":510,"name":"Gentoo Linux Gaming","steam_id":76561197999657118,"connected_time":16015000000000,"state":"active","ping":59},{"user_id":581,"name":"OldGreg97","steam_id":76561198048772813,"connected_time":8653000000000,"state":"active","ping":59},{"user_id":727,"name":"Shady Shopkeep","steam_id":76561198025307628,"connected_time":149000000000,"state":"active","ping":90},{"user_id":568,"name":"CatGurl Exterminator","steam_id":76561198124311404,"connected_time":11050000000000,"state":"active","ping":71}]},{"server_id":14,"name":"Uncletopia | New York City | 2 | All Maps","name_short":"nyc-2","host":"nyc-1.us.uncletopia.com","port":27025,"enabled":true,"region":"us-east","cc":"us","latitude":40.73061,"longitude":-73.93524,"reserved":0,"last_update":"0001-01-01T00:00:00Z","name_a2s":"Uncletopia | New York City | 2 | All Maps","protocol":17,"map":"pl_goldrush","folder":"tf","game":"Team Fortress","app_id":440,"player_count":24,"max_players":24,"Bots":0,"server_type":"Dedicated","server_os":"Linux","password":true,"vac":true,"version":"7757534","steam_id":85568392924469994,"keywords":["nocrits","nodmgspread","payload","uncletopia"],"game_id":440,"stv_port":27026,"stv_name":"Uncletopia | New York City | 2 | All Maps | STV","players":[{"user_id":481,"name":"puss","steam_id":76561198409588134,"connected_time":3895000000000,"state":"active","ping":76},{"user_id":491,"name":"1001NinjaDucks","steam_id":76561198058169660,"connected_time":3429000000000,"state":"active","ping":51},{"user_id":515,"name":"J_Bug","steam_id":76561198163362175,"connected_time":855000000000,"state":"active","ping":52},{"user_id":484,"name":"Guy In A Peashooter Costume","steam_id":76561198832738000,"connected_time":3673000000000,"state":"active","ping":49},{"user_id":483,"name":"Antwan","steam_id":76561198246200638,"connected_time":3782000000000,"state":"active","ping":87},{"user_id":512,"name":"Bottom Ramen","steam_id":76561197970450546,"connected_time":1320000000000,"state":"active","ping":131},{"user_id":471,"name":"Wigl","steam_id":76561198019324464,"connected_time":4542000000000,"state":"active","ping":55},{"user_id":501,"name":"ItsTanleyCrunch","steam_id":76561198037915942,"connected_time":2550000000000,"state":"active","ping":72},{"user_id":440,"name":"Kdash","steam_id":76561198043829155,"connected_time":7606000000000,"state":"active","ping":97},{"user_id":516,"name":"agleeps","steam_id":76561198810128404,"connected_time":848000000000,"state":"active","ping":55},{"user_id":477,"name":"Zero","steam_id":76561199383267408,"connected_time":4283000000000,"state":"active","ping":84},{"user_id":460,"name":"Periculosum PhD in Funny","steam_id":76561198123370914,"connected_time":6098000000000,"state":"active","ping":87},{"user_id":500,"name":"clcktwn","steam_id":76561198066405943,"connected_time":2630000000000,"state":"active","ping":59},{"user_id":476,"name":"Terror-Billy #SaveTF2","steam_id":76561198328141870,"connected_time":4454000000000,"state":"active","ping":78},{"user_id":511,"name":"Spring Beans","steam_id":76561197978546259,"connected_time":1813000000000,"state":"active","ping":75},{"user_id":486,"name":"Ratsmacker","steam_id":76561199156102683,"connected_time":3601000000000,"state":"active","ping":103},{"user_id":502,"name":"Your Wurst Nightmare","steam_id":76561198874531590,"connected_time":2352000000000,"state":"active","ping":60},{"user_id":445,"name":"DemaculusCross","steam_id":76561197983858397,"connected_time":7562000000000,"state":"active","ping":66},{"user_id":478,"name":"Bear bird","steam_id":76561198166769479,"connected_time":4172000000000,"state":"active","ping":70},{"user_id":453,"name":"Bawower","steam_id":76561198347769261,"connected_time":7297000000000,"state":"active","ping":67},{"user_id":503,"name":"MAXIMUS","steam_id":76561198085809453,"connected_time":2331000000000,"state":"active","ping":81},{"user_id":513,"name":"The Cop Fentanyl Debuff","steam_id":76561197991817974,"connected_time":1288000000000,"state":"active","ping":116},{"user_id":499,"name":"LAB8","steam_id":76561198047743526,"connected_time":2676000000000,"state":"active","ping":103},{"user_id":517,"name":"hucklander","steam_id":76561199473487575,"connected_time":624000000000,"state":"active","ping":83}]},{"server_id":15,"name":"Uncletopia | New York City | 3 | Stopwatch Beta","name_short":"nyc-3","host":"nyc-1.us.uncletopia.com","port":27035,"enabled":true,"region":"us-east","cc":"us","latitude":40.73061,"longitude":-73.93524,"reserved":0,"last_update":"0001-01-01T00:00:00Z","name_a2s":"Uncletopia | New York City | 3 | Stopwatch Beta","protocol":17,"map":"cp_sunshine","folder":"tf","game":"Team Fortress","app_id":440,"player_count":18,"max_players":24,"Bots":0,"server_type":"Dedicated","server_os":"Linux","password":true,"vac":true,"version":"7757534","steam_id":85568392924742820,"keywords":["cp","nocrits","nodmgspread","uncletopia"],"game_id":440,"stv_port":27036,"stv_name":"Uncletopia | New York City | 3 | Stopwatch Beta | STV","players":[{"user_id":162,"name":"goro majima real","steam_id":76561198355300617,"connected_time":239000000000,"state":"active","ping":72},{"user_id":158,"name":"Redleaf","steam_id":76561198092109820,"connected_time":302000000000,"state":"active","ping":113},{"user_id":165,"name":"Guil","steam_id":76561197993289176,"connected_time":30000000000,"state":"active","ping":67},{"user_id":163,"name":"Fresh_Knight","steam_id":76561198880477970,"connected_time":191000000000,"state":"active","ping":70},{"user_id":155,"name":"Utsuho Reiuji","steam_id":76561198367281334,"connected_time":609000000000,"state":"active","ping":49},{"user_id":164,"name":"vegetable","steam_id":76561198190417719,"connected_time":171000000000,"state":"active","ping":53},{"user_id":106,"name":"Junko","steam_id":76561198146089003,"connected_time":4173000000000,"state":"active","ping":32},{"user_id":153,"name":"Dreamy Sweat from 2hu","steam_id":76561198094602446,"connected_time":811000000000,"state":"active","ping":75},{"user_id":166,"name":"slack","steam_id":76561198000564263,"connected_time":13000000000,"state":"active","ping":67},{"user_id":109,"name":"BillyWithaT","steam_id":76561199427729136,"connected_time":4025000000000,"state":"active","ping":97},{"user_id":167,"name":"King","steam_id":76561198010019214,"connected_time":3000000000,"state":"spawning","ping":28},{"user_id":127,"name":"Reisen Udongein Inaba","steam_id":76561198051082314,"connected_time":2935000000000,"state":"active","ping":144},{"user_id":157,"name":"Pachako","steam_id":76561198209493379,"connected_time":496000000000,"state":"active","ping":69},{"user_id":143,"name":"teapot","steam_id":76561198065889595,"connected_time":1895000000000,"state":"active","ping":155},{"user_id":115,"name":"space mann","steam_id":76561198174447043,"connected_time":3826000000000,"state":"active","ping":31},{"user_id":124,"name":"Crime Minister","steam_id":76561198106055104,"connected_time":3114000000000,"state":"active","ping":58},{"user_id":148,"name":"nachopugz","steam_id":76561199120480873,"connected_time":1505000000000,"state":"active","ping":120},{"user_id":134,"name":"Wendigo","steam_id":76561198031942404,"connected_time":2536000000000,"state":"active","ping":72}]},{"server_id":16,"name":"Uncletopia | New York City | 4 | Community","name_short":"nyc-4","host":"nyc-1.us.uncletopia.com","port":27045,"enabled":true,"region":"us-east","cc":"us","latitude":40.73061,"longitude":-73.93524,"reserved":0,"last_update":"0001-01-01T00:00:00Z","name_a2s":"Uncletopia | New York City | 4 | Community","protocol":17,"map":"workshop/pl_divulgence_b4b.ugc2884808746","folder":"tf","game":"Team Fortress","app_id":440,"player_count":0,"max_players":24,"Bots":0,"server_type":"Dedicated","server_os":"Linux","password":true,"vac":true,"version":"7757534","steam_id":85568392924742821,"keywords":["nocrits","nodmgspread","payload","uncletopia"],"game_id":440,"stv_port":27046,"stv_name":"Uncletopia | New York City | 4 | Community | STV","players":null},{"server_id":142,"name":"Uncletopia | S√£o Paulo | 1 | All Maps","name_short":"sao-1","host":"sao-1.br.uncletopia.com","port":27015,"enabled":true,"region":"sa","cc":"br","latitude":-23.533773,"longitude":-46.62529,"reserved":0,"last_update":"0001-01-01T00:00:00Z","name_a2s":"Uncletopia | S√£o Paulo | 1 | All Maps","protocol":17,"map":"koth_highpass","folder":"tf","game":"Team Fortress","app_id":440,"player_count":0,"max_players":24,"Bots":0,"server_type":"Dedicated","server_os":"Linux","password":true,"vac":true,"version":"7757534","steam_id":85568392924469996,"keywords":["cp","nocrits","nodmgspread","uncletopia"],"game_id":440,"stv_port":27016,"stv_name":"Uncletopia | S√£o Paulo | 1 | All Maps | STV","players":null},{"server_id":143,"name":"Uncletopia | S√£o Paulo | 2 | All Maps","name_short":"sao-2","host":"sao-2.br.uncletopia.com","port":27015,"enabled":true,"region":"sa","cc":"br","latitude":-23.533773,"longitude":-46.62529,"reserved":0,"last_update":"0001-01-01T00:00:00Z","name_a2s":"Uncletopia | S√£o Paulo | 2 | All Maps","protocol":17,"map":"cp_dustbowl","folder":"tf","game":"Team Fortress","app_id":440,"player_count":0,"max_players":24,"Bots":0,"server_type":"Dedicated","server_os":"Linux","password":true,"vac":true,"version":"7757534","steam_id":85568392924485349,"keywords":["cp","nocrits","nodmgspread","uncletopia"],"game_id":440,"stv_port":27016,"stv_name":"Uncletopia | S√£o Paulo | 2 | All Maps | STV","players":null},{"server_id":7,"name":"Uncletopia | Seattle | 1 | All Maps","name_short":"sea-1","host":"sea-1.us.uncletopia.com","port":27015,"enabled":true,"region":"us-west","cc":"us","latitude":47.608013,"longitude":-122.33517,"reserved":0,"last_update":"0001-01-01T00:00:00Z","name_a2s":"Uncletopia | Seattle | 1 | All Maps","protocol":17,"map":"pl_swiftwater_final1","folder":"tf","game":"Team Fortress","app_id":440,"player_count":24,"max_players":24,"Bots":0,"server_type":"Dedicated","server_os":"Linux","password":true,"vac":true,"version":"7757534","steam_id":85568392924469997,"keywords":["nocrits","nodmgspread","payload","uncletopia"],"game_id":440,"stv_port":27016,"stv_name":"Uncletopia | Seattle | 1 | All Maps | STV","players":[{"user_id":705,"name":"Lp1dude","steam_id":76561198384927471,"connected_time":1531000000000,"state":"active","ping":126},{"user_id":700,"name":"Rain","steam_id":76561198065612273,"connected_time":1977000000000,"state":"active","ping":49},{"user_id":719,"name":"yaboismitty","steam_id":76561199130187442,"connected_time":702000000000,"state":"active","ping":120},{"user_id":664,"name":"liliLovesUnicorns83","steam_id":76561199391478575,"connected_time":4360000000000,"state":"active","ping":73},{"user_id":680,"name":"Mitchell","steam_id":76561197972922328,"connected_time":3677000000000,"state":"active","ping":86},{"user_id":616,"name":"MCman","steam_id":76561198412110305,"connected_time":8118000000000,"state":"active","ping":76},{"user_id":707,"name":"Saul Goodman","steam_id":76561199014764373,"connected_time":1465000000000,"state":"active","ping":99},{"user_id":677,"name":"Snoogs","steam_id":76561198444880931,"connected_time":3901000000000,"state":"active","ping":134},{"user_id":667,"name":"FoodzAreGoodz","steam_id":76561198309262052,"connected_time":4280000000000,"state":"active","ping":83},{"user_id":660,"name":"Battery Acid Addict","steam_id":76561198439793697,"connected_time":4790000000000,"state":"active","ping":131},{"user_id":715,"name":"emissions_master","steam_id":76561198870649125,"connected_time":888000000000,"state":"active","ping":83},{"user_id":713,"name":"FFR33ZE","steam_id":76561199258068406,"connected_time":903000000000,"state":"active","ping":96},{"user_id":747,"name":"rat gets the cheese","steam_id":76561198031234032,"connected_time":272000000000,"state":"active","ping":98},{"user_id":697,"name":"blinkerton city","steam_id":76561198054270410,"connected_time":2286000000000,"state":"active","ping":56},{"user_id":706,"name":"Tazzz","steam_id":76561198280897107,"connected_time":1470000000000,"state":"active","ping":45},{"user_id":674,"name":"bomb bomb bomb","steam_id":76561198207881077,"connected_time":4014000000000,"state":"active","ping":102},{"user_id":645,"name":"Fh","steam_id":76561198000903511,"connected_time":5690000000000,"state":"active","ping":67},{"user_id":699,"name":"Big Boss","steam_id":76561198850781444,"connected_time":2044000000000,"state":"active","ping":91},{"user_id":708,"name":"Quarter Cheese","steam_id":76561198115814588,"connected_time":1408000000000,"state":"active","ping":45},{"user_id":712,"name":"davethebard","steam_id":76561198081933891,"connected_time":903000000000,"state":"active","ping":101},{"user_id":759,"name":"shy guy","steam_id":76561198151246059,"connected_time":107000000000,"state":"active","ping":74},{"user_id":714,"name":"NE–ØO","steam_id":76561197965450216,"connected_time":899000000000,"state":"active","ping":55},{"user_id":709,"name":"Arsonist Goose","steam_id":76561198147441830,"connected_time":1267000000000,"state":"active","ping":71},{"user_id":711,"name":"TravelerZ","steam_id":76561199412214053,"connected_time":929000000000,"state":"active","ping":100}]},{"server_id":119,"name":"Uncletopia | Seattle | 2 | All Maps","name_short":"sea-2","host":"sea-1.us.uncletopia.com","port":27025,"enabled":true,"region":"us-west","cc":"us","latitude":47.608013,"longitude":-122.33517,"reserved":0,"last_update":"0001-01-01T00:00:00Z","name_a2s":"Uncletopia | Seattle | 2 | All Maps","protocol":17,"map":"cp_steel","folder":"tf","game":"Team Fortress","app_id":440,"player_count":24,"max_players":24,"Bots":0,"server_type":"Dedicated","server_os":"Linux","password":true,"vac":true,"version":"7757534","steam_id":85568392924469998,"keywords":["cp","nocrits","nodmgspread","uncletopia"],"game_id":440,"stv_port":27026,"stv_name":"Uncletopia | Seattle | 2 | All Maps | STV","players":[{"user_id":538,"name":"Algibruh","steam_id":76561199221599415,"connected_time":769000000000,"state":"active","ping":52},{"user_id":479,"name":"Greskrendtregk","steam_id":76561197969553142,"connected_time":1964000000000,"state":"active","ping":49},{"user_id":477,"name":"General Fisticuffs","steam_id":76561198255721392,"connected_time":1971000000000,"state":"active","ping":103},{"user_id":539,"name":"Regular player #SaveTF2","steam_id":76561198036806850,"connected_time":765000000000,"state":"active","ping":61},{"user_id":543,"name":"kr1tsurf3r","steam_id":76561198076402476,"connected_time":718000000000,"state":"active","ping":86},{"user_id":548,"name":"McSpazatron","steam_id":76561198955942148,"connected_time":681000000000,"state":"active","ping":140},{"user_id":520,"name":"Mico (Mico)","steam_id":76561198125462953,"connected_time":1091000000000,"state":"active","ping":55},{"user_id":560,"name":"CherriKat (She/Her)","steam_id":76561198821297512,"connected_time":461000000000,"state":"active","ping":72},{"user_id":496,"name":"Snippykeegan","steam_id":76561198274529343,"connected_time":1625000000000,"state":"active","ping":67},{"user_id":537,"name":"G. Howard Dee","steam_id":76561198058382812,"connected_time":804000000000,"state":"active","ping":76},{"user_id":456,"name":"Big Jon","steam_id":76561198402285099,"connected_time":3248000000000,"state":"active","ping":78},{"user_id":561,"name":"Sir Severus","steam_id":76561198061295188,"connected_time":421000000000,"state":"active","ping":56},{"user_id":476,"name":"=Silver=","steam_id":76561198292307127,"connected_time":2151000000000,"state":"active","ping":68},{"user_id":393,"name":"aoka","steam_id":76561198838294547,"connected_time":7710000000000,"state":"active","ping":59},{"user_id":541,"name":"SvicidalBug","steam_id":76561198221390504,"connected_time":759000000000,"state":"active","ping":68},{"user_id":576,"name":"THE JOKE IS TOO COMPLICATED","steam_id":76561198175955138,"connected_time":81000000000,"state":"active","ping":77},{"user_id":515,"name":"BreadQuest","steam_id":76561198082425960,"connected_time":1159000000000,"state":"active","ping":47},{"user_id":558,"name":"Facehurt","steam_id":76561198028504034,"connected_time":510000000000,"state":"active","ping":111},{"user_id":443,"name":"Kuvorious","steam_id":76561198153729934,"connected_time":4577000000000,"state":"active","ping":115},{"user_id":463,"name":"HideOnTate","steam_id":76561198209880837,"connected_time":3106000000000,"state":"active","ping":45},{"user_id":461,"name":"lolgamer247","steam_id":76561198974645534,"connected_time":3144000000000,"state":"active","ping":73},{"user_id":444,"name":"Mount Wannahockaloogie","steam_id":76561198924316615,"connected_time":4571000000000,"state":"active","ping":131},{"user_id":487,"name":"090-nsalih","steam_id":76561199467467873,"connected_time":1815000000000,"state":"active","ping":202},{"user_id":563,"name":"SCOUT MAIN","steam_id":76561198129761524,"connected_time":413000000000,"state":"active","ping":60}]},{"server_id":406,"name":"Uncletopia | Seattle | 3 | Stopwatch Beta","name_short":"sea-3","host":"sea-1.us.uncletopia.com","port":27035,"enabled":true,"region":"us-west","cc":"us","latitude":47.608013,"longitude":-122.33517,"reserved":0,"last_update":"0001-01-01T00:00:00Z","name_a2s":"Uncletopia | Seattle | 3 | Stopwatch Beta","protocol":17,"map":"workshop/cp_reckoner_rc6.ugc674719999","folder":"tf","game":"Team Fortress","app_id":440,"player_count":14,"max_players":24,"Bots":0,"server_type":"Dedicated","server_os":"Linux","password":true,"vac":true,"version":"7757534","steam_id":85568392924515217,"keywords":["cp","nocrits","nodmgspread","uncletopia"],"game_id":440,"stv_port":27036,"stv_name":"Uncletopia | Seattle | 3 | Stopwatch Beta | STV","players":[{"user_id":42,"name":"‡πá","steam_id":76561198067666595,"connected_time":5222000000000,"state":"active","ping":35},{"user_id":73,"name":"Dongus","steam_id":76561197979056451,"connected_time":2243000000000,"state":"active","ping":44},{"user_id":107,"name":"moah380","steam_id":76561198090644581,"connected_time":598000000000,"state":"active","ping":99},{"user_id":15,"name":"(TTV) The_Astrum_Guardian","steam_id":76561198130134103,"connected_time":6690000000000,"state":"active","ping":108},{"user_id":51,"name":"westward (was/were)","steam_id":76561198805512350,"connected_time":3981000000000,"state":"active","ping":57},{"user_id":104,"name":"Resh420","steam_id":76561198066619792,"connected_time":845000000000,"state":"active","ping":73},{"user_id":76,"name":"eatmysteel","steam_id":76561198976437527,"connected_time":1964000000000,"state":"active","ping":131},{"user_id":103,"name":"CozzyEh","steam_id":76561199137063042,"connected_time":887000000000,"state":"active","ping":48},{"user_id":116,"name":"dogwater","steam_id":76561199416942289,"connected_time":174000000000,"state":"active","ping":105},{"user_id":117,"name":"tommy:3","steam_id":76561198041183975,"connected_time":86000000000,"state":"active","ping":105},{"user_id":68,"name":"bruhvil","steam_id":76561199148843989,"connected_time":2458000000000,"state":"active","ping":95},{"user_id":81,"name":"gaming ground_atclicker","steam_id":76561198233978116,"connected_time":1659000000000,"state":"active","ping":62},{"user_id":37,"name":"i eated sand","steam_id":76561198062763756,"connected_time":5537000000000,"state":"active","ping":104},{"user_id":90,"name":"Drainbow","steam_id":76561198421913648,"connected_time":1156000000000,"state":"active","ping":51}]},{"server_id":17,"name":"Uncletopia | San Francisco | 1 | All Maps","name_short":"sfo-1","host":"sfo-1.us.uncletopia.com","port":27015,"enabled":true,"region":"us-west","cc":"us","latitude":37.77397,"longitude":-122.4313,"reserved":0,"last_update":"0001-01-01T00:00:00Z","name_a2s":"Uncletopia | San Francisco | 1 | All Maps","protocol":17,"map":"cp_dustbowl","folder":"tf","game":"Team Fortress","app_id":440,"player_count":24,"max_players":24,"Bots":0,"server_type":"Dedicated","server_os":"Linux","password":true,"vac":true,"version":"7757534","steam_id":85568392924469999,"keywords":["cp","nocrits","nodmgspread","uncletopia"],"game_id":440,"stv_port":27016,"stv_name":"Uncletopia | San Francisco | 1 | All Maps | STV","players":[{"user_id":196,"name":"Frost","steam_id":76561198092014704,"connected_time":1180000000000,"state":"active","ping":72},{"user_id":189,"name":"Isaac","steam_id":76561198015727013,"connected_time":1426000000000,"state":"active","ping":83},{"user_id":201,"name":"postgres","steam_id":76561198011204750,"connected_time":659000000000,"state":"active","ping":91},{"user_id":181,"name":"THE DOUBLE DONKER","steam_id":76561199442139670,"connected_time":2228000000000,"state":"active","ping":96},{"user_id":202,"name":"Doug Hugem","steam_id":76561198018449076,"connected_time":627000000000,"state":"active","ping":86},{"user_id":184,"name":"Shamrock Shake Oct.10.2020 @8pm","steam_id":76561198833313201,"connected_time":1965000000000,"state":"active","ping":75},{"user_id":203,"name":"Turtles Ad Infinitum","steam_id":76561198069323250,"connected_time":622000000000,"state":"active","ping":42},{"user_id":191,"name":"The Best Waifu","steam_id":76561198144937184,"connected_time":1422000000000,"state":"active","ping":59},{"user_id":222,"name":"Alice in Rubberland","steam_id":76561198087328346,"connected_time":314000000000,"state":"active","ping":109},{"user_id":192,"name":"i cry .","steam_id":76561199193020423,"connected_time":1408000000000,"state":"active","ping":63},{"user_id":193,"name":"TheShadilay","steam_id":76561198140391778,"connected_time":1395000000000,"state":"active","ping":57},{"user_id":207,"name":"Nalzul","steam_id":76561198059920646,"connected_time":545000000000,"state":"active","ping":74},{"user_id":206,"name":"Drone","steam_id":76561198022920857,"connected_time":551000000000,"state":"active","ping":115},{"user_id":208,"name":"The Horny","steam_id":76561198863639459,"connected_time":538000000000,"state":"active","ping":134},{"user_id":224,"name":"Lucky_Boi","steam_id":76561199208835578,"connected_time":100000000000,"state":"active","ping":73},{"user_id":210,"name":"G‡∂ûMER","steam_id":76561198340389876,"connected_time":529000000000,"state":"active","ping":68},{"user_id":211,"name":"walterhwhite","steam_id":76561199433675789,"connected_time":515000000000,"state":"active","ping":61},{"user_id":212,"name":"kornelius korn","steam_id":76561199228839582,"connected_time":505000000000,"state":"active","ping":56},{"user_id":220,"name":"ExpDelta","steam_id":76561199126443129,"connected_time":404000000000,"state":"active","ping":124},{"user_id":214,"name":"walterslittlekitten2014","steam_id":76561198127211709,"connected_time":488000000000,"state":"active","ping":115},{"user_id":223,"name":"Donnie","steam_id":76561198880525140,"connected_time":271000000000,"state":"active","ping":110},{"user_id":216,"name":"Peter Polio","steam_id":76561198319695376,"connected_time":478000000000,"state":"active","ping":50},{"user_id":217,"name":"Wavelengths (they/it)","steam_id":76561197997621320,"connected_time":447000000000,"state":"active","ping":134},{"user_id":218,"name":"purple escape","steam_id":76561197997100185,"connected_time":442000000000,"state":"active","ping":63}]},{"server_id":18,"name":"Uncletopia | San Francisco | 2 | All Maps","name_short":"sfo-2","host":"sfo-1.us.uncletopia.com","port":27025,"enabled":true,"region":"us-west","cc":"us","latitude":37.77397,"longitude":-122.4313,"reserved":0,"last_update":"0001-01-01T00:00:00Z","name_a2s":"Uncletopia | San Francisco | 2 | All Maps","protocol":17,"map":"cp_process_final","folder":"tf","game":"Team Fortress","app_id":440,"player_count":0,"max_players":24,"Bots":0,"server_type":"Dedicated","server_os":"Linux","password":true,"vac":true,"version":"7757534","steam_id":85568392924470000,"keywords":["cp","nocrits","nodmgspread","uncletopia"],"game_id":440,"stv_port":27026,"stv_name":"Uncletopia | San Francisco | 2 | All Maps | STV","players":null},{"server_id":19,"name":"Uncletopia | San Francisco | 3 | Stopwatch Beta","name_short":"sfo-3","host":"sfo-1.us.uncletopia.com","port":27035,"enabled":true,"region":"us-west","cc":"us","latitude":37.77397,"longitude":-122.4313,"reserved":0,"last_update":"0001-01-01T00:00:00Z","name_a2s":"Uncletopia | San Francisco | 3 | Stopwatch Beta","protocol":17,"map":"koth_highpass","folder":"tf","game":"Team Fortress","app_id":440,"player_count":0,"max_players":24,"Bots":0,"server_type":"Dedicated","server_os":"Linux","password":true,"vac":true,"version":"7757534","steam_id":85568392924742824,"keywords":["cp","nocrits","nodmgspread","uncletopia"],"game_id":440,"stv_port":27036,"stv_name":"Uncletopia | San Francisco | 3 | Stopwatch Beta | STV","players":null},{"server_id":20,"name":"Uncletopia | San Francisco | 4 | Community","name_short":"sfo-4","host":"sfo-1.us.uncletopia.com","port":27045,"enabled":true,"region":"us-west","cc":"us","latitude":37.77397,"longitude":-122.4313,"reserved":0,"last_update":"0001-01-01T00:00:00Z","name_a2s":"Uncletopia | San Francisco | 4 | Community","protocol":17,"map":"workshop/koth_product_final.ugc454272353","folder":"tf","game":"Team Fortress","app_id":440,"player_count":0,"max_players":24,"Bots":0,"server_type":"Dedicated","server_os":"Linux","password":true,"vac":true,"version":"7757534","steam_id":85568392924742826,"keywords":["cp","nocrits","nodmgspread","uncletopia"],"game_id":440,"stv_port":27046,"stv_name":"Uncletopia | San Francisco | 4 | Community | STV","players":null},{"server_id":141,"name":"Uncletopia | Sydney | 1 | All Maps","name_short":"syd-1","host":"syd-1.au.uncletopia.com","port":27015,"enabled":true,"region":"au","cc":"au","latitude":-33.865143,"longitude":151.2099,"reserved":0,"last_update":"0001-01-01T00:00:00Z","name_a2s":"Uncletopia | Sydney | 1 | All Maps","protocol":17,"map":"pl_upward","folder":"tf","game":"Team Fortress","app_id":440,"player_count":3,"max_players":24,"Bots":0,"server_type":"Dedicated","server_os":"Linux","password":true,"vac":true,"version":"7757534","steam_id":85568392924470001,"keywords":["nocrits","nodmgspread","payload","uncletopia"],"game_id":440,"stv_port":27016,"stv_name":"Uncletopia | Sydney | 1 | All Maps | STV","players":[{"user_id":55,"name":"XTRY50","steam_id":76561198379881126,"connected_time":14000000000,"state":"active","ping":164},{"user_id":51,"name":"juusha","steam_id":76561198911542330,"connected_time":1091000000000,"state":"active","ping":82},{"user_id":54,"name":"Gnat","steam_id":76561198109747863,"connected_time":206000000000,"state":"active","ping":97}]},{"server_id":123,"name":"Uncletopia | Sydney | 2 | All Maps","name_short":"syd-2","host":"syd-1.au.uncletopia.com","port":27025,"enabled":true,"region":"au","cc":"au","latitude":-33.865143,"longitude":151.2099,"reserved":0,"last_update":"0001-01-01T00:00:00Z","name_a2s":"Uncletopia | Sydney | 2 | All Maps","protocol":17,"map":"cp_process_final","folder":"tf","game":"Team Fortress","app_id":440,"player_count":0,"max_players":24,"Bots":0,"server_type":"Dedicated","server_os":"Linux","password":true,"vac":true,"version":"7757534","steam_id":85568392924470002,"keywords":["cp","nocrits","nodmgspread","uncletopia"],"game_id":440,"stv_port":27026,"stv_name":"Uncletopia | Sydney | 2 | All Maps | STV","players":null},{"server_id":395,"name":"Uncletopia | Sydney | 3 | All Maps","name_short":"syd-3","host":"syd-1.au.uncletopia.com","port":27035,"enabled":true,"region":"au","cc":"au","latitude":-33.865143,"longitude":151.2099,"reserved":0,"last_update":"0001-01-01T00:00:00Z","name_a2s":"Uncletopia | Sydney | 3 | All Maps","protocol":17,"map":"pl_swiftwater_final1","folder":"tf","game":"Team Fortress","app_id":440,"player_count":0,"max_players":24,"Bots":0,"server_type":"Dedicated","server_os":"Linux","password":true,"vac":true,"version":"7757534","steam_id":85568392925194467,"keywords":["nocrits","nodmgspread","payload","uncletopia"],"game_id":440,"stv_port":27036,"stv_name":"Uncletopia | Sydney | 3 | All Maps | STV","players":null},{"server_id":396,"name":"Uncletopia | Sydney | 4 | All Maps","name_short":"syd-4","host":"syd-1.au.uncletopia.com","port":27045,"enabled":true,"region":"au","cc":"au","latitude":-33.865143,"longitude":151.2099,"reserved":0,"last_update":"0001-01-01T00:00:00Z","name_a2s":"Uncletopia | Sydney | 4 | All Maps","protocol":17,"map":"koth_highpass","folder":"tf","game":"Team Fortress","app_id":440,"player_count":0,"max_players":24,"Bots":0,"server_type":"Dedicated","server_os":"Linux","password":true,"vac":true,"version":"7757534","steam_id":85568392925397958,"keywords":["cp","nocrits","nodmgspread","uncletopia"],"game_id":440,"stv_port":27046,"stv_name":"Uncletopia | Sydney | 4 | All Maps | STV","players":null},{"server_id":58,"name":"Uncletopia | Sydney | 5 | Stopwatch Beta","name_short":"syd-5","host":"syd-1.au.uncletopia.com","port":27055,"enabled":true,"region":"au","cc":"au","latitude":-33.865143,"longitude":151.2099,"reserved":0,"last_update":"0001-01-01T00:00:00Z","name_a2s":"Uncletopia | Sydney | 5 | Stopwatch Beta","protocol":17,"map":"koth_cascade","folder":"tf","game":"Team Fortress","app_id":440,"player_count":0,"max_players":24,"Bots":0,"server_type":"Dedicated","server_os":"Linux","password":true,"vac":true,"version":"7757534","steam_id":85568392925397959,"keywords":["cp","nocrits","nodmgspread","uncletopia"],"game_id":440,"stv_port":27056,"stv_name":"Uncletopia | Sydney | 5 | Stopwatch Beta | STV","players":null},{"server_id":59,"name":"Uncletopia | Sydney | 6 | Community","name_short":"syd-6","host":"syd-1.au.uncletopia.com","port":27065,"enabled":true,"region":"au","cc":"au","latitude":-33.865143,"longitude":151.2099,"reserved":0,"last_update":"0001-01-01T00:00:00Z","name_a2s":"Uncletopia | Sydney | 6 | Community","protocol":17,"map":"workshop/pl_corrode_rc2.ugc546577989","folder":"tf","game":"Team Fortress","app_id":440,"player_count":0,"max_players":24,"Bots":0,"server_type":"Dedicated","server_os":"Linux","password":true,"vac":true,"version":"7757534","steam_id":85568392925397960,"keywords":["nocrits","nodmgspread","payload","uncletopia"],"game_id":440,"stv_port":27066,"stv_name":"Uncletopia | Sydney | 6 | Community | STV","players":null},{"server_id":49,"name":"Uncletopia | Warsaw | 1 | All Maps","name_short":"waw-1","host":"waw-1.pl.uncletopia.com","port":27015,"enabled":true,"region":"eu","cc":"pl","latitude":52.2297,"longitude":21.017532,"reserved":0,"last_update":"0001-01-01T00:00:00Z","name_a2s":"","protocol":0,"map":"","folder":"","game":"","app_id":0,"player_count":0,"max_players":0,"Bots":0,"server_type":"","server_os":"","password":false,"vac":false,"version":"","steam_id":0,"keywords":null,"game_id":0,"stv_port":0,"stv_name":"","players":null},{"server_id":50,"name":"Uncletopia | Warsaw | 2 | All Maps","name_short":"waw-2","host":"waw-1.pl.uncletopia.com","port":27025,"enabled":true,"region":"eu","cc":"pl","latitude":52.2297,"longitude":21.017532,"reserved":0,"last_update":"0001-01-01T00:00:00Z","name_a2s":"Uncletopia | Warsaw | 2 | All Maps","protocol":17,"map":"cp_sunshine","folder":"tf","game":"Team Fortress","app_id":440,"player_count":0,"max_players":24,"Bots":0,"server_type":"Dedicated","server_os":"Linux","password":true,"vac":true,"version":"7757534","steam_id":85568392925397851,"keywords":["cp","nocrits","nodmgspread","uncletopia"],"game_id":440,"stv_port":27026,"stv_name":"Uncletopia | Warsaw | 2 | All Maps | STV","players":null},{"server_id":51,"name":"Uncletopia | Warsaw | 3 | All Maps","name_short":"waw-3","host":"waw-1.pl.uncletopia.com","port":27035,"enabled":true,"region":"eu","cc":"pl","latitude":52.2297,"longitude":21.017532,"reserved":0,"last_update":"0001-01-01T00:00:00Z","name_a2s":"Uncletopia | Warsaw | 3 | All Maps","protocol":17,"map":"koth_cascade","folder":"tf","game":"Team Fortress","app_id":440,"player_count":0,"max_players":24,"Bots":0,"server_type":"Dedicated","server_os":"Linux","password":true,"vac":true,"version":"7757534","steam_id":85568392925397852,"keywords":["cp","nocrits","nodmgspread","uncletopia"],"game_id":440,"stv_port":27036,"stv_name":"Uncletopia | Warsaw | 3 | All Maps | STV","players":null},{"server_id":52,"name":"Uncletopia | Warsaw | 4 | All Maps","name_short":"waw-4","host":"waw-1.pl.uncletopia.com","port":27045,"enabled":true,"region":"eu","cc":"pl","latitude":52.2297,"longitude":21.017532,"reserved":0,"last_update":"0001-01-01T00:00:00Z","name_a2s":"Uncletopia | Warsaw | 4 | All Maps","protocol":17,"map":"koth_lakeside_final","folder":"tf","game":"Team Fortress","app_id":440,"player_count":0,"max_players":24,"Bots":0,"server_type":"Dedicated","server_os":"Linux","password":true,"vac":true,"version":"7757534","steam_id":85568392925397853,"keywords":["cp","nocrits","nodmgspread","uncletopia"],"game_id":440,"stv_port":27046,"stv_name":"Uncletopia | Warsaw | 4 | All Maps | STV","players":null},{"server_id":53,"name":"Uncletopia | Warsaw | 5 | Stopwatch Beta","name_short":"waw-5","host":"waw-1.pl.uncletopia.com","port":27055,"enabled":true,"region":"eu","cc":"pl","latitude":52.2297,"longitude":21.017532,"reserved":0,"last_update":"0001-01-01T00:00:00Z","name_a2s":"Uncletopia | Warsaw | 5 | Stopwatch Beta","protocol":17,"map":"pl_borneo","folder":"tf","game":"Team Fortress","app_id":440,"player_count":0,"max_players":24,"Bots":0,"server_type":"Dedicated","server_os":"Linux","password":true,"vac":true,"version":"7757534","steam_id":85568392925397854,"keywords":["nocrits","nodmgspread","payload","uncletopia"],"game_id":440,"stv_port":27056,"stv_name":"Uncletopia | Warsaw | 5 | Stopwatch Beta | STV","players":null},{"server_id":54,"name":"Uncletopia | Warsaw | 6 | Community","name_short":"waw-6","host":"waw-1.pl.uncletopia.com","port":27065,"enabled":true,"region":"eu","cc":"pl","latitude":52.2297,"longitude":21.017532,"reserved":0,"last_update":"0001-01-01T00:00:00Z","name_a2s":"Uncletopia | Warsaw | 6 | Community","protocol":17,"map":"workshop/cp_mannbase_rc2a.ugc1900737467","folder":"tf","game":"Team Fortress","app_id":440,"player_count":0,"max_players":24,"Bots":0,"server_type":"Dedicated","server_os":"Linux","password":true,"vac":true,"version":"7757534","steam_id":85568392925397856,"keywords":["cp","nocrits","nodmgspread","uncletopia"],"game_id":440,"stv_port":27066,"stv_name":"Uncletopia | Warsaw | 6 | Community | STV","players":null}]}