{"status":true,"message":"","result":[{"server_id":9,"name":"Uncletopia | Atlanta | 1 | All Maps","name_short":"atl-1","host":"atl-1.us.uncletopia.com","port":27015,"enabled":true,"region":"us-east","cc":"us","latitude":33.753746,"longitude":-84.38633,"reserved":0,"last_update":"0001-01-01T00:00:00Z","name_a2s":"Uncletopia | Atlanta | 1 | All Maps","protocol":17,"map":"pl_barnblitz","folder":"tf","game":"Team Fortress","app_id":440,"player_count":23,"max_players":24,"Bots":0,"server_type":"Dedicated","server_os":"Linux","password":true,"vac":true,"version":"7961495","steam_id":85568392924469982,"keywords":["nocrits","nodmgspread","payload","uncletopia"],"game_id":440,"stv_port":27016,"stv_name":"Uncletopia | Atlanta | 1 | All Maps | STV","players":[{"user_id":563,"name":"girthmilk","steam_id":76561198054799782,"connected_time":5197000000000,"state":"active","ping":65},{"user_id":498,"name":"Jin","steam_id":76561198119873148,"connected_time":10350000000000,"state":"active","ping":67},{"user_id":517,"name":"Shmoopy","steam_id":76561198030459152,"connected_time":9210000000000,"state":"active","ping":60},{"user_id":593,"name":"Yoshimelon","steam_id":76561198253054325,"connected_time":2078000000000,"state":"active","ping":64},{"user_id":542,"name":"Talented","steam_id":76561198800259660,"connected_time":6499000000000,"state":"active","ping":41},{"user_id":565,"name":"Wendigo","steam_id":76561198031942404,"connected_time":5188000000000,"state":"active","ping":50},{"user_id":604,"name":"juanjoesc","steam_id":76561198186368430,"connected_time":749000000000,"state":"active","ping":106},{"user_id":548,"name":"gallowsCalibrator","steam_id":76561198404707578,"connected_time":5955000000000,"state":"active","ping":58},{"user_id":577,"name":"eish","steam_id":76561198089463603,"connected_time":3494000000000,"state":"active","ping":119},{"user_id":591,"name":"C4K3","steam_id":76561197996963285,"connected_time":2376000000000,"state":"active","ping":66},{"user_id":607,"name":"julian.byrd3","steam_id":76561198241630786,"connected_time":317000000000,"state":"active","ping":41},{"user_id":572,"name":"twinbl0ck","steam_id":76561198157414556,"connected_time":4396000000000,"state":"active","ping":61},{"user_id":550,"name":"arachnidsGrip","steam_id":76561198118320073,"connected_time":5865000000000,"state":"active","ping":69},{"user_id":606,"name":"BunnyBlitz","steam_id":76561198165881112,"connected_time":685000000000,"state":"active","ping":85},{"user_id":602,"name":"—Å—É–∫–∞ –±–ª—è—Ç—å","steam_id":76561199258604091,"connected_time":1663000000000,"state":"active","ping":44},{"user_id":587,"name":"on that zaza?","steam_id":76561198038713198,"connected_time":2475000000000,"state":"active","ping":75},{"user_id":585,"name":"Metbol","steam_id":76561198001362410,"connected_time":2853000000000,"state":"active","ping":79},{"user_id":598,"name":"The Horselords and Animal Gods","steam_id":76561197975094050,"connected_time":1815000000000,"state":"active","ping":96},{"user_id":574,"name":"frank","steam_id":76561198137777483,"connected_time":4181000000000,"state":"active","ping":86},{"user_id":600,"name":"Lout","steam_id":76561198000629156,"connected_time":1695000000000,"state":"active","ping":112},{"user_id":603,"name":"Radux Sepul","steam_id":76561198143556444,"connected_time":1636000000000,"state":"active","ping":169},{"user_id":570,"name":"evdoke","steam_id":76561198044555219,"connected_time":4738000000000,"state":"active","ping":56},{"user_id":579,"name":"Blade Racer","steam_id":76561198155896703,"connected_time":3390000000000,"state":"active","ping":56}]},{"server_id":104,"name":"Uncletopia | Atlanta | 2 | All Maps","name_short":"atl-2","host":"atl-1.us.uncletopia.com","port":27025,"enabled":true,"region":"us-east","cc":"us","latitude":33.753746,"longitude":-84.38633,"reserved":0,"last_update":"0001-01-01T00:00:00Z","name_a2s":"Uncletopia | Atlanta | 2 | All Maps","protocol":17,"map":"cp_process_final","folder":"tf","game":"Team Fortress","app_id":440,"player_count":0,"max_players":24,"Bots":0,"server_type":"Dedicated","server_os":"Linux","password":true,"vac":true,"version":"7961495","steam_id":85568392924469983,"keywords":["cp","nocrits","nodmgspread","uncletopia"],"game_id":440,"stv_port":27026,"stv_name":"Uncletopia | Atlanta | 2 | All Maps | STV","players":null},{"server_id":400,"name":"Uncletopia | Atlanta | 3 | Stopwatch","name_short":"atl-3","host":"atl-1.us.uncletopia.com","port":27035,"enabled":true,"region":"us-east","cc":"us","latitude":33.753746,"longitude":-84.38633,"reserved":0,"last_update":"0001-01-01T00:00:00Z","name_a2s":"Uncletopia | Atlanta | 3 | Stopwatch","protocol":17,"map":"workshop/koth_bagel_rc6.ugc2514036946","folder":"tf","game":"Team Fortress","app_id":440,"player_count":0,"max_players":24,"Bots":0,"server_type":"Dedicated","server_os":"Linux","password":true,"vac":true,"version":"7961495","steam_id":85568392924515187,"keywords":["cp","nocrits","nodmgspread","uncletopia"],"game_id":440,"stv_port":27036,"stv_name":"Uncletopia | Atlanta | 3 | Stopwatch | STV","players":null},{"server_id":401,"name":"Uncletopia | Atlanta | 4 | Community","name_short":"atl-4","host":"atl-1.us.uncletopia.com","port":27045,"enabled":true,"region":"us-east","cc":"us","latitude":33.753746,"longitude":-84.38633,"reserved":0,"last_update":"0001-01-01T00:00:00Z","name_a2s":"Uncletopia | Atlanta | 4 | Community","protocol":17,"map":"workshop/koth_bagel_rc6.ugc2514036946","folder":"tf","game":"Team Fortress","app_id":440,"player_count":0,"max_players":24,"Bots":0,"server_type":"Dedicated","server_os":"Linux","password":true,"vac":true,"version":"7961495","steam_id":85568392924515188,"keywords":["cp","nocrits","nodmgspread","uncletopia"],"game_id":440,"stv_port":27046,"stv_name":"Uncletopia | Atlanta | 4 | Community | STV","players":null},{"server_id":2,"name":"Uncletopia | Chicago | 1 | All Maps","name_short":"chi-1","host":"chi-1.us.uncletopia.com","port":27015,"enabled":true,"region":"us-central","cc":"us","latitude":41.881832,"longitude":-87.62318,"reserved":0,"last_update":"0001-01-01T00:00:00Z","name_a2s":"Uncletopia | Chicago | 1 | All Maps","protocol":17,"map":"pl_frontier_final","folder":"tf","game":"Team Fortress","app_id":440,"player_count":24,"max_players":24,"Bots":0,"server_type":"Dedicated","server_os":"Linux","password":true,"vac":true,"version":"7961495","steam_id":85568392924469984,"keywords":["nocrits","nodmgspread","payload","uncletopia"],"game_id":440,"stv_port":27016,"stv_name":"Uncletopia | Chicago | 1 | All Maps | STV","players":[{"user_id":926,"name":"MD","steam_id":76561197976300679,"connected_time":1753000000000,"state":"active","ping":78},{"user_id":928,"name":"Bunner","steam_id":76561198074464842,"connected_time":1709000000000,"state":"active","ping":97},{"user_id":837,"name":"Eugene Thaddeus Hinkle V","steam_id":76561198821535846,"connected_time":9312000000000,"state":"active","ping":59},{"user_id":890,"name":"DevoutPage14990","steam_id":76561198831347354,"connected_time":5051000000000,"state":"active","ping":61},{"user_id":904,"name":"SodaKid_7","steam_id":76561198079419485,"connected_time":3758000000000,"state":"active","ping":100},{"user_id":927,"name":"gotten","steam_id":76561198033033884,"connected_time":1749000000000,"state":"active","ping":62},{"user_id":935,"name":"Vin Diesel #imfromisrael","steam_id":76561197969386201,"connected_time":1346000000000,"state":"active","ping":45},{"user_id":939,"name":"off the bennies x)!!!","steam_id":76561198144766439,"connected_time":565000000000,"state":"active","ping":45},{"user_id":898,"name":"rocket1714","steam_id":76561198255152396,"connected_time":4120000000000,"state":"active","ping":78},{"user_id":931,"name":"sonic1394","steam_id":76561198054636788,"connected_time":1666000000000,"state":"active","ping":60},{"user_id":908,"name":"xxxsinpadres","steam_id":76561198366873419,"connected_time":3666000000000,"state":"active","ping":58},{"user_id":940,"name":"wincel hampton","steam_id":76561198083095146,"connected_time":504000000000,"state":"active","ping":75},{"user_id":932,"name":"Krel","steam_id":76561198287045069,"connected_time":1661000000000,"state":"active","ping":59},{"user_id":917,"name":"Mr Zero","steam_id":76561198047432133,"connected_time":2686000000000,"state":"active","ping":55},{"user_id":944,"name":"roma","steam_id":76561199106104716,"connected_time":427000000000,"state":"active","ping":150},{"user_id":941,"name":"mild","steam_id":76561198082470182,"connected_time":491000000000,"state":"active","ping":90},{"user_id":866,"name":"kitchen goblin","steam_id":76561198271710504,"connected_time":7418000000000,"state":"active","ping":42},{"user_id":879,"name":"Siz","steam_id":76561198072962154,"connected_time":5913000000000,"state":"active","ping":60},{"user_id":942,"name":"backshot overlord","steam_id":76561198984612489,"connected_time":469000000000,"state":"active","ping":107},{"user_id":923,"name":"jb","steam_id":76561198038607085,"connected_time":2140000000000,"state":"active","ping":65},{"user_id":922,"name":"most sane 2fort player *real*","steam_id":76561199467239596,"connected_time":2415000000000,"state":"active","ping":51},{"user_id":934,"name":"frederick","steam_id":76561198037746805,"connected_time":1556000000000,"state":"active","ping":72},{"user_id":912,"name":"Tibalt Nyahuma","steam_id":76561198034779431,"connected_time":3485000000000,"state":"active","ping":66},{"user_id":945,"name":"Greenwood RN","steam_id":76561198088641060,"connected_time":217000000000,"state":"active","ping":88}]},{"server_id":106,"name":"Uncletopia | Chicago | 2 | All Maps","name_short":"chi-2","host":"chi-1.us.uncletopia.com","port":27025,"enabled":true,"region":"us-central","cc":"us","latitude":41.881832,"longitude":-87.62318,"reserved":0,"last_update":"0001-01-01T00:00:00Z","name_a2s":"Uncletopia | Chicago | 2 | All Maps","protocol":17,"map":"cp_dustbowl","folder":"tf","game":"Team Fortress","app_id":440,"player_count":24,"max_players":24,"Bots":0,"server_type":"Dedicated","server_os":"Linux","password":true,"vac":true,"version":"7961495","steam_id":85568392924469985,"keywords":["cp","nocrits","nodmgspread","uncletopia"],"game_id":440,"stv_port":27026,"stv_name":"Uncletopia | Chicago | 2 | All Maps | STV","players":[{"user_id":922,"name":"Atlas","steam_id":76561198379699811,"connected_time":1916000000000,"state":"active","ping":61},{"user_id":832,"name":"dunk","steam_id":76561198132476501,"connected_time":7594000000000,"state":"active","ping":42},{"user_id":833,"name":"cotton candy pill bug","steam_id":76561198058998371,"connected_time":7509000000000,"state":"active","ping":55},{"user_id":928,"name":"brotalium","steam_id":76561198055439054,"connected_time":1643000000000,"state":"active","ping":67},{"user_id":943,"name":"zoey","steam_id":76561198084679526,"connected_time":791000000000,"state":"active","ping":53},{"user_id":944,"name":"Oily","steam_id":76561199452938420,"connected_time":776000000000,"state":"active","ping":57},{"user_id":945,"name":"Shadow","steam_id":76561198796731784,"connected_time":758000000000,"state":"active","ping":44},{"user_id":931,"name":"Lae","steam_id":76561198185527278,"connected_time":1520000000000,"state":"active","ping":63},{"user_id":927,"name":"Robert","steam_id":76561198133200895,"connected_time":1681000000000,"state":"active","ping":60},{"user_id":930,"name":"rhsiegetank","steam_id":76561198359829118,"connected_time":1540000000000,"state":"active","ping":89},{"user_id":946,"name":"Bobato Chaps","steam_id":76561198065103552,"connected_time":709000000000,"state":"active","ping":51},{"user_id":942,"name":"[SLAG]redgunnit","steam_id":76561198058053644,"connected_time":895000000000,"state":"active","ping":56},{"user_id":874,"name":"astrobob911","steam_id":76561199099110654,"connected_time":4587000000000,"state":"active","ping":67},{"user_id":954,"name":"¬øQuery?","steam_id":76561198072152200,"connected_time":227000000000,"state":"active","ping":60},{"user_id":948,"name":"Saucy Boy","steam_id":76561198178332031,"connected_time":580000000000,"state":"active","ping":60},{"user_id":920,"name":"Whimsy!","steam_id":76561197989578836,"connected_time":2002000000000,"state":"active","ping":94},{"user_id":883,"name":"lcy13vv","steam_id":76561197995997446,"connected_time":3903000000000,"state":"active","ping":58},{"user_id":893,"name":"Just a Festive TimeButt","steam_id":76561198074261742,"connected_time":3488000000000,"state":"active","ping":63},{"user_id":936,"name":"Lead Licker","steam_id":76561198162668339,"connected_time":1289000000000,"state":"active","ping":59},{"user_id":951,"name":"Nobody121","steam_id":76561199227292137,"connected_time":446000000000,"state":"active","ping":103},{"user_id":953,"name":"DUXIN","steam_id":76561198043861268,"connected_time":395000000000,"state":"active","ping":71},{"user_id":908,"name":"SixtyTwoCents","steam_id":76561198142724783,"connected_time":2938000000000,"state":"active","ping":57},{"user_id":895,"name":"Ket","steam_id":76561198241951244,"connected_time":3432000000000,"state":"active","ping":69},{"user_id":938,"name":"‚∏∏ gaige ‚õß","steam_id":76561198090576796,"connected_time":1279000000000,"state":"active","ping":60}]},{"server_id":402,"name":"Uncletopia | Chicago | 3 | All Maps","name_short":"chi-3","host":"chi-1.us.uncletopia.com","port":27035,"enabled":true,"region":"us-central","cc":"us","latitude":41.881832,"longitude":-87.62318,"reserved":0,"last_update":"0001-01-01T00:00:00Z","name_a2s":"Uncletopia | Chicago | 3 | All Maps","protocol":17,"map":"cp_snakewater_final1","folder":"tf","game":"Team Fortress","app_id":440,"player_count":0,"max_players":24,"Bots":0,"server_type":"Dedicated","server_os":"Linux","password":true,"vac":true,"version":"7961495","steam_id":85568392924515191,"keywords":["cp","nocrits","nodmgspread","uncletopia"],"game_id":440,"stv_port":27036,"stv_name":"Uncletopia | Chicago | 3 | All Maps | STV","players":null},{"server_id":403,"name":"Uncletopia | Chicago | 4 | All Maps","name_short":"chi-4","host":"chi-1.us.uncletopia.com","port":27045,"enabled":true,"region":"us-central","cc":"us","latitude":41.881832,"longitude":-87.62318,"reserved":0,"last_update":"0001-01-01T00:00:00Z","name_a2s":"Uncletopia | Chicago | 4 | All Maps","protocol":17,"map":"ctf_2fort","folder":"tf","game":"Team Fortress","app_id":440,"player_count":4,"max_players":24,"Bots":0,"server_type":"Dedicated","server_os":"Linux","password":true,"vac":true,"version":"7961495","steam_id":85568392924515193,"keywords":["ctf","nocrits","nodmgspread","uncletopia"],"game_id":440,"stv_port":27046,"stv_name":"Uncletopia | Chicago | 4 | All Maps | STV","players":[{"user_id":708,"name":"Six Piece Chicken McNobody","steam_id":76561198129848222,"connected_time":4799000000000,"state":"active","ping":54},{"user_id":713,"name":"poggerchamp","steam_id":76561199145124973,"connected_time":4659000000000,"state":"active","ping":69},{"user_id":744,"name":"bonkpie57","steam_id":76561199481945697,"connected_time":1792000000000,"state":"active","ping":253},{"user_id":729,"name":"Doctor Marijuana","steam_id":76561198288289879,"connected_time":3161000000000,"state":"active","ping":141}]},{"server_id":36,"name":"Uncletopia | Chicago | 5 | All Maps","name_short":"chi-5","host":"chi-2.us.uncletopia.com","port":27015,"enabled":true,"region":"us-central","cc":"us","latitude":41.881832,"longitude":-87.62318,"reserved":0,"last_update":"0001-01-01T00:00:00Z","name_a2s":"Uncletopia | Chicago | 5 | All Maps","protocol":17,"map":"pl_borneo","folder":"tf","game":"Team Fortress","app_id":440,"player_count":23,"max_players":24,"Bots":0,"server_type":"Dedicated","server_os":"Linux","password":true,"vac":true,"version":"7961495","steam_id":85568392924866362,"keywords":["nocrits","nodmgspread","payload","uncletopia"],"game_id":440,"stv_port":27016,"stv_name":"Uncletopia | Chicago | 5 | All Maps | STV","players":[{"user_id":338,"name":"Pongallow","steam_id":76561198146876078,"connected_time":2516000000000,"state":"active","ping":45},{"user_id":334,"name":"QuakAtack","steam_id":76561198870770157,"connected_time":2671000000000,"state":"active","ping":60},{"user_id":372,"name":"mootier","steam_id":76561198030365192,"connected_time":597000000000,"state":"active","ping":71},{"user_id":369,"name":"Kzjytsugn","steam_id":76561198130241974,"connected_time":659000000000,"state":"active","ping":83},{"user_id":310,"name":"VioletLilly","steam_id":76561199183116013,"connected_time":3667000000000,"state":"active","ping":60},{"user_id":368,"name":"Orion 1 | Glitch","steam_id":76561198101234226,"connected_time":681000000000,"state":"active","ping":68},{"user_id":348,"name":"bansheerubber","steam_id":76561198042009362,"connected_time":2122000000000,"state":"active","ping":83},{"user_id":366,"name":"Gluteus","steam_id":76561198039122699,"connected_time":759000000000,"state":"active","ping":59},{"user_id":336,"name":"opossum","steam_id":76561198148905570,"connected_time":2587000000000,"state":"active","ping":69},{"user_id":339,"name":"Cabbage","steam_id":76561198405573530,"connected_time":2457000000000,"state":"active","ping":63},{"user_id":370,"name":"Microsoft Hollowpoint","steam_id":76561198874445824,"connected_time":637000000000,"state":"active","ping":66},{"user_id":371,"name":"CHIKN","steam_id":76561198277792665,"connected_time":618000000000,"state":"active","ping":109},{"user_id":361,"name":"Sweater-Fan","steam_id":76561199389567214,"connected_time":904000000000,"state":"active","ping":69},{"user_id":373,"name":"steven","steam_id":76561198173047169,"connected_time":552000000000,"state":"active","ping":59},{"user_id":350,"name":"im the beef","steam_id":76561198069506128,"connected_time":1870000000000,"state":"active","ping":60},{"user_id":362,"name":"rf","steam_id":76561198195359229,"connected_time":894000000000,"state":"active","ping":88},{"user_id":363,"name":"Queen Frau the Round","steam_id":76561197999942134,"connected_time":891000000000,"state":"active","ping":46},{"user_id":357,"name":"Video Game 2","steam_id":76561198041231215,"connected_time":1382000000000,"state":"active","ping":50},{"user_id":358,"name":"Rein","steam_id":76561198300340427,"connected_time":1249000000000,"state":"active","ping":69},{"user_id":359,"name":"beefskewer","steam_id":76561198049992949,"connected_time":1196000000000,"state":"active","ping":100},{"user_id":345,"name":"Doctor Teeth","steam_id":76561198209847111,"connected_time":2213000000000,"state":"active","ping":66},{"user_id":375,"name":"beats (16:38)","steam_id":76561199245717718,"connected_time":320000000000,"state":"active","ping":65},{"user_id":349,"name":"HyperGalvanized","steam_id":76561198029262451,"connected_time":2085000000000,"state":"active","ping":75}]},{"server_id":37,"name":"Uncletopia | Chicago | 6 | All Maps","name_short":"chi-6","host":"chi-2.us.uncletopia.com","port":27025,"enabled":true,"region":"us-central","cc":"us","latitude":41.881832,"longitude":-87.62318,"reserved":0,"last_update":"0001-01-01T00:00:00Z","name_a2s":"Uncletopia | Chicago | 6 | All Maps","protocol":17,"map":"pl_frontier_final","folder":"tf","game":"Team Fortress","app_id":440,"player_count":24,"max_players":24,"Bots":0,"server_type":"Dedicated","server_os":"Linux","password":true,"vac":true,"version":"7961495","steam_id":85568392924866363,"keywords":["nocrits","nodmgspread","payload","uncletopia"],"game_id":440,"stv_port":27026,"stv_name":"Uncletopia | Chicago | 6 | All Maps | STV","players":[{"user_id":460,"name":"Noobert McGlitchington the 3st","steam_id":76561198073176682,"connected_time":2390000000000,"state":"active","ping":60},{"user_id":475,"name":"Ferioth","steam_id":76561197997993090,"connected_time":1404000000000,"state":"active","ping":67},{"user_id":474,"name":"Judge Judy and executioner","steam_id":76561198015235881,"connected_time":1472000000000,"state":"active","ping":47},{"user_id":522,"name":"Aegle","steam_id":76561198871463455,"connected_time":133000000000,"state":"active","ping":90},{"user_id":523,"name":"pee boy","steam_id":76561198069909083,"connected_time":127000000000,"state":"active","ping":83},{"user_id":471,"name":"cyrus!","steam_id":76561198344500089,"connected_time":1523000000000,"state":"active","ping":67},{"user_id":477,"name":"thisisSteve","steam_id":76561198420882318,"connected_time":1302000000000,"state":"active","ping":95},{"user_id":402,"name":"Primal Beast","steam_id":76561198219843663,"connected_time":5818000000000,"state":"active","ping":68},{"user_id":467,"name":"Mom","steam_id":76561198207936000,"connected_time":1797000000000,"state":"active","ping":95},{"user_id":479,"name":"Kilian","steam_id":76561197964374101,"connected_time":1242000000000,"state":"active","ping":104},{"user_id":498,"name":"BrownBear77","steam_id":76561198311991104,"connected_time":893000000000,"state":"active","ping":109},{"user_id":465,"name":"The Disciple","steam_id":76561199068960616,"connected_time":2116000000000,"state":"active","ping":52},{"user_id":451,"name":"StinkyBoi","steam_id":76561198400132605,"connected_time":2901000000000,"state":"active","ping":126},{"user_id":469,"name":"Kepa","steam_id":76561198091975728,"connected_time":1698000000000,"state":"active","ping":71},{"user_id":472,"name":"YolkOnYou","steam_id":76561198088760655,"connected_time":1503000000000,"state":"active","ping":137},{"user_id":478,"name":"SATURN","steam_id":76561198116023052,"connected_time":1281000000000,"state":"active","ping":78},{"user_id":481,"name":"kicks","steam_id":76561199228854923,"connected_time":1173000000000,"state":"active","ping":49},{"user_id":507,"name":"slep.py","steam_id":76561197988287144,"connected_time":413000000000,"state":"active","ping":60},{"user_id":489,"name":"The Collective(Hypnotist)","steam_id":76561198170423483,"connected_time":1032000000000,"state":"active","ping":69},{"user_id":484,"name":"bobbymcbobington","steam_id":76561199089411172,"connected_time":1068000000000,"state":"active","ping":123},{"user_id":491,"name":"Tribbies","steam_id":76561198000708696,"connected_time":1007000000000,"state":"active","ping":91},{"user_id":486,"name":"Atlas","steam_id":76561198127975050,"connected_time":1057000000000,"state":"active","ping":64},{"user_id":502,"name":"Team Fartpiss Poo","steam_id":76561199163591880,"connected_time":770000000000,"state":"active","ping":81},{"user_id":499,"name":"SHADOW","steam_id":76561198207768148,"connected_time":875000000000,"state":"active","ping":99}]},{"server_id":38,"name":"Uncletopia | Chicago | 7 | Stopwatch","name_short":"chi-7","host":"chi-2.us.uncletopia.com","port":27035,"enabled":true,"region":"us-central","cc":"us","latitude":41.881832,"longitude":-87.62318,"reserved":0,"last_update":"0001-01-01T00:00:00Z","name_a2s":"Uncletopia | Chicago | 7 | Stopwatch","protocol":17,"map":"workshop/koth_product_final.ugc454272353","folder":"tf","game":"Team Fortress","app_id":440,"player_count":24,"max_players":24,"Bots":0,"server_type":"Dedicated","server_os":"Linux","password":true,"vac":true,"version":"7961495","steam_id":85568392924866364,"keywords":["cp","nocrits","nodmgspread","uncletopia"],"game_id":440,"stv_port":27036,"stv_name":"Uncletopia | Chicago | 7 | Stopwatch | STV","players":[{"user_id":364,"name":"weedexperiment","steam_id":76561198083975056,"connected_time":208000000000,"state":"active","ping":77},{"user_id":359,"name":"skinnyandy","steam_id":76561198300402102,"connected_time":524000000000,"state":"active","ping":80},{"user_id":329,"name":"larguu","steam_id":76561197994336210,"connected_time":1783000000000,"state":"active","ping":59},{"user_id":370,"name":"UV","steam_id":76561198083936918,"connected_time":33000000000,"state":"active","ping":101},{"user_id":324,"name":"Gomi","steam_id":76561198262622047,"connected_time":2087000000000,"state":"active","ping":66},{"user_id":361,"name":"‚òÖTC2","steam_id":76561198026985346,"connected_time":330000000000,"state":"active","ping":54},{"user_id":350,"name":"Zeno","steam_id":76561198245984852,"connected_time":931000000000,"state":"active","ping":60},{"user_id":325,"name":"Dongus","steam_id":76561197979056451,"connected_time":2081000000000,"state":"active","ping":98},{"user_id":327,"name":"Yongle","steam_id":76561198068591156,"connected_time":1819000000000,"state":"active","ping":52},{"user_id":342,"name":"Lancer Clown","steam_id":76561198011442255,"connected_time":1304000000000,"state":"active","ping":99},{"user_id":365,"name":"dax","steam_id":76561198045335319,"connected_time":202000000000,"state":"active","ping":75},{"user_id":328,"name":"Big Chungus Gaming","steam_id":76561198068794194,"connected_time":1816000000000,"state":"active","ping":52},{"user_id":332,"name":"binary search tree gaming","steam_id":76561198099721950,"connected_time":1716000000000,"state":"active","ping":57},{"user_id":333,"name":"BrosPros","steam_id":76561198149176789,"connected_time":1675000000000,"state":"active","ping":50},{"user_id":368,"name":"stall","steam_id":76561199152861652,"connected_time":123000000000,"state":"active","ping":57},{"user_id":352,"name":"monsterkill4567","steam_id":76561198272986367,"connected_time":848000000000,"state":"active","ping":102},{"user_id":345,"name":"Le Meilleur","steam_id":76561198054581325,"connected_time":1048000000000,"state":"active","ping":46},{"user_id":367,"name":"moonboy","steam_id":76561198172113657,"connected_time":133000000000,"state":"active","ping":78},{"user_id":337,"name":"_mercury_","steam_id":76561198858356060,"connected_time":1548000000000,"state":"active","ping":65},{"user_id":362,"name":"catawampus","steam_id":76561198043684960,"connected_time":285000000000,"state":"active","ping":70},{"user_id":355,"name":"cc.BaconBlitz","steam_id":76561198079461770,"connected_time":761000000000,"state":"active","ping":81},{"user_id":357,"name":"Broadway Rose","steam_id":76561198046083342,"connected_time":715000000000,"state":"active","ping":64},{"user_id":358,"name":"chickenenthusiast427","steam_id":76561198909415646,"connected_time":697000000000,"state":"active","ping":83},{"user_id":369,"name":"Brastion","steam_id":76561198257707303,"connected_time":123000000000,"state":"active","ping":76}]},{"server_id":39,"name":"Uncletopia | Chicago | 8 | Community","name_short":"chi-8","host":"chi-2.us.uncletopia.com","port":27045,"enabled":true,"region":"us-central","cc":"us","latitude":41.881832,"longitude":-87.62318,"reserved":0,"last_update":"0001-01-01T00:00:00Z","name_a2s":"Uncletopia | Chicago | 8 | Community","protocol":17,"map":"workshop/koth_slaughter_rc1.ugc1712845210","folder":"tf","game":"Team Fortress","app_id":440,"player_count":0,"max_players":24,"Bots":0,"server_type":"Dedicated","server_os":"Linux","password":true,"vac":true,"version":"7961495","steam_id":85568392924866365,"keywords":["cp","nocrits","nodmgspread","uncletopia"],"game_id":440,"stv_port":27046,"stv_name":"Uncletopia | Chicago | 8 | Community | STV","players":null},{"server_id":8,"name":"Uncletopia | Dallas | 1 | All Maps","name_short":"dal-1","host":"dal-1.us.uncletopia.com","port":27015,"enabled":true,"region":"us-central","cc":"us","latitude":32.779167,"longitude":-96.80889,"reserved":0,"last_update":"0001-01-01T00:00:00Z","name_a2s":"Uncletopia | Dallas | 1 | All Maps","protocol":17,"map":"pl_barnblitz","folder":"tf","game":"Team Fortress","app_id":440,"player_count":11,"max_players":24,"Bots":0,"server_type":"Dedicated","server_os":"Linux","password":true,"vac":true,"version":"7961495","steam_id":85568392924469986,"keywords":["nocrits","nodmgspread","payload","uncletopia"],"game_id":440,"stv_port":27016,"stv_name":"Uncletopia | Dallas | 1 | All Maps | STV","players":[{"user_id":868,"name":"overwatch refugee","steam_id":76561199003985688,"connected_time":1363000000000,"state":"active","ping":74},{"user_id":816,"name":"Û†Ä°Û†Ä°","steam_id":76561198348035053,"connected_time":4449000000000,"state":"active","ping":108},{"user_id":876,"name":"orbisg","steam_id":76561198004133638,"connected_time":597000000000,"state":"active","ping":75},{"user_id":872,"name":"katiedidsings","steam_id":76561198090433209,"connected_time":1305000000000,"state":"active","ping":73},{"user_id":843,"name":"Gl√ºhbirne","steam_id":76561198189278869,"connected_time":2568000000000,"state":"active","ping":65},{"user_id":806,"name":"magnoly","steam_id":76561199228865188,"connected_time":4999000000000,"state":"active","ping":39},{"user_id":831,"name":"Galactamarx","steam_id":76561198028065755,"connected_time":3518000000000,"state":"active","ping":71},{"user_id":880,"name":"Artic_Ryuu","steam_id":76561198182194918,"connected_time":229000000000,"state":"active","ping":70},{"user_id":837,"name":"2cats_2curious","steam_id":76561198027143149,"connected_time":3133000000000,"state":"active","ping":50},{"user_id":861,"name":"BMoney","steam_id":76561198799389030,"connected_time":1654000000000,"state":"active","ping":68},{"user_id":879,"name":"Cosmic Doorstop","steam_id":76561198129191953,"connected_time":303000000000,"state":"active","ping":49}]},{"server_id":108,"name":"Uncletopia | Dallas | 2 | All Maps","name_short":"dal-2","host":"dal-1.us.uncletopia.com","port":27025,"enabled":true,"region":"us-central","cc":"us","latitude":32.779167,"longitude":-96.80889,"reserved":0,"last_update":"0001-01-01T00:00:00Z","name_a2s":"Uncletopia | Dallas | 2 | All Maps","protocol":17,"map":"koth_viaduct","folder":"tf","game":"Team Fortress","app_id":440,"player_count":24,"max_players":24,"Bots":0,"server_type":"Dedicated","server_os":"Linux","password":true,"vac":true,"version":"7961495","steam_id":85568392924469988,"keywords":["cp","nocrits","nodmgspread","uncletopia"],"game_id":440,"stv_port":27026,"stv_name":"Uncletopia | Dallas | 2 | All Maps | STV","players":[{"user_id":515,"name":"HomeSkoola","steam_id":76561198000526372,"connected_time":282000000000,"state":"active","ping":129},{"user_id":479,"name":"Krazy","steam_id":76561198835502709,"connected_time":4084000000000,"state":"active","ping":74},{"user_id":513,"name":"ramato#SaveTf2","steam_id":76561198028703754,"connected_time":312000000000,"state":"active","ping":73},{"user_id":422,"name":"stuffedidiot","steam_id":76561199181513019,"connected_time":8683000000000,"state":"active","ping":118},{"user_id":514,"name":"Vladimir Pootis Spencer here","steam_id":76561198805567646,"connected_time":307000000000,"state":"active","ping":121},{"user_id":498,"name":"DeckofDragons","steam_id":76561198057398213,"connected_time":1653000000000,"state":"active","ping":52},{"user_id":480,"name":"Rat Smacker","steam_id":76561198043629646,"connected_time":4077000000000,"state":"active","ping":45},{"user_id":491,"name":"Harbor Seal","steam_id":76561198162631724,"connected_time":2791000000000,"state":"active","ping":83},{"user_id":496,"name":"‚ú™ TedBear2142 ‚ú™","steam_id":76561198006481210,"connected_time":1680000000000,"state":"active","ping":84},{"user_id":516,"name":"Just Juanito","steam_id":76561198241446874,"connected_time":206000000000,"state":"active","ping":76},{"user_id":517,"name":"Zebulon","steam_id":76561198025719753,"connected_time":169000000000,"state":"active","ping":90},{"user_id":500,"name":"zpalmtree","steam_id":76561198134307620,"connected_time":1640000000000,"state":"active","ping":75},{"user_id":507,"name":"Mufalito","steam_id":76561198951889482,"connected_time":1167000000000,"state":"active","ping":150},{"user_id":397,"name":"Certified Hood Classic","steam_id":76561199086159354,"connected_time":9958000000000,"state":"active","ping":48},{"user_id":518,"name":"4TheBrightFuture","steam_id":76561198158196412,"connected_time":162000000000,"state":"active","ping":71},{"user_id":519,"name":"playguy carter","steam_id":76561198080679337,"connected_time":122000000000,"state":"active","ping":86},{"user_id":510,"name":"ùíÜùíóùíäùíçArnoldGamingÔæ†","steam_id":76561198040140247,"connected_time":836000000000,"state":"active","ping":81},{"user_id":520,"name":"cofferhead","steam_id":76561199191108449,"connected_time":96000000000,"state":"active","ping":81},{"user_id":521,"name":"Meso","steam_id":76561197988971820,"connected_time":66000000000,"state":"active","ping":55},{"user_id":448,"name":"lobster","steam_id":76561198147417707,"connected_time":6346000000000,"state":"active","ping":75},{"user_id":509,"name":"for the king","steam_id":76561197973488858,"connected_time":860000000000,"state":"active","ping":75},{"user_id":467,"name":"TrashPanda (she/her)","steam_id":76561198447864095,"connected_time":4897000000000,"state":"active","ping":53},{"user_id":495,"name":"Squiggle","steam_id":76561198257197535,"connected_time":2273000000000,"state":"active","ping":70},{"user_id":522,"name":"zquidy","steam_id":76561198247637970,"connected_time":59000000000,"state":"active","ping":72}]},{"server_id":404,"name":"Uncletopia | Dallas | 3 | All Maps","name_short":"dal-3","host":"dal-1.us.uncletopia.com","port":27035,"enabled":true,"region":"us-central","cc":"us","latitude":32.779167,"longitude":-96.80889,"reserved":0,"last_update":"0001-01-01T00:00:00Z","name_a2s":"Uncletopia | Dallas | 3 | All Maps","protocol":17,"map":"cp_snakewater_final1","folder":"tf","game":"Team Fortress","app_id":440,"player_count":24,"max_players":24,"Bots":0,"server_type":"Dedicated","server_os":"Linux","password":true,"vac":true,"version":"7961495","steam_id":85568392924515219,"keywords":["cp","nocrits","nodmgspread","uncletopia"],"game_id":440,"stv_port":27036,"stv_name":"Uncletopia | Dallas | 3 | All Maps | STV","players":[{"user_id":400,"name":"RedTheFoxisWow","steam_id":76561198827275380,"connected_time":742000000000,"state":"active","ping":56},{"user_id":333,"name":"jorild","steam_id":76561198213867093,"connected_time":4735000000000,"state":"active","ping":72},{"user_id":410,"name":"1000 Ping","steam_id":76561198098330939,"connected_time":48000000000,"state":"active","ping":110},{"user_id":411,"name":"yesoko","steam_id":76561198072917024,"connected_time":48000000000,"state":"active","ping":78},{"user_id":382,"name":"GUH","steam_id":76561199013202758,"connected_time":1795000000000,"state":"active","ping":65},{"user_id":392,"name":"Byan","steam_id":76561198319090131,"connected_time":1460000000000,"state":"active","ping":60},{"user_id":335,"name":"^0 Flamingsheep667","steam_id":76561198856399690,"connected_time":4682000000000,"state":"active","ping":144},{"user_id":358,"name":"Burny Sanders","steam_id":76561197961879048,"connected_time":3110000000000,"state":"active","ping":46},{"user_id":359,"name":"DmacE","steam_id":76561199138963471,"connected_time":3052000000000,"state":"active","ping":66},{"user_id":403,"name":"MexicanTortilla","steam_id":76561198195872719,"connected_time":444000000000,"state":"active","ping":105},{"user_id":404,"name":"TheNorseman7","steam_id":76561199383087917,"connected_time":433000000000,"state":"active","ping":66},{"user_id":412,"name":"centipede","steam_id":76561199238694456,"connected_time":34000000000,"state":"active","ping":85},{"user_id":383,"name":"werecat","steam_id":76561198005091213,"connected_time":1771000000000,"state":"active","ping":87},{"user_id":365,"name":"giant coconut nut","steam_id":76561199174202147,"connected_time":2601000000000,"state":"active","ping":166},{"user_id":377,"name":"ttv/King_Cheese2","steam_id":76561198261430188,"connected_time":2106000000000,"state":"active","ping":69},{"user_id":405,"name":"The Lovers","steam_id":76561198119759695,"connected_time":414000000000,"state":"active","ping":72},{"user_id":413,"name":"Camohno","steam_id":76561198283519918,"connected_time":26000000000,"state":"active","ping":203},{"user_id":390,"name":"Applesauce (she/her)","steam_id":76561198049642811,"connected_time":1632000000000,"state":"active","ping":60},{"user_id":406,"name":"Matlock","steam_id":76561198012092071,"connected_time":358000000000,"state":"active","ping":87},{"user_id":407,"name":"The Demoman from Team Fortress ","steam_id":76561199031241776,"connected_time":351000000000,"state":"active","ping":59},{"user_id":414,"name":"Isbog_official","steam_id":76561198261081658,"connected_time":8000000000,"state":"active","ping":278},{"user_id":409,"name":"Sometimes I Dream About Cheese","steam_id":76561198941700660,"connected_time":264000000000,"state":"active","ping":116},{"user_id":375,"name":"MantisToboggan","steam_id":76561197969447887,"connected_time":2179000000000,"state":"active","ping":133},{"user_id":376,"name":"Smithex","steam_id":76561198882520378,"connected_time":2169000000000,"state":"active","ping":69}]},{"server_id":405,"name":"Uncletopia | Dallas | 4 | Community","name_short":"dal-4","host":"dal-1.us.uncletopia.com","port":27045,"enabled":true,"region":"us-central","cc":"us","latitude":32.779167,"longitude":-96.80889,"reserved":0,"last_update":"0001-01-01T00:00:00Z","name_a2s":"Uncletopia | Dallas | 4 | Community","protocol":17,"map":"workshop/koth_synthetic_rc6a.ugc1549817316","folder":"tf","game":"Team Fortress","app_id":440,"player_count":0,"max_players":24,"Bots":0,"server_type":"Dedicated","server_os":"Linux","password":true,"vac":true,"version":"7961495","steam_id":85568392924515220,"keywords":["cp","nocrits","nodmgspread","uncletopia"],"game_id":440,"stv_port":27046,"stv_name":"Uncletopia | Dallas | 4 | Community | STV","players":null},{"server_id":5,"name":"Uncletopia | Frankfurt | 1 | All Maps","name_short":"frk-1","host":"frk-1.de.uncletopia.com","port":27015,"enabled":true,"region":"eu","cc":"de","latitude":50.110924,"longitude":8.682127,"reserved":0,"last_update":"0001-01-01T00:00:00Z","name_a2s":"Uncletopia | Frankfurt | 1 | All Maps","protocol":17,"map":"koth_highpass","folder":"tf","game":"Team Fortress","app_id":440,"player_count":15,"max_players":24,"Bots":0,"server_type":"Dedicated","server_os":"Linux","password":true,"vac":true,"version":"7961495","steam_id":85568392924469989,"keywords":["cp","nocrits","nodmgspread","uncletopia"],"game_id":440,"stv_port":27016,"stv_name":"Uncletopia | Frankfurt | 1 | All Maps | STV","players":[{"user_id":43,"name":"Desudoe","steam_id":76561198283582707,"connected_time":224000000000,"state":"active","ping":44},{"user_id":15,"name":"Nyhde","steam_id":76561198012771416,"connected_time":3103000000000,"state":"active","ping":87},{"user_id":47,"name":"Cruiser","steam_id":76561198042355559,"connected_time":35000000000,"state":"active","ping":110},{"user_id":41,"name":"dank pank","steam_id":76561198995052713,"connected_time":581000000000,"state":"active","ping":47},{"user_id":42,"name":"Sultan Mohammad S√ºleyman II.","steam_id":76561198124568025,"connected_time":323000000000,"state":"active","ping":47},{"user_id":44,"name":"iIMOFIi","steam_id":76561199000483925,"connected_time":152000000000,"state":"active","ping":157},{"user_id":18,"name":"Enigmus","steam_id":76561197994063627,"connected_time":2794000000000,"state":"active","ping":88},{"user_id":45,"name":"Wiverny","steam_id":76561198061954999,"connected_time":93000000000,"state":"active","ping":31},{"user_id":46,"name":"chuy_chila","steam_id":76561198271408714,"connected_time":90000000000,"state":"active","ping":202},{"user_id":23,"name":"LittleTimWantWin","steam_id":76561198801490317,"connected_time":2400000000000,"state":"active","ping":111},{"user_id":28,"name":"Patrick Basement","steam_id":76561198956842547,"connected_time":1889000000000,"state":"active","ping":96},{"user_id":29,"name":"Montrose","steam_id":76561198338911736,"connected_time":1812000000000,"state":"active","ping":150},{"user_id":31,"name":"Zerfesh","steam_id":76561198117534358,"connected_time":1706000000000,"state":"active","ping":76},{"user_id":34,"name":"shr","steam_id":76561198449852071,"connected_time":1485000000000,"state":"active","ping":55},{"user_id":38,"name":"Raj Goodbastard","steam_id":76561199030081320,"connected_time":1270000000000,"state":"active","ping":136}]},{"server_id":110,"name":"Uncletopia | Frankfurt | 2 | All Maps","name_short":"frk-2","host":"frk-1.de.uncletopia.com","port":27025,"enabled":true,"region":"eu","cc":"de","latitude":50.110924,"longitude":8.682127,"reserved":0,"last_update":"0001-01-01T00:00:00Z","name_a2s":"Uncletopia | Frankfurt | 2 | All Maps","protocol":17,"map":"plr_hightower","folder":"tf","game":"Team Fortress","app_id":440,"player_count":0,"max_players":24,"Bots":0,"server_type":"Dedicated","server_os":"Linux","password":true,"vac":true,"version":"7961495","steam_id":85568392924469990,"keywords":["nocrits","nodmgspread","payload","uncletopia"],"game_id":440,"stv_port":27026,"stv_name":"Uncletopia | Frankfurt | 2 | All Maps | STV","players":null},{"server_id":308,"name":"Uncletopia | Frankfurt | 3 | All Maps","name_short":"frk-3","host":"frk-1.de.uncletopia.com","port":27035,"enabled":true,"region":"eu","cc":"de","latitude":50.110924,"longitude":8.682127,"reserved":0,"last_update":"0001-01-01T00:00:00Z","name_a2s":"Uncletopia | Frankfurt | 3 | All Maps","protocol":17,"map":"cp_metalworks","folder":"tf","game":"Team Fortress","app_id":440,"player_count":0,"max_players":24,"Bots":0,"server_type":"Dedicated","server_os":"Linux","password":true,"vac":true,"version":"7961495","steam_id":85568392924504274,"keywords":["cp","nocrits","nodmgspread","uncletopia"],"game_id":440,"stv_port":27036,"stv_name":"Uncletopia | Frankfurt | 3 | All Maps | STV","players":null},{"server_id":309,"name":"Uncletopia | Frankfurt | 4 | All Maps","name_short":"frk-4","host":"frk-1.de.uncletopia.com","port":27045,"enabled":true,"region":"eu","cc":"de","latitude":50.110924,"longitude":8.682127,"reserved":0,"last_update":"0001-01-01T00:00:00Z","name_a2s":"Uncletopia | Frankfurt | 4 | All Maps","protocol":17,"map":"cp_gorge","folder":"tf","game":"Team Fortress","app_id":440,"player_count":0,"max_players":24,"Bots":0,"server_type":"Dedicated","server_os":"Linux","password":true,"vac":true,"version":"7961495","steam_id":85568392924504275,"keywords":["cp","nocrits","nodmgspread","uncletopia"],"game_id":440,"stv_port":27046,"stv_name":"Uncletopia | Frankfurt | 4 | All Maps | STV","players":null},{"server_id":310,"name":"Uncletopia | Frankfurt | 5 | All Maps","name_short":"frk-5","host":"frk-1.de.uncletopia.com","port":27055,"enabled":true,"region":"eu","cc":"de","latitude":50.110924,"longitude":8.682127,"reserved":0,"last_update":"0001-01-01T00:00:00Z","name_a2s":"Uncletopia | Frankfurt | 5 | All Maps","protocol":17,"map":"cp_mountainlab","folder":"tf","game":"Team Fortress","app_id":440,"player_count":0,"max_players":24,"Bots":0,"server_type":"Dedicated","server_os":"Linux","password":true,"vac":true,"version":"7961495","steam_id":85568392924504277,"keywords":["cp","nocrits","nodmgspread","uncletopia"],"game_id":440,"stv_port":27056,"stv_name":"Uncletopia | Frankfurt | 5 | All Maps | STV","players":null},{"server_id":311,"name":"Uncletopia | Frankfurt | 6 | All Maps","name_short":"frk-6","host":"frk-1.de.uncletopia.com","port":27065,"enabled":true,"region":"eu","cc":"de","latitude":50.110924,"longitude":8.682127,"reserved":0,"last_update":"0001-01-01T00:00:00Z","name_a2s":"Uncletopia | Frankfurt | 6 | All Maps","protocol":17,"map":"cp_coldfront","folder":"tf","game":"Team Fortress","app_id":440,"player_count":0,"max_players":24,"Bots":0,"server_type":"Dedicated","server_os":"Linux","password":true,"vac":true,"version":"7961495","steam_id":85568392924504278,"keywords":["cp","nocrits","nodmgspread","uncletopia"],"game_id":440,"stv_port":27066,"stv_name":"Uncletopia | Frankfurt | 6 | All Maps | STV","players":null},{"server_id":23,"name":"Uncletopia | Frankfurt | 7 | Stopwatch","name_short":"frk-7","host":"frk-1.de.uncletopia.com","port":27075,"enabled":true,"region":"eu","cc":"de","latitude":50.110924,"longitude":8.682127,"reserved":0,"last_update":"0001-01-01T00:00:00Z","name_a2s":"Uncletopia | Frankfurt | 7 | Stopwatch","protocol":17,"map":"cp_sunshine","folder":"tf","game":"Team Fortress","app_id":440,"player_count":0,"max_players":24,"Bots":0,"server_type":"Dedicated","server_os":"Linux","password":true,"vac":true,"version":"7961495","steam_id":85568392924742827,"keywords":["cp","nocrits","nodmgspread","uncletopia"],"game_id":440,"stv_port":27076,"stv_name":"Uncletopia | Frankfurt | 7 | Stopwatch | STV","players":null},{"server_id":24,"name":"Uncletopia | Frankfurt | 8 | Community","name_short":"frk-8","host":"frk-1.de.uncletopia.com","port":27085,"enabled":true,"region":"eu","cc":"de","latitude":50.110924,"longitude":8.682127,"reserved":0,"last_update":"0001-01-01T00:00:00Z","name_a2s":"Uncletopia | Frankfurt | 8 | Community","protocol":17,"map":"workshop/pl_boundary_final1.ugc456799153","folder":"tf","game":"Team Fortress","app_id":440,"player_count":0,"max_players":24,"Bots":0,"server_type":"Dedicated","server_os":"Linux","password":true,"vac":true,"version":"7961495","steam_id":85568392924742828,"keywords":["nocrits","nodmgspread","payload","uncletopia"],"game_id":440,"stv_port":27086,"stv_name":"Uncletopia | Frankfurt | 8 | Community | STV","players":null},{"server_id":202,"name":"Uncletopia | Hong Kong | 1 | All Maps","name_short":"hgk-1","host":"hgk-1.hk.uncletopia.com","port":27015,"enabled":true,"region":"asia","cc":"hk","latitude":22.302711,"longitude":114.177216,"reserved":0,"last_update":"0001-01-01T00:00:00Z","name_a2s":"Uncletopia | Hong Kong | 1 | All Maps","protocol":17,"map":"koth_highpass","folder":"tf","game":"Team Fortress","app_id":440,"player_count":1,"max_players":24,"Bots":0,"server_type":"Dedicated","server_os":"Linux","password":true,"vac":true,"version":"7961495","steam_id":85568392924494504,"keywords":["cp","nocrits","nodmgspread","uncletopia"],"game_id":440,"stv_port":27016,"stv_name":"Uncletopia | Hong Kong | 1 | All Maps | STV","players":[{"user_id":19,"name":"izdihargaurim.r","steam_id":76561199508260958,"connected_time":939000000000,"state":"active","ping":90}]},{"server_id":1,"name":"Uncletopia | Los Angeles | 1 | All Maps","name_short":"lax-1","host":"lax-1.us.uncletopia.com","port":27015,"enabled":true,"region":"us-west","cc":"us","latitude":33.94279,"longitude":-118.41004,"reserved":0,"last_update":"0001-01-01T00:00:00Z","name_a2s":"Uncletopia | Los Angeles | 1 | All Maps","protocol":17,"map":"koth_harvest_final","folder":"tf","game":"Team Fortress","app_id":440,"player_count":24,"max_players":24,"Bots":0,"server_type":"Dedicated","server_os":"Linux","password":true,"vac":true,"version":"7961495","steam_id":85568392924469991,"keywords":["cp","nocrits","nodmgspread","uncletopia"],"game_id":440,"stv_port":27016,"stv_name":"Uncletopia | Los Angeles | 1 | All Maps | STV","players":[{"user_id":215,"name":"runescape legend","steam_id":76561198077791373,"connected_time":6139000000000,"state":"active","ping":93},{"user_id":235,"name":"social anxiety","steam_id":76561198308071306,"connected_time":3410000000000,"state":"active","ping":48},{"user_id":258,"name":"madeline (radio)","steam_id":76561198844648825,"connected_time":1778000000000,"state":"active","ping":96},{"user_id":72,"name":"Mystic man of potatoe","steam_id":76561198027267207,"connected_time":15018000000000,"state":"active","ping":49},{"user_id":265,"name":"shmeushmeu ttv","steam_id":76561198168064595,"connected_time":891000000000,"state":"active","ping":47},{"user_id":272,"name":"usedhalfcart","steam_id":76561198072621852,"connected_time":14000000000,"state":"spawning","ping":72},{"user_id":230,"name":"Jade","steam_id":76561198092408457,"connected_time":3882000000000,"state":"active","ping":74},{"user_id":245,"name":"Yoyos","steam_id":76561198061035695,"connected_time":2468000000000,"state":"active","ping":46},{"user_id":271,"name":"Clagger","steam_id":76561198066701092,"connected_time":71000000000,"state":"active","ping":69},{"user_id":266,"name":"0","steam_id":76561198046065237,"connected_time":728000000000,"state":"active","ping":113},{"user_id":259,"name":"fathead","steam_id":76561198150155615,"connected_time":1281000000000,"state":"active","ping":74},{"user_id":267,"name":"MasterGeek.MX","steam_id":76561198063355220,"connected_time":724000000000,"state":"active","ping":110},{"user_id":212,"name":"ThePalmTopSushi","steam_id":76561198847076153,"connected_time":6565000000000,"state":"active","ping":38},{"user_id":269,"name":"Bolbi","steam_id":76561198051811597,"connected_time":254000000000,"state":"active","ping":159},{"user_id":250,"name":"hapa demon punk","steam_id":76561198308883028,"connected_time":2297000000000,"state":"active","ping":48},{"user_id":198,"name":"Buswolley","steam_id":76561197995205571,"connected_time":7441000000000,"state":"active","ping":47},{"user_id":251,"name":"Maid 'n' China","steam_id":76561198423392976,"connected_time":2289000000000,"state":"active","ping":49},{"user_id":254,"name":"Primelotus","steam_id":76561198086618284,"connected_time":2075000000000,"state":"active","ping":57},{"user_id":237,"name":"Syrup","steam_id":76561198055850531,"connected_time":3339000000000,"state":"active","ping":39},{"user_id":268,"name":"coco","steam_id":76561198252066462,"connected_time":724000000000,"state":"active","ping":38},{"user_id":228,"name":"lordstinkdemon666","steam_id":76561198073914311,"connected_time":3914000000000,"state":"active","ping":45},{"user_id":224,"name":"kiwi","steam_id":76561198052177917,"connected_time":4743000000000,"state":"active","ping":59},{"user_id":211,"name":"Mr. Noodle","steam_id":76561198025280658,"connected_time":6665000000000,"state":"active","ping":48},{"user_id":238,"name":"wugmup","steam_id":76561199096287734,"connected_time":3325000000000,"state":"active","ping":53}]},{"server_id":112,"name":"Uncletopia | Los Angeles | 2 | All Maps","name_short":"lax-2","host":"lax-1.us.uncletopia.com","port":27025,"enabled":true,"region":"us-west","cc":"us","latitude":33.94279,"longitude":-118.41004,"reserved":0,"last_update":"0001-01-01T00:00:00Z","name_a2s":"Uncletopia | Los Angeles | 2 | All Maps","protocol":17,"map":"pl_frontier_final","folder":"tf","game":"Team Fortress","app_id":440,"player_count":24,"max_players":24,"Bots":0,"server_type":"Dedicated","server_os":"Linux","password":true,"vac":true,"version":"7961495","steam_id":85568392924469992,"keywords":["nocrits","nodmgspread","payload","uncletopia"],"game_id":440,"stv_port":27026,"stv_name":"Uncletopia | Los Angeles | 2 | All Maps | STV","players":[{"user_id":178,"name":"Zana","steam_id":76561198075908156,"connected_time":2833000000000,"state":"active","ping":60},{"user_id":205,"name":"Bartholomew Avery Bernald Ediso","steam_id":76561198156617970,"connected_time":540000000000,"state":"active","ping":45},{"user_id":160,"name":"Sammy!","steam_id":76561198184171743,"connected_time":3270000000000,"state":"active","ping":53},{"user_id":213,"name":"Satori Komeiji","steam_id":76561198158211423,"connected_time":222000000000,"state":"active","ping":35},{"user_id":163,"name":"Ethanol Buttchugger","steam_id":76561199127590316,"connected_time":3255000000000,"state":"active","ping":45},{"user_id":191,"name":"Skip Hop Doo Bop","steam_id":76561199161571849,"connected_time":1868000000000,"state":"active","ping":54},{"user_id":206,"name":"rattyrat","steam_id":76561198233994900,"connected_time":507000000000,"state":"active","ping":56},{"user_id":214,"name":"RS","steam_id":76561198091659792,"connected_time":183000000000,"state":"active","ping":63},{"user_id":192,"name":"DarthVader","steam_id":76561199061259359,"connected_time":1868000000000,"state":"active","ping":91},{"user_id":204,"name":"Atomic Ant","steam_id":76561198152201398,"connected_time":585000000000,"state":"active","ping":162},{"user_id":207,"name":"milk then cereal","steam_id":76561198047168548,"connected_time":482000000000,"state":"active","ping":45},{"user_id":208,"name":"Koblfricker","steam_id":76561198069606362,"connected_time":479000000000,"state":"active","ping":90},{"user_id":193,"name":"Dark Knight","steam_id":76561199167544782,"connected_time":1857000000000,"state":"active","ping":111},{"user_id":184,"name":"rock gaming","steam_id":76561199402868311,"connected_time":2572000000000,"state":"active","ping":47},{"user_id":194,"name":"Secret Tunnel","steam_id":76561198272403112,"connected_time":1845000000000,"state":"active","ping":53},{"user_id":195,"name":"ninety9dragonfly","steam_id":76561198363406983,"connected_time":1820000000000,"state":"active","ping":65},{"user_id":172,"name":"TortillaSocks","steam_id":76561199072745011,"connected_time":2976000000000,"state":"active","ping":61},{"user_id":196,"name":"Dark Iron Gains","steam_id":76561198825263771,"connected_time":1818000000000,"state":"active","ping":56},{"user_id":201,"name":"Catgirl Explise","steam_id":76561198044413891,"connected_time":709000000000,"state":"active","ping":72},{"user_id":212,"name":"seattlepilot","steam_id":76561198157510704,"connected_time":344000000000,"state":"active","ping":84},{"user_id":215,"name":"Grimm_Reaper164","steam_id":76561198848333297,"connected_time":113000000000,"state":"active","ping":48},{"user_id":185,"name":"what a fukkin","steam_id":76561198298442983,"connected_time":2530000000000,"state":"active","ping":68},{"user_id":198,"name":"Dreamzapp","steam_id":76561199084936632,"connected_time":1725000000000,"state":"active","ping":55},{"user_id":211,"name":"dumbeeon","steam_id":76561198059351874,"connected_time":416000000000,"state":"active","ping":57}]},{"server_id":324,"name":"Uncletopia | Los Angeles | 3 | All Maps","name_short":"lax-3","host":"lax-1.us.uncletopia.com","port":27035,"enabled":true,"region":"us-west","cc":"us","latitude":33.94279,"longitude":-118.41004,"reserved":0,"last_update":"0001-01-01T00:00:00Z","name_a2s":"Uncletopia | Los Angeles | 3 | All Maps","protocol":17,"map":"pl_snowycoast","folder":"tf","game":"Team Fortress","app_id":440,"player_count":0,"max_players":24,"Bots":0,"server_type":"Dedicated","server_os":"Linux","password":true,"vac":true,"version":"7961495","steam_id":85568392924510198,"keywords":["nocrits","nodmgspread","payload","uncletopia"],"game_id":440,"stv_port":27036,"stv_name":"Uncletopia | Los Angeles | 3 | All Maps | STV","players":null},{"server_id":25,"name":"Uncletopia | Los Angeles | 4 | Stopwatch","name_short":"lax-4","host":"lax-1.us.uncletopia.com","port":27045,"enabled":true,"region":"us-west","cc":"us","latitude":33.94279,"longitude":-118.41004,"reserved":0,"last_update":"0001-01-01T00:00:00Z","name_a2s":"Uncletopia | Los Angeles | 4 | Stopwatch","protocol":17,"map":"workshop/koth_clearcut_b15.ugc2107050255","folder":"tf","game":"Team Fortress","app_id":440,"player_count":0,"max_players":24,"Bots":0,"server_type":"Dedicated","server_os":"Linux","password":true,"vac":true,"version":"7961495","steam_id":85568392924510199,"keywords":["cp","nocrits","nodmgspread","uncletopia"],"game_id":440,"stv_port":27046,"stv_name":"Uncletopia | Los Angeles | 4 | Stopwatch | STV","players":null},{"server_id":11,"name":"Uncletopia | London | 1 | All Maps","name_short":"lon-1","host":"lon-1.uk.uncletopia.com","port":27015,"enabled":true,"region":"eu","cc":"gb","latitude":51.509865,"longitude":-0.118092,"reserved":0,"last_update":"0001-01-01T00:00:00Z","name_a2s":"Uncletopia | London | 1 | All Maps","protocol":17,"map":"cp_powerhouse","folder":"tf","game":"Team Fortress","app_id":440,"player_count":0,"max_players":24,"Bots":0,"server_type":"Dedicated","server_os":"Linux","password":true,"vac":true,"version":"7961495","steam_id":85568392924367362,"keywords":["cp","nocrits","nodmgspread","uncletopia"],"game_id":440,"stv_port":27016,"stv_name":"Uncletopia | London | 1 | All Maps | STV","players":null},{"server_id":114,"name":"Uncletopia | London | 2 | All Maps","name_short":"lon-2","host":"lon-1.uk.uncletopia.com","port":27025,"enabled":true,"region":"eu","cc":"gb","latitude":51.509865,"longitude":-0.118092,"reserved":0,"last_update":"0001-01-01T00:00:00Z","name_a2s":"Uncletopia | London | 2 | All Maps","protocol":17,"map":"pl_snowycoast","folder":"tf","game":"Team Fortress","app_id":440,"player_count":0,"max_players":24,"Bots":0,"server_type":"Dedicated","server_os":"Linux","password":true,"vac":true,"version":"7961495","steam_id":85568392924470941,"keywords":["nocrits","nodmgspread","payload","uncletopia"],"game_id":440,"stv_port":27026,"stv_name":"Uncletopia | London | 2 | All Maps | STV","players":null},{"server_id":320,"name":"Uncletopia | London | 3 | All Maps","name_short":"lon-3","host":"lon-1.uk.uncletopia.com","port":27035,"enabled":true,"region":"eu","cc":"gb","latitude":51.509865,"longitude":-0.118092,"reserved":0,"last_update":"0001-01-01T00:00:00Z","name_a2s":"Uncletopia | London | 3 | All Maps","protocol":17,"map":"koth_lakeside_final","folder":"tf","game":"Team Fortress","app_id":440,"player_count":0,"max_players":24,"Bots":0,"server_type":"Dedicated","server_os":"Linux","password":true,"vac":true,"version":"7961495","steam_id":85568392924510192,"keywords":["cp","nocrits","nodmgspread","uncletopia"],"game_id":440,"stv_port":27036,"stv_name":"Uncletopia | London | 3 | All Maps | STV","players":null},{"server_id":321,"name":"Uncletopia | London | 4 | All Maps","name_short":"lon-4","host":"lon-1.uk.uncletopia.com","port":27045,"enabled":true,"region":"eu","cc":"gb","latitude":51.509865,"longitude":-0.118092,"reserved":0,"last_update":"0001-01-01T00:00:00Z","name_a2s":"Uncletopia | London | 4 | All Maps","protocol":17,"map":"pl_badwater","folder":"tf","game":"Team Fortress","app_id":440,"player_count":0,"max_players":24,"Bots":0,"server_type":"Dedicated","server_os":"Linux","password":true,"vac":true,"version":"7961495","steam_id":85568392924510193,"keywords":["nocrits","nodmgspread","payload","uncletopia"],"game_id":440,"stv_port":27046,"stv_name":"Uncletopia | London | 4 | All Maps | STV","players":null},{"server_id":21,"name":"Uncletopia | London | 5 | All Maps","name_short":"lon-5","host":"lon-1.uk.uncletopia.com","port":27055,"enabled":true,"region":"eu","cc":"gb","latitude":51.509865,"longitude":-0.118092,"reserved":0,"last_update":"0001-01-01T00:00:00Z","name_a2s":"Uncletopia | London | 5 | All Maps","protocol":17,"map":"koth_lazarus","folder":"tf","game":"Team Fortress","app_id":440,"player_count":0,"max_players":24,"Bots":0,"server_type":"Dedicated","server_os":"Linux","password":true,"vac":true,"version":"7961495","steam_id":85568392924742829,"keywords":["cp","nocrits","nodmgspread","uncletopia"],"game_id":440,"stv_port":27056,"stv_name":"Uncletopia | London | 5 | All Maps | STV","players":null},{"server_id":22,"name":"Uncletopia | London | 6 | All Maps","name_short":"lon-6","host":"lon-1.uk.uncletopia.com","port":27065,"enabled":true,"region":"eu","cc":"gb","latitude":51.509865,"longitude":-0.118092,"reserved":0,"last_update":"0001-01-01T00:00:00Z","name_a2s":"Uncletopia | London | 6 | All Maps","protocol":17,"map":"cp_snakewater_final1","folder":"tf","game":"Team Fortress","app_id":440,"player_count":0,"max_players":24,"Bots":0,"server_type":"Dedicated","server_os":"Linux","password":true,"vac":true,"version":"7961495","steam_id":85568392924742830,"keywords":["cp","nocrits","nodmgspread","uncletopia"],"game_id":440,"stv_port":27066,"stv_name":"Uncletopia | London | 6 | All Maps | STV","players":null},{"server_id":40,"name":"Uncletopia | London | 7 | Stopwatch","name_short":"lon-7","host":"lon-1.uk.uncletopia.com","port":27075,"enabled":true,"region":"eu","cc":"gb","latitude":51.509865,"longitude":-0.118092,"reserved":0,"last_update":"0001-01-01T00:00:00Z","name_a2s":"Uncletopia | London | 7 | Stopwatch","protocol":17,"map":"workshop/pl_badwater_pro_v12.ugc2142942074","folder":"tf","game":"Team Fortress","app_id":440,"player_count":0,"max_players":24,"Bots":0,"server_type":"Dedicated","server_os":"Linux","password":true,"vac":true,"version":"7961495","steam_id":85568392924964314,"keywords":["nocrits","nodmgspread","payload","uncletopia"],"game_id":440,"stv_port":27076,"stv_name":"Uncletopia | London | 7 | Stopwatch | STV","players":null},{"server_id":41,"name":"Uncletopia | London | 8 | Community","name_short":"lon-8","host":"lon-1.uk.uncletopia.com","port":27085,"enabled":true,"region":"eu","cc":"gb","latitude":51.509865,"longitude":-0.118092,"reserved":0,"last_update":"0001-01-01T00:00:00Z","name_a2s":"Uncletopia | London | 8 | Community","protocol":17,"map":"workshop/cp_villa_b19.ugc2113052569","folder":"tf","game":"Team Fortress","app_id":440,"player_count":0,"max_players":24,"Bots":0,"server_type":"Dedicated","server_os":"Linux","password":true,"vac":true,"version":"7961495","steam_id":85568392924964315,"keywords":["cp","nocrits","nodmgspread","uncletopia"],"game_id":440,"stv_port":27086,"stv_name":"Uncletopia | London | 8 | Community | STV","players":null},{"server_id":300,"name":"Uncletopia | Montr√©al | 1 | One Thousand Uncles","name_short":"mtl-1","host":"mtl-1.ca.uncletopia.com","port":27015,"enabled":true,"region":"us-east","cc":"ca","latitude":45.50889,"longitude":-73.56167,"reserved":0,"last_update":"0001-01-01T00:00:00Z","name_a2s":"Uncletopia | Montr√©al | 1 | One Thousand Uncles","protocol":17,"map":"pl_goldrush","folder":"tf","game":"Team Fortress","app_id":440,"player_count":0,"max_players":32,"Bots":0,"server_type":"Dedicated","server_os":"Linux","password":true,"vac":true,"version":"7961495","steam_id":85568392924500087,"keywords":["alltalk","danepve","increased_maxplayers","norespawntime","payload","uncletopia"],"game_id":440,"stv_port":0,"stv_name":"","players":null},{"server_id":301,"name":"Uncletopia | Montr√©al | 2 | One Thousand Uncles","name_short":"mtl-2","host":"mtl-1.ca.uncletopia.com","port":27025,"enabled":true,"region":"us-east","cc":"ca","latitude":45.50889,"longitude":-73.56167,"reserved":0,"last_update":"0001-01-01T00:00:00Z","name_a2s":"Uncletopia | Montr√©al | 2 | One Thousand Uncles","protocol":17,"map":"pl_badwater","folder":"tf","game":"Team Fortress","app_id":440,"player_count":0,"max_players":32,"Bots":0,"server_type":"Dedicated","server_os":"Linux","password":true,"vac":true,"version":"7961495","steam_id":85568392924500088,"keywords":["alltalk","danepve","increased_maxplayers","norespawntime","payload","uncletopia"],"game_id":440,"stv_port":0,"stv_name":"","players":null},{"server_id":302,"name":"Uncletopia | Montr√©al | 3 | One Thousand Uncles","name_short":"mtl-3","host":"mtl-1.ca.uncletopia.com","port":27035,"enabled":true,"region":"us-east","cc":"ca","latitude":45.50889,"longitude":-73.56167,"reserved":0,"last_update":"0001-01-01T00:00:00Z","name_a2s":"Uncletopia | Montr√©al | 3 | One Thousand Uncles","protocol":17,"map":"pl_upward","folder":"tf","game":"Team Fortress","app_id":440,"player_count":0,"max_players":32,"Bots":0,"server_type":"Dedicated","server_os":"Linux","password":true,"vac":true,"version":"7961495","steam_id":85568392924500089,"keywords":["alltalk","danepve","increased_maxplayers","norespawntime","payload","uncletopia"],"game_id":440,"stv_port":0,"stv_name":"","players":null},{"server_id":13,"name":"Uncletopia | New York City | 1 | All Maps","name_short":"nyc-1","host":"nyc-1.us.uncletopia.com","port":27015,"enabled":true,"region":"us-east","cc":"us","latitude":40.73061,"longitude":-73.93524,"reserved":0,"last_update":"0001-01-01T00:00:00Z","name_a2s":"Uncletopia | New York City | 1 | All Maps","protocol":17,"map":"koth_viaduct","folder":"tf","game":"Team Fortress","app_id":440,"player_count":0,"max_players":24,"Bots":0,"server_type":"Dedicated","server_os":"Linux","password":true,"vac":true,"version":"7961495","steam_id":85568392924469993,"keywords":["cp","nocrits","nodmgspread","uncletopia"],"game_id":440,"stv_port":27016,"stv_name":"Uncletopia | New York City | 1 | All Maps | STV","players":null},{"server_id":14,"name":"Uncletopia | New York City | 2 | All Maps","name_short":"nyc-2","host":"nyc-1.us.uncletopia.com","port":27025,"enabled":true,"region":"us-east","cc":"us","latitude":40.73061,"longitude":-73.93524,"reserved":0,"last_update":"0001-01-01T00:00:00Z","name_a2s":"Uncletopia | New York City | 2 | All Maps","protocol":17,"map":"pl_pier","folder":"tf","game":"Team Fortress","app_id":440,"player_count":0,"max_players":24,"Bots":0,"server_type":"Dedicated","server_os":"Linux","password":true,"vac":true,"version":"7961495","steam_id":85568392924469994,"keywords":["nocrits","nodmgspread","payload","uncletopia"],"game_id":440,"stv_port":27026,"stv_name":"Uncletopia | New York City | 2 | All Maps | STV","players":null},{"server_id":15,"name":"Uncletopia | New York City | 3 | Stopwatch","name_short":"nyc-3","host":"nyc-1.us.uncletopia.com","port":27035,"enabled":true,"region":"us-east","cc":"us","latitude":40.73061,"longitude":-73.93524,"reserved":0,"last_update":"0001-01-01T00:00:00Z","name_a2s":"Uncletopia | New York City | 3 | Stopwatch","protocol":17,"map":"workshop/koth_clearcut_b15.ugc2107050255","folder":"tf","game":"Team Fortress","app_id":440,"player_count":0,"max_players":24,"Bots":0,"server_type":"Dedicated","server_os":"Linux","password":true,"vac":true,"version":"7961495","steam_id":85568392924742820,"keywords":["cp","nocrits","nodmgspread","uncletopia"],"game_id":440,"stv_port":27036,"stv_name":"Uncletopia | New York City | 3 | Stopwatch | STV","players":null},{"server_id":16,"name":"Uncletopia | New York City | 4 | Community","name_short":"nyc-4","host":"nyc-1.us.uncletopia.com","port":27045,"enabled":true,"region":"us-east","cc":"us","latitude":40.73061,"longitude":-73.93524,"reserved":0,"last_update":"0001-01-01T00:00:00Z","name_a2s":"Uncletopia | New York City | 4 | Community","protocol":17,"map":"workshop/cp_hazyfort_rc6.ugc1365963729","folder":"tf","game":"Team Fortress","app_id":440,"player_count":0,"max_players":24,"Bots":0,"server_type":"Dedicated","server_os":"Linux","password":true,"vac":true,"version":"7961495","steam_id":85568392924742821,"keywords":["cp","nocrits","nodmgspread","uncletopia"],"game_id":440,"stv_port":27046,"stv_name":"Uncletopia | New York City | 4 | Community | STV","players":null},{"server_id":142,"name":"Uncletopia | S√£o Paulo | 1 | All Maps","name_short":"sao-1","host":"sao-1.br.uncletopia.com","port":27015,"enabled":true,"region":"sa","cc":"br","latitude":-23.533773,"longitude":-46.62529,"reserved":0,"last_update":"0001-01-01T00:00:00Z","name_a2s":"Uncletopia | S√£o Paulo | 1 | All Maps","protocol":17,"map":"koth_highpass","folder":"tf","game":"Team Fortress","app_id":440,"player_count":0,"max_players":24,"Bots":0,"server_type":"Dedicated","server_os":"Linux","password":true,"vac":true,"version":"7961495","steam_id":85568392924469996,"keywords":["cp","nocrits","nodmgspread","uncletopia"],"game_id":440,"stv_port":27016,"stv_name":"Uncletopia | S√£o Paulo | 1 | All Maps | STV","players":null},{"server_id":143,"name":"Uncletopia | S√£o Paulo | 2 | Community","name_short":"sao-2","host":"sao-2.br.uncletopia.com","port":27015,"enabled":true,"region":"sa","cc":"br","latitude":-23.533773,"longitude":-46.62529,"reserved":0,"last_update":"0001-01-01T00:00:00Z","name_a2s":"Uncletopia | S√£o Paulo | 2 | Community","protocol":17,"map":"workshop/cp_croissant_final.ugc458840209","folder":"tf","game":"Team Fortress","app_id":440,"player_count":0,"max_players":24,"Bots":0,"server_type":"Dedicated","server_os":"Linux","password":true,"vac":true,"version":"7961495","steam_id":85568392924485349,"keywords":["cp","nocrits","nodmgspread","uncletopia"],"game_id":440,"stv_port":27016,"stv_name":"Uncletopia | S√£o Paulo | 2 | Community | STV","players":null},{"server_id":7,"name":"Uncletopia | Seattle | 1 | All Maps","name_short":"sea-1","host":"sea-1.us.uncletopia.com","port":27015,"enabled":true,"region":"us-west","cc":"us","latitude":47.608013,"longitude":-122.33517,"reserved":0,"last_update":"0001-01-01T00:00:00Z","name_a2s":"Uncletopia | Seattle | 1 | All Maps","protocol":17,"map":"cp_freight_final1","folder":"tf","game":"Team Fortress","app_id":440,"player_count":24,"max_players":24,"Bots":0,"server_type":"Dedicated","server_os":"Linux","password":true,"vac":true,"version":"7961495","steam_id":85568392924469997,"keywords":["cp","nocrits","nodmgspread","uncletopia"],"game_id":440,"stv_port":27016,"stv_name":"Uncletopia | Seattle | 1 | All Maps | STV","players":[{"user_id":602,"name":"William P. Ennis","steam_id":76561198073464877,"connected_time":3936000000000,"state":"active","ping":94},{"user_id":614,"name":"Matches_                       ","steam_id":76561198048925904,"connected_time":2825000000000,"state":"active","ping":103},{"user_id":591,"name":"PvZ Enthusiast","steam_id":76561199089562026,"connected_time":5609000000000,"state":"active","ping":44},{"user_id":635,"name":"ImmuneToPeas","steam_id":76561198342411594,"connected_time":559000000000,"state":"active","ping":54},{"user_id":603,"name":"Pann","steam_id":76561198086683667,"connected_time":3928000000000,"state":"active","ping":77},{"user_id":610,"name":"Dragoninventor (He/Him)","steam_id":76561198956224948,"connected_time":2839000000000,"state":"active","ping":88},{"user_id":586,"name":"The Shaq Attack","steam_id":76561198075285534,"connected_time":5891000000000,"state":"active","ping":44},{"user_id":601,"name":"fragadelphia","steam_id":76561198066116363,"connected_time":3953000000000,"state":"active","ping":46},{"user_id":575,"name":"ghor","steam_id":76561197994547132,"connected_time":6801000000000,"state":"active","ping":31},{"user_id":638,"name":"I_Want_A_Soft_Taco","steam_id":76561198225561352,"connected_time":95000000000,"state":"active","ping":90},{"user_id":619,"name":"soup","steam_id":76561198043209046,"connected_time":2538000000000,"state":"active","ping":72},{"user_id":636,"name":"Synergy","steam_id":76561198098630198,"connected_time":545000000000,"state":"active","ping":45},{"user_id":558,"name":"HotHead","steam_id":76561198138468982,"connected_time":7861000000000,"state":"active","ping":56},{"user_id":615,"name":"goofy goober","steam_id":76561199024079388,"connected_time":2803000000000,"state":"active","ping":46},{"user_id":609,"name":"MrYadaization","steam_id":76561198050770818,"connected_time":3114000000000,"state":"active","ping":123},{"user_id":626,"name":"fwoov","steam_id":76561198129166260,"connected_time":1705000000000,"state":"active","ping":85},{"user_id":571,"name":"A UsedNom","steam_id":76561198402832756,"connected_time":6871000000000,"state":"active","ping":58},{"user_id":631,"name":"Luna","steam_id":76561198082944789,"connected_time":1272000000000,"state":"active","ping":65},{"user_id":604,"name":"SauceProphet","steam_id":76561198093794383,"connected_time":3927000000000,"state":"active","ping":74},{"user_id":608,"name":"Henchie!","steam_id":76561198047567464,"connected_time":3160000000000,"state":"active","ping":91},{"user_id":632,"name":"AMU","steam_id":76561198092346231,"connected_time":1136000000000,"state":"active","ping":102},{"user_id":639,"name":"NE–ØO","steam_id":76561197965450216,"connected_time":24000000000,"state":"active","ping":45},{"user_id":623,"name":"Kot","steam_id":76561198380050451,"connected_time":2252000000000,"state":"active","ping":67},{"user_id":628,"name":"GibbsDLC","steam_id":76561198044004111,"connected_time":1642000000000,"state":"active","ping":46}]},{"server_id":119,"name":"Uncletopia | Seattle | 2 | All Maps","name_short":"sea-2","host":"sea-1.us.uncletopia.com","port":27025,"enabled":true,"region":"us-west","cc":"us","latitude":47.608013,"longitude":-122.33517,"reserved":0,"last_update":"0001-01-01T00:00:00Z","name_a2s":"Uncletopia | Seattle | 2 | All Maps","protocol":17,"map":"pl_barnblitz","folder":"tf","game":"Team Fortress","app_id":440,"player_count":24,"max_players":24,"Bots":0,"server_type":"Dedicated","server_os":"Linux","password":true,"vac":true,"version":"7961495","steam_id":85568392924469998,"keywords":["nocrits","nodmgspread","payload","uncletopia"],"game_id":440,"stv_port":27026,"stv_name":"Uncletopia | Seattle | 2 | All Maps | STV","players":[{"user_id":499,"name":"Shazzy","steam_id":76561198145460523,"connected_time":1912000000000,"state":"active","ping":41},{"user_id":479,"name":"Houdini Cache","steam_id":76561198045506970,"connected_time":4166000000000,"state":"active","ping":44},{"user_id":494,"name":"edgebug b-roll","steam_id":76561198043558709,"connected_time":2695000000000,"state":"active","ping":45},{"user_id":515,"name":"crouching tiger heavy","steam_id":76561198121767390,"connected_time":766000000000,"state":"active","ping":44},{"user_id":510,"name":"ferret (with pronouns)","steam_id":76561198067542929,"connected_time":1105000000000,"state":"active","ping":62},{"user_id":454,"name":"ed","steam_id":76561198080475712,"connected_time":6833000000000,"state":"active","ping":62},{"user_id":509,"name":"gorlab","steam_id":76561198025089694,"connected_time":1158000000000,"state":"active","ping":64},{"user_id":511,"name":"allahsdroptop (Bag/Chaser)","steam_id":76561198133195238,"connected_time":1093000000000,"state":"active","ping":79},{"user_id":517,"name":"tunaa","steam_id":76561198362763159,"connected_time":432000000000,"state":"active","ping":77},{"user_id":525,"name":"S Q U I S H E  T H A T  C A T","steam_id":76561198293865429,"connected_time":37000000000,"state":"active","ping":30},{"user_id":518,"name":"epsilon","steam_id":76561198025337276,"connected_time":377000000000,"state":"active","ping":82},{"user_id":519,"name":"Scoops M'Gooch","steam_id":76561198048423812,"connected_time":316000000000,"state":"active","ping":84},{"user_id":450,"name":"thunderous prophet","steam_id":76561198131166135,"connected_time":6870000000000,"state":"active","ping":44},{"user_id":522,"name":"soltuno","steam_id":76561198074430565,"connected_time":238000000000,"state":"active","ping":83},{"user_id":484,"name":"Brathic","steam_id":76561198966232163,"connected_time":3465000000000,"state":"active","ping":75},{"user_id":504,"name":"BoxCann0n","steam_id":76561199153390130,"connected_time":1876000000000,"state":"active","ping":184},{"user_id":485,"name":"Cheezbeargur","steam_id":76561198164702899,"connected_time":3457000000000,"state":"active","ping":61},{"user_id":523,"name":"jorts","steam_id":76561199041179985,"connected_time":180000000000,"state":"active","ping":58},{"user_id":465,"name":"Sweets","steam_id":76561198998446307,"connected_time":5269000000000,"state":"active","ping":68},{"user_id":459,"name":"Gm_Sweet","steam_id":76561199445091548,"connected_time":5943000000000,"state":"active","ping":60},{"user_id":482,"name":"Tea Enthusiast","steam_id":76561198185583925,"connected_time":4106000000000,"state":"active","ping":93},{"user_id":463,"name":"rat gets the cheese","steam_id":76561198031234032,"connected_time":5322000000000,"state":"active","ping":100},{"user_id":497,"name":"smeasly","steam_id":76561198028718812,"connected_time":2385000000000,"state":"active","ping":45}]},{"server_id":406,"name":"Uncletopia | Seattle | 3 | Stopwatch","name_short":"sea-3","host":"sea-1.us.uncletopia.com","port":27035,"enabled":true,"region":"us-west","cc":"us","latitude":47.608013,"longitude":-122.33517,"reserved":0,"last_update":"0001-01-01T00:00:00Z","name_a2s":"Uncletopia | Seattle | 3 | Stopwatch","protocol":17,"map":"workshop/koth_product_final.ugc454272353","folder":"tf","game":"Team Fortress","app_id":440,"player_count":0,"max_players":24,"Bots":0,"server_type":"Dedicated","server_os":"Linux","password":true,"vac":true,"version":"7961495","steam_id":85568392924515217,"keywords":["cp","nocrits","nodmgspread","uncletopia"],"game_id":440,"stv_port":27036,"stv_name":"Uncletopia | Seattle | 3 | Stopwatch | STV","players":null},{"server_id":17,"name":"Uncletopia | San Francisco | 1 | All Maps","name_short":"sfo-1","host":"sfo-1.us.uncletopia.com","port":27015,"enabled":true,"region":"us-west","cc":"us","latitude":37.77397,"longitude":-122.4313,"reserved":0,"last_update":"0001-01-01T00:00:00Z","name_a2s":"Uncletopia | San Francisco | 1 | All Maps","protocol":17,"map":"koth_lakeside_final","folder":"tf","game":"Team Fortress","app_id":440,"player_count":0,"max_players":24,"Bots":0,"server_type":"Dedicated","server_os":"Linux","password":true,"vac":true,"version":"7961495","steam_id":85568392924469999,"keywords":["cp","nocrits","nodmgspread","uncletopia"],"game_id":440,"stv_port":27016,"stv_name":"Uncletopia | San Francisco | 1 | All Maps | STV","players":null},{"server_id":18,"name":"Uncletopia | San Francisco | 2 | All Maps","name_short":"sfo-2","host":"sfo-1.us.uncletopia.com","port":27025,"enabled":true,"region":"us-west","cc":"us","latitude":37.77397,"longitude":-122.4313,"reserved":0,"last_update":"0001-01-01T00:00:00Z","name_a2s":"Uncletopia | San Francisco | 2 | All Maps","protocol":17,"map":"pl_frontier_final","folder":"tf","game":"Team Fortress","app_id":440,"player_count":0,"max_players":24,"Bots":0,"server_type":"Dedicated","server_os":"Linux","password":true,"vac":true,"version":"7961495","steam_id":85568392924470000,"keywords":["nocrits","nodmgspread","payload","uncletopia"],"game_id":440,"stv_port":27026,"stv_name":"Uncletopia | San Francisco | 2 | All Maps | STV","players":null},{"server_id":19,"name":"Uncletopia | San Francisco | 3 | Stopwatch","name_short":"sfo-3","host":"sfo-1.us.uncletopia.com","port":27035,"enabled":true,"region":"us-west","cc":"us","latitude":37.77397,"longitude":-122.4313,"reserved":0,"last_update":"0001-01-01T00:00:00Z","name_a2s":"Uncletopia | San Francisco | 3 | Stopwatch","protocol":17,"map":"koth_highpass","folder":"tf","game":"Team Fortress","app_id":440,"player_count":0,"max_players":24,"Bots":0,"server_type":"Dedicated","server_os":"Linux","password":true,"vac":true,"version":"7961495","steam_id":85568392924742824,"keywords":["cp","nocrits","nodmgspread","uncletopia"],"game_id":440,"stv_port":27036,"stv_name":"Uncletopia | San Francisco | 3 | Stopwatch | STV","players":null},{"server_id":20,"name":"Uncletopia | San Francisco | 4 | Community","name_short":"sfo-4","host":"sfo-1.us.uncletopia.com","port":27045,"enabled":true,"region":"us-west","cc":"us","latitude":37.77397,"longitude":-122.4313,"reserved":0,"last_update":"0001-01-01T00:00:00Z","name_a2s":"Uncletopia | San Francisco | 4 | Community","protocol":17,"map":"workshop/koth_slaughter_rc1.ugc1712845210","folder":"tf","game":"Team Fortress","app_id":440,"player_count":0,"max_players":24,"Bots":0,"server_type":"Dedicated","server_os":"Linux","password":true,"vac":true,"version":"7961495","steam_id":85568392924742826,"keywords":["cp","nocrits","nodmgspread","uncletopia"],"game_id":440,"stv_port":27046,"stv_name":"Uncletopia | San Francisco | 4 | Community | STV","players":null},{"server_id":141,"name":"Uncletopia | Sydney | 1 | All Maps","name_short":"syd-1","host":"syd-1.au.uncletopia.com","port":27015,"enabled":true,"region":"au","cc":"au","latitude":-33.865143,"longitude":151.2099,"reserved":0,"last_update":"0001-01-01T00:00:00Z","name_a2s":"Uncletopia | Sydney | 1 | All Maps","protocol":17,"map":"pl_borneo","folder":"tf","game":"Team Fortress","app_id":440,"player_count":0,"max_players":24,"Bots":0,"server_type":"Dedicated","server_os":"Linux","password":true,"vac":true,"version":"7961495","steam_id":85568392924470001,"keywords":["nocrits","nodmgspread","payload","uncletopia"],"game_id":440,"stv_port":27016,"stv_name":"Uncletopia | Sydney | 1 | All Maps | STV","players":null},{"server_id":123,"name":"Uncletopia | Sydney | 2 | All Maps","name_short":"syd-2","host":"syd-1.au.uncletopia.com","port":27025,"enabled":true,"region":"au","cc":"au","latitude":-33.865143,"longitude":151.2099,"reserved":0,"last_update":"0001-01-01T00:00:00Z","name_a2s":"Uncletopia | Sydney | 2 | All Maps","protocol":17,"map":"koth_cascade","folder":"tf","game":"Team Fortress","app_id":440,"player_count":0,"max_players":24,"Bots":0,"server_type":"Dedicated","server_os":"Linux","password":true,"vac":true,"version":"7961495","steam_id":85568392924470002,"keywords":["cp","nocrits","nodmgspread","uncletopia"],"game_id":440,"stv_port":27026,"stv_name":"Uncletopia | Sydney | 2 | All Maps | STV","players":null},{"server_id":395,"name":"Uncletopia | Sydney | 3 | All Maps","name_short":"syd-3","host":"syd-1.au.uncletopia.com","port":27035,"enabled":true,"region":"au","cc":"au","latitude":-33.865143,"longitude":151.2099,"reserved":0,"last_update":"0001-01-01T00:00:00Z","name_a2s":"Uncletopia | Sydney | 3 | All Maps","protocol":17,"map":"cp_metalworks","folder":"tf","game":"Team Fortress","app_id":440,"player_count":0,"max_players":24,"Bots":0,"server_type":"Dedicated","server_os":"Linux","password":true,"vac":true,"version":"7961495","steam_id":85568392925194467,"keywords":["cp","nocrits","nodmgspread","uncletopia"],"game_id":440,"stv_port":27036,"stv_name":"Uncletopia | Sydney | 3 | All Maps | STV","players":null},{"server_id":396,"name":"Uncletopia | Sydney | 4 | All Maps","name_short":"syd-4","host":"syd-1.au.uncletopia.com","port":27045,"enabled":true,"region":"au","cc":"au","latitude":-33.865143,"longitude":151.2099,"reserved":0,"last_update":"0001-01-01T00:00:00Z","name_a2s":"Uncletopia | Sydney | 4 | All Maps","protocol":17,"map":"koth_cascade","folder":"tf","game":"Team Fortress","app_id":440,"player_count":0,"max_players":24,"Bots":0,"server_type":"Dedicated","server_os":"Linux","password":true,"vac":true,"version":"7961495","steam_id":85568392925397958,"keywords":["cp","nocrits","nodmgspread","uncletopia"],"game_id":440,"stv_port":27046,"stv_name":"Uncletopia | Sydney | 4 | All Maps | STV","players":null},{"server_id":58,"name":"Uncletopia | Sydney | 5 | Stopwatch","name_short":"syd-5","host":"syd-1.au.uncletopia.com","port":27055,"enabled":true,"region":"au","cc":"au","latitude":-33.865143,"longitude":151.2099,"reserved":0,"last_update":"0001-01-01T00:00:00Z","name_a2s":"Uncletopia | Sydney | 5 | Stopwatch","protocol":17,"map":"workshop/koth_product_final.ugc454272353","folder":"tf","game":"Team Fortress","app_id":440,"player_count":0,"max_players":24,"Bots":0,"server_type":"Dedicated","server_os":"Linux","password":true,"vac":true,"version":"7961495","steam_id":85568392925397959,"keywords":["cp","nocrits","nodmgspread","uncletopia"],"game_id":440,"stv_port":27056,"stv_name":"Uncletopia | Sydney | 5 | Stopwatch | STV","players":null},{"server_id":59,"name":"Uncletopia | Sydney | 6 | Community","name_short":"syd-6","host":"syd-1.au.uncletopia.com","port":27065,"enabled":true,"region":"au","cc":"au","latitude":-33.865143,"longitude":151.2099,"reserved":0,"last_update":"0001-01-01T00:00:00Z","name_a2s":"Uncletopia | Sydney | 6 | Community","protocol":17,"map":"workshop/koth_trenchfoot_ab1.ugc731436616","folder":"tf","game":"Team Fortress","app_id":440,"player_count":0,"max_players":24,"Bots":0,"server_type":"Dedicated","server_os":"Linux","password":true,"vac":true,"version":"7961495","steam_id":85568392925397960,"keywords":["cp","nocrits","nodmgspread","uncletopia"],"game_id":440,"stv_port":27066,"stv_name":"Uncletopia | Sydney | 6 | Community | STV","players":null},{"server_id":49,"name":"Uncletopia | Warsaw | 1 | One Thousand Uncles","name_short":"waw-1","host":"waw-1.pl.uncletopia.com","port":27015,"enabled":true,"region":"eu","cc":"pl","latitude":52.2297,"longitude":21.017532,"reserved":0,"last_update":"0001-01-01T00:00:00Z","name_a2s":"Uncletopia | Warsaw | 1 | One Thousand Uncles","protocol":17,"map":"cp_mercenarypark","folder":"tf","game":"Team Fortress","app_id":440,"player_count":0,"max_players":32,"Bots":0,"server_type":"Dedicated","server_os":"Linux","password":true,"vac":true,"version":"7961495","steam_id":85568392925397850,"keywords":["alltalk","cp","danepve","increased_maxplayers","norespawntime","uncletopia"],"game_id":440,"stv_port":0,"stv_name":"","players":null},{"server_id":50,"name":"Uncletopia | Warsaw | 2 | One Thousand Uncles","name_short":"waw-2","host":"waw-1.pl.uncletopia.com","port":27025,"enabled":true,"region":"eu","cc":"pl","latitude":52.2297,"longitude":21.017532,"reserved":0,"last_update":"0001-01-01T00:00:00Z","name_a2s":"Uncletopia | Warsaw | 2 | One Thousand Uncles","protocol":17,"map":"cp_egypt_final","folder":"tf","game":"Team Fortress","app_id":440,"player_count":0,"max_players":32,"Bots":0,"server_type":"Dedicated","server_os":"Linux","password":true,"vac":true,"version":"7961495","steam_id":85568392925397851,"keywords":["alltalk","cp","danepve","increased_maxplayers","norespawntime","uncletopia"],"game_id":440,"stv_port":0,"stv_name":"","players":null},{"server_id":51,"name":"Uncletopia | Warsaw | 3 | All Maps","name_short":"waw-3","host":"waw-1.pl.uncletopia.com","port":27035,"enabled":true,"region":"eu","cc":"pl","latitude":52.2297,"longitude":21.017532,"reserved":0,"last_update":"0001-01-01T00:00:00Z","name_a2s":"Uncletopia | Warsaw | 3 | All Maps","protocol":17,"map":"pl_snowycoast","folder":"tf","game":"Team Fortress","app_id":440,"player_count":0,"max_players":24,"Bots":0,"server_type":"Dedicated","server_os":"Linux","password":true,"vac":true,"version":"7961495","steam_id":85568392925397852,"keywords":["nocrits","nodmgspread","payload","uncletopia"],"game_id":440,"stv_port":27036,"stv_name":"Uncletopia | Warsaw | 3 | All Maps | STV","players":null},{"server_id":52,"name":"Uncletopia | Warsaw | 4 | All Maps","name_short":"waw-4","host":"waw-1.pl.uncletopia.com","port":27045,"enabled":true,"region":"eu","cc":"pl","latitude":52.2297,"longitude":21.017532,"reserved":0,"last_update":"0001-01-01T00:00:00Z","name_a2s":"Uncletopia | Warsaw | 4 | All Maps","protocol":17,"map":"cp_fastlane","folder":"tf","game":"Team Fortress","app_id":440,"player_count":0,"max_players":24,"Bots":0,"server_type":"Dedicated","server_os":"Linux","password":true,"vac":true,"version":"7961495","steam_id":85568392925397853,"keywords":["cp","nocrits","nodmgspread","uncletopia"],"game_id":440,"stv_port":27046,"stv_name":"Uncletopia | Warsaw | 4 | All Maps | STV","players":null},{"server_id":53,"name":"Uncletopia | Warsaw | 5 | Stopwatch","name_short":"waw-5","host":"waw-1.pl.uncletopia.com","port":27055,"enabled":true,"region":"eu","cc":"pl","latitude":52.2297,"longitude":21.017532,"reserved":0,"last_update":"0001-01-01T00:00:00Z","name_a2s":"Uncletopia | Warsaw | 5 | Stopwatch","protocol":17,"map":"cp_gullywash_final1","folder":"tf","game":"Team Fortress","app_id":440,"player_count":0,"max_players":24,"Bots":0,"server_type":"Dedicated","server_os":"Linux","password":true,"vac":true,"version":"7961495","steam_id":85568392925397854,"keywords":["cp","nocrits","nodmgspread","uncletopia"],"game_id":440,"stv_port":27056,"stv_name":"Uncletopia | Warsaw | 5 | Stopwatch | STV","players":null},{"server_id":54,"name":"Uncletopia | Warsaw | 6 | Community","name_short":"waw-6","host":"waw-1.pl.uncletopia.com","port":27065,"enabled":true,"region":"eu","cc":"pl","latitude":52.2297,"longitude":21.017532,"reserved":0,"last_update":"0001-01-01T00:00:00Z","name_a2s":"Uncletopia | Warsaw | 6 | Community","protocol":17,"map":"workshop/cp_fulgur_rc2a.ugc2068252300","folder":"tf","game":"Team Fortress","app_id":440,"player_count":0,"max_players":24,"Bots":0,"server_type":"Dedicated","server_os":"Linux","password":true,"vac":true,"version":"7961495","steam_id":85568392925397856,"keywords":["cp","nocrits","nodmgspread","uncletopia"],"game_id":440,"stv_port":27066,"stv_name":"Uncletopia | Warsaw | 6 | Community | STV","players":null}]}