{"status":true,"message":"","result":[{"server_id":9,"name":"Uncletopia | Atlanta | 1 | All Maps","name_short":"atl-1","host":"atl-1.us.uncletopia.com","port":27015,"enabled":true,"region":"us-east","cc":"us","latitude":33.753746,"longitude":-84.38633,"reserved":0,"last_update":"0001-01-01T00:00:00Z","name_a2s":"Uncletopia | Atlanta | 1 | All Maps","protocol":17,"map":"pl_snowycoast","folder":"tf","game":"Team Fortress","app_id":440,"player_count":24,"max_players":24,"Bots":0,"server_type":"Dedicated","server_os":"Linux","password":true,"vac":true,"version":"7882260","steam_id":85568392924469982,"keywords":["nocrits","nodmgspread","payload","uncletopia"],"game_id":440,"stv_port":27016,"stv_name":"Uncletopia | Atlanta | 1 | All Maps | STV","players":[{"user_id":359,"name":"xiPoison","steam_id":76561198064961659,"connected_time":1849000000000,"state":"active","ping":50},{"user_id":322,"name":"Sophie","steam_id":76561198170408057,"connected_time":4698000000000,"state":"active","ping":50},{"user_id":384,"name":"gamerwlb","steam_id":76561199122335870,"connected_time":117000000000,"state":"active","ping":64},{"user_id":362,"name":"Person","steam_id":76561198093244204,"connected_time":1355000000000,"state":"active","ping":78},{"user_id":358,"name":"Rockhead","steam_id":76561197995196535,"connected_time":1971000000000,"state":"active","ping":71},{"user_id":333,"name":"very angry Jin","steam_id":76561198119873148,"connected_time":3936000000000,"state":"active","ping":75},{"user_id":371,"name":"Buck","steam_id":76561198064244796,"connected_time":810000000000,"state":"active","ping":68},{"user_id":364,"name":"Griffinsteed","steam_id":76561198042847912,"connected_time":1308000000000,"state":"active","ping":70},{"user_id":382,"name":"cfs._","steam_id":76561198052978969,"connected_time":130000000000,"state":"active","ping":60},{"user_id":370,"name":"HARRY B HOLE","steam_id":76561198842067238,"connected_time":827000000000,"state":"active","ping":65},{"user_id":378,"name":"ALBINO LESBIAN MIDGET","steam_id":76561198122691714,"connected_time":179000000000,"state":"active","ping":69},{"user_id":277,"name":"Rin \"Hindwing\" Redtail","steam_id":76561199074865638,"connected_time":8527000000000,"state":"active","ping":60},{"user_id":377,"name":"Shame","steam_id":76561198100490994,"connected_time":461000000000,"state":"active","ping":60},{"user_id":369,"name":"Tue","steam_id":76561198181668501,"connected_time":861000000000,"state":"active","ping":67},{"user_id":337,"name":"nomad","steam_id":76561197998740399,"connected_time":3507000000000,"state":"active","ping":65},{"user_id":304,"name":"TL gaming","steam_id":76561198276735535,"connected_time":5848000000000,"state":"active","ping":94},{"user_id":379,"name":"Am da Best","steam_id":76561198163825955,"connected_time":164000000000,"state":"active","ping":111},{"user_id":374,"name":"Tankless Water Heater","steam_id":76561198014574925,"connected_time":720000000000,"state":"active","ping":92},{"user_id":383,"name":"CloudVic","steam_id":76561198118868716,"connected_time":128000000000,"state":"active","ping":94},{"user_id":341,"name":"Crumbledorf","steam_id":76561198986546469,"connected_time":3227000000000,"state":"active","ping":82},{"user_id":376,"name":"Matt","steam_id":76561198008108521,"connected_time":584000000000,"state":"active","ping":92},{"user_id":380,"name":"Michaelpc1","steam_id":76561198088365519,"connected_time":160000000000,"state":"active","ping":72},{"user_id":334,"name":"Toonice","steam_id":76561198402994885,"connected_time":3932000000000,"state":"active","ping":86},{"user_id":367,"name":"not_pro_yet","steam_id":76561198262838300,"connected_time":1176000000000,"state":"active","ping":71}]},{"server_id":104,"name":"Uncletopia | Atlanta | 2 | All Maps","name_short":"atl-2","host":"atl-1.us.uncletopia.com","port":27025,"enabled":true,"region":"us-east","cc":"us","latitude":33.753746,"longitude":-84.38633,"reserved":0,"last_update":"0001-01-01T00:00:00Z","name_a2s":"Uncletopia | Atlanta | 2 | All Maps","protocol":17,"map":"cp_mountainlab","folder":"tf","game":"Team Fortress","app_id":440,"player_count":24,"max_players":24,"Bots":0,"server_type":"Dedicated","server_os":"Linux","password":true,"vac":true,"version":"7882260","steam_id":85568392924469983,"keywords":["cp","nocrits","nodmgspread","uncletopia"],"game_id":440,"stv_port":27026,"stv_name":"Uncletopia | Atlanta | 2 | All Maps | STV","players":[{"user_id":234,"name":"Just_Bad","steam_id":76561198145153093,"connected_time":4843000000000,"state":"active","ping":41},{"user_id":229,"name":"SeaBass","steam_id":76561198278914206,"connected_time":5620000000000,"state":"active","ping":62},{"user_id":300,"name":"bean goblin #savetf2","steam_id":76561199185148234,"connected_time":882000000000,"state":"active","ping":106},{"user_id":314,"name":"Some random dude","steam_id":76561199477705792,"connected_time":296000000000,"state":"active","ping":103},{"user_id":306,"name":"fry","steam_id":76561199122083047,"connected_time":679000000000,"state":"active","ping":85},{"user_id":315,"name":"Myn","steam_id":76561198055438857,"connected_time":291000000000,"state":"active","ping":71},{"user_id":301,"name":"ElJuren","steam_id":76561199204654872,"connected_time":854000000000,"state":"active","ping":61},{"user_id":312,"name":"e11even","steam_id":76561198335940099,"connected_time":494000000000,"state":"active","ping":101},{"user_id":302,"name":"BagelsAreDope","steam_id":76561198288641740,"connected_time":852000000000,"state":"active","ping":69},{"user_id":297,"name":"dick fuckington","steam_id":76561198073269122,"connected_time":966000000000,"state":"active","ping":73},{"user_id":299,"name":"TeatsMcghee #TummyTroubles","steam_id":76561198036483480,"connected_time":935000000000,"state":"active","ping":66},{"user_id":303,"name":"Frontier Psychiatrist","steam_id":76561198038689088,"connected_time":830000000000,"state":"active","ping":94},{"user_id":238,"name":"F_L BongRipper","steam_id":76561198047136927,"connected_time":4712000000000,"state":"active","ping":73},{"user_id":280,"name":"Hyunnie simon","steam_id":76561198081327929,"connected_time":1911000000000,"state":"active","ping":179},{"user_id":309,"name":"Luke","steam_id":76561198253533632,"connected_time":564000000000,"state":"active","ping":75},{"user_id":304,"name":"SCATTER","steam_id":76561198405168492,"connected_time":730000000000,"state":"active","ping":91},{"user_id":305,"name":"Baker","steam_id":76561198055196430,"connected_time":728000000000,"state":"active","ping":82},{"user_id":290,"name":"Dev","steam_id":76561198388276870,"connected_time":1620000000000,"state":"active","ping":87},{"user_id":313,"name":"Ion","steam_id":76561198066211080,"connected_time":306000000000,"state":"active","ping":105},{"user_id":267,"name":"-=Bits=-Dinkleberg","steam_id":76561198080367616,"connected_time":2919000000000,"state":"active","ping":65},{"user_id":274,"name":"Mazdamundi!","steam_id":76561198044691081,"connected_time":2403000000000,"state":"active","ping":44},{"user_id":316,"name":"AdorableMew","steam_id":76561198186706405,"connected_time":284000000000,"state":"active","ping":74},{"user_id":285,"name":"yaldabaoth","steam_id":76561198084606869,"connected_time":1852000000000,"state":"active","ping":78},{"user_id":317,"name":"Kris","steam_id":76561198133882561,"connected_time":26000000000,"state":"active","ping":105}]},{"server_id":400,"name":"Uncletopia | Atlanta | 3 | Community","name_short":"atl-3","host":"atl-1.us.uncletopia.com","port":27035,"enabled":true,"region":"us-east","cc":"us","latitude":33.753746,"longitude":-84.38633,"reserved":0,"last_update":"0001-01-01T00:00:00Z","name_a2s":"Uncletopia | Atlanta | 3 | Community","protocol":17,"map":"workshop/koth_kemptown_rc1.ugc767410655","folder":"tf","game":"Team Fortress","app_id":440,"player_count":23,"max_players":24,"Bots":0,"server_type":"Dedicated","server_os":"Linux","password":true,"vac":true,"version":"7882260","steam_id":85568392924515187,"keywords":["cp","nocrits","nodmgspread","uncletopia"],"game_id":440,"stv_port":27036,"stv_name":"Uncletopia | Atlanta | 3 | Community | STV","players":[{"user_id":274,"name":"TheParanoidAndroid","steam_id":76561198024940715,"connected_time":577000000000,"state":"active","ping":74},{"user_id":261,"name":"Oni","steam_id":76561198112066584,"connected_time":1660000000000,"state":"active","ping":51},{"user_id":131,"name":"KennytheHedgehog","steam_id":76561198094607721,"connected_time":7123000000000,"state":"active","ping":63},{"user_id":279,"name":"God's Drunkest Driver","steam_id":76561198165175875,"connected_time":313000000000,"state":"active","ping":52},{"user_id":262,"name":"Skipz","steam_id":76561198425244550,"connected_time":1646000000000,"state":"active","ping":56},{"user_id":130,"name":"Cubert","steam_id":76561198045494151,"connected_time":7128000000000,"state":"active","ping":100},{"user_id":254,"name":"Bill Bondy","steam_id":76561199414460378,"connected_time":1843000000000,"state":"active","ping":174},{"user_id":239,"name":"The King","steam_id":76561198402120625,"connected_time":2186000000000,"state":"active","ping":72},{"user_id":244,"name":"Marie","steam_id":76561198056104899,"connected_time":2107000000000,"state":"active","ping":85},{"user_id":276,"name":"Sputnix","steam_id":76561198236857310,"connected_time":426000000000,"state":"active","ping":45},{"user_id":245,"name":"who ate the cheese","steam_id":76561198275408467,"connected_time":2094000000000,"state":"active","ping":45},{"user_id":277,"name":"Musica Universalis","steam_id":76561198184794174,"connected_time":420000000000,"state":"active","ping":73},{"user_id":285,"name":"I am a mooshroom","steam_id":76561198104198295,"connected_time":36000000000,"state":"spawning","ping":234},{"user_id":235,"name":"Broadsword","steam_id":76561198011160411,"connected_time":2976000000000,"state":"active","ping":61},{"user_id":278,"name":"DemoKing","steam_id":76561198127813144,"connected_time":321000000000,"state":"active","ping":70},{"user_id":280,"name":"zam","steam_id":76561198295713840,"connected_time":298000000000,"state":"active","ping":75},{"user_id":281,"name":"evolutionary sleeper","steam_id":76561198125328737,"connected_time":280000000000,"state":"active","ping":70},{"user_id":253,"name":"nav","steam_id":76561198872608266,"connected_time":1911000000000,"state":"active","ping":64},{"user_id":223,"name":"Zoawsome","steam_id":76561198018758753,"connected_time":3474000000000,"state":"active","ping":73},{"user_id":263,"name":"JonBoy","steam_id":76561198082052480,"connected_time":1629000000000,"state":"active","ping":132},{"user_id":282,"name":"Meowcenary","steam_id":76561197998566857,"connected_time":227000000000,"state":"active","ping":108},{"user_id":283,"name":"sleepy","steam_id":76561199008634102,"connected_time":216000000000,"state":"active","ping":86},{"user_id":284,"name":"Zixzs","steam_id":76561198055504126,"connected_time":210000000000,"state":"active","ping":78}]},{"server_id":401,"name":"Uncletopia | Atlanta | 4 | No Payload","name_short":"atl-4","host":"atl-1.us.uncletopia.com","port":27045,"enabled":true,"region":"us-east","cc":"us","latitude":33.753746,"longitude":-84.38633,"reserved":0,"last_update":"0001-01-01T00:00:00Z","name_a2s":"","protocol":0,"map":"","folder":"","game":"","app_id":0,"player_count":0,"max_players":0,"Bots":0,"server_type":"","server_os":"","password":false,"vac":false,"version":"","steam_id":0,"keywords":null,"game_id":0,"stv_port":0,"stv_name":"","players":null},{"server_id":2,"name":"Uncletopia | Chicago | 1 | All Maps","name_short":"chi-1","host":"chi-1.us.uncletopia.com","port":27015,"enabled":true,"region":"us-central","cc":"us","latitude":41.881832,"longitude":-87.62318,"reserved":0,"last_update":"0001-01-01T00:00:00Z","name_a2s":"Uncletopia | Chicago | 1 | All Maps","protocol":17,"map":"koth_harvest_final","folder":"tf","game":"Team Fortress","app_id":440,"player_count":24,"max_players":24,"Bots":0,"server_type":"Dedicated","server_os":"Linux","password":true,"vac":true,"version":"7882260","steam_id":85568392924469984,"keywords":["cp","nocrits","nodmgspread","uncletopia"],"game_id":440,"stv_port":27016,"stv_name":"Uncletopia | Chicago | 1 | All Maps | STV","players":[{"user_id":458,"name":"sweaver","steam_id":76561199156551835,"connected_time":321000000000,"state":"active","ping":50},{"user_id":447,"name":"Doctobob","steam_id":76561198095283669,"connected_time":1247000000000,"state":"active","ping":75},{"user_id":407,"name":"goose","steam_id":76561198367551668,"connected_time":5855000000000,"state":"active","ping":59},{"user_id":369,"name":"INVEST IN SKYNET::τRU τAO","steam_id":76561198144436132,"connected_time":9668000000000,"state":"active","ping":81},{"user_id":451,"name":"Gingi","steam_id":76561197984825698,"connected_time":748000000000,"state":"active","ping":178},{"user_id":443,"name":"Ace Chromatica","steam_id":76561198042211131,"connected_time":1716000000000,"state":"active","ping":56},{"user_id":428,"name":"Liquid Oxycodone","steam_id":76561198154162664,"connected_time":2979000000000,"state":"active","ping":92},{"user_id":445,"name":"Pheonix","steam_id":76561199470538309,"connected_time":1663000000000,"state":"active","ping":54},{"user_id":446,"name":"ghastlierest gamer","steam_id":76561198057374871,"connected_time":1292000000000,"state":"active","ping":59},{"user_id":432,"name":"Dot.","steam_id":76561198149463984,"connected_time":2942000000000,"state":"active","ping":49},{"user_id":456,"name":"Tyco","steam_id":76561197978414167,"connected_time":479000000000,"state":"active","ping":74},{"user_id":433,"name":"Metroid Prime 4","steam_id":76561198121326917,"connected_time":2931000000000,"state":"active","ping":59},{"user_id":455,"name":"Duck","steam_id":76561198045287701,"connected_time":529000000000,"state":"active","ping":81},{"user_id":395,"name":"Thundermonkey (SMOKE)","steam_id":76561198017631728,"connected_time":6882000000000,"state":"active","ping":62},{"user_id":452,"name":"Gorgon Freeman","steam_id":76561198000367036,"connected_time":747000000000,"state":"active","ping":55},{"user_id":426,"name":"Undertime Slopper","steam_id":76561198396789061,"connected_time":3473000000000,"state":"active","ping":83},{"user_id":454,"name":"Grilled Jizo","steam_id":76561199250875340,"connected_time":661000000000,"state":"active","ping":75},{"user_id":437,"name":"s","steam_id":76561198149443710,"connected_time":2551000000000,"state":"active","ping":106},{"user_id":427,"name":"RADIO","steam_id":76561198044489449,"connected_time":3118000000000,"state":"active","ping":61},{"user_id":442,"name":"Praise_to_the_Flashlight!","steam_id":76561199001728789,"connected_time":1846000000000,"state":"active","ping":61},{"user_id":410,"name":"Ras","steam_id":76561198123546775,"connected_time":5413000000000,"state":"active","ping":74},{"user_id":341,"name":"Straight-Faced Orgasm","steam_id":76561198170007261,"connected_time":13154000000000,"state":"active","ping":95},{"user_id":459,"name":"Lost","steam_id":76561198093713427,"connected_time":95000000000,"state":"active","ping":60},{"user_id":430,"name":"jpuzza","steam_id":76561198035535731,"connected_time":2974000000000,"state":"active","ping":73}]},{"server_id":106,"name":"Uncletopia | Chicago | 2 | All Maps","name_short":"chi-2","host":"chi-1.us.uncletopia.com","port":27025,"enabled":true,"region":"us-central","cc":"us","latitude":41.881832,"longitude":-87.62318,"reserved":0,"last_update":"0001-01-01T00:00:00Z","name_a2s":"Uncletopia | Chicago | 2 | All Maps","protocol":17,"map":"pl_upward","folder":"tf","game":"Team Fortress","app_id":440,"player_count":24,"max_players":24,"Bots":0,"server_type":"Dedicated","server_os":"Linux","password":true,"vac":true,"version":"7882260","steam_id":85568392924469985,"keywords":["nocrits","nodmgspread","payload","uncletopia"],"game_id":440,"stv_port":27026,"stv_name":"Uncletopia | Chicago | 2 | All Maps | STV","players":[{"user_id":287,"name":"Goober","steam_id":76561198988863807,"connected_time":4866000000000,"state":"active","ping":76},{"user_id":325,"name":"Literally a Trans Woman","steam_id":76561198054639925,"connected_time":2441000000000,"state":"active","ping":60},{"user_id":360,"name":"HFMurasama","steam_id":76561198272021214,"connected_time":644000000000,"state":"active","ping":106},{"user_id":366,"name":"brains","steam_id":76561198197388678,"connected_time":554000000000,"state":"active","ping":89},{"user_id":317,"name":"threethree","steam_id":76561198177354155,"connected_time":2657000000000,"state":"active","ping":37},{"user_id":361,"name":"mewtrino","steam_id":76561198094623251,"connected_time":643000000000,"state":"active","ping":65},{"user_id":353,"name":"Spicy Jumbo Big Daddy","steam_id":76561198076364318,"connected_time":995000000000,"state":"active","ping":56},{"user_id":367,"name":"Lucon","steam_id":76561198067147724,"connected_time":467000000000,"state":"active","ping":63},{"user_id":344,"name":"MooleTheDoole","steam_id":76561199216480625,"connected_time":1651000000000,"state":"active","ping":64},{"user_id":351,"name":"crittr","steam_id":76561198014302068,"connected_time":1087000000000,"state":"active","ping":75},{"user_id":368,"name":"CopMCcopper","steam_id":76561198236011194,"connected_time":404000000000,"state":"active","ping":66},{"user_id":337,"name":"OffKey","steam_id":76561198017660927,"connected_time":1967000000000,"state":"active","ping":45},{"user_id":370,"name":"basmati jarate","steam_id":76561198319442494,"connected_time":111000000000,"state":"active","ping":108},{"user_id":371,"name":"gideon nav my beloved","steam_id":76561198259092181,"connected_time":87000000000,"state":"active","ping":68},{"user_id":264,"name":"igotmail","steam_id":76561198070631899,"connected_time":6055000000000,"state":"active","ping":70},{"user_id":339,"name":"PoisonIvy","steam_id":76561198072384574,"connected_time":1834000000000,"state":"active","ping":49},{"user_id":364,"name":"darkjustin54","steam_id":76561198060056280,"connected_time":607000000000,"state":"active","ping":60},{"user_id":355,"name":"Clean Lines","steam_id":76561197960691518,"connected_time":989000000000,"state":"active","ping":51},{"user_id":356,"name":"GooniOoni","steam_id":76561198102154561,"connected_time":947000000000,"state":"active","ping":45},{"user_id":295,"name":"Sahbi","steam_id":76561199196292242,"connected_time":4265000000000,"state":"active","ping":67},{"user_id":365,"name":"HooDoo","steam_id":76561198088994018,"connected_time":597000000000,"state":"active","ping":119},{"user_id":297,"name":"z69clownboner420","steam_id":76561198042725071,"connected_time":4215000000000,"state":"active","ping":121},{"user_id":322,"name":"Mr.noob","steam_id":76561199200442395,"connected_time":2562000000000,"state":"active","ping":179},{"user_id":343,"name":"lance armstrong fan","steam_id":76561198350747953,"connected_time":1669000000000,"state":"active","ping":60}]},{"server_id":402,"name":"Uncletopia | Chicago | 3 | All Maps","name_short":"chi-3","host":"chi-1.us.uncletopia.com","port":27035,"enabled":true,"region":"us-central","cc":"us","latitude":41.881832,"longitude":-87.62318,"reserved":0,"last_update":"0001-01-01T00:00:00Z","name_a2s":"Uncletopia | Chicago | 3 | All Maps","protocol":17,"map":"pl_pier","folder":"tf","game":"Team Fortress","app_id":440,"player_count":24,"max_players":24,"Bots":0,"server_type":"Dedicated","server_os":"Linux","password":true,"vac":true,"version":"7882260","steam_id":85568392924515191,"keywords":["nocrits","nodmgspread","payload","uncletopia"],"game_id":440,"stv_port":27036,"stv_name":"Uncletopia | Chicago | 3 | All Maps | STV","players":[{"user_id":442,"name":"RoFrogle","steam_id":76561199078941377,"connected_time":1193000000000,"state":"active","ping":89},{"user_id":467,"name":"Drapph","steam_id":76561199384213314,"connected_time":320000000000,"state":"active","ping":59},{"user_id":456,"name":"obi-wan kenobi","steam_id":76561199064050951,"connected_time":498000000000,"state":"active","ping":168},{"user_id":380,"name":"Apetometrist","steam_id":76561198045391635,"connected_time":6040000000000,"state":"active","ping":60},{"user_id":457,"name":"Lord Mallard","steam_id":76561198039351020,"connected_time":485000000000,"state":"active","ping":122},{"user_id":468,"name":"Paul Allen","steam_id":76561198205346760,"connected_time":200000000000,"state":"active","ping":45},{"user_id":414,"name":"|WS| Don't_Taze_Me_Bro","steam_id":76561198043289495,"connected_time":3113000000000,"state":"active","ping":69},{"user_id":470,"name":"xiii","steam_id":76561198079416036,"connected_time":150000000000,"state":"active","ping":44},{"user_id":428,"name":"Uso","steam_id":76561198012093238,"connected_time":2500000000000,"state":"active","ping":51},{"user_id":434,"name":"MINILEGOLAS","steam_id":76561198859362058,"connected_time":2117000000000,"state":"active","ping":101},{"user_id":461,"name":"Tideflat","steam_id":76561198179850851,"connected_time":411000000000,"state":"active","ping":100},{"user_id":433,"name":"matt","steam_id":76561198151093701,"connected_time":2362000000000,"state":"active","ping":56},{"user_id":469,"name":"freyja","steam_id":76561198249206656,"connected_time":168000000000,"state":"active","ping":75},{"user_id":437,"name":"❤ Anti ❤","steam_id":76561198408747483,"connected_time":1948000000000,"state":"active","ping":75},{"user_id":473,"name":"lanoc","steam_id":76561198055415367,"connected_time":5000000000,"state":"spawning","ping":57},{"user_id":395,"name":"Rukh","steam_id":76561197999361315,"connected_time":4750000000000,"state":"active","ping":98},{"user_id":463,"name":"the","steam_id":76561198003226288,"connected_time":402000000000,"state":"active","ping":64},{"user_id":471,"name":"gome","steam_id":76561198080784921,"connected_time":133000000000,"state":"active","ping":71},{"user_id":448,"name":"toupee dna","steam_id":76561197972601902,"connected_time":930000000000,"state":"active","ping":81},{"user_id":449,"name":"Unsalted Fry","steam_id":76561199258136693,"connected_time":912000000000,"state":"active","ping":110},{"user_id":415,"name":"Anonymous Redneck","steam_id":76561198006140954,"connected_time":3110000000000,"state":"active","ping":86},{"user_id":400,"name":"ashsillygoober","steam_id":76561199454622997,"connected_time":4473000000000,"state":"active","ping":91},{"user_id":472,"name":"The Horselords and Animal Gods","steam_id":76561197975094050,"connected_time":131000000000,"state":"active","ping":112},{"user_id":453,"name":"bonk","steam_id":76561198821774697,"connected_time":769000000000,"state":"active","ping":59}]},{"server_id":403,"name":"Uncletopia | Chicago | 4 | All Maps","name_short":"chi-4","host":"chi-1.us.uncletopia.com","port":27045,"enabled":true,"region":"us-central","cc":"us","latitude":41.881832,"longitude":-87.62318,"reserved":0,"last_update":"0001-01-01T00:00:00Z","name_a2s":"Uncletopia | Chicago | 4 | All Maps","protocol":17,"map":"pl_swiftwater_final1","folder":"tf","game":"Team Fortress","app_id":440,"player_count":22,"max_players":24,"Bots":0,"server_type":"Dedicated","server_os":"Linux","password":true,"vac":true,"version":"7882260","steam_id":85568392924515193,"keywords":["nocrits","nodmgspread","payload","uncletopia"],"game_id":440,"stv_port":27046,"stv_name":"Uncletopia | Chicago | 4 | All Maps | STV","players":[{"user_id":119,"name":"John Lennon’s Ghost","steam_id":76561198274453790,"connected_time":726000000000,"state":"active","ping":84},{"user_id":93,"name":"Moonadoo","steam_id":76561198133377546,"connected_time":1740000000000,"state":"active","ping":51},{"user_id":94,"name":"zzzPoison","steam_id":76561198302928116,"connected_time":1714000000000,"state":"active","ping":55},{"user_id":88,"name":"asm_ghost","steam_id":76561199205363547,"connected_time":2431000000000,"state":"active","ping":129},{"user_id":127,"name":"AreYouMyMummy?","steam_id":76561197995101745,"connected_time":70000000000,"state":"active","ping":59},{"user_id":128,"name":"cow","steam_id":76561198198453117,"connected_time":58000000000,"state":"active","ping":75},{"user_id":100,"name":"MEATBALL","steam_id":76561198028499312,"connected_time":1371000000000,"state":"active","ping":61},{"user_id":129,"name":"Ray","steam_id":76561198241564722,"connected_time":51000000000,"state":"spawning","ping":66},{"user_id":99,"name":"your wickedness is cringe","steam_id":76561198016826181,"connected_time":1393000000000,"state":"active","ping":67},{"user_id":120,"name":"DaBananaCatOfPower","steam_id":76561198169902353,"connected_time":676000000000,"state":"active","ping":62},{"user_id":102,"name":"BetoelAff es","steam_id":76561198377842585,"connected_time":1318000000000,"state":"active","ping":116},{"user_id":103,"name":"SABONER","steam_id":76561198056871257,"connected_time":1314000000000,"state":"active","ping":69},{"user_id":105,"name":"Radish Master","steam_id":76561198072523811,"connected_time":1248000000000,"state":"active","ping":39},{"user_id":106,"name":"Cabbage Master","steam_id":76561198109237516,"connected_time":1242000000000,"state":"active","ping":78},{"user_id":130,"name":"gonk","steam_id":76561198061206732,"connected_time":27000000000,"state":"active","ping":97},{"user_id":122,"name":"darps","steam_id":76561198105227318,"connected_time":440000000000,"state":"active","ping":52},{"user_id":131,"name":"pizzaschnoesel","steam_id":76561198143534694,"connected_time":10000000000,"state":"active","ping":159},{"user_id":111,"name":"brian.dahlmann","steam_id":76561198360431651,"connected_time":928000000000,"state":"active","ping":85},{"user_id":125,"name":"WANNA SPOON TONIGHT?","steam_id":76561199039152146,"connected_time":277000000000,"state":"active","ping":65},{"user_id":115,"name":"Sergeant Joker #savetf2","steam_id":76561198854616604,"connected_time":897000000000,"state":"active","ping":63},{"user_id":124,"name":"Cosmic sR","steam_id":76561198081738675,"connected_time":298000000000,"state":"active","ping":88},{"user_id":117,"name":"Wolf Hat","steam_id":76561198099996051,"connected_time":802000000000,"state":"active","ping":65}]},{"server_id":36,"name":"Uncletopia | Chicago | 5 | All Maps","name_short":"chi-5","host":"chi-2.us.uncletopia.com","port":27015,"enabled":true,"region":"us-central","cc":"us","latitude":41.881832,"longitude":-87.62318,"reserved":0,"last_update":"0001-01-01T00:00:00Z","name_a2s":"Uncletopia | Chicago | 5 | All Maps","protocol":17,"map":"pl_barnblitz","folder":"tf","game":"Team Fortress","app_id":440,"player_count":20,"max_players":24,"Bots":0,"server_type":"Dedicated","server_os":"Linux","password":true,"vac":true,"version":"7882260","steam_id":85568392924866362,"keywords":["nocrits","nodmgspread","payload","uncletopia"],"game_id":440,"stv_port":27016,"stv_name":"Uncletopia | Chicago | 5 | All Maps | STV","players":[{"user_id":182,"name":"CherriKat (she/her)","steam_id":76561198821297512,"connected_time":2541000000000,"state":"active","ping":102},{"user_id":185,"name":"Sysadmin Stress Release","steam_id":76561197997326384,"connected_time":2134000000000,"state":"active","ping":74},{"user_id":220,"name":"The Cool Man","steam_id":76561198096420556,"connected_time":85000000000,"state":"active","ping":96},{"user_id":200,"name":"Kritzburgh","steam_id":76561198149466938,"connected_time":1423000000000,"state":"active","ping":64},{"user_id":208,"name":"Yarch0","steam_id":76561199106172477,"connected_time":870000000000,"state":"active","ping":102},{"user_id":221,"name":"sithreis","steam_id":76561198000564263,"connected_time":9000000000,"state":"active","ping":129},{"user_id":203,"name":"cow","steam_id":76561198117331762,"connected_time":1319000000000,"state":"active","ping":47},{"user_id":216,"name":"Skellacat","steam_id":76561199090786845,"connected_time":483000000000,"state":"active","ping":59},{"user_id":189,"name":"frank","steam_id":76561198137777483,"connected_time":2107000000000,"state":"active","ping":67},{"user_id":190,"name":"chetan.nanda.nelluri","steam_id":76561199323410857,"connected_time":2104000000000,"state":"active","ping":56},{"user_id":201,"name":"anoobis","steam_id":76561199120731573,"connected_time":1407000000000,"state":"active","ping":75},{"user_id":162,"name":"Falcon_","steam_id":76561198311019556,"connected_time":3682000000000,"state":"active","ping":74},{"user_id":207,"name":"LerN","steam_id":76561198083463877,"connected_time":897000000000,"state":"active","ping":54},{"user_id":163,"name":"cryptidTD","steam_id":76561199094314945,"connected_time":3679000000000,"state":"active","ping":147},{"user_id":206,"name":"Sean Bae","steam_id":76561198036909521,"connected_time":1003000000000,"state":"active","ping":73},{"user_id":214,"name":"gendermutt","steam_id":76561198152857317,"connected_time":623000000000,"state":"active","ping":44},{"user_id":211,"name":"sunny","steam_id":76561198069380992,"connected_time":798000000000,"state":"active","ping":82},{"user_id":204,"name":"uypashe","steam_id":76561198334052490,"connected_time":1291000000000,"state":"active","ping":177},{"user_id":212,"name":"Viokik","steam_id":76561198408846602,"connected_time":760000000000,"state":"active","ping":63},{"user_id":199,"name":"trobort","steam_id":76561198027150357,"connected_time":1468000000000,"state":"active","ping":77}]},{"server_id":37,"name":"Uncletopia | Chicago | 6 | All Maps","name_short":"chi-6","host":"chi-2.us.uncletopia.com","port":27025,"enabled":true,"region":"us-central","cc":"us","latitude":41.881832,"longitude":-87.62318,"reserved":0,"last_update":"0001-01-01T00:00:00Z","name_a2s":"Uncletopia | Chicago | 6 | All Maps","protocol":17,"map":"pl_frontier_final","folder":"tf","game":"Team Fortress","app_id":440,"player_count":2,"max_players":24,"Bots":0,"server_type":"Dedicated","server_os":"Linux","password":true,"vac":true,"version":"7882260","steam_id":85568392924866363,"keywords":["nocrits","nodmgspread","payload","uncletopia"],"game_id":440,"stv_port":27026,"stv_name":"Uncletopia | Chicago | 6 | All Maps | STV","players":[{"user_id":6,"name":"Sandwich","steam_id":76561198303689896,"connected_time":226000000000,"state":"active","ping":73},{"user_id":7,"name":"carlos.t","steam_id":76561198849981462,"connected_time":192000000000,"state":"active","ping":55}]},{"server_id":38,"name":"Uncletopia | Chicago | 7 | Stopwatch Beta","name_short":"chi-7","host":"chi-2.us.uncletopia.com","port":27035,"enabled":true,"region":"us-central","cc":"us","latitude":41.881832,"longitude":-87.62318,"reserved":0,"last_update":"0001-01-01T00:00:00Z","name_a2s":"Uncletopia | Chicago | 7 | Stopwatch Beta","protocol":17,"map":"koth_lakeside_final","folder":"tf","game":"Team Fortress","app_id":440,"player_count":0,"max_players":24,"Bots":0,"server_type":"Dedicated","server_os":"Linux","password":true,"vac":true,"version":"7882260","steam_id":85568392924866364,"keywords":["cp","nocrits","nodmgspread","uncletopia"],"game_id":440,"stv_port":27036,"stv_name":"Uncletopia | Chicago | 7 | Stopwatch Beta | STV","players":null},{"server_id":39,"name":"Uncletopia | Chicago | 8 | Community","name_short":"chi-8","host":"chi-2.us.uncletopia.com","port":27045,"enabled":true,"region":"us-central","cc":"us","latitude":41.881832,"longitude":-87.62318,"reserved":0,"last_update":"0001-01-01T00:00:00Z","name_a2s":"Uncletopia | Chicago | 8 | Community","protocol":17,"map":"workshop/koth_product_final.ugc454272353","folder":"tf","game":"Team Fortress","app_id":440,"player_count":0,"max_players":24,"Bots":0,"server_type":"Dedicated","server_os":"Linux","password":true,"vac":true,"version":"7882260","steam_id":85568392924866365,"keywords":["cp","nocrits","nodmgspread","uncletopia"],"game_id":440,"stv_port":27046,"stv_name":"Uncletopia | Chicago | 8 | Community | STV","players":null},{"server_id":8,"name":"Uncletopia | Dallas | 1 | All Maps","name_short":"dal-1","host":"dal-1.us.uncletopia.com","port":27015,"enabled":true,"region":"us-central","cc":"us","latitude":32.779167,"longitude":-96.80889,"reserved":0,"last_update":"0001-01-01T00:00:00Z","name_a2s":"Uncletopia | Dallas | 1 | All Maps","protocol":17,"map":"cp_sunshine","folder":"tf","game":"Team Fortress","app_id":440,"player_count":24,"max_players":24,"Bots":0,"server_type":"Dedicated","server_os":"Linux","password":true,"vac":true,"version":"7882260","steam_id":85568392924469986,"keywords":["cp","nocrits","nodmgspread","uncletopia"],"game_id":440,"stv_port":27016,"stv_name":"Uncletopia | Dallas | 1 | All Maps | STV","players":[{"user_id":314,"name":"Greg Boberton 2012","steam_id":76561198983566026,"connected_time":4988000000000,"state":"active","ping":77},{"user_id":362,"name":"ZERGBERG","steam_id":76561198142126940,"connected_time":411000000000,"state":"active","ping":47},{"user_id":378,"name":"Paul F. Aldridge","steam_id":76561198353942162,"connected_time":75000000000,"state":"active","ping":51},{"user_id":294,"name":"J.G. Klaus","steam_id":76561198001111196,"connected_time":7397000000000,"state":"active","ping":54},{"user_id":355,"name":"SmokeyGalaxy","steam_id":76561198118780516,"connected_time":991000000000,"state":"active","ping":91},{"user_id":374,"name":"Last Friday","steam_id":76561198002309769,"connected_time":182000000000,"state":"active","ping":55},{"user_id":357,"name":"Treespeaker","steam_id":76561199231793576,"connected_time":925000000000,"state":"active","ping":69},{"user_id":365,"name":"Heathcliff","steam_id":76561198044288534,"connected_time":326000000000,"state":"active","ping":96},{"user_id":375,"name":"ChaoticAngel","steam_id":76561198293528217,"connected_time":175000000000,"state":"active","ping":81},{"user_id":347,"name":"artichoke","steam_id":76561198980994364,"connected_time":1700000000000,"state":"active","ping":99},{"user_id":377,"name":"basket","steam_id":76561199486768009,"connected_time":89000000000,"state":"active","ping":70},{"user_id":333,"name":"0x01FE","steam_id":76561198838881917,"connected_time":3046000000000,"state":"active","ping":67},{"user_id":331,"name":"pogo","steam_id":76561198148913461,"connected_time":3074000000000,"state":"active","ping":85},{"user_id":360,"name":"Pinetree w/ apples.","steam_id":76561198105411709,"connected_time":608000000000,"state":"active","ping":111},{"user_id":367,"name":"Runic","steam_id":76561198025537364,"connected_time":321000000000,"state":"active","ping":79},{"user_id":361,"name":"WAT","steam_id":76561198941203517,"connected_time":421000000000,"state":"active","ping":165},{"user_id":368,"name":"Crazy Insane Proboscis Monkey","steam_id":76561198061011176,"connected_time":302000000000,"state":"active","ping":97},{"user_id":359,"name":"Darling","steam_id":76561198127525888,"connected_time":680000000000,"state":"active","ping":57},{"user_id":376,"name":"SCUD missile up your ass","steam_id":76561198066452726,"connected_time":140000000000,"state":"active","ping":75},{"user_id":369,"name":"Shifter","steam_id":76561198837204401,"connected_time":301000000000,"state":"active","ping":82},{"user_id":370,"name":"LtK","steam_id":76561197993180943,"connected_time":283000000000,"state":"active","ping":44},{"user_id":371,"name":"leumas","steam_id":76561198240408540,"connected_time":265000000000,"state":"active","ping":90},{"user_id":372,"name":"souljaboytellem.com","steam_id":76561198111975583,"connected_time":254000000000,"state":"active","ping":50},{"user_id":373,"name":"Crazy5000o","steam_id":76561198862709394,"connected_time":251000000000,"state":"active","ping":90}]},{"server_id":108,"name":"Uncletopia | Dallas | 2 | All Maps","name_short":"dal-2","host":"dal-1.us.uncletopia.com","port":27025,"enabled":true,"region":"us-central","cc":"us","latitude":32.779167,"longitude":-96.80889,"reserved":0,"last_update":"0001-01-01T00:00:00Z","name_a2s":"Uncletopia | Dallas | 2 | All Maps","protocol":17,"map":"pl_frontier_final","folder":"tf","game":"Team Fortress","app_id":440,"player_count":24,"max_players":24,"Bots":0,"server_type":"Dedicated","server_os":"Linux","password":true,"vac":true,"version":"7882260","steam_id":85568392924469988,"keywords":["nocrits","nodmgspread","payload","uncletopia"],"game_id":440,"stv_port":27026,"stv_name":"Uncletopia | Dallas | 2 | All Maps | STV","players":[{"user_id":286,"name":"Thingy","steam_id":76561198140161202,"connected_time":3645000000000,"state":"active","ping":87},{"user_id":307,"name":"Holp","steam_id":76561199019186848,"connected_time":2427000000000,"state":"active","ping":88},{"user_id":349,"name":"swooce","steam_id":76561198156232484,"connected_time":278000000000,"state":"active","ping":77},{"user_id":346,"name":"Macro","steam_id":76561199442846226,"connected_time":335000000000,"state":"active","ping":78},{"user_id":324,"name":"Skab","steam_id":76561199126112357,"connected_time":1824000000000,"state":"active","ping":72},{"user_id":308,"name":"juju_kungfu","steam_id":76561198151291219,"connected_time":2386000000000,"state":"active","ping":103},{"user_id":325,"name":"SaberAthena782","steam_id":76561199445700766,"connected_time":1789000000000,"state":"active","ping":171},{"user_id":337,"name":"Arabictruman","steam_id":76561198155112367,"connected_time":999000000000,"state":"active","ping":81},{"user_id":270,"name":"GrabHis_AndTwist_It","steam_id":76561198139155108,"connected_time":4408000000000,"state":"active","ping":86},{"user_id":334,"name":"Doomagedden","steam_id":76561198272589475,"connected_time":1067000000000,"state":"active","ping":58},{"user_id":327,"name":"Koala Bear","steam_id":76561198118025990,"connected_time":1766000000000,"state":"active","ping":94},{"user_id":335,"name":"JellyParrot","steam_id":76561199190990163,"connected_time":1063000000000,"state":"active","ping":69},{"user_id":348,"name":"StupidMemes","steam_id":76561198253547727,"connected_time":325000000000,"state":"active","ping":75},{"user_id":320,"name":"Omega4D2","steam_id":76561198044097128,"connected_time":1910000000000,"state":"active","ping":93},{"user_id":317,"name":"DMM","steam_id":76561198065426171,"connected_time":2015000000000,"state":"active","ping":56},{"user_id":350,"name":"Mr.Bee","steam_id":76561198986621220,"connected_time":271000000000,"state":"active","ping":59},{"user_id":339,"name":"Treb","steam_id":76561197972961422,"connected_time":975000000000,"state":"active","ping":91},{"user_id":329,"name":"soof","steam_id":76561198043762955,"connected_time":1740000000000,"state":"active","ping":83},{"user_id":316,"name":"BreadGod","steam_id":76561198050665205,"connected_time":2100000000000,"state":"active","ping":77},{"user_id":319,"name":"supcupman","steam_id":76561198051513866,"connected_time":1988000000000,"state":"active","ping":101},{"user_id":331,"name":"Eins","steam_id":76561199030343810,"connected_time":1637000000000,"state":"active","ping":59},{"user_id":342,"name":"Jester","steam_id":76561198153102922,"connected_time":613000000000,"state":"active","ping":57},{"user_id":306,"name":"❤ Ashley ❤","steam_id":76561198056428303,"connected_time":2487000000000,"state":"active","ping":77},{"user_id":265,"name":"dweamy","steam_id":76561198119181880,"connected_time":4533000000000,"state":"active","ping":77}]},{"server_id":5,"name":"Uncletopia | Frankfurt | 1 | All Maps","name_short":"frk-1","host":"frk-1.de.uncletopia.com","port":27015,"enabled":true,"region":"eu","cc":"de","latitude":50.110924,"longitude":8.682127,"reserved":0,"last_update":"0001-01-01T00:00:00Z","name_a2s":"Uncletopia | Frankfurt | 1 | All Maps","protocol":17,"map":"pl_upward","folder":"tf","game":"Team Fortress","app_id":440,"player_count":22,"max_players":24,"Bots":0,"server_type":"Dedicated","server_os":"Linux","password":true,"vac":true,"version":"7882260","steam_id":85568392924469989,"keywords":["nocrits","nodmgspread","payload","uncletopia"],"game_id":440,"stv_port":27016,"stv_name":"Uncletopia | Frankfurt | 1 | All Maps | STV","players":[{"user_id":781,"name":"The Mask...","steam_id":76561198052402891,"connected_time":1797000000000,"state":"active","ping":56},{"user_id":813,"name":"Jonathan","steam_id":76561198087988880,"connected_time":287000000000,"state":"active","ping":46},{"user_id":814,"name":"☞LaZe☜","steam_id":76561198202191400,"connected_time":286000000000,"state":"active","ping":66},{"user_id":810,"name":"HUGO","steam_id":76561198317134996,"connected_time":478000000000,"state":"active","ping":89},{"user_id":779,"name":"dancle une","steam_id":76561197968945306,"connected_time":1832000000000,"state":"active","ping":75},{"user_id":815,"name":"Fat Pigeon","steam_id":76561198817940142,"connected_time":280000000000,"state":"active","ping":52},{"user_id":790,"name":"DeCypher \u003c3","steam_id":76561198171992619,"connected_time":1430000000000,"state":"active","ping":74},{"user_id":796,"name":"MoonDroid","steam_id":76561198023027016,"connected_time":1240000000000,"state":"active","ping":40},{"user_id":816,"name":"Elsuedi","steam_id":76561198074722832,"connected_time":265000000000,"state":"active","ping":47},{"user_id":791,"name":"Pain in a Box","steam_id":76561197990777173,"connected_time":1423000000000,"state":"active","ping":100},{"user_id":714,"name":"Plow cheese","steam_id":76561198142478067,"connected_time":5845000000000,"state":"active","ping":107},{"user_id":817,"name":"X-tis","steam_id":76561198043837480,"connected_time":260000000000,"state":"active","ping":74},{"user_id":747,"name":"Alpha","steam_id":76561198133229149,"connected_time":4082000000000,"state":"active","ping":86},{"user_id":802,"name":"Stigurna","steam_id":76561198063906822,"connected_time":783000000000,"state":"active","ping":100},{"user_id":786,"name":"Vancelot","steam_id":76561198050750089,"connected_time":1704000000000,"state":"active","ping":73},{"user_id":820,"name":"Chuckstarrious","steam_id":76561198029531334,"connected_time":163000000000,"state":"active","ping":59},{"user_id":762,"name":"Repa24","steam_id":76561198033016390,"connected_time":3385000000000,"state":"active","ping":68},{"user_id":819,"name":"dongus","steam_id":76561198042774930,"connected_time":190000000000,"state":"active","ping":78},{"user_id":821,"name":"Mharenai","steam_id":76561198059402911,"connected_time":129000000000,"state":"active","ping":71},{"user_id":760,"name":"KooK","steam_id":76561198805501766,"connected_time":3613000000000,"state":"active","ping":83},{"user_id":823,"name":"Kai","steam_id":76561198105338895,"connected_time":81000000000,"state":"active","ping":75},{"user_id":788,"name":"Uber","steam_id":76561198036528206,"connected_time":1599000000000,"state":"active","ping":71}]},{"server_id":110,"name":"Uncletopia | Frankfurt | 2 | All Maps","name_short":"frk-2","host":"frk-1.de.uncletopia.com","port":27025,"enabled":true,"region":"eu","cc":"de","latitude":50.110924,"longitude":8.682127,"reserved":0,"last_update":"0001-01-01T00:00:00Z","name_a2s":"Uncletopia | Frankfurt | 2 | All Maps","protocol":17,"map":"pl_snowycoast","folder":"tf","game":"Team Fortress","app_id":440,"player_count":24,"max_players":24,"Bots":0,"server_type":"Dedicated","server_os":"Linux","password":true,"vac":true,"version":"7882260","steam_id":85568392924469990,"keywords":["nocrits","nodmgspread","payload","uncletopia"],"game_id":440,"stv_port":27026,"stv_name":"Uncletopia | Frankfurt | 2 | All Maps | STV","players":[{"user_id":341,"name":"useless_water","steam_id":76561198106787375,"connected_time":2819000000000,"state":"active","ping":59},{"user_id":327,"name":"Dr. Trustmeonthisone","steam_id":76561198009884765,"connected_time":4133000000000,"state":"active","ping":91},{"user_id":352,"name":"the devil","steam_id":76561198905911729,"connected_time":2373000000000,"state":"active","ping":73},{"user_id":357,"name":"GibbusGod","steam_id":76561199232436690,"connected_time":580000000000,"state":"active","ping":153},{"user_id":316,"name":"Piteras","steam_id":76561198858532207,"connected_time":5464000000000,"state":"active","ping":74},{"user_id":358,"name":"MrBeast Official","steam_id":76561198081369150,"connected_time":578000000000,"state":"active","ping":93},{"user_id":365,"name":"soulthefunnyman","steam_id":76561198273169658,"connected_time":328000000000,"state":"active","ping":70},{"user_id":359,"name":"Lorenzo Lovers","steam_id":76561198073973581,"connected_time":578000000000,"state":"active","ping":80},{"user_id":340,"name":"Benoldo","steam_id":76561198405481293,"connected_time":2828000000000,"state":"active","ping":64},{"user_id":345,"name":"Ostara","steam_id":76561198200054489,"connected_time":2685000000000,"state":"active","ping":79},{"user_id":349,"name":"GAETA ELECTRONICOS DEPORTES","steam_id":76561199042470246,"connected_time":2582000000000,"state":"active","ping":56},{"user_id":366,"name":"Broken hip","steam_id":76561199338032040,"connected_time":129000000000,"state":"active","ping":82},{"user_id":347,"name":"Kelpy G gaming","steam_id":76561198056995633,"connected_time":2656000000000,"state":"active","ping":70},{"user_id":360,"name":"RyeBread","steam_id":76561198400163404,"connected_time":574000000000,"state":"active","ping":122},{"user_id":356,"name":"Myxin","steam_id":76561198967519667,"connected_time":1701000000000,"state":"active","ping":44},{"user_id":363,"name":"SuperBob103","steam_id":76561199175360012,"connected_time":492000000000,"state":"active","ping":61},{"user_id":315,"name":"tired","steam_id":76561198046838168,"connected_time":5644000000000,"state":"active","ping":47},{"user_id":362,"name":"Darfsterman #rustclash","steam_id":76561199004139305,"connected_time":503000000000,"state":"active","ping":61},{"user_id":240,"name":"FirePenguin","steam_id":76561198151468340,"connected_time":10424000000000,"state":"active","ping":45},{"user_id":364,"name":"Haha?","steam_id":76561198056882245,"connected_time":477000000000,"state":"active","ping":53},{"user_id":354,"name":"lycoris","steam_id":76561197988085026,"connected_time":1987000000000,"state":"active","ping":73},{"user_id":348,"name":"realness","steam_id":76561199129226935,"connected_time":2649000000000,"state":"active","ping":98},{"user_id":245,"name":"TazerMonkey55","steam_id":76561198151547551,"connected_time":10348000000000,"state":"active","ping":67},{"user_id":351,"name":"Ratik","steam_id":76561197966633880,"connected_time":2519000000000,"state":"active","ping":68}]},{"server_id":308,"name":"Uncletopia | Frankfurt | 3 | All Maps","name_short":"frk-3","host":"frk-1.de.uncletopia.com","port":27035,"enabled":true,"region":"eu","cc":"de","latitude":50.110924,"longitude":8.682127,"reserved":0,"last_update":"0001-01-01T00:00:00Z","name_a2s":"Uncletopia | Frankfurt | 3 | All Maps","protocol":17,"map":"koth_cascade","folder":"tf","game":"Team Fortress","app_id":440,"player_count":18,"max_players":24,"Bots":0,"server_type":"Dedicated","server_os":"Linux","password":true,"vac":true,"version":"7882260","steam_id":85568392924504274,"keywords":["cp","nocrits","nodmgspread","uncletopia"],"game_id":440,"stv_port":27036,"stv_name":"Uncletopia | Frankfurt | 3 | All Maps | STV","players":[{"user_id":465,"name":"I.C. Wiener","steam_id":76561197999912254,"connected_time":309000000000,"state":"active","ping":92},{"user_id":469,"name":"DrExplosive","steam_id":76561198063678579,"connected_time":119000000000,"state":"active","ping":52},{"user_id":467,"name":"tiia","steam_id":76561198046196005,"connected_time":166000000000,"state":"active","ping":40},{"user_id":455,"name":"USBug999","steam_id":76561199174677820,"connected_time":1404000000000,"state":"active","ping":130},{"user_id":411,"name":"Mi Manchi","steam_id":76561198171573129,"connected_time":5785000000000,"state":"active","ping":56},{"user_id":471,"name":"Wardruna96","steam_id":76561199057083828,"connected_time":31000000000,"state":"active","ping":83},{"user_id":421,"name":"Vershal Smershal","steam_id":76561198116223995,"connected_time":5230000000000,"state":"active","ping":59},{"user_id":458,"name":"Garoiop","steam_id":76561198082326459,"connected_time":1259000000000,"state":"active","ping":46},{"user_id":434,"name":"Skelli","steam_id":76561198066933519,"connected_time":3542000000000,"state":"active","ping":113},{"user_id":456,"name":"Milosz52","steam_id":76561199060940204,"connected_time":1280000000000,"state":"active","ping":81},{"user_id":426,"name":"Bajas","steam_id":76561198179339326,"connected_time":4640000000000,"state":"active","ping":75},{"user_id":454,"name":"The Funnytaker","steam_id":76561198049457308,"connected_time":1556000000000,"state":"active","ping":47},{"user_id":466,"name":"XXVIII","steam_id":76561198139717833,"connected_time":286000000000,"state":"active","ping":71},{"user_id":378,"name":"xavier","steam_id":76561198076494034,"connected_time":8077000000000,"state":"active","ping":54},{"user_id":408,"name":"rob","steam_id":76561198122211848,"connected_time":6227000000000,"state":"active","ping":87},{"user_id":448,"name":"Koli","steam_id":76561197992428783,"connected_time":2051000000000,"state":"active","ping":45},{"user_id":452,"name":"wouris","steam_id":76561198876188003,"connected_time":1851000000000,"state":"active","ping":53}]},{"server_id":309,"name":"Uncletopia | Frankfurt | 4 | All Maps","name_short":"frk-4","host":"frk-1.de.uncletopia.com","port":27045,"enabled":true,"region":"eu","cc":"de","latitude":50.110924,"longitude":8.682127,"reserved":0,"last_update":"0001-01-01T00:00:00Z","name_a2s":"Uncletopia | Frankfurt | 4 | All Maps","protocol":17,"map":"pl_barnblitz","folder":"tf","game":"Team Fortress","app_id":440,"player_count":24,"max_players":24,"Bots":0,"server_type":"Dedicated","server_os":"Linux","password":true,"vac":true,"version":"7882260","steam_id":85568392924504275,"keywords":["nocrits","nodmgspread","payload","uncletopia"],"game_id":440,"stv_port":27046,"stv_name":"Uncletopia | Frankfurt | 4 | All Maps | STV","players":[{"user_id":495,"name":"Eve","steam_id":76561198061996646,"connected_time":1219000000000,"state":"active","ping":72},{"user_id":484,"name":"MellowBoy-2354","steam_id":76561199080630632,"connected_time":2364000000000,"state":"active","ping":185},{"user_id":459,"name":"Zero (Orbital Gear Mastermind)","steam_id":76561198017416816,"connected_time":4430000000000,"state":"active","ping":55},{"user_id":400,"name":"dotdotdot","steam_id":76561198057628751,"connected_time":7689000000000,"state":"active","ping":61},{"user_id":503,"name":"das boot","steam_id":76561198953844914,"connected_time":687000000000,"state":"active","ping":59},{"user_id":507,"name":"manKe","steam_id":76561198008564860,"connected_time":245000000000,"state":"active","ping":56},{"user_id":485,"name":"w+m1","steam_id":76561198010428082,"connected_time":2351000000000,"state":"active","ping":62},{"user_id":504,"name":"Bobo","steam_id":76561198052308399,"connected_time":587000000000,"state":"active","ping":60},{"user_id":487,"name":"xx_peter_griffinzz_xx","steam_id":76561198863013731,"connected_time":2291000000000,"state":"active","ping":54},{"user_id":496,"name":"THE Grosser","steam_id":76561197995530666,"connected_time":1196000000000,"state":"active","ping":51},{"user_id":508,"name":"Uselss Joe","steam_id":76561198275853629,"connected_time":34000000000,"state":"active","ping":45},{"user_id":498,"name":"eeeeee","steam_id":76561198017786875,"connected_time":1141000000000,"state":"active","ping":57},{"user_id":489,"name":"DarkSoulBG24","steam_id":76561198273701478,"connected_time":1580000000000,"state":"active","ping":84},{"user_id":445,"name":"AmssoBador Spacelot","steam_id":76561197993444617,"connected_time":4994000000000,"state":"active","ping":73},{"user_id":499,"name":"Carrotcracker","steam_id":76561198034862396,"connected_time":1107000000000,"state":"active","ping":70},{"user_id":457,"name":"Mitt","steam_id":76561199011013919,"connected_time":4543000000000,"state":"active","ping":69},{"user_id":452,"name":"B4R10N","steam_id":76561198047167954,"connected_time":4754000000000,"state":"active","ping":45},{"user_id":480,"name":"tm`","steam_id":76561197993580412,"connected_time":3284000000000,"state":"active","ping":53},{"user_id":505,"name":"Miedzan","steam_id":76561198405250516,"connected_time":568000000000,"state":"active","ping":68},{"user_id":467,"name":"Michal jordan","steam_id":76561199106262610,"connected_time":3957000000000,"state":"active","ping":66},{"user_id":481,"name":"StumpKnuckle","steam_id":76561197995325320,"connected_time":3272000000000,"state":"active","ping":69},{"user_id":477,"name":"Witor","steam_id":76561198127584681,"connected_time":3510000000000,"state":"active","ping":70},{"user_id":502,"name":"RiSlava","steam_id":76561198084071930,"connected_time":774000000000,"state":"active","ping":80},{"user_id":506,"name":"Hat Lover","steam_id":76561198312283433,"connected_time":567000000000,"state":"active","ping":86}]},{"server_id":310,"name":"Uncletopia | Frankfurt | 5 | All Maps","name_short":"frk-5","host":"frk-1.de.uncletopia.com","port":27055,"enabled":true,"region":"eu","cc":"de","latitude":50.110924,"longitude":8.682127,"reserved":0,"last_update":"0001-01-01T00:00:00Z","name_a2s":"Uncletopia | Frankfurt | 5 | All Maps","protocol":17,"map":"koth_viaduct","folder":"tf","game":"Team Fortress","app_id":440,"player_count":19,"max_players":24,"Bots":0,"server_type":"Dedicated","server_os":"Linux","password":true,"vac":true,"version":"7882260","steam_id":85568392924504277,"keywords":["cp","nocrits","nodmgspread","uncletopia"],"game_id":440,"stv_port":27056,"stv_name":"Uncletopia | Frankfurt | 5 | All Maps | STV","players":[{"user_id":560,"name":"誰かが見ている","steam_id":76561198834913692,"connected_time":1022000000000,"state":"active","ping":52},{"user_id":520,"name":"TheWerelizard","steam_id":76561198060638325,"connected_time":3696000000000,"state":"active","ping":39},{"user_id":521,"name":"Ixsus\u003c3","steam_id":76561198094756869,"connected_time":3383000000000,"state":"active","ping":46},{"user_id":532,"name":"HetNet","steam_id":76561198207584963,"connected_time":3146000000000,"state":"active","ping":83},{"user_id":550,"name":"Sabour","steam_id":76561197963965445,"connected_time":2605000000000,"state":"active","ping":59},{"user_id":566,"name":"Racco Slava Ukraina","steam_id":76561198198855238,"connected_time":781000000000,"state":"active","ping":48},{"user_id":527,"name":"Shrimp","steam_id":76561198245939970,"connected_time":3200000000000,"state":"active","ping":75},{"user_id":565,"name":"big poo","steam_id":76561198129157178,"connected_time":838000000000,"state":"active","ping":87},{"user_id":529,"name":"Froggo","steam_id":76561198013713935,"connected_time":3188000000000,"state":"active","ping":117},{"user_id":533,"name":"Tin","steam_id":76561198022201818,"connected_time":3144000000000,"state":"active","ping":48},{"user_id":571,"name":"are your name meemo, idiot","steam_id":76561198013279698,"connected_time":721000000000,"state":"active","ping":56},{"user_id":575,"name":"󠁳⁧⁧ Kruthal","steam_id":76561198245726582,"connected_time":329000000000,"state":"active","ping":59},{"user_id":576,"name":"Tickleshits","steam_id":76561198159197241,"connected_time":297000000000,"state":"active","ping":61},{"user_id":514,"name":"Scoot","steam_id":76561198202930408,"connected_time":4711000000000,"state":"active","ping":154},{"user_id":578,"name":"Mega Saturn","steam_id":76561198024750500,"connected_time":138000000000,"state":"active","ping":97},{"user_id":558,"name":"Isuurn","steam_id":76561198150201094,"connected_time":1620000000000,"state":"active","ping":75},{"user_id":503,"name":"boy toy wrangler","steam_id":76561198208740557,"connected_time":5513000000000,"state":"active","ping":60},{"user_id":563,"name":"Sgt.Adamen152","steam_id":76561198315452726,"connected_time":866000000000,"state":"active","ping":68},{"user_id":570,"name":"CoCoIncorporate","steam_id":76561198049967229,"connected_time":753000000000,"state":"active","ping":79}]},{"server_id":311,"name":"Uncletopia | Frankfurt | 6 | All Maps","name_short":"frk-6","host":"frk-1.de.uncletopia.com","port":27065,"enabled":true,"region":"eu","cc":"de","latitude":50.110924,"longitude":8.682127,"reserved":0,"last_update":"0001-01-01T00:00:00Z","name_a2s":"Uncletopia | Frankfurt | 6 | All Maps","protocol":17,"map":"plr_pipeline","folder":"tf","game":"Team Fortress","app_id":440,"player_count":12,"max_players":24,"Bots":0,"server_type":"Dedicated","server_os":"Linux","password":true,"vac":true,"version":"7882260","steam_id":85568392924504278,"keywords":["nocrits","nodmgspread","payload","uncletopia"],"game_id":440,"stv_port":27066,"stv_name":"Uncletopia | Frankfurt | 6 | All Maps | STV","players":[{"user_id":738,"name":"JackDegle","steam_id":76561198427027677,"connected_time":1523000000000,"state":"active","ping":74},{"user_id":749,"name":"Your Local Karen Hunter","steam_id":76561199469410668,"connected_time":40000000000,"state":"spawning","ping":380},{"user_id":746,"name":"Playad","steam_id":76561198977412147,"connected_time":223000000000,"state":"active","ping":57},{"user_id":649,"name":"Drakehellstone","steam_id":76561199112627742,"connected_time":7083000000000,"state":"active","ping":70},{"user_id":750,"name":"Cataleptic","steam_id":76561197997966949,"connected_time":35000000000,"state":"active","ping":62},{"user_id":747,"name":"JohkupohkuXD","steam_id":76561198391108762,"connected_time":208000000000,"state":"active","ping":74},{"user_id":692,"name":"omnibombulator","steam_id":76561198025858897,"connected_time":3608000000000,"state":"active","ping":58},{"user_id":693,"name":"Dewotter","steam_id":76561198007653168,"connected_time":3590000000000,"state":"active","ping":74},{"user_id":737,"name":"Have A Blessed Day","steam_id":76561198030956814,"connected_time":1550000000000,"state":"active","ping":342},{"user_id":744,"name":"Cornmac","steam_id":76561198104780569,"connected_time":1222000000000,"state":"active","ping":78},{"user_id":727,"name":"THE CLUELESS CLOWN","steam_id":76561198246990590,"connected_time":2159000000000,"state":"active","ping":47},{"user_id":732,"name":"Adult Predator","steam_id":76561198850274272,"connected_time":1763000000000,"state":"active","ping":43}]},{"server_id":23,"name":"Uncletopia | Frankfurt | 7 | Stopwatch Beta","name_short":"frk-7","host":"frk-1.de.uncletopia.com","port":27075,"enabled":true,"region":"eu","cc":"de","latitude":50.110924,"longitude":8.682127,"reserved":0,"last_update":"0001-01-01T00:00:00Z","name_a2s":"Uncletopia | Frankfurt | 7 | Stopwatch Beta","protocol":17,"map":"pl_borneo","folder":"tf","game":"Team Fortress","app_id":440,"player_count":0,"max_players":24,"Bots":0,"server_type":"Dedicated","server_os":"Linux","password":true,"vac":true,"version":"7882260","steam_id":85568392924742827,"keywords":["nocrits","nodmgspread","payload","uncletopia"],"game_id":440,"stv_port":27076,"stv_name":"Uncletopia | Frankfurt | 7 | Stopwatch Beta | STV","players":null},{"server_id":24,"name":"Uncletopia | Frankfurt | 8 | Community","name_short":"frk-8","host":"frk-1.de.uncletopia.com","port":27085,"enabled":true,"region":"eu","cc":"de","latitude":50.110924,"longitude":8.682127,"reserved":0,"last_update":"0001-01-01T00:00:00Z","name_a2s":"Uncletopia | Frankfurt | 8 | Community","protocol":17,"map":"workshop/koth_product_final.ugc454272353","folder":"tf","game":"Team Fortress","app_id":440,"player_count":0,"max_players":24,"Bots":0,"server_type":"Dedicated","server_os":"Linux","password":true,"vac":true,"version":"7882260","steam_id":85568392924742828,"keywords":["cp","nocrits","nodmgspread","uncletopia"],"game_id":440,"stv_port":27086,"stv_name":"Uncletopia | Frankfurt | 8 | Community | STV","players":null},{"server_id":202,"name":"Uncletopia | Hong Kong | 1 | All Maps","name_short":"hgk-1","host":"hgk-1.hk.uncletopia.com","port":27015,"enabled":true,"region":"asia","cc":"hk","latitude":22.302711,"longitude":114.177216,"reserved":0,"last_update":"0001-01-01T00:00:00Z","name_a2s":"Uncletopia | Hong Kong | 1 | All Maps","protocol":17,"map":"koth_viaduct","folder":"tf","game":"Team Fortress","app_id":440,"player_count":0,"max_players":24,"Bots":0,"server_type":"Dedicated","server_os":"Linux","password":true,"vac":true,"version":"7882260","steam_id":85568392924494504,"keywords":["cp","nocrits","nodmgspread","uncletopia"],"game_id":440,"stv_port":27016,"stv_name":"Uncletopia | Hong Kong | 1 | All Maps | STV","players":null},{"server_id":1,"name":"Uncletopia | Los Angeles | 1 | All Maps","name_short":"lax-1","host":"lax-1.us.uncletopia.com","port":27015,"enabled":true,"region":"us-west","cc":"us","latitude":33.94279,"longitude":-118.41004,"reserved":0,"last_update":"0001-01-01T00:00:00Z","name_a2s":"Uncletopia | Los Angeles | 1 | All Maps","protocol":17,"map":"pl_borneo","folder":"tf","game":"Team Fortress","app_id":440,"player_count":0,"max_players":24,"Bots":0,"server_type":"Dedicated","server_os":"Linux","password":true,"vac":true,"version":"7882260","steam_id":85568392924469991,"keywords":["nocrits","nodmgspread","payload","uncletopia"],"game_id":440,"stv_port":27016,"stv_name":"Uncletopia | Los Angeles | 1 | All Maps | STV","players":null},{"server_id":112,"name":"Uncletopia | Los Angeles | 2 | All Maps","name_short":"lax-2","host":"lax-1.us.uncletopia.com","port":27025,"enabled":true,"region":"us-west","cc":"us","latitude":33.94279,"longitude":-118.41004,"reserved":0,"last_update":"0001-01-01T00:00:00Z","name_a2s":"Uncletopia | Los Angeles | 2 | All Maps","protocol":17,"map":"cp_process_final","folder":"tf","game":"Team Fortress","app_id":440,"player_count":23,"max_players":24,"Bots":0,"server_type":"Dedicated","server_os":"Linux","password":true,"vac":true,"version":"7882260","steam_id":85568392924469992,"keywords":["cp","nocrits","nodmgspread","uncletopia"],"game_id":440,"stv_port":27026,"stv_name":"Uncletopia | Los Angeles | 2 | All Maps | STV","players":[{"user_id":188,"name":"moopmop","steam_id":76561198065224965,"connected_time":113000000000,"state":"active","ping":55},{"user_id":190,"name":"Ike Yard","steam_id":76561197998954523,"connected_time":61000000000,"state":"active","ping":108},{"user_id":180,"name":"Irase","steam_id":76561198065354440,"connected_time":467000000000,"state":"active","ping":55},{"user_id":146,"name":"FlashofAsh","steam_id":76561198400422981,"connected_time":2889000000000,"state":"active","ping":71},{"user_id":154,"name":"Murr","steam_id":76561198046532308,"connected_time":2695000000000,"state":"active","ping":62},{"user_id":168,"name":"Op banana","steam_id":76561198303231451,"connected_time":1517000000000,"state":"active","ping":70},{"user_id":138,"name":"Ralph Kramden (Slim Charles)","steam_id":76561197981687895,"connected_time":3272000000000,"state":"active","ping":57},{"user_id":184,"name":"Interesting Name","steam_id":76561198197733222,"connected_time":152000000000,"state":"active","ping":46},{"user_id":130,"name":"bluetreefrog","steam_id":76561198057965826,"connected_time":4693000000000,"state":"active","ping":119},{"user_id":174,"name":"LordKirby","steam_id":76561198006938286,"connected_time":1054000000000,"state":"active","ping":70},{"user_id":179,"name":"Nuck Chorris","steam_id":76561197962588421,"connected_time":632000000000,"state":"active","ping":47},{"user_id":26,"name":"msay","steam_id":76561198170888029,"connected_time":12069000000000,"state":"active","ping":136},{"user_id":187,"name":"[El Fail] MR.BadassMCLee","steam_id":76561198043787818,"connected_time":137000000000,"state":"active","ping":60},{"user_id":132,"name":"Defeat","steam_id":76561198065203818,"connected_time":4596000000000,"state":"active","ping":60},{"user_id":185,"name":"dare","steam_id":76561197960977496,"connected_time":152000000000,"state":"active","ping":57},{"user_id":134,"name":"Trotsky Gaming","steam_id":76561199101638460,"connected_time":4370000000000,"state":"active","ping":89},{"user_id":158,"name":"Chirp","steam_id":76561198240780230,"connected_time":2456000000000,"state":"active","ping":44},{"user_id":95,"name":"Tmiracle","steam_id":76561198052375275,"connected_time":6724000000000,"state":"active","ping":46},{"user_id":162,"name":"exa*✩‧₊˚","steam_id":76561198044511912,"connected_time":2046000000000,"state":"active","ping":45},{"user_id":73,"name":"Roosevelt Chadwick","steam_id":76561198278169311,"connected_time":9165000000000,"state":"active","ping":65},{"user_id":189,"name":"Robertred","steam_id":76561199062495086,"connected_time":103000000000,"state":"active","ping":112},{"user_id":166,"name":"a chicken","steam_id":76561198313121580,"connected_time":1715000000000,"state":"active","ping":48},{"user_id":173,"name":"camp3r","steam_id":76561197992870439,"connected_time":1183000000000,"state":"active","ping":61}]},{"server_id":324,"name":"Uncletopia | Los Angeles | 3 | All Maps","name_short":"lax-3","host":"lax-1.us.uncletopia.com","port":27035,"enabled":true,"region":"us-west","cc":"us","latitude":33.94279,"longitude":-118.41004,"reserved":0,"last_update":"0001-01-01T00:00:00Z","name_a2s":"Uncletopia | Los Angeles | 3 | All Maps","protocol":17,"map":"cp_dustbowl","folder":"tf","game":"Team Fortress","app_id":440,"player_count":17,"max_players":24,"Bots":0,"server_type":"Dedicated","server_os":"Linux","password":true,"vac":true,"version":"7882260","steam_id":85568392924510198,"keywords":["cp","nocrits","nodmgspread","uncletopia"],"game_id":440,"stv_port":27036,"stv_name":"Uncletopia | Los Angeles | 3 | All Maps | STV","players":[{"user_id":269,"name":"An00bis","steam_id":76561198044084508,"connected_time":276000000000,"state":"active","ping":60},{"user_id":216,"name":"green234isfine","steam_id":76561199205223152,"connected_time":3701000000000,"state":"active","ping":130},{"user_id":268,"name":"BennBap","steam_id":76561198171881453,"connected_time":299000000000,"state":"active","ping":101},{"user_id":270,"name":"Shadow","steam_id":76561198197327722,"connected_time":243000000000,"state":"active","ping":91},{"user_id":262,"name":"SlitherDoodle","steam_id":76561198000275473,"connected_time":830000000000,"state":"active","ping":76},{"user_id":271,"name":"Grim","steam_id":76561198016978310,"connected_time":210000000000,"state":"active","ping":70},{"user_id":272,"name":"Juul Room","steam_id":76561198132867238,"connected_time":138000000000,"state":"active","ping":80},{"user_id":225,"name":"ShellBug","steam_id":76561198144187527,"connected_time":3270000000000,"state":"active","ping":116},{"user_id":259,"name":"Pyro Lover 69","steam_id":76561198294761033,"connected_time":1222000000000,"state":"active","ping":112},{"user_id":266,"name":"Boone","steam_id":76561198398931575,"connected_time":619000000000,"state":"active","ping":56},{"user_id":256,"name":"Buswolley","steam_id":76561197995205571,"connected_time":1627000000000,"state":"active","ping":58},{"user_id":230,"name":"Lotus Cookie","steam_id":76561199482553414,"connected_time":3130000000000,"state":"active","ping":63},{"user_id":231,"name":"NicolaChiara","steam_id":76561198227287880,"connected_time":3127000000000,"state":"active","ping":67},{"user_id":257,"name":"Garfelf","steam_id":76561198419850129,"connected_time":1606000000000,"state":"active","ping":80},{"user_id":254,"name":"TTV/ChadMorningWood","steam_id":76561198139832291,"connected_time":1748000000000,"state":"active","ping":54},{"user_id":250,"name":"California Jew","steam_id":76561198914032112,"connected_time":1926000000000,"state":"active","ping":47},{"user_id":264,"name":"CadenLCheese","steam_id":76561199105517435,"connected_time":774000000000,"state":"active","ping":88}]},{"server_id":25,"name":"Uncletopia | Los Angeles | 4 | Stopwatch Beta","name_short":"lax-4","host":"lax-1.us.uncletopia.com","port":27045,"enabled":true,"region":"us-west","cc":"us","latitude":33.94279,"longitude":-118.41004,"reserved":0,"last_update":"0001-01-01T00:00:00Z","name_a2s":"Uncletopia | Los Angeles | 4 | Stopwatch Beta","protocol":17,"map":"koth_lakeside_final","folder":"tf","game":"Team Fortress","app_id":440,"player_count":0,"max_players":24,"Bots":0,"server_type":"Dedicated","server_os":"Linux","password":true,"vac":true,"version":"7882260","steam_id":85568392924510199,"keywords":["cp","nocrits","nodmgspread","uncletopia"],"game_id":440,"stv_port":27046,"stv_name":"Uncletopia | Los Angeles | 4 | Stopwatch Beta | STV","players":null},{"server_id":11,"name":"Uncletopia | London | 1 | All Maps","name_short":"lon-1","host":"lon-1.uk.uncletopia.com","port":27015,"enabled":true,"region":"eu","cc":"gb","latitude":51.509865,"longitude":-0.118092,"reserved":0,"last_update":"0001-01-01T00:00:00Z","name_a2s":"Uncletopia | London | 1 | All Maps","protocol":17,"map":"pl_snowycoast","folder":"tf","game":"Team Fortress","app_id":440,"player_count":24,"max_players":24,"Bots":0,"server_type":"Dedicated","server_os":"Linux","password":true,"vac":true,"version":"7882260","steam_id":85568392924367362,"keywords":["nocrits","nodmgspread","payload","uncletopia"],"game_id":440,"stv_port":27016,"stv_name":"Uncletopia | London | 1 | All Maps | STV","players":[{"user_id":690,"name":"okzq","steam_id":76561199105796083,"connected_time":5640000000000,"state":"active","ping":77},{"user_id":750,"name":"Anri Okita's Massive Milkers","steam_id":76561199186352720,"connected_time":525000000000,"state":"active","ping":48},{"user_id":685,"name":"something","steam_id":76561198198581615,"connected_time":6334000000000,"state":"active","ping":66},{"user_id":743,"name":"Jigsaw","steam_id":76561198148359093,"connected_time":1677000000000,"state":"active","ping":44},{"user_id":707,"name":"BuzzBees ❤","steam_id":76561198101502273,"connected_time":4260000000000,"state":"active","ping":49},{"user_id":729,"name":"The Lady","steam_id":76561198029895809,"connected_time":2263000000000,"state":"active","ping":78},{"user_id":754,"name":"Star in a pond","steam_id":76561198205501279,"connected_time":276000000000,"state":"active","ping":99},{"user_id":681,"name":"Kahvi","steam_id":76561198723244199,"connected_time":7011000000000,"state":"active","ping":75},{"user_id":744,"name":"Aroo","steam_id":76561198132601368,"connected_time":1626000000000,"state":"active","ping":80},{"user_id":719,"name":"puck","steam_id":76561198121260981,"connected_time":2787000000000,"state":"active","ping":45},{"user_id":700,"name":"Cabbch","steam_id":76561198045955679,"connected_time":5043000000000,"state":"active","ping":45},{"user_id":745,"name":"Dakeyras","steam_id":76561198057069564,"connected_time":1576000000000,"state":"active","ping":108},{"user_id":755,"name":"hi :o","steam_id":76561198049312442,"connected_time":253000000000,"state":"active","ping":50},{"user_id":757,"name":"whimsy.","steam_id":76561198878171763,"connected_time":60000000000,"state":"spawning","ping":62},{"user_id":704,"name":"KittyKate ❤","steam_id":76561198116340817,"connected_time":4415000000000,"state":"active","ping":62},{"user_id":749,"name":"Fletcher","steam_id":76561198108604934,"connected_time":607000000000,"state":"active","ping":46},{"user_id":752,"name":"R@DIO","steam_id":76561197995533046,"connected_time":317000000000,"state":"active","ping":84},{"user_id":716,"name":"Juliderkek","steam_id":76561198962270674,"connected_time":3444000000000,"state":"active","ping":82},{"user_id":727,"name":"Gubbly Bubbins","steam_id":76561198101451654,"connected_time":2376000000000,"state":"active","ping":48},{"user_id":714,"name":"XNorec","steam_id":76561198015778815,"connected_time":3586000000000,"state":"active","ping":75},{"user_id":746,"name":"goff","steam_id":76561198118989010,"connected_time":1335000000000,"state":"active","ping":55},{"user_id":738,"name":"Joy","steam_id":76561198155314925,"connected_time":1898000000000,"state":"active","ping":57},{"user_id":748,"name":"KPhii","steam_id":76561198970587061,"connected_time":629000000000,"state":"active","ping":64},{"user_id":756,"name":"I Don't Know","steam_id":76561198841011430,"connected_time":248000000000,"state":"active","ping":72}]},{"server_id":114,"name":"Uncletopia | London | 2 | All Maps","name_short":"lon-2","host":"lon-1.uk.uncletopia.com","port":27025,"enabled":true,"region":"eu","cc":"gb","latitude":51.509865,"longitude":-0.118092,"reserved":0,"last_update":"0001-01-01T00:00:00Z","name_a2s":"Uncletopia | London | 2 | All Maps","protocol":17,"map":"pl_upward","folder":"tf","game":"Team Fortress","app_id":440,"player_count":24,"max_players":24,"Bots":0,"server_type":"Dedicated","server_os":"Linux","password":true,"vac":true,"version":"7882260","steam_id":85568392924470941,"keywords":["nocrits","nodmgspread","payload","uncletopia"],"game_id":440,"stv_port":27026,"stv_name":"Uncletopia | London | 2 | All Maps | STV","players":[{"user_id":125,"name":"UnusedEngine","steam_id":76561199281868902,"connected_time":11282000000000,"state":"active","ping":44},{"user_id":297,"name":"Fizik","steam_id":76561198065548086,"connected_time":1999000000000,"state":"active","ping":60},{"user_id":299,"name":"ldshwt","steam_id":76561198090364357,"connected_time":1891000000000,"state":"active","ping":60},{"user_id":211,"name":"Weebot00","steam_id":76561199479204459,"connected_time":5600000000000,"state":"active","ping":58},{"user_id":267,"name":"Voks_","steam_id":76561198159687785,"connected_time":2844000000000,"state":"active","ping":72},{"user_id":298,"name":"Flying skyhigh","steam_id":76561198372971096,"connected_time":1992000000000,"state":"active","ping":67},{"user_id":176,"name":"Chief Executive Officer of Sex","steam_id":76561198385989487,"connected_time":7111000000000,"state":"active","ping":99},{"user_id":209,"name":"Gregory","steam_id":76561198970302963,"connected_time":5792000000000,"state":"active","ping":71},{"user_id":312,"name":"dog","steam_id":76561198063919822,"connected_time":347000000000,"state":"active","ping":33},{"user_id":36,"name":"Gravy","steam_id":76561198029548074,"connected_time":17187000000000,"state":"active","ping":58},{"user_id":305,"name":"After8","steam_id":76561198090750865,"connected_time":981000000000,"state":"active","ping":73},{"user_id":310,"name":"astigmatic","steam_id":76561199103959197,"connected_time":513000000000,"state":"active","ping":102},{"user_id":304,"name":"Suspicious Viktor","steam_id":76561198136496249,"connected_time":1257000000000,"state":"active","ping":64},{"user_id":314,"name":"Astyloblatta","steam_id":76561199222909666,"connected_time":131000000000,"state":"active","ping":74},{"user_id":215,"name":"Syd","steam_id":76561198020515027,"connected_time":5316000000000,"state":"active","ping":90},{"user_id":300,"name":"Sylvanas","steam_id":76561198154904165,"connected_time":1875000000000,"state":"active","ping":107},{"user_id":303,"name":"Makłowicz","steam_id":76561198281831506,"connected_time":1298000000000,"state":"active","ping":97},{"user_id":230,"name":"the least schizo med main","steam_id":76561198048530109,"connected_time":3708000000000,"state":"active","ping":75},{"user_id":203,"name":"DelaNo","steam_id":76561199125086655,"connected_time":5942000000000,"state":"active","ping":38},{"user_id":234,"name":"HerrMyrddin","steam_id":76561198045778215,"connected_time":3567000000000,"state":"active","ping":67},{"user_id":288,"name":"the honey monster","steam_id":76561198012351808,"connected_time":2399000000000,"state":"active","ping":50},{"user_id":313,"name":"Pancakes","steam_id":76561198196259989,"connected_time":175000000000,"state":"active","ping":51},{"user_id":232,"name":"Sixie","steam_id":76561198251675360,"connected_time":3682000000000,"state":"active","ping":51},{"user_id":225,"name":"Meddler","steam_id":76561198033001402,"connected_time":4251000000000,"state":"active","ping":44}]},{"server_id":320,"name":"Uncletopia | London | 3 | All Maps","name_short":"lon-3","host":"lon-1.uk.uncletopia.com","port":27035,"enabled":true,"region":"eu","cc":"gb","latitude":51.509865,"longitude":-0.118092,"reserved":0,"last_update":"0001-01-01T00:00:00Z","name_a2s":"Uncletopia | London | 3 | All Maps","protocol":17,"map":"pl_upward","folder":"tf","game":"Team Fortress","app_id":440,"player_count":24,"max_players":24,"Bots":0,"server_type":"Dedicated","server_os":"Linux","password":true,"vac":true,"version":"7882260","steam_id":85568392924510192,"keywords":["nocrits","nodmgspread","payload","uncletopia"],"game_id":440,"stv_port":27036,"stv_name":"Uncletopia | London | 3 | All Maps | STV","players":[{"user_id":672,"name":"Sande","steam_id":76561198275239290,"connected_time":1878000000000,"state":"active","ping":84},{"user_id":691,"name":"turn the fridge on","steam_id":76561199480942903,"connected_time":714000000000,"state":"active","ping":75},{"user_id":673,"name":"MrBigStu234","steam_id":76561198211599767,"connected_time":1803000000000,"state":"active","ping":51},{"user_id":654,"name":"OldCentury","steam_id":76561198061616092,"connected_time":2498000000000,"state":"active","ping":60},{"user_id":692,"name":"TheBeardedM1G","steam_id":76561198040208946,"connected_time":660000000000,"state":"active","ping":45},{"user_id":633,"name":"Lyncurion","steam_id":76561199260022725,"connected_time":4071000000000,"state":"active","ping":88},{"user_id":656,"name":"Badger","steam_id":76561198022347155,"connected_time":2435000000000,"state":"active","ping":58},{"user_id":670,"name":"BD[PL]","steam_id":76561198115995871,"connected_time":1919000000000,"state":"active","ping":90},{"user_id":698,"name":"BomberNote","steam_id":76561198085392317,"connected_time":266000000000,"state":"active","ping":90},{"user_id":687,"name":"Thobias18","steam_id":76561198232561380,"connected_time":1300000000000,"state":"active","ping":103},{"user_id":690,"name":"Ecy","steam_id":76561198110756682,"connected_time":1002000000000,"state":"active","ping":54},{"user_id":676,"name":"D_Ink","steam_id":76561198267716662,"connected_time":1684000000000,"state":"active","ping":35},{"user_id":695,"name":"Rolloden","steam_id":76561198069414404,"connected_time":377000000000,"state":"active","ping":73},{"user_id":699,"name":"Mike","steam_id":76561198228455736,"connected_time":200000000000,"state":"active","ping":47},{"user_id":651,"name":"TPC","steam_id":76561198127380768,"connected_time":3136000000000,"state":"active","ping":64},{"user_id":664,"name":"dogs_drink_water","steam_id":76561198296630670,"connected_time":2116000000000,"state":"active","ping":69},{"user_id":688,"name":"AproX","steam_id":76561198880652045,"connected_time":1280000000000,"state":"active","ping":111},{"user_id":517,"name":"fence_","steam_id":76561198150386379,"connected_time":12518000000000,"state":"active","ping":45},{"user_id":597,"name":"Lux","steam_id":76561198060417740,"connected_time":6635000000000,"state":"active","ping":48},{"user_id":689,"name":"Snake-chan","steam_id":76561199044755854,"connected_time":1059000000000,"state":"active","ping":81},{"user_id":694,"name":"Gryoss","steam_id":76561197999837111,"connected_time":581000000000,"state":"active","ping":111},{"user_id":700,"name":"Juiceydough","steam_id":76561197997323419,"connected_time":10000000000,"state":"active","ping":100},{"user_id":668,"name":"Mega","steam_id":76561197970389664,"connected_time":1951000000000,"state":"active","ping":51},{"user_id":697,"name":"GuSkand","steam_id":76561198043775605,"connected_time":358000000000,"state":"active","ping":88}]},{"server_id":321,"name":"Uncletopia | London | 4 | All Maps","name_short":"lon-4","host":"lon-1.uk.uncletopia.com","port":27045,"enabled":true,"region":"eu","cc":"gb","latitude":51.509865,"longitude":-0.118092,"reserved":0,"last_update":"0001-01-01T00:00:00Z","name_a2s":"Uncletopia | London | 4 | All Maps","protocol":17,"map":"pl_borneo","folder":"tf","game":"Team Fortress","app_id":440,"player_count":23,"max_players":24,"Bots":0,"server_type":"Dedicated","server_os":"Linux","password":true,"vac":true,"version":"7882260","steam_id":85568392924510193,"keywords":["nocrits","nodmgspread","payload","uncletopia"],"game_id":440,"stv_port":27046,"stv_name":"Uncletopia | London | 4 | All Maps | STV","players":[{"user_id":534,"name":"proxac","steam_id":76561198851157897,"connected_time":587000000000,"state":"active","ping":67},{"user_id":531,"name":"Chicken pot pie","steam_id":76561198084997090,"connected_time":779000000000,"state":"active","ping":41},{"user_id":485,"name":"Fu Manchu","steam_id":76561197995224539,"connected_time":3429000000000,"state":"active","ping":64},{"user_id":509,"name":"mumbler","steam_id":76561197970641239,"connected_time":2184000000000,"state":"active","ping":52},{"user_id":503,"name":"PrimeTarget","steam_id":76561198046409289,"connected_time":2644000000000,"state":"active","ping":86},{"user_id":477,"name":"Orbit","steam_id":76561198242999878,"connected_time":3902000000000,"state":"active","ping":53},{"user_id":439,"name":"monkeyraper","steam_id":76561197996798464,"connected_time":6763000000000,"state":"active","ping":74},{"user_id":532,"name":"execution by excessive cum","steam_id":76561198329640236,"connected_time":759000000000,"state":"active","ping":46},{"user_id":515,"name":"clunk","steam_id":76561198836460767,"connected_time":2030000000000,"state":"active","ping":72},{"user_id":525,"name":"Pefor","steam_id":76561199477114157,"connected_time":1525000000000,"state":"active","ping":131},{"user_id":522,"name":"Thing","steam_id":76561197997904403,"connected_time":1597000000000,"state":"active","ping":92},{"user_id":526,"name":"The T-Shirt Hater","steam_id":76561198084918608,"connected_time":1224000000000,"state":"active","ping":60},{"user_id":513,"name":"Baton De Leon","steam_id":76561198353944785,"connected_time":2074000000000,"state":"active","ping":89},{"user_id":536,"name":"Epickario","steam_id":76561199068338969,"connected_time":404000000000,"state":"active","ping":58},{"user_id":528,"name":"James","steam_id":76561198168882012,"connected_time":1035000000000,"state":"active","ping":54},{"user_id":502,"name":"beheading video from 2009","steam_id":76561198834897089,"connected_time":2746000000000,"state":"active","ping":71},{"user_id":467,"name":"biohazard.pt","steam_id":76561198088367808,"connected_time":4796000000000,"state":"active","ping":70},{"user_id":537,"name":"Joe12000","steam_id":76561198160817969,"connected_time":393000000000,"state":"active","ping":73},{"user_id":539,"name":"Tanner Jarring","steam_id":76561198172024365,"connected_time":104000000000,"state":"active","ping":136},{"user_id":471,"name":"Pai Gregório","steam_id":76561197998349793,"connected_time":4530000000000,"state":"active","ping":62},{"user_id":520,"name":"powej","steam_id":76561198056381418,"connected_time":1782000000000,"state":"active","ping":45},{"user_id":494,"name":"kaelan","steam_id":76561198001425310,"connected_time":3351000000000,"state":"active","ping":74},{"user_id":535,"name":"Ptahotep","steam_id":76561198008708645,"connected_time":584000000000,"state":"active","ping":49}]},{"server_id":21,"name":"Uncletopia | London | 5 | All Maps","name_short":"lon-5","host":"lon-1.uk.uncletopia.com","port":27055,"enabled":true,"region":"eu","cc":"gb","latitude":51.509865,"longitude":-0.118092,"reserved":0,"last_update":"0001-01-01T00:00:00Z","name_a2s":"Uncletopia | London | 5 | All Maps","protocol":17,"map":"ctf_2fort","folder":"tf","game":"Team Fortress","app_id":440,"player_count":6,"max_players":24,"Bots":0,"server_type":"Dedicated","server_os":"Linux","password":true,"vac":true,"version":"7882260","steam_id":85568392924742829,"keywords":["ctf","nocrits","nodmgspread","uncletopia"],"game_id":440,"stv_port":27056,"stv_name":"Uncletopia | London | 5 | All Maps | STV","players":[{"user_id":93,"name":"Cezarion","steam_id":76561198392507893,"connected_time":1462000000000,"state":"active","ping":77},{"user_id":91,"name":"unforeseen consequences","steam_id":76561198377702281,"connected_time":2743000000000,"state":"active","ping":51},{"user_id":92,"name":"Raine","steam_id":76561198098860903,"connected_time":2014000000000,"state":"active","ping":60},{"user_id":83,"name":"Spectre","steam_id":76561198163819482,"connected_time":3280000000000,"state":"active","ping":67},{"user_id":87,"name":"Banatical Bean","steam_id":76561198122356617,"connected_time":3170000000000,"state":"active","ping":56},{"user_id":88,"name":"mi cara cuando","steam_id":76561199387584010,"connected_time":3139000000000,"state":"active","ping":82}]},{"server_id":22,"name":"Uncletopia | London | 6 | All Maps","name_short":"lon-6","host":"lon-1.uk.uncletopia.com","port":27065,"enabled":true,"region":"eu","cc":"gb","latitude":51.509865,"longitude":-0.118092,"reserved":0,"last_update":"0001-01-01T00:00:00Z","name_a2s":"Uncletopia | London | 6 | All Maps","protocol":17,"map":"cp_dustbowl","folder":"tf","game":"Team Fortress","app_id":440,"player_count":23,"max_players":24,"Bots":0,"server_type":"Dedicated","server_os":"Linux","password":true,"vac":true,"version":"7882260","steam_id":85568392924742830,"keywords":["cp","nocrits","nodmgspread","uncletopia"],"game_id":440,"stv_port":27066,"stv_name":"Uncletopia | London | 6 | All Maps | STV","players":[{"user_id":541,"name":"Dr Sex","steam_id":76561198029044617,"connected_time":3575000000000,"state":"active","ping":49},{"user_id":558,"name":"MEDiUM","steam_id":76561198112328561,"connected_time":2283000000000,"state":"active","ping":85},{"user_id":581,"name":"Magos Tranquility","steam_id":76561198040184873,"connected_time":675000000000,"state":"active","ping":81},{"user_id":568,"name":"Malte","steam_id":76561198326324739,"connected_time":1732000000000,"state":"active","ping":61},{"user_id":594,"name":"BingusDingus","steam_id":76561198310983903,"connected_time":132000000000,"state":"active","ping":49},{"user_id":540,"name":"that fat croc from donkey kong","steam_id":76561198159172495,"connected_time":3609000000000,"state":"active","ping":85},{"user_id":582,"name":"Setiago","steam_id":76561198060770498,"connected_time":552000000000,"state":"active","ping":69},{"user_id":592,"name":"dilbertron","steam_id":76561198172707783,"connected_time":206000000000,"state":"active","ping":45},{"user_id":524,"name":"Lessoz","steam_id":76561199211572036,"connected_time":4284000000000,"state":"active","ping":89},{"user_id":590,"name":"Beri The Catthem","steam_id":76561198988363799,"connected_time":370000000000,"state":"active","ping":56},{"user_id":403,"name":"Myrmodion","steam_id":76561198054746247,"connected_time":12730000000000,"state":"active","ping":76},{"user_id":595,"name":"Soaya","steam_id":76561199101510855,"connected_time":111000000000,"state":"active","ping":45},{"user_id":584,"name":"Claw","steam_id":76561198060985181,"connected_time":509000000000,"state":"active","ping":57},{"user_id":575,"name":"☁ Lou1smeister ☁","steam_id":76561198004032968,"connected_time":1396000000000,"state":"active","ping":68},{"user_id":596,"name":"Malai","steam_id":76561198062537014,"connected_time":47000000000,"state":"active","ping":65},{"user_id":574,"name":"randompixel","steam_id":76561198003941207,"connected_time":1511000000000,"state":"active","ping":59},{"user_id":556,"name":"Uncle Owen","steam_id":76561198157999291,"connected_time":2841000000000,"state":"active","ping":81},{"user_id":586,"name":"Donny","steam_id":76561198317950036,"connected_time":484000000000,"state":"active","ping":94},{"user_id":597,"name":"F","steam_id":76561199149462792,"connected_time":46000000000,"state":"active","ping":61},{"user_id":587,"name":"mkwii","steam_id":76561198062507768,"connected_time":459000000000,"state":"active","ping":69},{"user_id":588,"name":"Gun Spy","steam_id":76561198112689672,"connected_time":442000000000,"state":"active","ping":41},{"user_id":537,"name":"Xiqui","steam_id":76561198818386611,"connected_time":3993000000000,"state":"active","ping":92},{"user_id":591,"name":"Roza The Catgirl","steam_id":76561198303232001,"connected_time":280000000000,"state":"active","ping":55}]},{"server_id":40,"name":"Uncletopia | London | 7 | No Payload","name_short":"lon-7","host":"lon-1.uk.uncletopia.com","port":27075,"enabled":true,"region":"eu","cc":"gb","latitude":51.509865,"longitude":-0.118092,"reserved":0,"last_update":"0001-01-01T00:00:00Z","name_a2s":"Uncletopia | London | 7 | No Payload","protocol":17,"map":"koth_sawmill","folder":"tf","game":"Team Fortress","app_id":440,"player_count":7,"max_players":24,"Bots":0,"server_type":"Dedicated","server_os":"Linux","password":true,"vac":true,"version":"7882260","steam_id":85568392924964314,"keywords":["cp","nocrits","nodmgspread","uncletopia"],"game_id":440,"stv_port":27076,"stv_name":"Uncletopia | London | 7 | No Payload | STV","players":[{"user_id":352,"name":"Iron","steam_id":76561198149134643,"connected_time":62000000000,"state":"active","ping":47},{"user_id":341,"name":"Talvy","steam_id":76561198009083535,"connected_time":1949000000000,"state":"active","ping":88},{"user_id":312,"name":"antnt","steam_id":76561198112546748,"connected_time":6357000000000,"state":"active","ping":44},{"user_id":274,"name":"Nyhde","steam_id":76561198012771416,"connected_time":8799000000000,"state":"active","ping":110},{"user_id":353,"name":"Le Chevalier Pingouin","steam_id":76561198221355000,"connected_time":35000000000,"state":"active","ping":36},{"user_id":176,"name":"IndigoJones","steam_id":76561198050284262,"connected_time":14748000000000,"state":"active","ping":44},{"user_id":334,"name":"WOW i'm dead","steam_id":76561199082267619,"connected_time":2566000000000,"state":"active","ping":84}]},{"server_id":41,"name":"Uncletopia | London | 8 | Community","name_short":"lon-8","host":"lon-1.uk.uncletopia.com","port":27085,"enabled":true,"region":"eu","cc":"gb","latitude":51.509865,"longitude":-0.118092,"reserved":0,"last_update":"0001-01-01T00:00:00Z","name_a2s":"Uncletopia | London | 8 | Community","protocol":17,"map":"workshop/koth_slaughter_rc1.ugc1712845210","folder":"tf","game":"Team Fortress","app_id":440,"player_count":1,"max_players":24,"Bots":0,"server_type":"Dedicated","server_os":"Linux","password":true,"vac":true,"version":"7882260","steam_id":85568392924964315,"keywords":["cp","nocrits","nodmgspread","uncletopia"],"game_id":440,"stv_port":27086,"stv_name":"Uncletopia | London | 8 | Community | STV","players":[{"user_id":286,"name":"k3n8k1","steam_id":76561199185253785,"connected_time":12000000000,"state":"spawning","ping":271}]},{"server_id":300,"name":"Uncletopia | Montréal | 1 | All Maps","name_short":"mtl-1","host":"mtl-1.ca.uncletopia.com","port":27015,"enabled":true,"region":"us-east","cc":"ca","latitude":45.50889,"longitude":-73.56167,"reserved":0,"last_update":"0001-01-01T00:00:00Z","name_a2s":"Uncletopia | Montréal | 1 | All Maps","protocol":17,"map":"pl_frontier_final","folder":"tf","game":"Team Fortress","app_id":440,"player_count":1,"max_players":24,"Bots":0,"server_type":"Dedicated","server_os":"Linux","password":true,"vac":true,"version":"7882260","steam_id":85568392924500087,"keywords":["nocrits","nodmgspread","payload","uncletopia"],"game_id":440,"stv_port":27016,"stv_name":"Uncletopia | Montréal | 1 | All Maps | STV","players":[{"user_id":7,"name":"Strange Diplomat","steam_id":76561198428191920,"connected_time":5000000000,"state":"spawning","ping":47}]},{"server_id":301,"name":"Uncletopia | Montréal | 2 | All Maps","name_short":"mtl-2","host":"mtl-1.ca.uncletopia.com","port":27025,"enabled":true,"region":"us-east","cc":"ca","latitude":45.50889,"longitude":-73.56167,"reserved":0,"last_update":"0001-01-01T00:00:00Z","name_a2s":"Uncletopia | Montréal | 2 | All Maps","protocol":17,"map":"koth_cascade","folder":"tf","game":"Team Fortress","app_id":440,"player_count":0,"max_players":24,"Bots":0,"server_type":"Dedicated","server_os":"Linux","password":true,"vac":true,"version":"7882260","steam_id":85568392924500088,"keywords":["cp","nocrits","nodmgspread","uncletopia"],"game_id":440,"stv_port":27026,"stv_name":"Uncletopia | Montréal | 2 | All Maps | STV","players":null},{"server_id":302,"name":"Uncletopia | Montréal | 3 | All Maps","name_short":"mtl-3","host":"mtl-1.ca.uncletopia.com","port":27035,"enabled":true,"region":"us-east","cc":"ca","latitude":45.50889,"longitude":-73.56167,"reserved":0,"last_update":"0001-01-01T00:00:00Z","name_a2s":"Uncletopia | Montréal | 3 | All Maps","protocol":17,"map":"koth_harvest_final","folder":"tf","game":"Team Fortress","app_id":440,"player_count":0,"max_players":24,"Bots":0,"server_type":"Dedicated","server_os":"Linux","password":true,"vac":true,"version":"7882260","steam_id":85568392924500089,"keywords":["cp","nocrits","nodmgspread","uncletopia"],"game_id":440,"stv_port":27036,"stv_name":"Uncletopia | Montréal | 3 | All Maps | STV","players":null},{"server_id":303,"name":"Uncletopia | Montréal | 4 | No Payload","name_short":"mtl-4","host":"mtl-1.ca.uncletopia.com","port":27045,"enabled":true,"region":"us-east","cc":"ca","latitude":45.50889,"longitude":-73.56167,"reserved":0,"last_update":"0001-01-01T00:00:00Z","name_a2s":"Uncletopia | Montréal | 4 | No Payload","protocol":17,"map":"koth_highpass","folder":"tf","game":"Team Fortress","app_id":440,"player_count":0,"max_players":24,"Bots":0,"server_type":"Dedicated","server_os":"Linux","password":true,"vac":true,"version":"7882260","steam_id":85568392924500090,"keywords":["cp","nocrits","nodmgspread","uncletopia"],"game_id":440,"stv_port":27046,"stv_name":"Uncletopia | Montréal | 4 | No Payload | STV","players":null},{"server_id":13,"name":"Uncletopia | New York City | 1 | All Maps","name_short":"nyc-1","host":"nyc-1.us.uncletopia.com","port":27015,"enabled":true,"region":"us-east","cc":"us","latitude":40.73061,"longitude":-73.93524,"reserved":0,"last_update":"0001-01-01T00:00:00Z","name_a2s":"Uncletopia | New York City | 1 | All Maps","protocol":17,"map":"pl_badwater","folder":"tf","game":"Team Fortress","app_id":440,"player_count":24,"max_players":24,"Bots":0,"server_type":"Dedicated","server_os":"Linux","password":true,"vac":true,"version":"7882260","steam_id":85568392924469993,"keywords":["nocrits","nodmgspread","payload","uncletopia"],"game_id":440,"stv_port":27016,"stv_name":"Uncletopia | New York City | 1 | All Maps | STV","players":[{"user_id":431,"name":"Alyx","steam_id":76561199055651487,"connected_time":481000000000,"state":"active","ping":59},{"user_id":373,"name":"Combine Carl #farmville","steam_id":76561198305740611,"connected_time":4808000000000,"state":"active","ping":92},{"user_id":406,"name":"Timon's high on crack cocaine!","steam_id":76561198180396430,"connected_time":1682000000000,"state":"active","ping":53},{"user_id":390,"name":"payload","steam_id":76561198063475894,"connected_time":3762000000000,"state":"active","ping":67},{"user_id":427,"name":"Hoenut","steam_id":76561198079676597,"connected_time":605000000000,"state":"active","ping":99},{"user_id":421,"name":"tydogzilla","steam_id":76561198054254518,"connected_time":1010000000000,"state":"active","ping":49},{"user_id":407,"name":"meat glasses","steam_id":76561198046742645,"connected_time":1678000000000,"state":"active","ping":59},{"user_id":410,"name":"Provocator","steam_id":76561197961830410,"connected_time":1640000000000,"state":"active","ping":100},{"user_id":393,"name":"mayo","steam_id":76561198964101426,"connected_time":3673000000000,"state":"active","ping":43},{"user_id":428,"name":"Poppeloco","steam_id":76561199201527202,"connected_time":593000000000,"state":"active","ping":163},{"user_id":377,"name":"Syrix","steam_id":76561198017328672,"connected_time":4514000000000,"state":"active","ping":91},{"user_id":432,"name":"drewskidoo","steam_id":76561198012117488,"connected_time":410000000000,"state":"active","ping":54},{"user_id":435,"name":"Diet Cum Guzzler","steam_id":76561198124333199,"connected_time":63000000000,"state":"active","ping":124},{"user_id":425,"name":"Menacing Pile of Frogs","steam_id":76561198360134800,"connected_time":736000000000,"state":"active","ping":58},{"user_id":370,"name":"Sensitive Shooter","steam_id":76561198041439581,"connected_time":4926000000000,"state":"active","ping":57},{"user_id":423,"name":"twitch.tv/frimpimy","steam_id":76561198142605675,"connected_time":810000000000,"state":"active","ping":71},{"user_id":344,"name":"Fishandfish","steam_id":76561198298483804,"connected_time":7696000000000,"state":"active","ping":115},{"user_id":294,"name":"Pockets","steam_id":76561198001742296,"connected_time":10715000000000,"state":"active","ping":78},{"user_id":430,"name":"Ghostmeal","steam_id":76561198042380299,"connected_time":538000000000,"state":"active","ping":90},{"user_id":426,"name":"Moss","steam_id":76561198338718491,"connected_time":716000000000,"state":"active","ping":60},{"user_id":412,"name":"concrete_car","steam_id":76561198388207363,"connected_time":1612000000000,"state":"active","ping":69},{"user_id":415,"name":"emseaeye","steam_id":76561198161499803,"connected_time":1196000000000,"state":"active","ping":60},{"user_id":380,"name":"glue sniffer","steam_id":76561198044689778,"connected_time":4247000000000,"state":"active","ping":46},{"user_id":434,"name":"The_Microwave","steam_id":76561199425842522,"connected_time":84000000000,"state":"active","ping":116}]},{"server_id":14,"name":"Uncletopia | New York City | 2 | All Maps","name_short":"nyc-2","host":"nyc-1.us.uncletopia.com","port":27025,"enabled":true,"region":"us-east","cc":"us","latitude":40.73061,"longitude":-73.93524,"reserved":0,"last_update":"0001-01-01T00:00:00Z","name_a2s":"Uncletopia | New York City | 2 | All Maps","protocol":17,"map":"pl_pier","folder":"tf","game":"Team Fortress","app_id":440,"player_count":24,"max_players":24,"Bots":0,"server_type":"Dedicated","server_os":"Linux","password":true,"vac":true,"version":"7882260","steam_id":85568392924469994,"keywords":["nocrits","nodmgspread","payload","uncletopia"],"game_id":440,"stv_port":27026,"stv_name":"Uncletopia | New York City | 2 | All Maps | STV","players":[{"user_id":320,"name":"[GUT] RiDiK®","steam_id":76561197969756446,"connected_time":2200000000000,"state":"active","ping":72},{"user_id":339,"name":"ceres","steam_id":76561198291976960,"connected_time":249000000000,"state":"active","ping":150},{"user_id":340,"name":"a literal slave","steam_id":76561199389283507,"connected_time":217000000000,"state":"active","ping":57},{"user_id":323,"name":"The Power","steam_id":76561198060566884,"connected_time":1422000000000,"state":"active","ping":124},{"user_id":332,"name":"Red Future","steam_id":76561198205420063,"connected_time":807000000000,"state":"active","ping":85},{"user_id":328,"name":"Feesh","steam_id":76561198817024734,"connected_time":1066000000000,"state":"active","ping":46},{"user_id":336,"name":"Homunculus Gambino","steam_id":76561198158433378,"connected_time":553000000000,"state":"active","ping":65},{"user_id":279,"name":"Virtual Zorua","steam_id":76561198196180302,"connected_time":4085000000000,"state":"active","ping":61},{"user_id":329,"name":"Feekloin","steam_id":76561198323744506,"connected_time":1035000000000,"state":"active","ping":73},{"user_id":331,"name":"shploopie","steam_id":76561198264289810,"connected_time":818000000000,"state":"active","ping":63},{"user_id":337,"name":"Just a normal depressing  f2p","steam_id":76561199388826335,"connected_time":523000000000,"state":"active","ping":63},{"user_id":338,"name":"tntexplosion","steam_id":76561199090152308,"connected_time":501000000000,"state":"active","ping":109},{"user_id":300,"name":"Sableye","steam_id":76561198061247147,"connected_time":3282000000000,"state":"active","ping":74},{"user_id":285,"name":"Chechens Spotted","steam_id":76561199028910893,"connected_time":3611000000000,"state":"active","ping":72},{"user_id":341,"name":"Ja","steam_id":76561198396340174,"connected_time":174000000000,"state":"active","ping":60},{"user_id":334,"name":"Two-Teste Tommy","steam_id":76561198064308936,"connected_time":763000000000,"state":"active","ping":58},{"user_id":304,"name":"MLWeegee","steam_id":76561198096399823,"connected_time":3027000000000,"state":"active","ping":50},{"user_id":321,"name":"Mossed Ball","steam_id":76561199031256509,"connected_time":1964000000000,"state":"active","ping":76},{"user_id":330,"name":"thirty rats in a trenchcoat","steam_id":76561199022424890,"connected_time":1024000000000,"state":"active","ping":85},{"user_id":315,"name":"Nerrrd_","steam_id":76561198870129960,"connected_time":2599000000000,"state":"active","ping":42},{"user_id":342,"name":"Hope","steam_id":76561199201900779,"connected_time":169000000000,"state":"active","ping":65},{"user_id":318,"name":"n_sacco","steam_id":76561198432818448,"connected_time":2395000000000,"state":"active","ping":70},{"user_id":316,"name":"Rori","steam_id":76561198052582902,"connected_time":2576000000000,"state":"active","ping":44},{"user_id":343,"name":"☹","steam_id":76561198804763186,"connected_time":145000000000,"state":"active","ping":45}]},{"server_id":15,"name":"Uncletopia | New York City | 3 | Stopwatch Beta","name_short":"nyc-3","host":"nyc-1.us.uncletopia.com","port":27035,"enabled":true,"region":"us-east","cc":"us","latitude":40.73061,"longitude":-73.93524,"reserved":0,"last_update":"0001-01-01T00:00:00Z","name_a2s":"Uncletopia | New York City | 3 | Stopwatch Beta","protocol":17,"map":"workshop/pl_badwater_pro_v12.ugc2142942074","folder":"tf","game":"Team Fortress","app_id":440,"player_count":0,"max_players":24,"Bots":0,"server_type":"Dedicated","server_os":"Linux","password":true,"vac":true,"version":"7882260","steam_id":85568392924742820,"keywords":["nocrits","nodmgspread","payload","uncletopia"],"game_id":440,"stv_port":27036,"stv_name":"Uncletopia | New York City | 3 | Stopwatch Beta | STV","players":null},{"server_id":16,"name":"Uncletopia | New York City | 4 | Community","name_short":"nyc-4","host":"nyc-1.us.uncletopia.com","port":27045,"enabled":true,"region":"us-east","cc":"us","latitude":40.73061,"longitude":-73.93524,"reserved":0,"last_update":"0001-01-01T00:00:00Z","name_a2s":"Uncletopia | New York City | 4 | Community","protocol":17,"map":"workshop/cp_snowbase_b18.ugc2081770490","folder":"tf","game":"Team Fortress","app_id":440,"player_count":0,"max_players":24,"Bots":0,"server_type":"Dedicated","server_os":"Linux","password":true,"vac":true,"version":"7882260","steam_id":85568392924742821,"keywords":["cp","nocrits","nodmgspread","uncletopia"],"game_id":440,"stv_port":27046,"stv_name":"Uncletopia | New York City | 4 | Community | STV","players":null},{"server_id":142,"name":"Uncletopia | São Paulo | 1 | All Maps","name_short":"sao-1","host":"sao-1.br.uncletopia.com","port":27015,"enabled":true,"region":"sa","cc":"br","latitude":-23.533773,"longitude":-46.62529,"reserved":0,"last_update":"0001-01-01T00:00:00Z","name_a2s":"Uncletopia | São Paulo | 1 | All Maps","protocol":17,"map":"koth_viaduct","folder":"tf","game":"Team Fortress","app_id":440,"player_count":0,"max_players":24,"Bots":0,"server_type":"Dedicated","server_os":"Linux","password":true,"vac":true,"version":"7882260","steam_id":85568392924469996,"keywords":["cp","nocrits","nodmgspread","uncletopia"],"game_id":440,"stv_port":27016,"stv_name":"Uncletopia | São Paulo | 1 | All Maps | STV","players":null},{"server_id":143,"name":"Uncletopia | São Paulo | 2 | All Maps","name_short":"sao-2","host":"sao-2.br.uncletopia.com","port":27015,"enabled":true,"region":"sa","cc":"br","latitude":-23.533773,"longitude":-46.62529,"reserved":0,"last_update":"0001-01-01T00:00:00Z","name_a2s":"Uncletopia | São Paulo | 2 | All Maps","protocol":17,"map":"pl_upward","folder":"tf","game":"Team Fortress","app_id":440,"player_count":23,"max_players":24,"Bots":0,"server_type":"Dedicated","server_os":"Linux","password":true,"vac":true,"version":"7882260","steam_id":85568392924485349,"keywords":["nocrits","nodmgspread","payload","uncletopia"],"game_id":440,"stv_port":27016,"stv_name":"Uncletopia | São Paulo | 2 | All Maps | STV","players":[{"user_id":300,"name":"Lizzy","steam_id":76561198280334272,"connected_time":2168000000000,"state":"active","ping":49},{"user_id":318,"name":"Theoddsguy29","steam_id":76561199091865854,"connected_time":1298000000000,"state":"active","ping":100},{"user_id":290,"name":"Biel_","steam_id":76561198409177443,"connected_time":3121000000000,"state":"active","ping":53},{"user_id":326,"name":"Pathetic","steam_id":76561198051056987,"connected_time":844000000000,"state":"active","ping":56},{"user_id":330,"name":"ＥｎｄｅｒＮｅｃｒｏ","steam_id":76561198044304293,"connected_time":495000000000,"state":"active","ping":35},{"user_id":332,"name":"marmota","steam_id":76561198068305045,"connected_time":448000000000,"state":"active","ping":57},{"user_id":333,"name":"Dark","steam_id":76561198329194526,"connected_time":433000000000,"state":"active","ping":45},{"user_id":327,"name":"Gigi","steam_id":76561198348971878,"connected_time":834000000000,"state":"active","ping":60},{"user_id":324,"name":"jao","steam_id":76561198408082822,"connected_time":884000000000,"state":"active","ping":59},{"user_id":292,"name":"Sanches","steam_id":76561198006932156,"connected_time":3041000000000,"state":"active","ping":76},{"user_id":303,"name":"smoile","steam_id":76561198049427968,"connected_time":2064000000000,"state":"active","ping":52},{"user_id":273,"name":"SPYRYTTS","steam_id":76561197983312920,"connected_time":4123000000000,"state":"active","ping":46},{"user_id":262,"name":"Mackbad","steam_id":76561197993482535,"connected_time":4366000000000,"state":"active","ping":45},{"user_id":304,"name":"Daisy Le Nerd","steam_id":76561198149350087,"connected_time":2039000000000,"state":"active","ping":43},{"user_id":305,"name":"Mikael_01","steam_id":76561199080253129,"connected_time":1912000000000,"state":"active","ping":57},{"user_id":338,"name":"-] K o Я n [-","steam_id":76561197978905832,"connected_time":253000000000,"state":"active","ping":69},{"user_id":334,"name":"ayu","steam_id":76561197977365746,"connected_time":415000000000,"state":"active","ping":46},{"user_id":240,"name":"chuck testa","steam_id":76561199136985273,"connected_time":5305000000000,"state":"active","ping":112},{"user_id":342,"name":"ｅｍｐｔｙ ｌｕｎｇｓ","steam_id":76561197991428853,"connected_time":122000000000,"state":"active","ping":45},{"user_id":340,"name":"cockman","steam_id":76561198929875383,"connected_time":192000000000,"state":"active","ping":96},{"user_id":337,"name":"hansow","steam_id":76561198013212163,"connected_time":298000000000,"state":"active","ping":74},{"user_id":308,"name":"flamenco","steam_id":76561198024557594,"connected_time":1879000000000,"state":"active","ping":91},{"user_id":343,"name":"Brica","steam_id":76561198196324799,"connected_time":41000000000,"state":"active","ping":269}]},{"server_id":7,"name":"Uncletopia | Seattle | 1 | All Maps","name_short":"sea-1","host":"sea-1.us.uncletopia.com","port":27015,"enabled":true,"region":"us-west","cc":"us","latitude":47.608013,"longitude":-122.33517,"reserved":0,"last_update":"0001-01-01T00:00:00Z","name_a2s":"Uncletopia | Seattle | 1 | All Maps","protocol":17,"map":"pl_swiftwater_final1","folder":"tf","game":"Team Fortress","app_id":440,"player_count":24,"max_players":24,"Bots":0,"server_type":"Dedicated","server_os":"Linux","password":true,"vac":true,"version":"7882260","steam_id":85568392924469997,"keywords":["nocrits","nodmgspread","payload","uncletopia"],"game_id":440,"stv_port":27016,"stv_name":"Uncletopia | Seattle | 1 | All Maps | STV","players":[{"user_id":216,"name":"Tightpin","steam_id":76561198042139984,"connected_time":2097000000000,"state":"active","ping":101},{"user_id":116,"name":"MisterManne","steam_id":76561198106598600,"connected_time":11743000000000,"state":"active","ping":57},{"user_id":206,"name":"Slothy","steam_id":76561198967069349,"connected_time":2524000000000,"state":"active","ping":58},{"user_id":234,"name":"Satori Komeiji","steam_id":76561198158211423,"connected_time":569000000000,"state":"active","ping":75},{"user_id":227,"name":"Alltrex","steam_id":76561198202254225,"connected_time":1230000000000,"state":"active","ping":48},{"user_id":226,"name":"Saint Pablo","steam_id":76561198083300159,"connected_time":1315000000000,"state":"active","ping":70},{"user_id":180,"name":"exephur","steam_id":76561198135763234,"connected_time":4412000000000,"state":"active","ping":65},{"user_id":189,"name":"\u003c3Elise\u003c3","steam_id":76561198146435005,"connected_time":4210000000000,"state":"active","ping":73},{"user_id":208,"name":"Fh","steam_id":76561198000903511,"connected_time":2463000000000,"state":"active","ping":75},{"user_id":239,"name":"bocaJ","steam_id":76561198374535092,"connected_time":234000000000,"state":"active","ping":66},{"user_id":232,"name":"Henchie!","steam_id":76561198047567464,"connected_time":723000000000,"state":"active","ping":96},{"user_id":182,"name":"Hindmost","steam_id":76561199081837220,"connected_time":4389000000000,"state":"active","ping":111},{"user_id":212,"name":"jon pickle water","steam_id":76561199036212135,"connected_time":2168000000000,"state":"active","ping":69},{"user_id":238,"name":"Peppy","steam_id":76561198866629645,"connected_time":408000000000,"state":"active","ping":60},{"user_id":215,"name":"Raian","steam_id":76561199138048671,"connected_time":2139000000000,"state":"active","ping":74},{"user_id":230,"name":"What are you doing?!","steam_id":76561198405248691,"connected_time":744000000000,"state":"active","ping":80},{"user_id":233,"name":"spherewithahat","steam_id":76561199122192660,"connected_time":710000000000,"state":"active","ping":121},{"user_id":228,"name":"im trying my best","steam_id":76561198919095185,"connected_time":1222000000000,"state":"active","ping":112},{"user_id":218,"name":"Overvote","steam_id":76561198067641129,"connected_time":2046000000000,"state":"active","ping":55},{"user_id":224,"name":"Themasterman75","steam_id":76561199385573293,"connected_time":1379000000000,"state":"active","ping":69},{"user_id":236,"name":"Smashy","steam_id":76561198030704307,"connected_time":516000000000,"state":"active","ping":63},{"user_id":221,"name":"|404|bh-OD","steam_id":76561198067464803,"connected_time":1729000000000,"state":"active","ping":82},{"user_id":193,"name":"Frank West","steam_id":76561198388032598,"connected_time":3947000000000,"state":"active","ping":64},{"user_id":195,"name":"blinkerton city","steam_id":76561198054270410,"connected_time":3783000000000,"state":"active","ping":54}]},{"server_id":119,"name":"Uncletopia | Seattle | 2 | All Maps","name_short":"sea-2","host":"sea-1.us.uncletopia.com","port":27025,"enabled":true,"region":"us-west","cc":"us","latitude":47.608013,"longitude":-122.33517,"reserved":0,"last_update":"0001-01-01T00:00:00Z","name_a2s":"Uncletopia | Seattle | 2 | All Maps","protocol":17,"map":"cp_altitude","folder":"tf","game":"Team Fortress","app_id":440,"player_count":24,"max_players":24,"Bots":0,"server_type":"Dedicated","server_os":"Linux","password":true,"vac":true,"version":"7882260","steam_id":85568392924469998,"keywords":["cp","nocrits","nodmgspread","uncletopia"],"game_id":440,"stv_port":27026,"stv_name":"Uncletopia | Seattle | 2 | All Maps | STV","players":[{"user_id":118,"name":"reiidaya","steam_id":76561198325306660,"connected_time":2479000000000,"state":"active","ping":54},{"user_id":144,"name":"SnoDot","steam_id":76561198062209970,"connected_time":975000000000,"state":"active","ping":44},{"user_id":137,"name":"Atlas (Skylar)","steam_id":76561198041531774,"connected_time":1448000000000,"state":"active","ping":96},{"user_id":131,"name":"Omegian Lord","steam_id":76561198882368931,"connected_time":1895000000000,"state":"active","ping":75},{"user_id":135,"name":"Heatseeker","steam_id":76561198084093538,"connected_time":1515000000000,"state":"active","ping":88},{"user_id":143,"name":"SAD MOSCOVIA","steam_id":76561198101081520,"connected_time":1223000000000,"state":"active","ping":76},{"user_id":142,"name":"incompetentmedic","steam_id":76561199466073856,"connected_time":1277000000000,"state":"active","ping":113},{"user_id":145,"name":"Silver","steam_id":76561199120117013,"connected_time":900000000000,"state":"active","ping":58},{"user_id":138,"name":"AudaCD","steam_id":76561198202775853,"connected_time":1435000000000,"state":"active","ping":75},{"user_id":127,"name":"Francis Cockrel 2016","steam_id":76561198078391538,"connected_time":2007000000000,"state":"active","ping":106},{"user_id":120,"name":"Jacob Hornberger 2016","steam_id":76561198204549723,"connected_time":2290000000000,"state":"active","ping":106},{"user_id":89,"name":"Greskrendtregk","steam_id":76561197969553142,"connected_time":4285000000000,"state":"active","ping":58},{"user_id":140,"name":"DickTheCock","steam_id":76561198104346849,"connected_time":1380000000000,"state":"active","ping":121},{"user_id":158,"name":"Big Juicy","steam_id":76561198018062350,"connected_time":285000000000,"state":"active","ping":67},{"user_id":146,"name":"dweaver","steam_id":76561198119610135,"connected_time":891000000000,"state":"active","ping":89},{"user_id":152,"name":"teag2","steam_id":76561198076447485,"connected_time":704000000000,"state":"active","ping":88},{"user_id":113,"name":"Shadow Wizard Money Gang","steam_id":76561198149634242,"connected_time":2677000000000,"state":"active","ping":99},{"user_id":159,"name":"Silexos","steam_id":76561198267639877,"connected_time":258000000000,"state":"active","ping":76},{"user_id":148,"name":"skosgo -eg","steam_id":76561197996403345,"connected_time":852000000000,"state":"active","ping":77},{"user_id":149,"name":"Carlos Spartan","steam_id":76561198362047478,"connected_time":819000000000,"state":"active","ping":148},{"user_id":139,"name":"DrD","steam_id":76561198067266383,"connected_time":1432000000000,"state":"active","ping":34},{"user_id":153,"name":"sillyjack","steam_id":76561198844273999,"connected_time":631000000000,"state":"active","ping":43},{"user_id":154,"name":"Nac-Nud","steam_id":76561198804758365,"connected_time":612000000000,"state":"active","ping":156},{"user_id":151,"name":"Camohno","steam_id":76561198283519918,"connected_time":812000000000,"state":"active","ping":73}]},{"server_id":406,"name":"Uncletopia | Seattle | 3 | Stopwatch Beta","name_short":"sea-3","host":"sea-1.us.uncletopia.com","port":27035,"enabled":true,"region":"us-west","cc":"us","latitude":47.608013,"longitude":-122.33517,"reserved":0,"last_update":"0001-01-01T00:00:00Z","name_a2s":"Uncletopia | Seattle | 3 | Stopwatch Beta","protocol":17,"map":"koth_viaduct","folder":"tf","game":"Team Fortress","app_id":440,"player_count":0,"max_players":24,"Bots":0,"server_type":"Dedicated","server_os":"Linux","password":true,"vac":true,"version":"7882260","steam_id":85568392924515217,"keywords":["cp","nocrits","nodmgspread","uncletopia"],"game_id":440,"stv_port":27036,"stv_name":"Uncletopia | Seattle | 3 | Stopwatch Beta | STV","players":null},{"server_id":17,"name":"Uncletopia | San Francisco | 1 | All Maps","name_short":"sfo-1","host":"sfo-1.us.uncletopia.com","port":27015,"enabled":true,"region":"us-west","cc":"us","latitude":37.77397,"longitude":-122.4313,"reserved":0,"last_update":"0001-01-01T00:00:00Z","name_a2s":"Uncletopia | San Francisco | 1 | All Maps","protocol":17,"map":"koth_viaduct","folder":"tf","game":"Team Fortress","app_id":440,"player_count":0,"max_players":24,"Bots":0,"server_type":"Dedicated","server_os":"Linux","password":true,"vac":true,"version":"7882260","steam_id":85568392924469999,"keywords":["cp","nocrits","nodmgspread","uncletopia"],"game_id":440,"stv_port":27016,"stv_name":"Uncletopia | San Francisco | 1 | All Maps | STV","players":null},{"server_id":18,"name":"Uncletopia | San Francisco | 2 | All Maps","name_short":"sfo-2","host":"sfo-1.us.uncletopia.com","port":27025,"enabled":true,"region":"us-west","cc":"us","latitude":37.77397,"longitude":-122.4313,"reserved":0,"last_update":"0001-01-01T00:00:00Z","name_a2s":"Uncletopia | San Francisco | 2 | All Maps","protocol":17,"map":"koth_cascade","folder":"tf","game":"Team Fortress","app_id":440,"player_count":23,"max_players":24,"Bots":0,"server_type":"Dedicated","server_os":"Linux","password":true,"vac":true,"version":"7882260","steam_id":85568392924470000,"keywords":["cp","nocrits","nodmgspread","uncletopia"],"game_id":440,"stv_port":27026,"stv_name":"Uncletopia | San Francisco | 2 | All Maps | STV","players":[{"user_id":503,"name":"Jomdac","steam_id":76561198150447896,"connected_time":805000000000,"state":"active","ping":53},{"user_id":485,"name":"ThatGamingKiwi","steam_id":76561199170522237,"connected_time":3125000000000,"state":"active","ping":128},{"user_id":513,"name":"bonnie the bunny","steam_id":76561199078721319,"connected_time":382000000000,"state":"active","ping":82},{"user_id":505,"name":"GKumo","steam_id":76561198023175868,"connected_time":719000000000,"state":"active","ping":45},{"user_id":478,"name":"kaede :3","steam_id":76561198345528370,"connected_time":3699000000000,"state":"active","ping":44},{"user_id":524,"name":"Scorpion","steam_id":76561198325651066,"connected_time":67000000000,"state":"active","ping":72},{"user_id":470,"name":"cozy","steam_id":76561199044037628,"connected_time":3885000000000,"state":"active","ping":123},{"user_id":522,"name":"RIP LANCE REDDICK","steam_id":76561198099980149,"connected_time":228000000000,"state":"active","ping":51},{"user_id":509,"name":"Team Fortress 2","steam_id":76561198335865111,"connected_time":488000000000,"state":"active","ping":52},{"user_id":510,"name":"Nitrozoid","steam_id":76561198966611813,"connected_time":462000000000,"state":"active","ping":47},{"user_id":511,"name":"Seshreb","steam_id":76561198846614634,"connected_time":460000000000,"state":"active","ping":72},{"user_id":512,"name":"cookypuss","steam_id":76561197961275239,"connected_time":418000000000,"state":"active","ping":55},{"user_id":446,"name":"(Past Tense)","steam_id":76561197996279335,"connected_time":5054000000000,"state":"active","ping":104},{"user_id":460,"name":"dudescore","steam_id":76561199091453555,"connected_time":4130000000000,"state":"active","ping":54},{"user_id":514,"name":"elephant thumb","steam_id":76561198118859752,"connected_time":375000000000,"state":"active","ping":57},{"user_id":515,"name":"fartabsorber","steam_id":76561198127211709,"connected_time":323000000000,"state":"active","ping":118},{"user_id":516,"name":"Drakon","steam_id":76561198078210822,"connected_time":319000000000,"state":"active","ping":71},{"user_id":458,"name":"[ibb™]Shadow20X6-ENGI","steam_id":76561198019292755,"connected_time":4296000000000,"state":"active","ping":66},{"user_id":517,"name":"Jovo","steam_id":76561197993265970,"connected_time":315000000000,"state":"active","ping":56},{"user_id":518,"name":"Jango","steam_id":76561198121922413,"connected_time":304000000000,"state":"active","ping":55},{"user_id":520,"name":"bcizzo","steam_id":76561197994399953,"connected_time":252000000000,"state":"active","ping":51},{"user_id":486,"name":"PinguEnjoyer6","steam_id":76561199186723516,"connected_time":3034000000000,"state":"active","ping":46},{"user_id":453,"name":"helen keller","steam_id":76561197979870540,"connected_time":4910000000000,"state":"active","ping":105}]},{"server_id":19,"name":"Uncletopia | San Francisco | 3 | Stopwatch Beta","name_short":"sfo-3","host":"sfo-1.us.uncletopia.com","port":27035,"enabled":true,"region":"us-west","cc":"us","latitude":37.77397,"longitude":-122.4313,"reserved":0,"last_update":"0001-01-01T00:00:00Z","name_a2s":"Uncletopia | San Francisco | 3 | Stopwatch Beta","protocol":17,"map":"pl_snowycoast","folder":"tf","game":"Team Fortress","app_id":440,"player_count":0,"max_players":24,"Bots":0,"server_type":"Dedicated","server_os":"Linux","password":true,"vac":true,"version":"7882260","steam_id":85568392924742824,"keywords":["nocrits","nodmgspread","payload","uncletopia"],"game_id":440,"stv_port":27036,"stv_name":"Uncletopia | San Francisco | 3 | Stopwatch Beta | STV","players":null},{"server_id":20,"name":"Uncletopia | San Francisco | 4 | Community","name_short":"sfo-4","host":"sfo-1.us.uncletopia.com","port":27045,"enabled":true,"region":"us-west","cc":"us","latitude":37.77397,"longitude":-122.4313,"reserved":0,"last_update":"0001-01-01T00:00:00Z","name_a2s":"Uncletopia | San Francisco | 4 | Community","protocol":17,"map":"workshop/cp_glacier_rc6.ugc2905735376","folder":"tf","game":"Team Fortress","app_id":440,"player_count":0,"max_players":24,"Bots":0,"server_type":"Dedicated","server_os":"Linux","password":true,"vac":true,"version":"7882260","steam_id":85568392924742826,"keywords":["cp","nocrits","nodmgspread","uncletopia"],"game_id":440,"stv_port":27046,"stv_name":"Uncletopia | San Francisco | 4 | Community | STV","players":null},{"server_id":141,"name":"Uncletopia | Sydney | 1 | All Maps","name_short":"syd-1","host":"syd-1.au.uncletopia.com","port":27015,"enabled":true,"region":"au","cc":"au","latitude":-33.865143,"longitude":151.2099,"reserved":0,"last_update":"0001-01-01T00:00:00Z","name_a2s":"Uncletopia | Sydney | 1 | All Maps","protocol":17,"map":"cp_sunshine","folder":"tf","game":"Team Fortress","app_id":440,"player_count":0,"max_players":24,"Bots":0,"server_type":"Dedicated","server_os":"Linux","password":true,"vac":true,"version":"7882260","steam_id":85568392924470001,"keywords":["cp","nocrits","nodmgspread","uncletopia"],"game_id":440,"stv_port":27016,"stv_name":"Uncletopia | Sydney | 1 | All Maps | STV","players":null},{"server_id":123,"name":"Uncletopia | Sydney | 2 | All Maps","name_short":"syd-2","host":"syd-1.au.uncletopia.com","port":27025,"enabled":true,"region":"au","cc":"au","latitude":-33.865143,"longitude":151.2099,"reserved":0,"last_update":"0001-01-01T00:00:00Z","name_a2s":"Uncletopia | Sydney | 2 | All Maps","protocol":17,"map":"cp_snakewater_final1","folder":"tf","game":"Team Fortress","app_id":440,"player_count":0,"max_players":24,"Bots":0,"server_type":"Dedicated","server_os":"Linux","password":true,"vac":true,"version":"7882260","steam_id":85568392924470002,"keywords":["cp","nocrits","nodmgspread","uncletopia"],"game_id":440,"stv_port":27026,"stv_name":"Uncletopia | Sydney | 2 | All Maps | STV","players":null},{"server_id":395,"name":"Uncletopia | Sydney | 3 | All Maps","name_short":"syd-3","host":"syd-1.au.uncletopia.com","port":27035,"enabled":true,"region":"au","cc":"au","latitude":-33.865143,"longitude":151.2099,"reserved":0,"last_update":"0001-01-01T00:00:00Z","name_a2s":"Uncletopia | Sydney | 3 | All Maps","protocol":17,"map":"pl_badwater","folder":"tf","game":"Team Fortress","app_id":440,"player_count":0,"max_players":24,"Bots":0,"server_type":"Dedicated","server_os":"Linux","password":true,"vac":true,"version":"7882260","steam_id":85568392925194467,"keywords":["nocrits","nodmgspread","payload","uncletopia"],"game_id":440,"stv_port":27036,"stv_name":"Uncletopia | Sydney | 3 | All Maps | STV","players":null},{"server_id":396,"name":"Uncletopia | Sydney | 4 | All Maps","name_short":"syd-4","host":"syd-1.au.uncletopia.com","port":27045,"enabled":true,"region":"au","cc":"au","latitude":-33.865143,"longitude":151.2099,"reserved":0,"last_update":"0001-01-01T00:00:00Z","name_a2s":"Uncletopia | Sydney | 4 | All Maps","protocol":17,"map":"cp_altitude","folder":"tf","game":"Team Fortress","app_id":440,"player_count":0,"max_players":24,"Bots":0,"server_type":"Dedicated","server_os":"Linux","password":true,"vac":true,"version":"7882260","steam_id":85568392925397958,"keywords":["cp","nocrits","nodmgspread","uncletopia"],"game_id":440,"stv_port":27046,"stv_name":"Uncletopia | Sydney | 4 | All Maps | STV","players":null},{"server_id":58,"name":"Uncletopia | Sydney | 5 | Stopwatch Beta","name_short":"syd-5","host":"syd-1.au.uncletopia.com","port":27055,"enabled":true,"region":"au","cc":"au","latitude":-33.865143,"longitude":151.2099,"reserved":0,"last_update":"0001-01-01T00:00:00Z","name_a2s":"Uncletopia | Sydney | 5 | Stopwatch Beta","protocol":17,"map":"koth_viaduct","folder":"tf","game":"Team Fortress","app_id":440,"player_count":0,"max_players":24,"Bots":0,"server_type":"Dedicated","server_os":"Linux","password":true,"vac":true,"version":"7882260","steam_id":85568392925397959,"keywords":["cp","nocrits","nodmgspread","uncletopia"],"game_id":440,"stv_port":27056,"stv_name":"Uncletopia | Sydney | 5 | Stopwatch Beta | STV","players":null},{"server_id":59,"name":"Uncletopia | Sydney | 6 | Community","name_short":"syd-6","host":"syd-1.au.uncletopia.com","port":27065,"enabled":true,"region":"au","cc":"au","latitude":-33.865143,"longitude":151.2099,"reserved":0,"last_update":"0001-01-01T00:00:00Z","name_a2s":"Uncletopia | Sydney | 6 | Community","protocol":17,"map":"pl_upward","folder":"tf","game":"Team Fortress","app_id":440,"player_count":6,"max_players":24,"Bots":0,"server_type":"Dedicated","server_os":"Linux","password":true,"vac":true,"version":"7882260","steam_id":85568392925397960,"keywords":["nocrits","nodmgspread","payload","uncletopia"],"game_id":440,"stv_port":27066,"stv_name":"Uncletopia | Sydney | 6 | Community | STV","players":[{"user_id":3,"name":"springroll","steam_id":76561199376385352,"connected_time":1672000000000,"state":"active","ping":59},{"user_id":10,"name":"Chickenwing","steam_id":76561199347103141,"connected_time":110000000000,"state":"active","ping":245},{"user_id":6,"name":"KaiDuck4348","steam_id":76561199060186538,"connected_time":1146000000000,"state":"active","ping":245},{"user_id":7,"name":"Virgineer","steam_id":76561199140814522,"connected_time":697000000000,"state":"active","ping":311},{"user_id":9,"name":"AlphaPro89","steam_id":76561199229380739,"connected_time":433000000000,"state":"active","ping":71}]},{"server_id":49,"name":"Uncletopia | Warsaw | 1 | All Maps","name_short":"waw-1","host":"waw-1.pl.uncletopia.com","port":27015,"enabled":true,"region":"eu","cc":"pl","latitude":52.2297,"longitude":21.017532,"reserved":0,"last_update":"0001-01-01T00:00:00Z","name_a2s":"","protocol":0,"map":"","folder":"","game":"","app_id":0,"player_count":0,"max_players":0,"Bots":0,"server_type":"","server_os":"","password":false,"vac":false,"version":"","steam_id":0,"keywords":null,"game_id":0,"stv_port":0,"stv_name":"","players":null},{"server_id":50,"name":"Uncletopia | Warsaw | 2 | All Maps","name_short":"waw-2","host":"waw-1.pl.uncletopia.com","port":27025,"enabled":true,"region":"eu","cc":"pl","latitude":52.2297,"longitude":21.017532,"reserved":0,"last_update":"0001-01-01T00:00:00Z","name_a2s":"Uncletopia | Warsaw | 2 | All Maps","protocol":17,"map":"koth_viaduct","folder":"tf","game":"Team Fortress","app_id":440,"player_count":0,"max_players":24,"Bots":0,"server_type":"Dedicated","server_os":"Linux","password":true,"vac":true,"version":"7882260","steam_id":85568392925397851,"keywords":["cp","nocrits","nodmgspread","uncletopia"],"game_id":440,"stv_port":27026,"stv_name":"Uncletopia | Warsaw | 2 | All Maps | STV","players":null},{"server_id":51,"name":"Uncletopia | Warsaw | 3 | All Maps","name_short":"waw-3","host":"waw-1.pl.uncletopia.com","port":27035,"enabled":true,"region":"eu","cc":"pl","latitude":52.2297,"longitude":21.017532,"reserved":0,"last_update":"0001-01-01T00:00:00Z","name_a2s":"Uncletopia | Warsaw | 3 | All Maps","protocol":17,"map":"pl_swiftwater_final1","folder":"tf","game":"Team Fortress","app_id":440,"player_count":0,"max_players":24,"Bots":0,"server_type":"Dedicated","server_os":"Linux","password":true,"vac":true,"version":"7882260","steam_id":85568392925397852,"keywords":["nocrits","nodmgspread","payload","uncletopia"],"game_id":440,"stv_port":27036,"stv_name":"Uncletopia | Warsaw | 3 | All Maps | STV","players":null},{"server_id":52,"name":"Uncletopia | Warsaw | 4 | All Maps","name_short":"waw-4","host":"waw-1.pl.uncletopia.com","port":27045,"enabled":true,"region":"eu","cc":"pl","latitude":52.2297,"longitude":21.017532,"reserved":0,"last_update":"0001-01-01T00:00:00Z","name_a2s":"Uncletopia | Warsaw | 4 | All Maps","protocol":17,"map":"koth_cascade","folder":"tf","game":"Team Fortress","app_id":440,"player_count":0,"max_players":24,"Bots":0,"server_type":"Dedicated","server_os":"Linux","password":true,"vac":true,"version":"7882260","steam_id":85568392925397853,"keywords":["cp","nocrits","nodmgspread","uncletopia"],"game_id":440,"stv_port":27046,"stv_name":"Uncletopia | Warsaw | 4 | All Maps | STV","players":null},{"server_id":53,"name":"Uncletopia | Warsaw | 5 | Stopwatch Beta","name_short":"waw-5","host":"waw-1.pl.uncletopia.com","port":27055,"enabled":true,"region":"eu","cc":"pl","latitude":52.2297,"longitude":21.017532,"reserved":0,"last_update":"0001-01-01T00:00:00Z","name_a2s":"Uncletopia | Warsaw | 5 | Stopwatch Beta","protocol":17,"map":"cp_granary","folder":"tf","game":"Team Fortress","app_id":440,"player_count":0,"max_players":24,"Bots":0,"server_type":"Dedicated","server_os":"Linux","password":true,"vac":true,"version":"7882260","steam_id":85568392925397854,"keywords":["cp","nocrits","nodmgspread","uncletopia"],"game_id":440,"stv_port":27056,"stv_name":"Uncletopia | Warsaw | 5 | Stopwatch Beta | STV","players":null},{"server_id":54,"name":"Uncletopia | Warsaw | 6 | Community","name_short":"waw-6","host":"waw-1.pl.uncletopia.com","port":27065,"enabled":true,"region":"eu","cc":"pl","latitude":52.2297,"longitude":21.017532,"reserved":0,"last_update":"0001-01-01T00:00:00Z","name_a2s":"Uncletopia | Warsaw | 6 | Community","protocol":17,"map":"workshop/koth_bagel_rc6.ugc2514036946","folder":"tf","game":"Team Fortress","app_id":440,"player_count":0,"max_players":24,"Bots":0,"server_type":"Dedicated","server_os":"Linux","password":true,"vac":true,"version":"7882260","steam_id":85568392925397856,"keywords":["cp","nocrits","nodmgspread","uncletopia"],"game_id":440,"stv_port":27066,"stv_name":"Uncletopia | Warsaw | 6 | Community | STV","players":null}]}