{"status":true,"message":"","result":[{"server_id":9,"name":"Uncletopia | Atlanta | 1 | All Maps","name_short":"atl-1","host":"atl-1.us.uncletopia.com","port":27015,"enabled":true,"region":"us-east","cc":"us","latitude":33.753746,"longitude":-84.38633,"reserved":0,"last_update":"0001-01-01T00:00:00Z","name_a2s":"Uncletopia | Atlanta | 1 | All Maps","protocol":17,"map":"pl_frontier_final","folder":"tf","game":"Team Fortress","app_id":440,"player_count":22,"max_players":24,"Bots":0,"server_type":"Dedicated","server_os":"Linux","password":true,"vac":true,"version":"7961495","steam_id":85568392924469982,"keywords":["nocrits","nodmgspread","payload","uncletopia"],"game_id":440,"stv_port":27016,"stv_name":"Uncletopia | Atlanta | 1 | All Maps | STV","players":null},{"server_id":104,"name":"Uncletopia | Atlanta | 2 | All Maps","name_short":"atl-2","host":"atl-1.us.uncletopia.com","port":27025,"enabled":true,"region":"us-east","cc":"us","latitude":33.753746,"longitude":-84.38633,"reserved":0,"last_update":"0001-01-01T00:00:00Z","name_a2s":"","protocol":0,"map":"","folder":"","game":"","app_id":0,"player_count":0,"max_players":0,"Bots":0,"server_type":"","server_os":"","password":false,"vac":false,"version":"","steam_id":0,"keywords":null,"game_id":0,"stv_port":0,"stv_name":"","players":null},{"server_id":400,"name":"Uncletopia | Atlanta | 3 | All Maps","name_short":"atl-3","host":"atl-1.us.uncletopia.com","port":27035,"enabled":true,"region":"us-east","cc":"us","latitude":33.753746,"longitude":-84.38633,"reserved":0,"last_update":"0001-01-01T00:00:00Z","name_a2s":"","protocol":0,"map":"","folder":"","game":"","app_id":0,"player_count":0,"max_players":0,"Bots":0,"server_type":"","server_os":"","password":false,"vac":false,"version":"","steam_id":0,"keywords":null,"game_id":0,"stv_port":0,"stv_name":"","players":null},{"server_id":401,"name":"Uncletopia | Atlanta | 4 | Community","name_short":"atl-4","host":"atl-1.us.uncletopia.com","port":27045,"enabled":true,"region":"us-east","cc":"us","latitude":33.753746,"longitude":-84.38633,"reserved":0,"last_update":"0001-01-01T00:00:00Z","name_a2s":"","protocol":0,"map":"","folder":"","game":"","app_id":0,"player_count":0,"max_players":0,"Bots":0,"server_type":"","server_os":"","password":false,"vac":false,"version":"","steam_id":0,"keywords":null,"game_id":0,"stv_port":0,"stv_name":"","players":null},{"server_id":2,"name":"Uncletopia | Chicago | 1 | All Maps","name_short":"chi-1","host":"chi-1.us.uncletopia.com","port":27015,"enabled":true,"region":"us-central","cc":"us","latitude":41.881832,"longitude":-87.62318,"reserved":0,"last_update":"0001-01-01T00:00:00Z","name_a2s":"Uncletopia | Chicago | 1 | All Maps","protocol":17,"map":"pl_frontier_final","folder":"tf","game":"Team Fortress","app_id":440,"player_count":24,"max_players":24,"Bots":0,"server_type":"Dedicated","server_os":"Linux","password":true,"vac":true,"version":"7961495","steam_id":85568392924469984,"keywords":["nocrits","nodmgspread","payload","uncletopia"],"game_id":440,"stv_port":27016,"stv_name":"Uncletopia | Chicago | 1 | All Maps | STV","players":[{"user_id":602,"name":"Phony brave","steam_id":76561198163563548,"connected_time":490000000000,"state":"active","ping":50},{"user_id":588,"name":"elyktsorb","steam_id":76561198158964488,"connected_time":1507000000000,"state":"active","ping":58},{"user_id":567,"name":"seldom","steam_id":76561198166193756,"connected_time":4105000000000,"state":"active","ping":75},{"user_id":545,"name":"★RIVI★","steam_id":76561198086635699,"connected_time":5561000000000,"state":"active","ping":84},{"user_id":599,"name":"Herdez Hot Salsa","steam_id":76561197991740906,"connected_time":513000000000,"state":"active","ping":65},{"user_id":591,"name":"DinkleBerg","steam_id":76561198891626233,"connected_time":761000000000,"state":"active","ping":62},{"user_id":596,"name":"Bort","steam_id":76561198048992198,"connected_time":709000000000,"state":"active","ping":60},{"user_id":581,"name":"aphexjh","steam_id":76561197985854658,"connected_time":2406000000000,"state":"active","ping":58},{"user_id":578,"name":"StonedGiant","steam_id":76561197984386932,"connected_time":2691000000000,"state":"active","ping":54},{"user_id":585,"name":"Man Time","steam_id":76561198151147218,"connected_time":1766000000000,"state":"active","ping":77},{"user_id":554,"name":"girlpeen supreme","steam_id":76561198031242903,"connected_time":4914000000000,"state":"active","ping":65},{"user_id":592,"name":"Cdesmondd","steam_id":76561198072774462,"connected_time":750000000000,"state":"active","ping":60},{"user_id":604,"name":"ash","steam_id":76561198127890645,"connected_time":81000000000,"state":"active","ping":75},{"user_id":559,"name":"TheOneZoot","steam_id":76561198121944243,"connected_time":4605000000000,"state":"active","ping":77},{"user_id":593,"name":"George","steam_id":76561198047994501,"connected_time":750000000000,"state":"active","ping":56},{"user_id":597,"name":"sixshabbyshearedsheepshitting","steam_id":76561197972601902,"connected_time":639000000000,"state":"active","ping":98},{"user_id":600,"name":"donkey","steam_id":76561198288539461,"connected_time":511000000000,"state":"active","ping":68},{"user_id":582,"name":"squaggles!","steam_id":76561197994995011,"connected_time":2348000000000,"state":"active","ping":56},{"user_id":603,"name":"Chicken Burger","steam_id":76561198358529311,"connected_time":333000000000,"state":"active","ping":112},{"user_id":521,"name":"Your Local Queer Librarian","steam_id":76561198013077080,"connected_time":7044000000000,"state":"active","ping":55},{"user_id":491,"name":"AimBütter","steam_id":76561198060108739,"connected_time":10047000000000,"state":"active","ping":92},{"user_id":583,"name":"Bottom Trans Cowgirl","steam_id":76561198304239680,"connected_time":2038000000000,"state":"active","ping":89},{"user_id":595,"name":"papa","steam_id":76561198109308860,"connected_time":731000000000,"state":"active","ping":59},{"user_id":586,"name":"magickxanadu","steam_id":76561199117360103,"connected_time":1753000000000,"state":"active","ping":94}]},{"server_id":106,"name":"Uncletopia | Chicago | 2 | All Maps","name_short":"chi-2","host":"chi-1.us.uncletopia.com","port":27025,"enabled":true,"region":"us-central","cc":"us","latitude":41.881832,"longitude":-87.62318,"reserved":0,"last_update":"0001-01-01T00:00:00Z","name_a2s":"Uncletopia | Chicago | 2 | All Maps","protocol":17,"map":"pl_pier","folder":"tf","game":"Team Fortress","app_id":440,"player_count":25,"max_players":24,"Bots":0,"server_type":"Dedicated","server_os":"Linux","password":true,"vac":true,"version":"7961495","steam_id":85568392924469985,"keywords":["nocrits","nodmgspread","payload","uncletopia"],"game_id":440,"stv_port":27026,"stv_name":"Uncletopia | Chicago | 2 | All Maps | STV","players":[{"user_id":816,"name":"Catherine","steam_id":76561198125233120,"connected_time":772000000000,"state":"active","ping":97},{"user_id":814,"name":"westward (was/were)","steam_id":76561198805512350,"connected_time":808000000000,"state":"active","ping":114},{"user_id":703,"name":"Owixan","steam_id":76561198074990070,"connected_time":5975000000000,"state":"active","ping":36},{"user_id":756,"name":"James Cordon","steam_id":76561198089294060,"connected_time":3440000000000,"state":"active","ping":72},{"user_id":790,"name":"aciddragon","steam_id":76561198151211107,"connected_time":1431000000000,"state":"active","ping":115},{"user_id":774,"name":"Urbanzpinapple","steam_id":76561198115426938,"connected_time":2810000000000,"state":"active","ping":128},{"user_id":799,"name":"TheRatman","steam_id":76561197975916410,"connected_time":935000000000,"state":"active","ping":72},{"user_id":781,"name":"Soupy Meal","steam_id":76561199056842761,"connected_time":2666000000000,"state":"active","ping":105},{"user_id":815,"name":"Sunfly","steam_id":76561198034307439,"connected_time":807000000000,"state":"active","ping":44},{"user_id":838,"name":"Ian_Marshmallow","steam_id":76561198226159304,"connected_time":347000000000,"state":"active","ping":54},{"user_id":773,"name":"GreekGoat_Coffee","steam_id":76561198129331088,"connected_time":2867000000000,"state":"active","ping":46},{"user_id":766,"name":"Jovo","steam_id":76561197993265970,"connected_time":3293000000000,"state":"active","ping":87},{"user_id":846,"name":"Flexo","steam_id":76561198111618506,"connected_time":180000000000,"state":"active","ping":125},{"user_id":791,"name":"Grilled Jizo","steam_id":76561199250875340,"connected_time":1409000000000,"state":"active","ping":77},{"user_id":847,"name":"jayhong","steam_id":76561198046772832,"connected_time":158000000000,"state":"active","ping":42},{"user_id":850,"name":"Belloq","steam_id":76561198060279052,"connected_time":112000000000,"state":"active","ping":57},{"user_id":811,"name":"Ayylamao","steam_id":76561198072539972,"connected_time":811000000000,"state":"active","ping":60},{"user_id":787,"name":"CherriKat","steam_id":76561198821297512,"connected_time":2079000000000,"state":"active","ping":101},{"user_id":853,"name":"YeshieSirYesSir","steam_id":76561198080214214,"connected_time":5000000000,"state":"spawning","ping":44},{"user_id":818,"name":"SaaxoM","steam_id":76561198208256603,"connected_time":739000000000,"state":"active","ping":93},{"user_id":812,"name":"MegaBruh","steam_id":76561198191771321,"connected_time":810000000000,"state":"active","ping":44},{"user_id":771,"name":"thecal","steam_id":76561198307893384,"connected_time":3034000000000,"state":"active","ping":58},{"user_id":821,"name":"Kirby.exe","steam_id":76561198242714582,"connected_time":675000000000,"state":"active","ping":64},{"user_id":813,"name":"The mook","steam_id":76561198963551905,"connected_time":810000000000,"state":"active","ping":69},{"user_id":793,"name":"susie deltarune (real)","steam_id":76561198044923865,"connected_time":1374000000000,"state":"active","ping":109}]},{"server_id":402,"name":"Uncletopia | Chicago | 3 | All Maps","name_short":"chi-3","host":"chi-1.us.uncletopia.com","port":27035,"enabled":true,"region":"us-central","cc":"us","latitude":41.881832,"longitude":-87.62318,"reserved":0,"last_update":"0001-01-01T00:00:00Z","name_a2s":"Uncletopia | Chicago | 3 | All Maps","protocol":17,"map":"pl_badwater","folder":"tf","game":"Team Fortress","app_id":440,"player_count":24,"max_players":24,"Bots":0,"server_type":"Dedicated","server_os":"Linux","password":true,"vac":true,"version":"7961495","steam_id":85568392924515191,"keywords":["nocrits","nodmgspread","payload","uncletopia"],"game_id":440,"stv_port":27036,"stv_name":"Uncletopia | Chicago | 3 | All Maps | STV","players":[{"user_id":766,"name":"$LLE","steam_id":76561198163166969,"connected_time":535000000000,"state":"active","ping":65},{"user_id":770,"name":"Accursed Bear (she/her)","steam_id":76561198182999386,"connected_time":332000000000,"state":"active","ping":58},{"user_id":693,"name":"James","steam_id":76561198081313916,"connected_time":6463000000000,"state":"active","ping":69},{"user_id":760,"name":"Rockgraham101","steam_id":76561198171740458,"connected_time":1795000000000,"state":"active","ping":69},{"user_id":740,"name":"Walkiing","steam_id":76561198074473413,"connected_time":3820000000000,"state":"active","ping":45},{"user_id":709,"name":"Amoxicilina","steam_id":76561198168486429,"connected_time":5641000000000,"state":"active","ping":127},{"user_id":774,"name":"femboy toucher","steam_id":76561198087039429,"connected_time":213000000000,"state":"active","ping":80},{"user_id":769,"name":"AutoCon17","steam_id":76561198209977473,"connected_time":351000000000,"state":"active","ping":45},{"user_id":771,"name":"Adum","steam_id":76561198181162382,"connected_time":319000000000,"state":"active","ping":82},{"user_id":764,"name":"pabloramirez1998@gmail.com","steam_id":76561198969675306,"connected_time":1444000000000,"state":"active","ping":65},{"user_id":719,"name":"2002 Toyota Corolla VE","steam_id":76561198149172070,"connected_time":5201000000000,"state":"active","ping":67},{"user_id":747,"name":"nucket","steam_id":76561198028658527,"connected_time":3407000000000,"state":"active","ping":104},{"user_id":743,"name":"carly rae jepsen","steam_id":76561198336144991,"connected_time":3774000000000,"state":"active","ping":65},{"user_id":618,"name":"morsetime","steam_id":76561199116362348,"connected_time":11475000000000,"state":"active","ping":88},{"user_id":726,"name":"Robin","steam_id":76561198121165149,"connected_time":4686000000000,"state":"active","ping":42},{"user_id":772,"name":"mild","steam_id":76561198082470182,"connected_time":270000000000,"state":"active","ping":100},{"user_id":758,"name":"Billychicken54","steam_id":76561198022365463,"connected_time":2247000000000,"state":"active","ping":71},{"user_id":696,"name":"RusticCarp42989","steam_id":76561198361151865,"connected_time":6448000000000,"state":"active","ping":127},{"user_id":730,"name":"jolo","steam_id":76561198042831480,"connected_time":4658000000000,"state":"active","ping":63},{"user_id":707,"name":"SiltyStar85","steam_id":76561198309175923,"connected_time":5823000000000,"state":"active","ping":77},{"user_id":759,"name":"butterthoughts","steam_id":76561198025120284,"connected_time":2239000000000,"state":"active","ping":76},{"user_id":773,"name":"n00b31","steam_id":76561197999478291,"connected_time":230000000000,"state":"active","ping":93},{"user_id":765,"name":"SpockASD","steam_id":76561198307516731,"connected_time":788000000000,"state":"active","ping":81},{"user_id":763,"name":"the real big sips","steam_id":76561197999945358,"connected_time":1706000000000,"state":"active","ping":71}]},{"server_id":403,"name":"Uncletopia | Chicago | 4 | All Maps","name_short":"chi-4","host":"chi-1.us.uncletopia.com","port":27045,"enabled":true,"region":"us-central","cc":"us","latitude":41.881832,"longitude":-87.62318,"reserved":0,"last_update":"0001-01-01T00:00:00Z","name_a2s":"Uncletopia | Chicago | 4 | All Maps","protocol":17,"map":"pl_badwater","folder":"tf","game":"Team Fortress","app_id":440,"player_count":20,"max_players":24,"Bots":0,"server_type":"Dedicated","server_os":"Linux","password":true,"vac":true,"version":"7961495","steam_id":85568392924515193,"keywords":["nocrits","nodmgspread","payload","uncletopia"],"game_id":440,"stv_port":27046,"stv_name":"Uncletopia | Chicago | 4 | All Maps | STV","players":[{"user_id":322,"name":"ElElliot","steam_id":76561198842278840,"connected_time":18000000000,"state":"active","ping":60},{"user_id":320,"name":"._.","steam_id":76561198300316801,"connected_time":343000000000,"state":"active","ping":52},{"user_id":308,"name":"Topfix","steam_id":76561198038899333,"connected_time":2388000000000,"state":"active","ping":61},{"user_id":302,"name":"drwwby","steam_id":76561198067741339,"connected_time":2957000000000,"state":"active","ping":50},{"user_id":321,"name":"caption cool","steam_id":76561197990612056,"connected_time":33000000000,"state":"active","ping":70},{"user_id":317,"name":"g.","steam_id":76561197981404672,"connected_time":870000000000,"state":"active","ping":73},{"user_id":323,"name":"Lorberry","steam_id":76561198023706058,"connected_time":14000000000,"state":"active","ping":26},{"user_id":324,"name":"Monochi","steam_id":76561198093093118,"connected_time":13000000000,"state":"active","ping":87},{"user_id":298,"name":"wckid","steam_id":76561198044856349,"connected_time":3270000000000,"state":"active","ping":47},{"user_id":315,"name":"Guccini","steam_id":76561198094391395,"connected_time":1177000000000,"state":"spawning","ping":173},{"user_id":299,"name":"Laogh Marbh","steam_id":76561198115240256,"connected_time":3173000000000,"state":"active","ping":50},{"user_id":325,"name":"Forty-Bot","steam_id":76561198076693960,"connected_time":10000000000,"state":"spawning","ping":60},{"user_id":293,"name":"Swash","steam_id":76561197969421355,"connected_time":3546000000000,"state":"active","ping":50},{"user_id":314,"name":"spartanman284","steam_id":76561198952947651,"connected_time":1249000000000,"state":"spawning","ping":54},{"user_id":304,"name":"Piyono","steam_id":76561197962188504,"connected_time":2609000000000,"state":"active","ping":91},{"user_id":318,"name":"Aaron","steam_id":76561198091157802,"connected_time":782000000000,"state":"active","ping":64},{"user_id":310,"name":"Tay","steam_id":76561198059605568,"connected_time":2380000000000,"state":"spawning","ping":66},{"user_id":311,"name":"Based","steam_id":76561199089316436,"connected_time":2370000000000,"state":"active","ping":92},{"user_id":312,"name":"plokmijnuhbygvtfcrdxeszwaq","steam_id":76561198175741741,"connected_time":2365000000000,"state":"active","ping":104},{"user_id":274,"name":"Talented","steam_id":76561198800259660,"connected_time":5585000000000,"state":"spawning","ping":68}]},{"server_id":36,"name":"Uncletopia | Chicago | 5 | All Maps","name_short":"chi-5","host":"chi-2.us.uncletopia.com","port":27015,"enabled":true,"region":"us-central","cc":"us","latitude":41.881832,"longitude":-87.62318,"reserved":0,"last_update":"0001-01-01T00:00:00Z","name_a2s":"Uncletopia | Chicago | 5 | All Maps","protocol":17,"map":"pl_upward","folder":"tf","game":"Team Fortress","app_id":440,"player_count":22,"max_players":24,"Bots":0,"server_type":"Dedicated","server_os":"Linux","password":true,"vac":true,"version":"7961495","steam_id":85568392924866362,"keywords":["nocrits","nodmgspread","payload","uncletopia"],"game_id":440,"stv_port":27016,"stv_name":"Uncletopia | Chicago | 5 | All Maps | STV","players":[{"user_id":374,"name":"BronzeLeagueHero","steam_id":76561198088309711,"connected_time":2426000000000,"state":"active","ping":75},{"user_id":298,"name":"AlexLovesYou","steam_id":76561199163263543,"connected_time":7020000000000,"state":"active","ping":96},{"user_id":375,"name":"[S]Mr. X [No Monitor]","steam_id":76561197963746035,"connected_time":2373000000000,"state":"active","ping":113},{"user_id":366,"name":"DragonHaert","steam_id":76561198132516061,"connected_time":2535000000000,"state":"active","ping":76},{"user_id":379,"name":"Soju","steam_id":76561198044130442,"connected_time":1898000000000,"state":"active","ping":369},{"user_id":386,"name":"zinqi","steam_id":76561198376838848,"connected_time":45000000000,"state":"active","ping":121},{"user_id":367,"name":"goober","steam_id":76561198344499440,"connected_time":2533000000000,"state":"connecting","ping":239},{"user_id":356,"name":"SchmitySchmit","steam_id":76561198127024448,"connected_time":2725000000000,"state":"active","ping":53},{"user_id":377,"name":"Dirachi","steam_id":76561198148186898,"connected_time":2325000000000,"state":"active","ping":66},{"user_id":301,"name":"x","steam_id":76561198013735714,"connected_time":6986000000000,"state":"active","ping":104},{"user_id":363,"name":"Fiendish Frog","steam_id":76561198029478821,"connected_time":2669000000000,"state":"active","ping":63},{"user_id":387,"name":"Banned from Goodwill","steam_id":76561198408159536,"connected_time":30000000000,"state":"active","ping":131},{"user_id":368,"name":"ooblz","steam_id":76561198361326855,"connected_time":2515000000000,"state":"active","ping":47},{"user_id":362,"name":"Horizon","steam_id":76561198088957930,"connected_time":2675000000000,"state":"active","ping":185},{"user_id":388,"name":"Ibrahim","steam_id":76561198028320625,"connected_time":7000000000,"state":"spawning","ping":54},{"user_id":355,"name":"guywholikesSOUP","steam_id":76561198006670369,"connected_time":2783000000000,"state":"active","ping":47},{"user_id":370,"name":"Kdash","steam_id":76561198043829155,"connected_time":2476000000000,"state":"spawning","ping":223},{"user_id":385,"name":"FParadox5150","steam_id":76561198180675907,"connected_time":466000000000,"state":"active","ping":114},{"user_id":378,"name":"Cyb3rCrunk","steam_id":76561198426463025,"connected_time":2273000000000,"state":"active","ping":68},{"user_id":235,"name":"Peter Popoff","steam_id":76561198027171160,"connected_time":10280000000000,"state":"active","ping":36},{"user_id":373,"name":"Lego Yoda","steam_id":76561199008362890,"connected_time":2465000000000,"state":"active","ping":61},{"user_id":305,"name":"corntent","steam_id":76561198824847948,"connected_time":6945000000000,"state":"active","ping":49}]},{"server_id":37,"name":"Uncletopia | Chicago | 6 | All Maps","name_short":"chi-6","host":"chi-2.us.uncletopia.com","port":27025,"enabled":true,"region":"us-central","cc":"us","latitude":41.881832,"longitude":-87.62318,"reserved":0,"last_update":"0001-01-01T00:00:00Z","name_a2s":"Uncletopia | Chicago | 6 | All Maps","protocol":17,"map":"pl_snowycoast","folder":"tf","game":"Team Fortress","app_id":440,"player_count":24,"max_players":24,"Bots":0,"server_type":"Dedicated","server_os":"Linux","password":true,"vac":true,"version":"7961495","steam_id":85568392924866363,"keywords":["nocrits","nodmgspread","payload","uncletopia"],"game_id":440,"stv_port":27026,"stv_name":"Uncletopia | Chicago | 6 | All Maps | STV","players":[{"user_id":265,"name":"CrunchCisco","steam_id":76561199162724832,"connected_time":1791000000000,"state":"active","ping":86},{"user_id":278,"name":"I'll suck ur toes","steam_id":76561198028157625,"connected_time":1098000000000,"state":"active","ping":91},{"user_id":290,"name":"-W3E- grim10465","steam_id":76561198045698581,"connected_time":207000000000,"state":"active","ping":48},{"user_id":281,"name":"_--Baker--_","steam_id":76561198401495362,"connected_time":837000000000,"state":"active","ping":74},{"user_id":280,"name":"Cosmic sR","steam_id":76561198081738675,"connected_time":929000000000,"state":"active","ping":85},{"user_id":286,"name":"ATL1 | Krissy","steam_id":76561197960848174,"connected_time":290000000000,"state":"active","ping":64},{"user_id":282,"name":"Hipkid81","steam_id":76561198209679029,"connected_time":590000000000,"state":"active","ping":90},{"user_id":273,"name":"FiddyFoMike","steam_id":76561198057072581,"connected_time":1620000000000,"state":"active","ping":96},{"user_id":287,"name":"solstice","steam_id":76561198313364985,"connected_time":289000000000,"state":"active","ping":78},{"user_id":284,"name":"Holo Spida","steam_id":76561199067325962,"connected_time":565000000000,"state":"active","ping":86},{"user_id":256,"name":"purpla","steam_id":76561198119549161,"connected_time":2477000000000,"state":"active","ping":83},{"user_id":90,"name":"Nexus","steam_id":76561198305472434,"connected_time":14540000000000,"state":"active","ping":104},{"user_id":255,"name":"fuck","steam_id":76561198181043841,"connected_time":2567000000000,"state":"active","ping":59},{"user_id":288,"name":"Dr Oshawott","steam_id":76561198042021629,"connected_time":285000000000,"state":"active","ping":68},{"user_id":289,"name":"OneLess","steam_id":76561198150870338,"connected_time":251000000000,"state":"active","ping":83},{"user_id":277,"name":"morphine","steam_id":76561198072124799,"connected_time":1209000000000,"state":"active","ping":87},{"user_id":242,"name":"nomad","steam_id":76561197998740399,"connected_time":3303000000000,"state":"active","ping":66},{"user_id":293,"name":"eish","steam_id":76561198089463603,"connected_time":80000000000,"state":"active","ping":134},{"user_id":243,"name":"C Papi","steam_id":76561198027779564,"connected_time":3299000000000,"state":"active","ping":59},{"user_id":291,"name":"Envidia","steam_id":76561198141640643,"connected_time":206000000000,"state":"active","ping":129},{"user_id":262,"name":"TwoBit","steam_id":76561198062437559,"connected_time":2007000000000,"state":"active","ping":77},{"user_id":292,"name":"lilpix3l","steam_id":76561198358892539,"connected_time":204000000000,"state":"active","ping":92},{"user_id":264,"name":"Grundle Thunder","steam_id":76561197960790338,"connected_time":1930000000000,"state":"active","ping":88},{"user_id":285,"name":"the indomitable human spirit","steam_id":76561198277163301,"connected_time":565000000000,"state":"active","ping":66}]},{"server_id":38,"name":"Uncletopia | Chicago | 7 | Stopwatch Beta","name_short":"chi-7","host":"chi-2.us.uncletopia.com","port":27035,"enabled":true,"region":"us-central","cc":"us","latitude":41.881832,"longitude":-87.62318,"reserved":0,"last_update":"0001-01-01T00:00:00Z","name_a2s":"Uncletopia | Chicago | 7 | Stopwatch Beta","protocol":17,"map":"pl_badwater","folder":"tf","game":"Team Fortress","app_id":440,"player_count":0,"max_players":24,"Bots":0,"server_type":"Dedicated","server_os":"Linux","password":true,"vac":true,"version":"7961495","steam_id":85568392924866364,"keywords":["nocrits","nodmgspread","payload","uncletopia"],"game_id":440,"stv_port":27036,"stv_name":"Uncletopia | Chicago | 7 | Stopwatch Beta | STV","players":null},{"server_id":39,"name":"Uncletopia | Chicago | 8 | Community","name_short":"chi-8","host":"chi-2.us.uncletopia.com","port":27045,"enabled":true,"region":"us-central","cc":"us","latitude":41.881832,"longitude":-87.62318,"reserved":0,"last_update":"0001-01-01T00:00:00Z","name_a2s":"Uncletopia | Chicago | 8 | Community","protocol":17,"map":"workshop/pl_badwater_pro_v12.ugc2142942074","folder":"tf","game":"Team Fortress","app_id":440,"player_count":24,"max_players":24,"Bots":0,"server_type":"Dedicated","server_os":"Linux","password":true,"vac":true,"version":"7961495","steam_id":85568392924866365,"keywords":["nocrits","nodmgspread","payload","uncletopia"],"game_id":440,"stv_port":27046,"stv_name":"Uncletopia | Chicago | 8 | Community | STV","players":[{"user_id":286,"name":"bologna movement","steam_id":76561199143725014,"connected_time":1518000000000,"state":"active","ping":79},{"user_id":295,"name":"[ᎴᏋᏋᎮ] Danmar33","steam_id":76561198056453091,"connected_time":1250000000000,"state":"active","ping":58},{"user_id":298,"name":"ispongebobz11","steam_id":76561198862843572,"connected_time":956000000000,"state":"active","ping":68},{"user_id":297,"name":"Withered Bonnie (Real)","steam_id":76561198423310113,"connected_time":1091000000000,"state":"active","ping":73},{"user_id":282,"name":"arch","steam_id":76561198033467447,"connected_time":1595000000000,"state":"active","ping":47},{"user_id":133,"name":"Alunatic14","steam_id":76561198309321593,"connected_time":11752000000000,"state":"active","ping":87},{"user_id":307,"name":"Gutsavo the Branded  Espadachí","steam_id":76561198133608354,"connected_time":312000000000,"state":"active","ping":70},{"user_id":290,"name":"orangesuit1","steam_id":76561199020443017,"connected_time":1427000000000,"state":"active","ping":115},{"user_id":257,"name":"benedro05","steam_id":76561198269369429,"connected_time":3324000000000,"state":"active","ping":55},{"user_id":284,"name":"SilentFootba11","steam_id":76561199006570947,"connected_time":1526000000000,"state":"active","ping":83},{"user_id":309,"name":"Chap","steam_id":76561198294226443,"connected_time":286000000000,"state":"active","ping":108},{"user_id":311,"name":"teegs","steam_id":76561198067905221,"connected_time":202000000000,"state":"active","ping":54},{"user_id":300,"name":"AverageJoe","steam_id":76561198313420109,"connected_time":925000000000,"state":"active","ping":57},{"user_id":258,"name":"DeckofDragons","steam_id":76561198057398213,"connected_time":3303000000000,"state":"active","ping":84},{"user_id":302,"name":"Orakcaj","steam_id":76561198080563935,"connected_time":805000000000,"state":"active","ping":45},{"user_id":292,"name":"Ubuntu Phone","steam_id":76561198008110407,"connected_time":1298000000000,"state":"active","ping":90},{"user_id":296,"name":"bobletoob","steam_id":76561199184464900,"connected_time":1198000000000,"state":"active","ping":110},{"user_id":310,"name":"Tyson Fury","steam_id":76561198085700801,"connected_time":280000000000,"state":"active","ping":62},{"user_id":278,"name":"Deft","steam_id":76561198830325466,"connected_time":2330000000000,"state":"active","ping":63},{"user_id":305,"name":"Ashes!","steam_id":76561197998475441,"connected_time":525000000000,"state":"active","ping":85},{"user_id":306,"name":"Matayankis","steam_id":76561198024513380,"connected_time":328000000000,"state":"active","ping":160},{"user_id":274,"name":"Bartisfunny64","steam_id":76561199031813278,"connected_time":2666000000000,"state":"active","ping":61},{"user_id":293,"name":"Induce Salt","steam_id":76561198116645978,"connected_time":1296000000000,"state":"active","ping":58},{"user_id":301,"name":"DSG","steam_id":76561198207574152,"connected_time":911000000000,"state":"active","ping":67}]},{"server_id":8,"name":"Uncletopia | Dallas | 1 | All Maps","name_short":"dal-1","host":"dal-1.us.uncletopia.com","port":27015,"enabled":true,"region":"us-central","cc":"us","latitude":32.779167,"longitude":-96.80889,"reserved":0,"last_update":"0001-01-01T00:00:00Z","name_a2s":"Uncletopia | Dallas | 1 | All Maps","protocol":17,"map":"pl_badwater","folder":"tf","game":"Team Fortress","app_id":440,"player_count":24,"max_players":24,"Bots":0,"server_type":"Dedicated","server_os":"Linux","password":true,"vac":true,"version":"7961495","steam_id":85568392924469986,"keywords":["nocrits","nodmgspread","payload","uncletopia"],"game_id":440,"stv_port":27016,"stv_name":"Uncletopia | Dallas | 1 | All Maps | STV","players":[{"user_id":417,"name":"Bogey","steam_id":76561198096227944,"connected_time":1835000000000,"state":"active","ping":45},{"user_id":438,"name":"Admiral Catradora","steam_id":76561198017271944,"connected_time":359000000000,"state":"active","ping":100},{"user_id":435,"name":"Savory Red Sauce","steam_id":76561198071825947,"connected_time":460000000000,"state":"active","ping":43},{"user_id":418,"name":"NormanVillage","steam_id":76561198330337371,"connected_time":1752000000000,"state":"active","ping":90},{"user_id":436,"name":"Epifiny","steam_id":76561198027958086,"connected_time":451000000000,"state":"active","ping":97},{"user_id":380,"name":"flippercurve","steam_id":76561199238295034,"connected_time":4869000000000,"state":"active","ping":72},{"user_id":421,"name":"Anon","steam_id":76561198109740776,"connected_time":1369000000000,"state":"active","ping":99},{"user_id":433,"name":"GLG.Liz","steam_id":76561198021957956,"connected_time":512000000000,"state":"active","ping":46},{"user_id":437,"name":"Billy Mays","steam_id":76561197998876324,"connected_time":442000000000,"state":"active","ping":97},{"user_id":415,"name":"Furrio","steam_id":76561198174104607,"connected_time":2046000000000,"state":"active","ping":65},{"user_id":388,"name":"Mephistopheles","steam_id":76561198253731826,"connected_time":3990000000000,"state":"active","ping":88},{"user_id":431,"name":"X P X","steam_id":76561198372411760,"connected_time":781000000000,"state":"active","ping":93},{"user_id":413,"name":"MeMyBongusAndTheGreatOutdoors","steam_id":76561198097708978,"connected_time":2098000000000,"state":"active","ping":63},{"user_id":390,"name":"K.O. Stradivarius","steam_id":76561198974913245,"connected_time":3929000000000,"state":"active","ping":91},{"user_id":424,"name":"rAnch","steam_id":76561198024562587,"connected_time":1151000000000,"state":"active","ping":35},{"user_id":430,"name":"TAMU ClariNate","steam_id":76561198452988152,"connected_time":872000000000,"state":"active","ping":72},{"user_id":349,"name":"Ferguson","steam_id":76561198121349387,"connected_time":7900000000000,"state":"active","ping":53},{"user_id":420,"name":"BackwardsEagle","steam_id":76561199013712612,"connected_time":1405000000000,"state":"active","ping":95},{"user_id":429,"name":"AverageAJ","steam_id":76561198882160891,"connected_time":960000000000,"state":"active","ping":71},{"user_id":397,"name":"Punished Shitster","steam_id":76561198150452857,"connected_time":3574000000000,"state":"active","ping":49},{"user_id":422,"name":"frank","steam_id":76561198186815298,"connected_time":1346000000000,"state":"active","ping":122},{"user_id":382,"name":"David De Bergerac","steam_id":76561198010306294,"connected_time":4822000000000,"state":"active","ping":91},{"user_id":391,"name":"SKW14","steam_id":76561198215425735,"connected_time":3793000000000,"state":"active","ping":70},{"user_id":338,"name":"PROFILE NAME","steam_id":76561199438851854,"connected_time":9766000000000,"state":"active","ping":123}]},{"server_id":108,"name":"Uncletopia | Dallas | 2 | All Maps","name_short":"dal-2","host":"dal-1.us.uncletopia.com","port":27025,"enabled":true,"region":"us-central","cc":"us","latitude":32.779167,"longitude":-96.80889,"reserved":0,"last_update":"0001-01-01T00:00:00Z","name_a2s":"Uncletopia | Dallas | 2 | All Maps","protocol":17,"map":"koth_lakeside_final","folder":"tf","game":"Team Fortress","app_id":440,"player_count":24,"max_players":24,"Bots":0,"server_type":"Dedicated","server_os":"Linux","password":true,"vac":true,"version":"7961495","steam_id":85568392924469988,"keywords":["cp","nocrits","nodmgspread","uncletopia"],"game_id":440,"stv_port":27026,"stv_name":"Uncletopia | Dallas | 2 | All Maps | STV","players":[{"user_id":369,"name":"UberVirginWeeb","steam_id":76561198412980444,"connected_time":420000000000,"state":"active","ping":84},{"user_id":363,"name":"emerie","steam_id":76561198406252824,"connected_time":648000000000,"state":"active","ping":101},{"user_id":352,"name":"☙ Corrupt ❧","steam_id":76561197977631915,"connected_time":1349000000000,"state":"active","ping":67},{"user_id":315,"name":"-Rλ҉inyCloudCore","steam_id":76561198028799685,"connected_time":4591000000000,"state":"active","ping":84},{"user_id":353,"name":"Red Orbama","steam_id":76561198047002366,"connected_time":1109000000000,"state":"active","ping":103},{"user_id":364,"name":"mush","steam_id":76561198310089797,"connected_time":613000000000,"state":"active","ping":95},{"user_id":371,"name":"Kenny","steam_id":76561199005805984,"connected_time":371000000000,"state":"active","ping":44},{"user_id":355,"name":"孫子","steam_id":76561198083112681,"connected_time":768000000000,"state":"active","ping":62},{"user_id":358,"name":"Fightin Cow","steam_id":76561198080941486,"connected_time":747000000000,"state":"active","ping":53},{"user_id":340,"name":"Destmon","steam_id":76561199075175675,"connected_time":2234000000000,"state":"active","ping":87},{"user_id":359,"name":"Unreliable Narrator","steam_id":76561198021303959,"connected_time":747000000000,"state":"active","ping":82},{"user_id":350,"name":"Roaring Fire","steam_id":76561198158543955,"connected_time":1525000000000,"state":"active","ping":74},{"user_id":370,"name":"TechnoBear2099","steam_id":76561198238863596,"connected_time":392000000000,"state":"active","ping":53},{"user_id":298,"name":"Ichthyology Enthusiast","steam_id":76561198854662187,"connected_time":5927000000000,"state":"active","ping":57},{"user_id":372,"name":"bajablink","steam_id":76561198262044080,"connected_time":351000000000,"state":"active","ping":78},{"user_id":347,"name":"irritable vowel syndrome","steam_id":76561198117033273,"connected_time":1820000000000,"state":"active","ping":163},{"user_id":361,"name":"exten-z","steam_id":76561198004359190,"connected_time":711000000000,"state":"active","ping":75},{"user_id":318,"name":"tiernan330","steam_id":76561198271912722,"connected_time":4578000000000,"state":"active","ping":89},{"user_id":357,"name":"Da_Doc","steam_id":76561199037986321,"connected_time":760000000000,"state":"active","ping":77},{"user_id":373,"name":"SnazzyCelestial","steam_id":76561198328763813,"connected_time":339000000000,"state":"active","ping":85},{"user_id":319,"name":"Yapple Dapple","steam_id":76561198082422815,"connected_time":4574000000000,"state":"active","ping":64},{"user_id":367,"name":"npc energy","steam_id":76561198035342207,"connected_time":510000000000,"state":"active","ping":56},{"user_id":329,"name":"Droopy Loopy","steam_id":76561198117917407,"connected_time":3529000000000,"state":"active","ping":81},{"user_id":368,"name":"Fribas","steam_id":76561198138502813,"connected_time":490000000000,"state":"active","ping":109}]},{"server_id":404,"name":"Uncletopia | Dallas | 3 | All Maps","name_short":"dal-3","host":"dal-1.us.uncletopia.com","port":27035,"enabled":true,"region":"us-central","cc":"us","latitude":32.779167,"longitude":-96.80889,"reserved":0,"last_update":"0001-01-01T00:00:00Z","name_a2s":"Uncletopia | Dallas | 3 | All Maps","protocol":17,"map":"pl_barnblitz","folder":"tf","game":"Team Fortress","app_id":440,"player_count":24,"max_players":24,"Bots":0,"server_type":"Dedicated","server_os":"Linux","password":true,"vac":true,"version":"7961495","steam_id":85568392924515219,"keywords":["nocrits","nodmgspread","payload","uncletopia"],"game_id":440,"stv_port":27036,"stv_name":"Uncletopia | Dallas | 3 | All Maps | STV","players":[{"user_id":471,"name":"Snoopy","steam_id":76561198273735974,"connected_time":637000000000,"state":"active","ping":71},{"user_id":461,"name":"nestle hater","steam_id":76561198202458160,"connected_time":1172000000000,"state":"active","ping":80},{"user_id":468,"name":"DREW PEACOCK","steam_id":76561198065057392,"connected_time":790000000000,"state":"active","ping":85},{"user_id":454,"name":"Heartgold","steam_id":76561199062592062,"connected_time":1453000000000,"state":"active","ping":94},{"user_id":460,"name":"corviraptor (\u003c--- awesome)","steam_id":76561198058284392,"connected_time":1196000000000,"state":"active","ping":65},{"user_id":462,"name":"Melted Sherbert","steam_id":76561198097330521,"connected_time":1168000000000,"state":"active","ping":132},{"user_id":443,"name":"totally not a pile of beans","steam_id":76561198119851931,"connected_time":2118000000000,"state":"active","ping":98},{"user_id":463,"name":"Cassius Money","steam_id":76561197979696414,"connected_time":1160000000000,"state":"active","ping":72},{"user_id":356,"name":"eyesack","steam_id":76561198353654220,"connected_time":7693000000000,"state":"active","ping":77},{"user_id":455,"name":"نصلي من أجل سقوطه","steam_id":76561198021308963,"connected_time":1443000000000,"state":"active","ping":65},{"user_id":396,"name":"Syncro-noms","steam_id":76561198059808982,"connected_time":5361000000000,"state":"active","ping":62},{"user_id":449,"name":"spooby","steam_id":76561198168114366,"connected_time":1830000000000,"state":"active","ping":85},{"user_id":476,"name":"Whapper","steam_id":76561198044029606,"connected_time":206000000000,"state":"active","ping":88},{"user_id":450,"name":"Lore","steam_id":76561198098407538,"connected_time":1769000000000,"state":"active","ping":75},{"user_id":457,"name":"mellowhype","steam_id":76561198040675606,"connected_time":1404000000000,"state":"active","ping":50},{"user_id":473,"name":"corey","steam_id":76561198373311088,"connected_time":604000000000,"state":"active","ping":71},{"user_id":437,"name":"scaring the hoes","steam_id":76561198332519926,"connected_time":2332000000000,"state":"active","ping":99},{"user_id":466,"name":"dailyspesh","steam_id":76561197988072369,"connected_time":942000000000,"state":"active","ping":92},{"user_id":458,"name":"sweaterfan","steam_id":76561199389567214,"connected_time":1379000000000,"state":"active","ping":68},{"user_id":357,"name":"Fireking1258","steam_id":76561198822180323,"connected_time":7693000000000,"state":"active","ping":85},{"user_id":472,"name":"oh god i'm gonna CHUM","steam_id":76561198019210187,"connected_time":621000000000,"state":"active","ping":58},{"user_id":441,"name":"你好","steam_id":76561198873043242,"connected_time":2226000000000,"state":"active","ping":142},{"user_id":474,"name":"dylan","steam_id":76561198822573920,"connected_time":603000000000,"state":"active","ping":72},{"user_id":401,"name":"lker","steam_id":76561197976975075,"connected_time":5287000000000,"state":"active","ping":60}]},{"server_id":405,"name":"Uncletopia | Dallas | 4 | Community","name_short":"dal-4","host":"dal-1.us.uncletopia.com","port":27045,"enabled":true,"region":"us-central","cc":"us","latitude":32.779167,"longitude":-96.80889,"reserved":0,"last_update":"0001-01-01T00:00:00Z","name_a2s":"Uncletopia | Dallas | 4 | Community","protocol":17,"map":"workshop/cp_kalinka_rc6a.ugc1272700588","folder":"tf","game":"Team Fortress","app_id":440,"player_count":24,"max_players":24,"Bots":0,"server_type":"Dedicated","server_os":"Linux","password":true,"vac":true,"version":"7961495","steam_id":85568392924515220,"keywords":["cp","nocrits","nodmgspread","uncletopia"],"game_id":440,"stv_port":27046,"stv_name":"Uncletopia | Dallas | 4 | Community | STV","players":[{"user_id":117,"name":"I GOT LAID AT SHEN YUN 2023","steam_id":76561198844003641,"connected_time":992000000000,"state":"active","ping":85},{"user_id":16,"name":"Phaaze","steam_id":76561198029077935,"connected_time":6942000000000,"state":"active","ping":54},{"user_id":84,"name":"Foxyz","steam_id":76561198040642992,"connected_time":3715000000000,"state":"active","ping":164},{"user_id":124,"name":"Superplay64","steam_id":76561198172471162,"connected_time":614000000000,"state":"active","ping":92},{"user_id":123,"name":"Rock005 Enjoyer","steam_id":76561198401455467,"connected_time":720000000000,"state":"active","ping":96},{"user_id":80,"name":"DELTRON ZERO","steam_id":76561198081123470,"connected_time":3924000000000,"state":"active","ping":62},{"user_id":110,"name":"rainbowmaster25!","steam_id":76561199215255414,"connected_time":1334000000000,"state":"active","ping":88},{"user_id":86,"name":"geekin off the perc","steam_id":76561198398028211,"connected_time":3414000000000,"state":"active","ping":107},{"user_id":88,"name":"Freddi Fish owes me $5","steam_id":76561198112705880,"connected_time":3199000000000,"state":"active","ping":82},{"user_id":92,"name":"BlueEyesDankDragon","steam_id":76561198359988117,"connected_time":3049000000000,"state":"active","ping":105},{"user_id":122,"name":"dave","steam_id":76561198135961731,"connected_time":824000000000,"state":"active","ping":68},{"user_id":131,"name":"Nebulon-B_Frigate_FTW","steam_id":76561198040955960,"connected_time":89000000000,"state":"active","ping":129},{"user_id":103,"name":"Stillkill","steam_id":76561198065069057,"connected_time":2479000000000,"state":"active","ping":34},{"user_id":107,"name":"scottbagel","steam_id":76561199144640325,"connected_time":1636000000000,"state":"active","ping":45},{"user_id":52,"name":"Gelliterate","steam_id":76561198107233070,"connected_time":5613000000000,"state":"active","ping":57},{"user_id":132,"name":"DigitalWizard","steam_id":76561198085936715,"connected_time":85000000000,"state":"active","ping":89},{"user_id":133,"name":"chicken joe from surfs up 2","steam_id":76561198060807152,"connected_time":57000000000,"state":"spawning","ping":2391},{"user_id":99,"name":"Moonflower ✦","steam_id":76561198191782483,"connected_time":2776000000000,"state":"active","ping":52},{"user_id":125,"name":"de1deonlyvic","steam_id":76561199072005203,"connected_time":540000000000,"state":"active","ping":89},{"user_id":126,"name":"Mr. E","steam_id":76561198060381147,"connected_time":514000000000,"state":"active","ping":104},{"user_id":55,"name":"Mcfighter2","steam_id":76561198168073956,"connected_time":5494000000000,"state":"active","ping":87},{"user_id":127,"name":"zeplinnn","steam_id":76561198301300987,"connected_time":330000000000,"state":"active","ping":83},{"user_id":130,"name":"AllThatJazz","steam_id":76561198296914213,"connected_time":194000000000,"state":"active","ping":92},{"user_id":114,"name":"laddie","steam_id":76561198063029230,"connected_time":1212000000000,"state":"active","ping":100}]},{"server_id":5,"name":"Uncletopia | Frankfurt | 1 | All Maps","name_short":"frk-1","host":"frk-1.de.uncletopia.com","port":27015,"enabled":true,"region":"eu","cc":"de","latitude":50.110924,"longitude":8.682127,"reserved":0,"last_update":"0001-01-01T00:00:00Z","name_a2s":"Uncletopia | Frankfurt | 1 | All Maps","protocol":17,"map":"pl_badwater","folder":"tf","game":"Team Fortress","app_id":440,"player_count":0,"max_players":24,"Bots":0,"server_type":"Dedicated","server_os":"Linux","password":true,"vac":true,"version":"7961495","steam_id":85568392924469989,"keywords":["nocrits","nodmgspread","payload","uncletopia"],"game_id":440,"stv_port":27016,"stv_name":"Uncletopia | Frankfurt | 1 | All Maps | STV","players":null},{"server_id":110,"name":"Uncletopia | Frankfurt | 2 | All Maps","name_short":"frk-2","host":"frk-1.de.uncletopia.com","port":27025,"enabled":true,"region":"eu","cc":"de","latitude":50.110924,"longitude":8.682127,"reserved":0,"last_update":"0001-01-01T00:00:00Z","name_a2s":"Uncletopia | Frankfurt | 2 | All Maps","protocol":17,"map":"koth_lakeside_final","folder":"tf","game":"Team Fortress","app_id":440,"player_count":0,"max_players":24,"Bots":0,"server_type":"Dedicated","server_os":"Linux","password":true,"vac":true,"version":"7961495","steam_id":85568392924469990,"keywords":["cp","nocrits","nodmgspread","uncletopia"],"game_id":440,"stv_port":27026,"stv_name":"Uncletopia | Frankfurt | 2 | All Maps | STV","players":null},{"server_id":308,"name":"Uncletopia | Frankfurt | 3 | All Maps","name_short":"frk-3","host":"frk-1.de.uncletopia.com","port":27035,"enabled":true,"region":"eu","cc":"de","latitude":50.110924,"longitude":8.682127,"reserved":0,"last_update":"0001-01-01T00:00:00Z","name_a2s":"Uncletopia | Frankfurt | 3 | All Maps","protocol":17,"map":"cp_sunshine","folder":"tf","game":"Team Fortress","app_id":440,"player_count":0,"max_players":24,"Bots":0,"server_type":"Dedicated","server_os":"Linux","password":true,"vac":true,"version":"7961495","steam_id":85568392924504274,"keywords":["cp","nocrits","nodmgspread","uncletopia"],"game_id":440,"stv_port":27036,"stv_name":"Uncletopia | Frankfurt | 3 | All Maps | STV","players":null},{"server_id":309,"name":"Uncletopia | Frankfurt | 4 | All Maps","name_short":"frk-4","host":"frk-1.de.uncletopia.com","port":27045,"enabled":true,"region":"eu","cc":"de","latitude":50.110924,"longitude":8.682127,"reserved":0,"last_update":"0001-01-01T00:00:00Z","name_a2s":"Uncletopia | Frankfurt | 4 | All Maps","protocol":17,"map":"cp_altitude","folder":"tf","game":"Team Fortress","app_id":440,"player_count":0,"max_players":24,"Bots":0,"server_type":"Dedicated","server_os":"Linux","password":true,"vac":true,"version":"7961495","steam_id":85568392924504275,"keywords":["cp","nocrits","nodmgspread","uncletopia"],"game_id":440,"stv_port":27046,"stv_name":"Uncletopia | Frankfurt | 4 | All Maps | STV","players":null},{"server_id":310,"name":"Uncletopia | Frankfurt | 5 | All Maps","name_short":"frk-5","host":"frk-1.de.uncletopia.com","port":27055,"enabled":true,"region":"eu","cc":"de","latitude":50.110924,"longitude":8.682127,"reserved":0,"last_update":"0001-01-01T00:00:00Z","name_a2s":"Uncletopia | Frankfurt | 5 | All Maps","protocol":17,"map":"cp_process_final","folder":"tf","game":"Team Fortress","app_id":440,"player_count":0,"max_players":24,"Bots":0,"server_type":"Dedicated","server_os":"Linux","password":true,"vac":true,"version":"7961495","steam_id":85568392924504277,"keywords":["cp","nocrits","nodmgspread","uncletopia"],"game_id":440,"stv_port":27056,"stv_name":"Uncletopia | Frankfurt | 5 | All Maps | STV","players":null},{"server_id":311,"name":"Uncletopia | Frankfurt | 6 | All Maps","name_short":"frk-6","host":"frk-1.de.uncletopia.com","port":27065,"enabled":true,"region":"eu","cc":"de","latitude":50.110924,"longitude":8.682127,"reserved":0,"last_update":"0001-01-01T00:00:00Z","name_a2s":"Uncletopia | Frankfurt | 6 | All Maps","protocol":17,"map":"pl_barnblitz","folder":"tf","game":"Team Fortress","app_id":440,"player_count":0,"max_players":24,"Bots":0,"server_type":"Dedicated","server_os":"Linux","password":true,"vac":true,"version":"7961495","steam_id":85568392924504278,"keywords":["nocrits","nodmgspread","payload","uncletopia"],"game_id":440,"stv_port":27066,"stv_name":"Uncletopia | Frankfurt | 6 | All Maps | STV","players":null},{"server_id":23,"name":"Uncletopia | Frankfurt | 7 | Stopwatch Beta","name_short":"frk-7","host":"frk-1.de.uncletopia.com","port":27075,"enabled":true,"region":"eu","cc":"de","latitude":50.110924,"longitude":8.682127,"reserved":0,"last_update":"0001-01-01T00:00:00Z","name_a2s":"Uncletopia | Frankfurt | 7 | Stopwatch Beta","protocol":17,"map":"koth_cascade","folder":"tf","game":"Team Fortress","app_id":440,"player_count":0,"max_players":24,"Bots":0,"server_type":"Dedicated","server_os":"Linux","password":true,"vac":true,"version":"7961495","steam_id":85568392924742827,"keywords":["cp","nocrits","nodmgspread","uncletopia"],"game_id":440,"stv_port":27076,"stv_name":"Uncletopia | Frankfurt | 7 | Stopwatch Beta | STV","players":null},{"server_id":24,"name":"Uncletopia | Frankfurt | 8 | Community","name_short":"frk-8","host":"frk-1.de.uncletopia.com","port":27085,"enabled":true,"region":"eu","cc":"de","latitude":50.110924,"longitude":8.682127,"reserved":0,"last_update":"0001-01-01T00:00:00Z","name_a2s":"Uncletopia | Frankfurt | 8 | Community","protocol":17,"map":"cp_dustbowl","folder":"tf","game":"Team Fortress","app_id":440,"player_count":0,"max_players":24,"Bots":0,"server_type":"Dedicated","server_os":"Linux","password":true,"vac":true,"version":"7961495","steam_id":85568392924742828,"keywords":["cp","nocrits","nodmgspread","uncletopia"],"game_id":440,"stv_port":27086,"stv_name":"Uncletopia | Frankfurt | 8 | Community | STV","players":null},{"server_id":202,"name":"Uncletopia | Hong Kong | 1 | All Maps","name_short":"hgk-1","host":"hgk-1.hk.uncletopia.com","port":27015,"enabled":true,"region":"asia","cc":"hk","latitude":22.302711,"longitude":114.177216,"reserved":0,"last_update":"0001-01-01T00:00:00Z","name_a2s":"Uncletopia | Hong Kong | 1 | All Maps","protocol":17,"map":"koth_viaduct","folder":"tf","game":"Team Fortress","app_id":440,"player_count":0,"max_players":24,"Bots":0,"server_type":"Dedicated","server_os":"Linux","password":true,"vac":true,"version":"7961495","steam_id":85568392924494504,"keywords":["cp","nocrits","nodmgspread","uncletopia"],"game_id":440,"stv_port":27016,"stv_name":"Uncletopia | Hong Kong | 1 | All Maps | STV","players":null},{"server_id":1,"name":"Uncletopia | Los Angeles | 1 | All Maps","name_short":"lax-1","host":"lax-1.us.uncletopia.com","port":27015,"enabled":true,"region":"us-west","cc":"us","latitude":33.94279,"longitude":-118.41004,"reserved":0,"last_update":"0001-01-01T00:00:00Z","name_a2s":"Uncletopia | Los Angeles | 1 | All Maps","protocol":17,"map":"pl_frontier_final","folder":"tf","game":"Team Fortress","app_id":440,"player_count":24,"max_players":24,"Bots":0,"server_type":"Dedicated","server_os":"Linux","password":true,"vac":true,"version":"7961495","steam_id":85568392924469991,"keywords":["nocrits","nodmgspread","payload","uncletopia"],"game_id":440,"stv_port":27016,"stv_name":"Uncletopia | Los Angeles | 1 | All Maps | STV","players":[{"user_id":355,"name":"BasedGod","steam_id":76561198061177973,"connected_time":3145000000000,"state":"active","ping":51},{"user_id":378,"name":"TüCold","steam_id":76561198111278197,"connected_time":590000000000,"state":"active","ping":57},{"user_id":367,"name":"Kng","steam_id":76561198993248203,"connected_time":1619000000000,"state":"active","ping":113},{"user_id":321,"name":"eh gaming","steam_id":76561198056075147,"connected_time":5510000000000,"state":"active","ping":172},{"user_id":333,"name":"Imitation Caucasian","steam_id":76561198320536166,"connected_time":4210000000000,"state":"active","ping":69},{"user_id":382,"name":"Eugene Thaddeus Hinkle V","steam_id":76561198821535846,"connected_time":497000000000,"state":"active","ping":112},{"user_id":357,"name":"Pybro's Day Off","steam_id":76561197996353534,"connected_time":3026000000000,"state":"active","ping":52},{"user_id":379,"name":"M. Night Shalome","steam_id":76561198094909472,"connected_time":535000000000,"state":"active","ping":116},{"user_id":373,"name":"AXZIOM","steam_id":76561198255074952,"connected_time":1033000000000,"state":"active","ping":66},{"user_id":369,"name":"Justin","steam_id":76561198110865423,"connected_time":1344000000000,"state":"active","ping":44},{"user_id":381,"name":"MayKaye","steam_id":76561199016092265,"connected_time":518000000000,"state":"active","ping":59},{"user_id":370,"name":"Scoops M'Gooch","steam_id":76561198048423812,"connected_time":1264000000000,"state":"active","ping":64},{"user_id":336,"name":"[DATS➡] Sugar Meowth","steam_id":76561197995251793,"connected_time":4181000000000,"state":"active","ping":67},{"user_id":387,"name":"I'mFromSpace","steam_id":76561198808969653,"connected_time":18000000000,"state":"spawning","ping":111},{"user_id":349,"name":"cjetson","steam_id":76561198074482272,"connected_time":3892000000000,"state":"active","ping":61},{"user_id":375,"name":"HeHedron","steam_id":76561199199667164,"connected_time":852000000000,"state":"active","ping":68},{"user_id":372,"name":"Dive(z)","steam_id":76561198140843225,"connected_time":1098000000000,"state":"active","ping":69},{"user_id":383,"name":"type \"bad med\" to kick","steam_id":76561198076402476,"connected_time":460000000000,"state":"active","ping":66},{"user_id":377,"name":"happer","steam_id":76561198018252253,"connected_time":741000000000,"state":"active","ping":49},{"user_id":386,"name":"Dr. Kaine","steam_id":76561197982183984,"connected_time":80000000000,"state":"active","ping":65},{"user_id":347,"name":"HanakoToast","steam_id":76561198045233131,"connected_time":3954000000000,"state":"active","ping":66},{"user_id":344,"name":"branflakess","steam_id":76561198115832989,"connected_time":4049000000000,"state":"active","ping":71},{"user_id":359,"name":"Chad the Sex Haver","steam_id":76561198058236528,"connected_time":2436000000000,"state":"active","ping":46},{"user_id":365,"name":"PunyHappyFace","steam_id":76561198118059305,"connected_time":1894000000000,"state":"active","ping":46}]},{"server_id":112,"name":"Uncletopia | Los Angeles | 2 | All Maps","name_short":"lax-2","host":"lax-1.us.uncletopia.com","port":27025,"enabled":true,"region":"us-west","cc":"us","latitude":33.94279,"longitude":-118.41004,"reserved":0,"last_update":"0001-01-01T00:00:00Z","name_a2s":"Uncletopia | Los Angeles | 2 | All Maps","protocol":17,"map":"pl_swiftwater_final1","folder":"tf","game":"Team Fortress","app_id":440,"player_count":0,"max_players":24,"Bots":0,"server_type":"Dedicated","server_os":"Linux","password":true,"vac":true,"version":"7961495","steam_id":85568392924469992,"keywords":["nocrits","nodmgspread","payload","uncletopia"],"game_id":440,"stv_port":27026,"stv_name":"Uncletopia | Los Angeles | 2 | All Maps | STV","players":null},{"server_id":324,"name":"Uncletopia | Los Angeles | 3 | All Maps","name_short":"lax-3","host":"lax-1.us.uncletopia.com","port":27035,"enabled":true,"region":"us-west","cc":"us","latitude":33.94279,"longitude":-118.41004,"reserved":0,"last_update":"0001-01-01T00:00:00Z","name_a2s":"Uncletopia | Los Angeles | 3 | All Maps","protocol":17,"map":"koth_highpass","folder":"tf","game":"Team Fortress","app_id":440,"player_count":0,"max_players":24,"Bots":0,"server_type":"Dedicated","server_os":"Linux","password":true,"vac":true,"version":"7961495","steam_id":85568392924510198,"keywords":["cp","nocrits","nodmgspread","uncletopia"],"game_id":440,"stv_port":27036,"stv_name":"Uncletopia | Los Angeles | 3 | All Maps | STV","players":null},{"server_id":25,"name":"Uncletopia | Los Angeles | 4 | Stopwatch Beta","name_short":"lax-4","host":"lax-1.us.uncletopia.com","port":27045,"enabled":true,"region":"us-west","cc":"us","latitude":33.94279,"longitude":-118.41004,"reserved":0,"last_update":"0001-01-01T00:00:00Z","name_a2s":"Uncletopia | Los Angeles | 4 | Stopwatch Beta","protocol":17,"map":"workshop/pl_vigil_rc9.ugc1266210012","folder":"tf","game":"Team Fortress","app_id":440,"player_count":0,"max_players":24,"Bots":0,"server_type":"Dedicated","server_os":"Linux","password":true,"vac":true,"version":"7961495","steam_id":85568392924510199,"keywords":["nocrits","nodmgspread","payload","uncletopia"],"game_id":440,"stv_port":27046,"stv_name":"Uncletopia | Los Angeles | 4 | Stopwatch Beta | STV","players":null},{"server_id":11,"name":"Uncletopia | London | 1 | All Maps","name_short":"lon-1","host":"lon-1.uk.uncletopia.com","port":27015,"enabled":true,"region":"eu","cc":"gb","latitude":51.509865,"longitude":-0.118092,"reserved":0,"last_update":"0001-01-01T00:00:00Z","name_a2s":"Uncletopia | London | 1 | All Maps","protocol":17,"map":"pl_borneo","folder":"tf","game":"Team Fortress","app_id":440,"player_count":21,"max_players":24,"Bots":0,"server_type":"Dedicated","server_os":"Linux","password":true,"vac":true,"version":"7961495","steam_id":85568392924367362,"keywords":["nocrits","nodmgspread","payload","uncletopia"],"game_id":440,"stv_port":27016,"stv_name":"Uncletopia | London | 1 | All Maps | STV","players":[{"user_id":841,"name":"Not Steven","steam_id":76561198051881261,"connected_time":1540000000000,"state":"active","ping":43},{"user_id":854,"name":"FurthestBen","steam_id":76561198056681239,"connected_time":226000000000,"state":"active","ping":57},{"user_id":852,"name":"FarisKO","steam_id":76561198259234555,"connected_time":481000000000,"state":"active","ping":125},{"user_id":804,"name":"Dante","steam_id":76561198867107032,"connected_time":3885000000000,"state":"active","ping":136},{"user_id":808,"name":"God","steam_id":76561199049925843,"connected_time":2987000000000,"state":"active","ping":103},{"user_id":817,"name":"Open Mailbox","steam_id":76561198051933580,"connected_time":2305000000000,"state":"active","ping":143},{"user_id":829,"name":"Kabachok Aeronavt","steam_id":76561198123659806,"connected_time":1857000000000,"state":"active","ping":100},{"user_id":846,"name":"Que le morteded non","steam_id":76561198068678853,"connected_time":1178000000000,"state":"active","ping":105},{"user_id":819,"name":"Maks","steam_id":76561198315278876,"connected_time":2214000000000,"state":"active","ping":47},{"user_id":853,"name":"BAO BAO","steam_id":76561198083505031,"connected_time":296000000000,"state":"active","ping":45},{"user_id":849,"name":"N5LH","steam_id":76561199112528775,"connected_time":866000000000,"state":"active","ping":122},{"user_id":830,"name":"modavak","steam_id":76561198946290908,"connected_time":1843000000000,"state":"active","ping":101},{"user_id":839,"name":"crqt2 Armando","steam_id":76561198863720301,"connected_time":1749000000000,"state":"active","ping":64},{"user_id":832,"name":"froglids","steam_id":76561198045466919,"connected_time":1837000000000,"state":"active","ping":70},{"user_id":833,"name":"Walter Black","steam_id":76561198309194819,"connected_time":1826000000000,"state":"active","ping":102},{"user_id":827,"name":"Seanstarman Phillips","steam_id":76561198059812384,"connected_time":1951000000000,"state":"active","ping":56},{"user_id":834,"name":"bird ideas","steam_id":76561199480942903,"connected_time":1795000000000,"state":"active","ping":74},{"user_id":835,"name":"Hydrone","steam_id":76561198046485365,"connected_time":1789000000000,"state":"active","ping":53},{"user_id":836,"name":"Qwerty","steam_id":76561198023525894,"connected_time":1788000000000,"state":"active","ping":92},{"user_id":837,"name":"chachiply","steam_id":76561198316355509,"connected_time":1784000000000,"state":"active","ping":64},{"user_id":838,"name":"POU cherry","steam_id":76561199006915718,"connected_time":1781000000000,"state":"active","ping":64}]},{"server_id":114,"name":"Uncletopia | London | 2 | All Maps","name_short":"lon-2","host":"lon-1.uk.uncletopia.com","port":27025,"enabled":true,"region":"eu","cc":"gb","latitude":51.509865,"longitude":-0.118092,"reserved":0,"last_update":"0001-01-01T00:00:00Z","name_a2s":"Uncletopia | London | 2 | All Maps","protocol":17,"map":"pl_snowycoast","folder":"tf","game":"Team Fortress","app_id":440,"player_count":0,"max_players":24,"Bots":0,"server_type":"Dedicated","server_os":"Linux","password":true,"vac":true,"version":"7961495","steam_id":85568392924470941,"keywords":["nocrits","nodmgspread","payload","uncletopia"],"game_id":440,"stv_port":27026,"stv_name":"Uncletopia | London | 2 | All Maps | STV","players":null},{"server_id":320,"name":"Uncletopia | London | 3 | All Maps","name_short":"lon-3","host":"lon-1.uk.uncletopia.com","port":27035,"enabled":true,"region":"eu","cc":"gb","latitude":51.509865,"longitude":-0.118092,"reserved":0,"last_update":"0001-01-01T00:00:00Z","name_a2s":"Uncletopia | London | 3 | All Maps","protocol":17,"map":"pl_pier","folder":"tf","game":"Team Fortress","app_id":440,"player_count":0,"max_players":24,"Bots":0,"server_type":"Dedicated","server_os":"Linux","password":true,"vac":true,"version":"7961495","steam_id":85568392924510192,"keywords":["nocrits","nodmgspread","payload","uncletopia"],"game_id":440,"stv_port":27036,"stv_name":"Uncletopia | London | 3 | All Maps | STV","players":null},{"server_id":321,"name":"Uncletopia | London | 4 | All Maps","name_short":"lon-4","host":"lon-1.uk.uncletopia.com","port":27045,"enabled":true,"region":"eu","cc":"gb","latitude":51.509865,"longitude":-0.118092,"reserved":0,"last_update":"0001-01-01T00:00:00Z","name_a2s":"Uncletopia | London | 4 | All Maps","protocol":17,"map":"pl_upward","folder":"tf","game":"Team Fortress","app_id":440,"player_count":0,"max_players":24,"Bots":0,"server_type":"Dedicated","server_os":"Linux","password":true,"vac":true,"version":"7961495","steam_id":85568392924510193,"keywords":["nocrits","nodmgspread","payload","uncletopia"],"game_id":440,"stv_port":27046,"stv_name":"Uncletopia | London | 4 | All Maps | STV","players":null},{"server_id":21,"name":"Uncletopia | London | 5 | All Maps","name_short":"lon-5","host":"lon-1.uk.uncletopia.com","port":27055,"enabled":true,"region":"eu","cc":"gb","latitude":51.509865,"longitude":-0.118092,"reserved":0,"last_update":"0001-01-01T00:00:00Z","name_a2s":"Uncletopia | London | 5 | All Maps","protocol":17,"map":"pl_upward","folder":"tf","game":"Team Fortress","app_id":440,"player_count":0,"max_players":24,"Bots":0,"server_type":"Dedicated","server_os":"Linux","password":true,"vac":true,"version":"7961495","steam_id":85568392924742829,"keywords":["nocrits","nodmgspread","payload","uncletopia"],"game_id":440,"stv_port":27056,"stv_name":"Uncletopia | London | 5 | All Maps | STV","players":null},{"server_id":22,"name":"Uncletopia | London | 6 | All Maps","name_short":"lon-6","host":"lon-1.uk.uncletopia.com","port":27065,"enabled":true,"region":"eu","cc":"gb","latitude":51.509865,"longitude":-0.118092,"reserved":0,"last_update":"0001-01-01T00:00:00Z","name_a2s":"Uncletopia | London | 6 | All Maps","protocol":17,"map":"cp_mountainlab","folder":"tf","game":"Team Fortress","app_id":440,"player_count":0,"max_players":24,"Bots":0,"server_type":"Dedicated","server_os":"Linux","password":true,"vac":true,"version":"7961495","steam_id":85568392924742830,"keywords":["cp","nocrits","nodmgspread","uncletopia"],"game_id":440,"stv_port":27066,"stv_name":"Uncletopia | London | 6 | All Maps | STV","players":null},{"server_id":40,"name":"Uncletopia | London | 7 | No Payload","name_short":"lon-7","host":"lon-1.uk.uncletopia.com","port":27075,"enabled":true,"region":"eu","cc":"gb","latitude":51.509865,"longitude":-0.118092,"reserved":0,"last_update":"0001-01-01T00:00:00Z","name_a2s":"Uncletopia | London | 7 | No Payload","protocol":17,"map":"cp_gorge","folder":"tf","game":"Team Fortress","app_id":440,"player_count":3,"max_players":24,"Bots":0,"server_type":"Dedicated","server_os":"Linux","password":true,"vac":true,"version":"7961495","steam_id":85568392924964314,"keywords":["cp","nocrits","nodmgspread","uncletopia"],"game_id":440,"stv_port":27076,"stv_name":"Uncletopia | London | 7 | No Payload | STV","players":[{"user_id":228,"name":"Slessplee","steam_id":76561198315732431,"connected_time":2445000000000,"state":"active","ping":165},{"user_id":229,"name":"Cosmic Yoshi","steam_id":76561199195528497,"connected_time":2378000000000,"state":"active","ping":174},{"user_id":233,"name":"Hatonfire","steam_id":76561198287372060,"connected_time":137000000000,"state":"active","ping":31}]},{"server_id":41,"name":"Uncletopia | London | 8 | Community","name_short":"lon-8","host":"lon-1.uk.uncletopia.com","port":27085,"enabled":true,"region":"eu","cc":"gb","latitude":51.509865,"longitude":-0.118092,"reserved":0,"last_update":"0001-01-01T00:00:00Z","name_a2s":"Uncletopia | London | 8 | Community","protocol":17,"map":"workshop/pl_divulgence_b4b.ugc2884808746","folder":"tf","game":"Team Fortress","app_id":440,"player_count":0,"max_players":24,"Bots":0,"server_type":"Dedicated","server_os":"Linux","password":true,"vac":true,"version":"7961495","steam_id":85568392924964315,"keywords":["nocrits","nodmgspread","payload","uncletopia"],"game_id":440,"stv_port":27086,"stv_name":"Uncletopia | London | 8 | Community | STV","players":null},{"server_id":300,"name":"Uncletopia | Montréal | 1 | All Maps","name_short":"mtl-1","host":"mtl-1.ca.uncletopia.com","port":27015,"enabled":true,"region":"us-east","cc":"ca","latitude":45.50889,"longitude":-73.56167,"reserved":0,"last_update":"0001-01-01T00:00:00Z","name_a2s":"Uncletopia | Montréal | 1 | All Maps","protocol":17,"map":"pl_barnblitz","folder":"tf","game":"Team Fortress","app_id":440,"player_count":0,"max_players":24,"Bots":0,"server_type":"Dedicated","server_os":"Linux","password":true,"vac":true,"version":"7961495","steam_id":85568392924500087,"keywords":["nocrits","nodmgspread","payload","uncletopia"],"game_id":440,"stv_port":27016,"stv_name":"Uncletopia | Montréal | 1 | All Maps | STV","players":null},{"server_id":301,"name":"Uncletopia | Montréal | 2 | All Maps","name_short":"mtl-2","host":"mtl-1.ca.uncletopia.com","port":27025,"enabled":true,"region":"us-east","cc":"ca","latitude":45.50889,"longitude":-73.56167,"reserved":0,"last_update":"0001-01-01T00:00:00Z","name_a2s":"Uncletopia | Montréal | 2 | All Maps","protocol":17,"map":"koth_cascade","folder":"tf","game":"Team Fortress","app_id":440,"player_count":0,"max_players":24,"Bots":0,"server_type":"Dedicated","server_os":"Linux","password":true,"vac":true,"version":"7961495","steam_id":85568392924500088,"keywords":["cp","nocrits","nodmgspread","uncletopia"],"game_id":440,"stv_port":27026,"stv_name":"Uncletopia | Montréal | 2 | All Maps | STV","players":null},{"server_id":302,"name":"Uncletopia | Montréal | 3 | All Maps","name_short":"mtl-3","host":"mtl-1.ca.uncletopia.com","port":27035,"enabled":true,"region":"us-east","cc":"ca","latitude":45.50889,"longitude":-73.56167,"reserved":0,"last_update":"0001-01-01T00:00:00Z","name_a2s":"Uncletopia | Montréal | 3 | All Maps","protocol":17,"map":"pl_pier","folder":"tf","game":"Team Fortress","app_id":440,"player_count":0,"max_players":24,"Bots":0,"server_type":"Dedicated","server_os":"Linux","password":true,"vac":true,"version":"7961495","steam_id":85568392924500089,"keywords":["nocrits","nodmgspread","payload","uncletopia"],"game_id":440,"stv_port":27036,"stv_name":"Uncletopia | Montréal | 3 | All Maps | STV","players":null},{"server_id":303,"name":"Uncletopia | Montréal | 4 | No Payload","name_short":"mtl-4","host":"mtl-1.ca.uncletopia.com","port":27045,"enabled":true,"region":"us-east","cc":"ca","latitude":45.50889,"longitude":-73.56167,"reserved":0,"last_update":"0001-01-01T00:00:00Z","name_a2s":"Uncletopia | Montréal | 4 | No Payload","protocol":17,"map":"koth_lakeside_final","folder":"tf","game":"Team Fortress","app_id":440,"player_count":0,"max_players":24,"Bots":0,"server_type":"Dedicated","server_os":"Linux","password":true,"vac":true,"version":"7961495","steam_id":85568392924500090,"keywords":["cp","nocrits","nodmgspread","uncletopia"],"game_id":440,"stv_port":27046,"stv_name":"Uncletopia | Montréal | 4 | No Payload | STV","players":null},{"server_id":13,"name":"Uncletopia | New York City | 1 | All Maps","name_short":"nyc-1","host":"nyc-1.us.uncletopia.com","port":27015,"enabled":true,"region":"us-east","cc":"us","latitude":40.73061,"longitude":-73.93524,"reserved":0,"last_update":"0001-01-01T00:00:00Z","name_a2s":"Uncletopia | New York City | 1 | All Maps","protocol":17,"map":"pl_pier","folder":"tf","game":"Team Fortress","app_id":440,"player_count":24,"max_players":24,"Bots":0,"server_type":"Dedicated","server_os":"Linux","password":true,"vac":true,"version":"7961495","steam_id":85568392924469993,"keywords":["nocrits","nodmgspread","payload","uncletopia"],"game_id":440,"stv_port":27016,"stv_name":"Uncletopia | New York City | 1 | All Maps | STV","players":[{"user_id":409,"name":"TheSecretNewbie","steam_id":76561198194671218,"connected_time":3117000000000,"state":"active","ping":59},{"user_id":451,"name":"Stop Being Mad,Be Happy","steam_id":76561198201276909,"connected_time":507000000000,"state":"active","ping":68},{"user_id":431,"name":"for the king","steam_id":76561197973488858,"connected_time":1851000000000,"state":"active","ping":46},{"user_id":376,"name":"็Periculosum PhD in Funny","steam_id":76561198123370914,"connected_time":7259000000000,"state":"active","ping":85},{"user_id":398,"name":"That Sentry Is A Spy!","steam_id":76561198069395625,"connected_time":3932000000000,"state":"active","ping":63},{"user_id":416,"name":"Sliced Ham","steam_id":76561198098015568,"connected_time":2866000000000,"state":"active","ping":118},{"user_id":314,"name":"ATL1 | cola","steam_id":76561198374390458,"connected_time":12348000000000,"state":"active","ping":62},{"user_id":437,"name":"PeachFlavoredBleach","steam_id":76561198116226449,"connected_time":1246000000000,"state":"active","ping":47},{"user_id":445,"name":"Aeris","steam_id":76561198287271028,"connected_time":730000000000,"state":"active","ping":78},{"user_id":435,"name":"Captain Bug","steam_id":76561198137763878,"connected_time":1699000000000,"state":"active","ping":76},{"user_id":438,"name":"Mr. Durian","steam_id":76561198093813212,"connected_time":972000000000,"state":"active","ping":54},{"user_id":446,"name":"ATL 1 | Save your wifi","steam_id":76561198286147372,"connected_time":724000000000,"state":"active","ping":73},{"user_id":424,"name":"YouGotShamPwnd","steam_id":76561198068149575,"connected_time":1917000000000,"state":"active","ping":70},{"user_id":382,"name":"Bert.","steam_id":76561198140666346,"connected_time":6190000000000,"state":"active","ping":56},{"user_id":448,"name":"Johnny Lawrence #JohnnyMaxxing","steam_id":76561199367141671,"connected_time":708000000000,"state":"active","ping":57},{"user_id":429,"name":"Ω Das Gebeine Δ","steam_id":76561198063665024,"connected_time":1867000000000,"state":"active","ping":108},{"user_id":450,"name":"Golden","steam_id":76561199128320581,"connected_time":544000000000,"state":"active","ping":116},{"user_id":442,"name":"Grand Piano Tuna","steam_id":76561198135137213,"connected_time":762000000000,"state":"active","ping":68},{"user_id":394,"name":"SnickerNoodle","steam_id":76561198064359644,"connected_time":4641000000000,"state":"active","ping":53},{"user_id":444,"name":"patdine","steam_id":76561198060865671,"connected_time":750000000000,"state":"active","ping":63},{"user_id":436,"name":"Clumsy","steam_id":76561198056345245,"connected_time":1642000000000,"state":"active","ping":79},{"user_id":425,"name":"Purple Oceano","steam_id":76561198147813347,"connected_time":1917000000000,"state":"active","ping":67},{"user_id":440,"name":"weewa","steam_id":76561198064876090,"connected_time":905000000000,"state":"active","ping":64}]},{"server_id":14,"name":"Uncletopia | New York City | 2 | All Maps","name_short":"nyc-2","host":"nyc-1.us.uncletopia.com","port":27025,"enabled":true,"region":"us-east","cc":"us","latitude":40.73061,"longitude":-73.93524,"reserved":0,"last_update":"0001-01-01T00:00:00Z","name_a2s":"Uncletopia | New York City | 2 | All Maps","protocol":17,"map":"cp_process_final","folder":"tf","game":"Team Fortress","app_id":440,"player_count":24,"max_players":24,"Bots":0,"server_type":"Dedicated","server_os":"Linux","password":true,"vac":true,"version":"7961495","steam_id":85568392924469994,"keywords":["cp","nocrits","nodmgspread","uncletopia"],"game_id":440,"stv_port":27026,"stv_name":"Uncletopia | New York City | 2 | All Maps | STV","players":[{"user_id":661,"name":"Cookie","steam_id":76561198047736899,"connected_time":2495000000000,"state":"active","ping":34},{"user_id":684,"name":"acid","steam_id":76561198055855408,"connected_time":430000000000,"state":"active","ping":56},{"user_id":651,"name":"dieling","steam_id":76561198831902966,"connected_time":3322000000000,"state":"active","ping":66},{"user_id":685,"name":"D.E.O","steam_id":76561198096992957,"connected_time":232000000000,"state":"active","ping":138},{"user_id":686,"name":"keffers","steam_id":76561198202338796,"connected_time":140000000000,"state":"active","ping":94},{"user_id":667,"name":"tonybaloney","steam_id":76561199434233117,"connected_time":1758000000000,"state":"active","ping":92},{"user_id":680,"name":"lost in spaaaaace","steam_id":76561199085974120,"connected_time":1007000000000,"state":"active","ping":60},{"user_id":687,"name":"Lil' Pump-a-Rum","steam_id":76561198110868519,"connected_time":53000000000,"state":"active","ping":71},{"user_id":683,"name":"Awesome Style Gaming","steam_id":76561198311537713,"connected_time":467000000000,"state":"active","ping":78},{"user_id":659,"name":"TLG, Certified Gamer Mom","steam_id":76561198076669951,"connected_time":2710000000000,"state":"active","ping":55},{"user_id":671,"name":"moopmop","steam_id":76561198065224965,"connected_time":1719000000000,"state":"active","ping":117},{"user_id":646,"name":"duhRICE[UT]","steam_id":76561198117832876,"connected_time":3884000000000,"state":"active","ping":32},{"user_id":662,"name":"Vaudeville Villain","steam_id":76561199212093339,"connected_time":2470000000000,"state":"active","ping":88},{"user_id":494,"name":"[NAME-REDACTED]","steam_id":76561198035682975,"connected_time":14367000000000,"state":"active","ping":57},{"user_id":676,"name":"TheChickenChuck","steam_id":76561199192686708,"connected_time":1547000000000,"state":"active","ping":117},{"user_id":579,"name":"triple_range_merge","steam_id":76561198991225026,"connected_time":7545000000000,"state":"active","ping":63},{"user_id":647,"name":"Foonut","steam_id":76561198075740574,"connected_time":3470000000000,"state":"active","ping":73},{"user_id":644,"name":"CaptainPigeon","steam_id":76561198020541863,"connected_time":4316000000000,"state":"active","ping":58},{"user_id":678,"name":"Feldum","steam_id":76561198032537700,"connected_time":1352000000000,"state":"active","ping":75},{"user_id":675,"name":"Thunderous","steam_id":76561198192752793,"connected_time":1623000000000,"state":"active","ping":65},{"user_id":673,"name":"A Puppy","steam_id":76561198828184456,"connected_time":1693000000000,"state":"active","ping":45},{"user_id":682,"name":"Ballistic","steam_id":76561197992355477,"connected_time":649000000000,"state":"active","ping":61},{"user_id":638,"name":"Sarumon","steam_id":76561198078652494,"connected_time":4946000000000,"state":"active","ping":90},{"user_id":681,"name":"MAXIMUS","steam_id":76561198085809453,"connected_time":752000000000,"state":"active","ping":84}]},{"server_id":15,"name":"Uncletopia | New York City | 3 | Stopwatch Beta","name_short":"nyc-3","host":"nyc-1.us.uncletopia.com","port":27035,"enabled":true,"region":"us-east","cc":"us","latitude":40.73061,"longitude":-73.93524,"reserved":0,"last_update":"0001-01-01T00:00:00Z","name_a2s":"Uncletopia | New York City | 3 | Stopwatch Beta","protocol":17,"map":"cp_snakewater_final1","folder":"tf","game":"Team Fortress","app_id":440,"player_count":24,"max_players":24,"Bots":0,"server_type":"Dedicated","server_os":"Linux","password":true,"vac":true,"version":"7961495","steam_id":85568392924742820,"keywords":["cp","nocrits","nodmgspread","uncletopia"],"game_id":440,"stv_port":27036,"stv_name":"Uncletopia | New York City | 3 | Stopwatch Beta | STV","players":[{"user_id":160,"name":"FluffyNinjaRobatech","steam_id":76561197981072423,"connected_time":1165000000000,"state":"active","ping":105},{"user_id":170,"name":"Hertz","steam_id":76561198245322982,"connected_time":981000000000,"state":"active","ping":73},{"user_id":181,"name":"TheSmolPopato","steam_id":76561199076606348,"connected_time":886000000000,"state":"active","ping":74},{"user_id":189,"name":"Frisbee","steam_id":76561197962808987,"connected_time":153000000000,"state":"active","ping":77},{"user_id":115,"name":"Aldinach","steam_id":76561198079912615,"connected_time":4194000000000,"state":"active","ping":60},{"user_id":186,"name":"Techo","steam_id":76561199169405285,"connected_time":416000000000,"state":"active","ping":128},{"user_id":175,"name":"Im Groot","steam_id":76561198294943420,"connected_time":924000000000,"state":"active","ping":81},{"user_id":163,"name":"a leaf","steam_id":76561198242599168,"connected_time":1118000000000,"state":"active","ping":107},{"user_id":165,"name":"Aristotle Voulton","steam_id":76561198100174923,"connected_time":1063000000000,"state":"active","ping":83},{"user_id":173,"name":"toastman","steam_id":76561198207073088,"connected_time":955000000000,"state":"active","ping":76},{"user_id":157,"name":"Patton","steam_id":76561198087871688,"connected_time":1451000000000,"state":"active","ping":70},{"user_id":187,"name":"Hob-Goblin Jim The IV","steam_id":76561199046650666,"connected_time":391000000000,"state":"active","ping":69},{"user_id":168,"name":"pls no kick am good","steam_id":76561199488989511,"connected_time":1029000000000,"state":"active","ping":125},{"user_id":112,"name":"super clickteam fusion","steam_id":76561198275101482,"connected_time":4364000000000,"state":"active","ping":136},{"user_id":169,"name":"⛧ Elliemental ⛧","steam_id":76561199171132199,"connected_time":1009000000000,"state":"active","ping":122},{"user_id":190,"name":"orgasmo","steam_id":76561198047355245,"connected_time":61000000000,"state":"active","ping":42},{"user_id":176,"name":"The Chrisind","steam_id":76561198024980467,"connected_time":921000000000,"state":"active","ping":80},{"user_id":150,"name":"I shovel mayonnaise in mouth","steam_id":76561199123118241,"connected_time":2198000000000,"state":"active","ping":134},{"user_id":178,"name":"ricebox","steam_id":76561197998059533,"connected_time":907000000000,"state":"active","ping":44},{"user_id":184,"name":"ʕ•ᴥ•ʔ the bear","steam_id":76561197989591976,"connected_time":762000000000,"state":"active","ping":62},{"user_id":180,"name":"ehs","steam_id":76561198431048339,"connected_time":896000000000,"state":"active","ping":124},{"user_id":152,"name":"Lumi","steam_id":76561198089978036,"connected_time":1865000000000,"state":"active","ping":55},{"user_id":182,"name":"gIBBY","steam_id":76561198080099598,"connected_time":877000000000,"state":"active","ping":41},{"user_id":109,"name":"Lux E Tenebris","steam_id":76561198072664199,"connected_time":4915000000000,"state":"active","ping":69}]},{"server_id":16,"name":"Uncletopia | New York City | 4 | Community","name_short":"nyc-4","host":"nyc-1.us.uncletopia.com","port":27045,"enabled":true,"region":"us-east","cc":"us","latitude":40.73061,"longitude":-73.93524,"reserved":0,"last_update":"0001-01-01T00:00:00Z","name_a2s":"Uncletopia | New York City | 4 | Community","protocol":17,"map":"workshop/pl_badwater_pro_v12.ugc2142942074","folder":"tf","game":"Team Fortress","app_id":440,"player_count":21,"max_players":24,"Bots":0,"server_type":"Dedicated","server_os":"Linux","password":true,"vac":true,"version":"7961495","steam_id":85568392924742821,"keywords":["nocrits","nodmgspread","payload","uncletopia"],"game_id":440,"stv_port":27046,"stv_name":"Uncletopia | New York City | 4 | Community | STV","players":[{"user_id":408,"name":"sevner","steam_id":76561198274210409,"connected_time":414000000000,"state":"active","ping":44},{"user_id":406,"name":"Spicy Within Reason","steam_id":76561198066700370,"connected_time":683000000000,"state":"active","ping":102},{"user_id":417,"name":"hashmap","steam_id":76561198043794014,"connected_time":36000000000,"state":"active","ping":50},{"user_id":364,"name":"CassieCarryd","steam_id":76561198092048062,"connected_time":3242000000000,"state":"active","ping":102},{"user_id":365,"name":"Dawg","steam_id":76561198214090164,"connected_time":3223000000000,"state":"active","ping":53},{"user_id":409,"name":"nba youngboy","steam_id":76561198149967340,"connected_time":331000000000,"state":"active","ping":84},{"user_id":414,"name":"King of Ping","steam_id":76561198278737470,"connected_time":185000000000,"state":"active","ping":53},{"user_id":410,"name":"AlcoholicDad454","steam_id":76561198157414556,"connected_time":328000000000,"state":"active","ping":88},{"user_id":411,"name":"Sanic_Bum","steam_id":76561198094179822,"connected_time":280000000000,"state":"active","ping":45},{"user_id":404,"name":"Mark","steam_id":76561199092079229,"connected_time":1068000000000,"state":"active","ping":127},{"user_id":372,"name":"ethanf","steam_id":76561198103930234,"connected_time":2933000000000,"state":"active","ping":75},{"user_id":412,"name":"theletterA-","steam_id":76561198164987883,"connected_time":240000000000,"state":"active","ping":146},{"user_id":374,"name":"A Black Square","steam_id":76561198043570320,"connected_time":2796000000000,"state":"active","ping":76},{"user_id":415,"name":"Jaydyn","steam_id":76561198140326797,"connected_time":153000000000,"state":"active","ping":67},{"user_id":376,"name":"b ugo n   e","steam_id":76561198126386686,"connected_time":2666000000000,"state":"active","ping":60},{"user_id":416,"name":"V-Spire","steam_id":76561198095923905,"connected_time":152000000000,"state":"active","ping":63},{"user_id":401,"name":"Gram Tokers Count Doinkula","steam_id":76561198112811565,"connected_time":1345000000000,"state":"active","ping":52},{"user_id":392,"name":"MetaMetang","steam_id":76561199037970969,"connected_time":2200000000000,"state":"active","ping":104},{"user_id":405,"name":"googy doogy","steam_id":76561199025852100,"connected_time":884000000000,"state":"active","ping":50},{"user_id":403,"name":"emseaeye","steam_id":76561198161499803,"connected_time":1095000000000,"state":"active","ping":59},{"user_id":394,"name":"tot","steam_id":76561198277218052,"connected_time":2162000000000,"state":"active","ping":75}]},{"server_id":142,"name":"Uncletopia | São Paulo | 1 | All Maps","name_short":"sao-1","host":"sao-1.br.uncletopia.com","port":27015,"enabled":true,"region":"sa","cc":"br","latitude":-23.533773,"longitude":-46.62529,"reserved":0,"last_update":"0001-01-01T00:00:00Z","name_a2s":"Uncletopia | São Paulo | 1 | All Maps","protocol":17,"map":"koth_cascade","folder":"tf","game":"Team Fortress","app_id":440,"player_count":0,"max_players":24,"Bots":0,"server_type":"Dedicated","server_os":"Linux","password":true,"vac":true,"version":"7961495","steam_id":85568392924469996,"keywords":["cp","nocrits","nodmgspread","uncletopia"],"game_id":440,"stv_port":27016,"stv_name":"Uncletopia | São Paulo | 1 | All Maps | STV","players":null},{"server_id":143,"name":"Uncletopia | São Paulo | 2 | Community","name_short":"sao-2","host":"sao-2.br.uncletopia.com","port":27015,"enabled":true,"region":"sa","cc":"br","latitude":-23.533773,"longitude":-46.62529,"reserved":0,"last_update":"0001-01-01T00:00:00Z","name_a2s":"Uncletopia | São Paulo | 2 | Community","protocol":17,"map":"workshop/cp_indulge.ugc528106646","folder":"tf","game":"Team Fortress","app_id":440,"player_count":0,"max_players":24,"Bots":0,"server_type":"Dedicated","server_os":"Linux","password":true,"vac":true,"version":"7961495","steam_id":85568392924485349,"keywords":["cp","nocrits","nodmgspread","uncletopia"],"game_id":440,"stv_port":27016,"stv_name":"Uncletopia | São Paulo | 2 | Community | STV","players":null},{"server_id":7,"name":"Uncletopia | Seattle | 1 | All Maps","name_short":"sea-1","host":"sea-1.us.uncletopia.com","port":27015,"enabled":true,"region":"us-west","cc":"us","latitude":47.608013,"longitude":-122.33517,"reserved":0,"last_update":"0001-01-01T00:00:00Z","name_a2s":"Uncletopia | Seattle | 1 | All Maps","protocol":17,"map":"pl_barnblitz","folder":"tf","game":"Team Fortress","app_id":440,"player_count":24,"max_players":24,"Bots":0,"server_type":"Dedicated","server_os":"Linux","password":true,"vac":true,"version":"7961495","steam_id":85568392924469997,"keywords":["nocrits","nodmgspread","payload","uncletopia"],"game_id":440,"stv_port":27016,"stv_name":"Uncletopia | Seattle | 1 | All Maps | STV","players":[{"user_id":683,"name":"dust | she/it","steam_id":76561198045218909,"connected_time":6344000000000,"state":"active","ping":42},{"user_id":739,"name":"Forty","steam_id":76561198257410181,"connected_time":1375000000000,"state":"active","ping":57},{"user_id":685,"name":"CashGordon","steam_id":76561197975594096,"connected_time":6311000000000,"state":"active","ping":39},{"user_id":719,"name":"192.168.1.14","steam_id":76561198280085840,"connected_time":2852000000000,"state":"active","ping":81},{"user_id":698,"name":"trackpad gaming | f2p","steam_id":76561198840414371,"connected_time":5367000000000,"state":"active","ping":52},{"user_id":733,"name":"birthday BLU3 🎉","steam_id":76561198059652670,"connected_time":1957000000000,"state":"active","ping":46},{"user_id":695,"name":"BolognaWithOlives","steam_id":76561198101262668,"connected_time":5691000000000,"state":"active","ping":89},{"user_id":744,"name":"Luca","steam_id":76561198125087140,"connected_time":917000000000,"state":"active","ping":48},{"user_id":681,"name":"SpükiiTV","steam_id":76561198098281824,"connected_time":6351000000000,"state":"active","ping":102},{"user_id":740,"name":"mr.edderkopper","steam_id":76561198152614478,"connected_time":1347000000000,"state":"active","ping":82},{"user_id":673,"name":"ilun","steam_id":76561198042913843,"connected_time":7314000000000,"state":"active","ping":59},{"user_id":745,"name":"lemonjack","steam_id":76561198277380277,"connected_time":831000000000,"state":"active","ping":83},{"user_id":696,"name":"Fh","steam_id":76561198000903511,"connected_time":5663000000000,"state":"active","ping":68},{"user_id":725,"name":"Nukenfutz","steam_id":76561198135666783,"connected_time":2699000000000,"state":"active","ping":48},{"user_id":730,"name":"aisu","steam_id":76561198043768507,"connected_time":2016000000000,"state":"active","ping":90},{"user_id":729,"name":"Geobeetle","steam_id":76561198207400124,"connected_time":2041000000000,"state":"active","ping":61},{"user_id":738,"name":"spenca","steam_id":76561198025371154,"connected_time":1385000000000,"state":"active","ping":75},{"user_id":720,"name":"ORANGE","steam_id":76561198000401769,"connected_time":2852000000000,"state":"active","ping":55},{"user_id":726,"name":"30-50 feral hogs","steam_id":76561198073587145,"connected_time":2387000000000,"state":"active","ping":114},{"user_id":713,"name":"PvZ Enthusiast","steam_id":76561199089562026,"connected_time":3411000000000,"state":"active","ping":53},{"user_id":746,"name":"Skoad","steam_id":76561198104650528,"connected_time":782000000000,"state":"active","ping":69},{"user_id":703,"name":"Ayayayayayahuasca","steam_id":76561199002906056,"connected_time":4699000000000,"state":"active","ping":53},{"user_id":747,"name":"greens beans","steam_id":76561198153611491,"connected_time":534000000000,"state":"active","ping":44},{"user_id":732,"name":"a cat plushie","steam_id":76561198080046542,"connected_time":1961000000000,"state":"active","ping":40}]},{"server_id":119,"name":"Uncletopia | Seattle | 2 | All Maps","name_short":"sea-2","host":"sea-1.us.uncletopia.com","port":27025,"enabled":true,"region":"us-west","cc":"us","latitude":47.608013,"longitude":-122.33517,"reserved":0,"last_update":"0001-01-01T00:00:00Z","name_a2s":"Uncletopia | Seattle | 2 | All Maps","protocol":17,"map":"cp_dustbowl","folder":"tf","game":"Team Fortress","app_id":440,"player_count":24,"max_players":24,"Bots":0,"server_type":"Dedicated","server_os":"Linux","password":true,"vac":true,"version":"7961495","steam_id":85568392924469998,"keywords":["cp","nocrits","nodmgspread","uncletopia"],"game_id":440,"stv_port":27026,"stv_name":"Uncletopia | Seattle | 2 | All Maps | STV","players":[{"user_id":286,"name":"fruit brute fiend","steam_id":76561198811500361,"connected_time":3458000000000,"state":"active","ping":45},{"user_id":346,"name":"noblehallett","steam_id":76561197990994280,"connected_time":45000000000,"state":"active","ping":54},{"user_id":321,"name":"Krustytoepaste","steam_id":76561198320265524,"connected_time":819000000000,"state":"active","ping":88},{"user_id":296,"name":"chompmastr","steam_id":76561199121805899,"connected_time":2688000000000,"state":"active","ping":64},{"user_id":309,"name":"THE_VIRTUAL_MAN.exe","steam_id":76561197999522253,"connected_time":1917000000000,"state":"active","ping":30},{"user_id":326,"name":"John Johnson","steam_id":76561198347510093,"connected_time":693000000000,"state":"active","ping":58},{"user_id":325,"name":"RagingRoosevelt","steam_id":76561197985483153,"connected_time":742000000000,"state":"active","ping":58},{"user_id":328,"name":"Major_Pippy","steam_id":76561198004482878,"connected_time":609000000000,"state":"active","ping":54},{"user_id":323,"name":"thats so cool","steam_id":76561198046880196,"connected_time":790000000000,"state":"active","ping":127},{"user_id":335,"name":"Nortel Network Telephone T7316","steam_id":76561198399261089,"connected_time":311000000000,"state":"active","ping":63},{"user_id":330,"name":"Linkletter","steam_id":76561197970292524,"connected_time":565000000000,"state":"active","ping":44},{"user_id":333,"name":"{AVG} Xx_Half-Life2fan420_xX","steam_id":76561199231634222,"connected_time":400000000000,"state":"active","ping":141},{"user_id":334,"name":"flamingdorit0s","steam_id":76561198869206247,"connected_time":398000000000,"state":"active","ping":103},{"user_id":337,"name":"CoconutGun42069","steam_id":76561199116912878,"connected_time":297000000000,"state":"active","ping":105},{"user_id":338,"name":"C0D","steam_id":76561198340544460,"connected_time":282000000000,"state":"active","ping":75},{"user_id":339,"name":"birthday truck sex (trucks only","steam_id":76561198062712676,"connected_time":256000000000,"state":"active","ping":48},{"user_id":340,"name":"super smash2josh","steam_id":76561198140864125,"connected_time":247000000000,"state":"active","ping":62},{"user_id":294,"name":"whittecar","steam_id":76561198169715643,"connected_time":2721000000000,"state":"active","ping":55},{"user_id":341,"name":"thealphabetsoup","steam_id":76561198028148682,"connected_time":246000000000,"state":"active","ping":56},{"user_id":342,"name":"Akira (they/them)","steam_id":76561198294601519,"connected_time":236000000000,"state":"active","ping":28},{"user_id":343,"name":"DungeonKeeper","steam_id":76561199475507686,"connected_time":216000000000,"state":"active","ping":140},{"user_id":344,"name":"nfseskimo","steam_id":76561198078745666,"connected_time":199000000000,"state":"active","ping":44},{"user_id":345,"name":"QuesaDiaz","steam_id":76561198355667850,"connected_time":197000000000,"state":"active","ping":66},{"user_id":304,"name":"i wish i were a bird","steam_id":76561199224976982,"connected_time":2450000000000,"state":"active","ping":113}]},{"server_id":406,"name":"Uncletopia | Seattle | 3 | Stopwatch Beta","name_short":"sea-3","host":"sea-1.us.uncletopia.com","port":27035,"enabled":true,"region":"us-west","cc":"us","latitude":47.608013,"longitude":-122.33517,"reserved":0,"last_update":"0001-01-01T00:00:00Z","name_a2s":"Uncletopia | Seattle | 3 | Stopwatch Beta","protocol":17,"map":"workshop/koth_ramjam_rc1.ugc459778887","folder":"tf","game":"Team Fortress","app_id":440,"player_count":0,"max_players":24,"Bots":0,"server_type":"Dedicated","server_os":"Linux","password":true,"vac":true,"version":"7961495","steam_id":85568392924515217,"keywords":["cp","nocrits","nodmgspread","uncletopia"],"game_id":440,"stv_port":27036,"stv_name":"Uncletopia | Seattle | 3 | Stopwatch Beta | STV","players":null},{"server_id":17,"name":"Uncletopia | San Francisco | 1 | All Maps","name_short":"sfo-1","host":"sfo-1.us.uncletopia.com","port":27015,"enabled":true,"region":"us-west","cc":"us","latitude":37.77397,"longitude":-122.4313,"reserved":0,"last_update":"0001-01-01T00:00:00Z","name_a2s":"Uncletopia | San Francisco | 1 | All Maps","protocol":17,"map":"pl_upward","folder":"tf","game":"Team Fortress","app_id":440,"player_count":24,"max_players":24,"Bots":0,"server_type":"Dedicated","server_os":"Linux","password":true,"vac":true,"version":"7961495","steam_id":85568392924469999,"keywords":["nocrits","nodmgspread","payload","uncletopia"],"game_id":440,"stv_port":27016,"stv_name":"Uncletopia | San Francisco | 1 | All Maps | STV","players":[{"user_id":127,"name":"gamer_cruncher","steam_id":76561198973306314,"connected_time":2573000000000,"state":"active","ping":52},{"user_id":156,"name":"Yakul","steam_id":76561198100040013,"connected_time":1351000000000,"state":"active","ping":129},{"user_id":168,"name":"BlazedBunny","steam_id":76561198243610560,"connected_time":1021000000000,"state":"active","ping":87},{"user_id":132,"name":"Shwal","steam_id":76561198138840448,"connected_time":2235000000000,"state":"active","ping":114},{"user_id":154,"name":"||BassMan||","steam_id":76561198279865229,"connected_time":1391000000000,"state":"active","ping":82},{"user_id":133,"name":"Pukei-Pukei","steam_id":76561197992722546,"connected_time":2216000000000,"state":"active","ping":68},{"user_id":173,"name":"Cookies","steam_id":76561199099061813,"connected_time":523000000000,"state":"active","ping":67},{"user_id":155,"name":"Moonlily","steam_id":76561198852670061,"connected_time":1364000000000,"state":"active","ping":70},{"user_id":174,"name":"magunyamu","steam_id":76561198823083676,"connected_time":516000000000,"state":"active","ping":70},{"user_id":142,"name":"medic enthusiast","steam_id":76561198323031964,"connected_time":2052000000000,"state":"active","ping":110},{"user_id":171,"name":"Higuma","steam_id":76561198375229012,"connected_time":842000000000,"state":"active","ping":62},{"user_id":165,"name":"Jill","steam_id":76561198097398193,"connected_time":1184000000000,"state":"active","ping":44},{"user_id":177,"name":"chanoc","steam_id":76561198026734746,"connected_time":195000000000,"state":"active","ping":45},{"user_id":158,"name":"Human Person","steam_id":76561198283855440,"connected_time":1334000000000,"state":"active","ping":103},{"user_id":93,"name":"Star_Mann_Jr.","steam_id":76561198071148924,"connected_time":4908000000000,"state":"active","ping":82},{"user_id":176,"name":"fitotutus","steam_id":76561197974993253,"connected_time":248000000000,"state":"active","ping":155},{"user_id":169,"name":"Slippy","steam_id":76561198334059206,"connected_time":1021000000000,"state":"active","ping":50},{"user_id":112,"name":"A UsedNom","steam_id":76561198402832756,"connected_time":3577000000000,"state":"active","ping":50},{"user_id":166,"name":"Martino","steam_id":76561198427776925,"connected_time":1134000000000,"state":"active","ping":59},{"user_id":163,"name":"Franz","steam_id":76561198041929745,"connected_time":1225000000000,"state":"active","ping":55},{"user_id":175,"name":"DrWilloughby","steam_id":76561198095260357,"connected_time":423000000000,"state":"active","ping":70},{"user_id":149,"name":"cinnamon","steam_id":76561198130086375,"connected_time":1685000000000,"state":"active","ping":73},{"user_id":164,"name":"crumblejon","steam_id":76561198111273302,"connected_time":1209000000000,"state":"active","ping":75},{"user_id":178,"name":"klopse","steam_id":76561198314981454,"connected_time":158000000000,"state":"active","ping":78}]},{"server_id":18,"name":"Uncletopia | San Francisco | 2 | All Maps","name_short":"sfo-2","host":"sfo-1.us.uncletopia.com","port":27025,"enabled":true,"region":"us-west","cc":"us","latitude":37.77397,"longitude":-122.4313,"reserved":0,"last_update":"0001-01-01T00:00:00Z","name_a2s":"Uncletopia | San Francisco | 2 | All Maps","protocol":17,"map":"pl_pier","folder":"tf","game":"Team Fortress","app_id":440,"player_count":24,"max_players":24,"Bots":0,"server_type":"Dedicated","server_os":"Linux","password":true,"vac":true,"version":"7961495","steam_id":85568392924470000,"keywords":["nocrits","nodmgspread","payload","uncletopia"],"game_id":440,"stv_port":27026,"stv_name":"Uncletopia | San Francisco | 2 | All Maps | STV","players":[{"user_id":226,"name":"Whiskey","steam_id":76561198858154667,"connected_time":426000000000,"state":"active","ping":52},{"user_id":53,"name":"Wiggee","steam_id":76561197972792989,"connected_time":11391000000000,"state":"active","ping":81},{"user_id":213,"name":"shitass | troutsupply.net","steam_id":76561198210572481,"connected_time":1837000000000,"state":"active","ping":47},{"user_id":214,"name":"Pork Belly","steam_id":76561198053003142,"connected_time":1576000000000,"state":"active","ping":44},{"user_id":222,"name":"Seanvich","steam_id":76561198065805500,"connected_time":1158000000000,"state":"active","ping":104},{"user_id":227,"name":"BurningKev","steam_id":76561198057688837,"connected_time":416000000000,"state":"active","ping":75},{"user_id":202,"name":"Vimchi","steam_id":76561198151927029,"connected_time":3068000000000,"state":"active","ping":71},{"user_id":228,"name":"WarBorg","steam_id":76561198929639228,"connected_time":410000000000,"state":"active","ping":55},{"user_id":223,"name":"Got It Figured Out","steam_id":76561198041329791,"connected_time":1104000000000,"state":"active","ping":48},{"user_id":201,"name":"Caspian","steam_id":76561199041466962,"connected_time":3264000000000,"state":"active","ping":43},{"user_id":224,"name":"Grand","steam_id":76561198290143399,"connected_time":1085000000000,"state":"active","ping":76},{"user_id":225,"name":"Truffles","steam_id":76561198095868800,"connected_time":827000000000,"state":"active","ping":130},{"user_id":217,"name":"yaslon2","steam_id":76561199465869600,"connected_time":1520000000000,"state":"active","ping":55},{"user_id":236,"name":"Scorpianswag","steam_id":76561198260651036,"connected_time":76000000000,"state":"active","ping":45},{"user_id":165,"name":"Pablo's nuts","steam_id":76561198062763756,"connected_time":4664000000000,"state":"active","ping":94},{"user_id":230,"name":"Grassman (Cc)","steam_id":76561198026488532,"connected_time":394000000000,"state":"active","ping":48},{"user_id":231,"name":"Eurobeat too loud, can't hear :","steam_id":76561198330743199,"connected_time":391000000000,"state":"active","ping":58},{"user_id":232,"name":"hash","steam_id":76561198058516339,"connected_time":384000000000,"state":"active","ping":60},{"user_id":102,"name":"riSygneD","steam_id":76561198331618687,"connected_time":9502000000000,"state":"active","ping":46},{"user_id":209,"name":"Chaptain","steam_id":76561198452725739,"connected_time":2454000000000,"state":"active","ping":77},{"user_id":237,"name":"PTR","steam_id":76561198237253772,"connected_time":53000000000,"state":"active","ping":77},{"user_id":233,"name":"JV","steam_id":76561199107368676,"connected_time":379000000000,"state":"active","ping":57},{"user_id":200,"name":"Sweattadpole","steam_id":76561199456100100,"connected_time":3286000000000,"state":"active","ping":126},{"user_id":234,"name":"mollusk_obliteration","steam_id":76561198085388962,"connected_time":374000000000,"state":"active","ping":128}]},{"server_id":19,"name":"Uncletopia | San Francisco | 3 | Stopwatch Beta","name_short":"sfo-3","host":"sfo-1.us.uncletopia.com","port":27035,"enabled":true,"region":"us-west","cc":"us","latitude":37.77397,"longitude":-122.4313,"reserved":0,"last_update":"0001-01-01T00:00:00Z","name_a2s":"Uncletopia | San Francisco | 3 | Stopwatch Beta","protocol":17,"map":"pl_borneo","folder":"tf","game":"Team Fortress","app_id":440,"player_count":0,"max_players":24,"Bots":0,"server_type":"Dedicated","server_os":"Linux","password":true,"vac":true,"version":"7961495","steam_id":85568392924742824,"keywords":["nocrits","nodmgspread","payload","uncletopia"],"game_id":440,"stv_port":27036,"stv_name":"Uncletopia | San Francisco | 3 | Stopwatch Beta | STV","players":null},{"server_id":20,"name":"Uncletopia | San Francisco | 4 | Community","name_short":"sfo-4","host":"sfo-1.us.uncletopia.com","port":27045,"enabled":true,"region":"us-west","cc":"us","latitude":37.77397,"longitude":-122.4313,"reserved":0,"last_update":"0001-01-01T00:00:00Z","name_a2s":"Uncletopia | San Francisco | 4 | Community","protocol":17,"map":"workshop/cp_bruhstbowl_b6.ugc2878604990","folder":"tf","game":"Team Fortress","app_id":440,"player_count":0,"max_players":24,"Bots":0,"server_type":"Dedicated","server_os":"Linux","password":true,"vac":true,"version":"7961495","steam_id":85568392924742826,"keywords":["cp","nocrits","nodmgspread","uncletopia"],"game_id":440,"stv_port":27046,"stv_name":"Uncletopia | San Francisco | 4 | Community | STV","players":null},{"server_id":141,"name":"Uncletopia | Sydney | 1 | All Maps","name_short":"syd-1","host":"syd-1.au.uncletopia.com","port":27015,"enabled":true,"region":"au","cc":"au","latitude":-33.865143,"longitude":151.2099,"reserved":0,"last_update":"0001-01-01T00:00:00Z","name_a2s":"Uncletopia | Sydney | 1 | All Maps","protocol":17,"map":"koth_highpass","folder":"tf","game":"Team Fortress","app_id":440,"player_count":0,"max_players":24,"Bots":0,"server_type":"Dedicated","server_os":"Linux","password":true,"vac":true,"version":"7961495","steam_id":85568392924470001,"keywords":["cp","nocrits","nodmgspread","uncletopia"],"game_id":440,"stv_port":27016,"stv_name":"Uncletopia | Sydney | 1 | All Maps | STV","players":null},{"server_id":123,"name":"Uncletopia | Sydney | 2 | All Maps","name_short":"syd-2","host":"syd-1.au.uncletopia.com","port":27025,"enabled":true,"region":"au","cc":"au","latitude":-33.865143,"longitude":151.2099,"reserved":0,"last_update":"0001-01-01T00:00:00Z","name_a2s":"Uncletopia | Sydney | 2 | All Maps","protocol":17,"map":"koth_cascade","folder":"tf","game":"Team Fortress","app_id":440,"player_count":0,"max_players":24,"Bots":0,"server_type":"Dedicated","server_os":"Linux","password":true,"vac":true,"version":"7961495","steam_id":85568392924470002,"keywords":["cp","nocrits","nodmgspread","uncletopia"],"game_id":440,"stv_port":27026,"stv_name":"Uncletopia | Sydney | 2 | All Maps | STV","players":null},{"server_id":395,"name":"Uncletopia | Sydney | 3 | All Maps","name_short":"syd-3","host":"syd-1.au.uncletopia.com","port":27035,"enabled":true,"region":"au","cc":"au","latitude":-33.865143,"longitude":151.2099,"reserved":0,"last_update":"0001-01-01T00:00:00Z","name_a2s":"Uncletopia | Sydney | 3 | All Maps","protocol":17,"map":"pl_pier","folder":"tf","game":"Team Fortress","app_id":440,"player_count":11,"max_players":24,"Bots":0,"server_type":"Dedicated","server_os":"Linux","password":true,"vac":true,"version":"7961495","steam_id":85568392925194467,"keywords":["nocrits","nodmgspread","payload","uncletopia"],"game_id":440,"stv_port":27036,"stv_name":"Uncletopia | Sydney | 3 | All Maps | STV","players":[{"user_id":47,"name":"Tees","steam_id":76561199174602317,"connected_time":736000000000,"state":"active","ping":56},{"user_id":58,"name":"Wigglytuff","steam_id":76561198011032527,"connected_time":22000000000,"state":"active","ping":123},{"user_id":24,"name":"VyKK0iolet","steam_id":76561199439296450,"connected_time":3318000000000,"state":"active","ping":85},{"user_id":54,"name":"peepants2300","steam_id":76561198274980801,"connected_time":391000000000,"state":"active","ping":78},{"user_id":31,"name":"wom","steam_id":76561199375834537,"connected_time":2334000000000,"state":"active","ping":130},{"user_id":51,"name":"Hungry for thumbtacks","steam_id":76561198059129270,"connected_time":533000000000,"state":"active","ping":65},{"user_id":43,"name":"stardiver","steam_id":76561198876360694,"connected_time":848000000000,"state":"active","ping":63},{"user_id":19,"name":"MindlessTie","steam_id":76561198107844324,"connected_time":3809000000000,"state":"active","ping":74},{"user_id":56,"name":"payn.","steam_id":76561199277321828,"connected_time":241000000000,"state":"active","ping":71},{"user_id":57,"name":"PenTor","steam_id":76561199273454595,"connected_time":92000000000,"state":"spawning","ping":208},{"user_id":40,"name":"Pickled Cow","steam_id":76561198292517991,"connected_time":1142000000000,"state":"active","ping":44}]},{"server_id":396,"name":"Uncletopia | Sydney | 4 | All Maps","name_short":"syd-4","host":"syd-1.au.uncletopia.com","port":27045,"enabled":true,"region":"au","cc":"au","latitude":-33.865143,"longitude":151.2099,"reserved":0,"last_update":"0001-01-01T00:00:00Z","name_a2s":"Uncletopia | Sydney | 4 | All Maps","protocol":17,"map":"cp_snakewater_final1","folder":"tf","game":"Team Fortress","app_id":440,"player_count":0,"max_players":24,"Bots":0,"server_type":"Dedicated","server_os":"Linux","password":true,"vac":true,"version":"7961495","steam_id":85568392925397958,"keywords":["cp","nocrits","nodmgspread","uncletopia"],"game_id":440,"stv_port":27046,"stv_name":"Uncletopia | Sydney | 4 | All Maps | STV","players":null},{"server_id":58,"name":"Uncletopia | Sydney | 5 | Stopwatch Beta","name_short":"syd-5","host":"syd-1.au.uncletopia.com","port":27055,"enabled":true,"region":"au","cc":"au","latitude":-33.865143,"longitude":151.2099,"reserved":0,"last_update":"0001-01-01T00:00:00Z","name_a2s":"Uncletopia | Sydney | 5 | Stopwatch Beta","protocol":17,"map":"koth_viaduct","folder":"tf","game":"Team Fortress","app_id":440,"player_count":0,"max_players":24,"Bots":0,"server_type":"Dedicated","server_os":"Linux","password":true,"vac":true,"version":"7961495","steam_id":85568392925397959,"keywords":["cp","nocrits","nodmgspread","uncletopia"],"game_id":440,"stv_port":27056,"stv_name":"Uncletopia | Sydney | 5 | Stopwatch Beta | STV","players":null},{"server_id":59,"name":"Uncletopia | Sydney | 6 | Community","name_short":"syd-6","host":"syd-1.au.uncletopia.com","port":27065,"enabled":true,"region":"au","cc":"au","latitude":-33.865143,"longitude":151.2099,"reserved":0,"last_update":"0001-01-01T00:00:00Z","name_a2s":"Uncletopia | Sydney | 6 | Community","protocol":17,"map":"koth_cascade","folder":"tf","game":"Team Fortress","app_id":440,"player_count":0,"max_players":24,"Bots":0,"server_type":"Dedicated","server_os":"Linux","password":true,"vac":true,"version":"7961495","steam_id":85568392925397960,"keywords":["cp","nocrits","nodmgspread","uncletopia"],"game_id":440,"stv_port":27066,"stv_name":"Uncletopia | Sydney | 6 | Community | STV","players":null},{"server_id":49,"name":"Uncletopia | Warsaw | 1 | All Maps","name_short":"waw-1","host":"waw-1.pl.uncletopia.com","port":27015,"enabled":true,"region":"eu","cc":"pl","latitude":52.2297,"longitude":21.017532,"reserved":0,"last_update":"0001-01-01T00:00:00Z","name_a2s":"Uncletopia | Warsaw | 1 | All Maps","protocol":17,"map":"koth_viaduct","folder":"tf","game":"Team Fortress","app_id":440,"player_count":0,"max_players":24,"Bots":0,"server_type":"Dedicated","server_os":"Linux","password":true,"vac":true,"version":"7961495","steam_id":85568392925397850,"keywords":["cp","nocrits","nodmgspread","uncletopia"],"game_id":440,"stv_port":27016,"stv_name":"Uncletopia | Warsaw | 1 | All Maps | STV","players":null},{"server_id":50,"name":"Uncletopia | Warsaw | 2 | All Maps","name_short":"waw-2","host":"waw-1.pl.uncletopia.com","port":27025,"enabled":true,"region":"eu","cc":"pl","latitude":52.2297,"longitude":21.017532,"reserved":0,"last_update":"0001-01-01T00:00:00Z","name_a2s":"Uncletopia | Warsaw | 2 | All Maps","protocol":17,"map":"koth_cascade","folder":"tf","game":"Team Fortress","app_id":440,"player_count":0,"max_players":24,"Bots":0,"server_type":"Dedicated","server_os":"Linux","password":true,"vac":true,"version":"7961495","steam_id":85568392925397851,"keywords":["cp","nocrits","nodmgspread","uncletopia"],"game_id":440,"stv_port":27026,"stv_name":"Uncletopia | Warsaw | 2 | All Maps | STV","players":null},{"server_id":51,"name":"Uncletopia | Warsaw | 3 | All Maps","name_short":"waw-3","host":"waw-1.pl.uncletopia.com","port":27035,"enabled":true,"region":"eu","cc":"pl","latitude":52.2297,"longitude":21.017532,"reserved":0,"last_update":"0001-01-01T00:00:00Z","name_a2s":"Uncletopia | Warsaw | 3 | All Maps","protocol":17,"map":"pl_borneo","folder":"tf","game":"Team Fortress","app_id":440,"player_count":0,"max_players":24,"Bots":0,"server_type":"Dedicated","server_os":"Linux","password":true,"vac":true,"version":"7961495","steam_id":85568392925397852,"keywords":["nocrits","nodmgspread","payload","uncletopia"],"game_id":440,"stv_port":27036,"stv_name":"Uncletopia | Warsaw | 3 | All Maps | STV","players":null},{"server_id":52,"name":"Uncletopia | Warsaw | 4 | All Maps","name_short":"waw-4","host":"waw-1.pl.uncletopia.com","port":27045,"enabled":true,"region":"eu","cc":"pl","latitude":52.2297,"longitude":21.017532,"reserved":0,"last_update":"0001-01-01T00:00:00Z","name_a2s":"Uncletopia | Warsaw | 4 | All Maps","protocol":17,"map":"cp_altitude","folder":"tf","game":"Team Fortress","app_id":440,"player_count":0,"max_players":24,"Bots":0,"server_type":"Dedicated","server_os":"Linux","password":true,"vac":true,"version":"7961495","steam_id":85568392925397853,"keywords":["cp","nocrits","nodmgspread","uncletopia"],"game_id":440,"stv_port":27046,"stv_name":"Uncletopia | Warsaw | 4 | All Maps | STV","players":null},{"server_id":53,"name":"Uncletopia | Warsaw | 5 | Stopwatch Beta","name_short":"waw-5","host":"waw-1.pl.uncletopia.com","port":27055,"enabled":true,"region":"eu","cc":"pl","latitude":52.2297,"longitude":21.017532,"reserved":0,"last_update":"0001-01-01T00:00:00Z","name_a2s":"Uncletopia | Warsaw | 5 | Stopwatch Beta","protocol":17,"map":"cp_granary","folder":"tf","game":"Team Fortress","app_id":440,"player_count":0,"max_players":24,"Bots":0,"server_type":"Dedicated","server_os":"Linux","password":true,"vac":true,"version":"7961495","steam_id":85568392925397854,"keywords":["cp","nocrits","nodmgspread","uncletopia"],"game_id":440,"stv_port":27056,"stv_name":"Uncletopia | Warsaw | 5 | Stopwatch Beta | STV","players":null},{"server_id":54,"name":"Uncletopia | Warsaw | 6 | Community","name_short":"waw-6","host":"waw-1.pl.uncletopia.com","port":27065,"enabled":true,"region":"eu","cc":"pl","latitude":52.2297,"longitude":21.017532,"reserved":0,"last_update":"0001-01-01T00:00:00Z","name_a2s":"Uncletopia | Warsaw | 6 | Community","protocol":17,"map":"workshop/koth_product_final.ugc454272353","folder":"tf","game":"Team Fortress","app_id":440,"player_count":0,"max_players":24,"Bots":0,"server_type":"Dedicated","server_os":"Linux","password":true,"vac":true,"version":"7961495","steam_id":85568392925397856,"keywords":["cp","nocrits","nodmgspread","uncletopia"],"game_id":440,"stv_port":27066,"stv_name":"Uncletopia | Warsaw | 6 | Community | STV","players":null}]}