{"status":true,"message":"","result":[{"server_id":9,"name":"Uncletopia | Atlanta | 1 | All Maps","name_short":"atl-1","host":"atl-1.us.uncletopia.com","port":27015,"enabled":true,"region":"us-east","cc":"us","latitude":33.753746,"longitude":-84.38633,"reserved":0,"last_update":"0001-01-01T00:00:00Z","name_a2s":"Uncletopia | Atlanta | 1 | All Maps","protocol":17,"map":"pl_borneo","folder":"tf","game":"Team Fortress","app_id":440,"player_count":24,"max_players":24,"Bots":0,"server_type":"Dedicated","server_os":"Linux","password":true,"vac":true,"version":"7757534","steam_id":85568392924469982,"keywords":["nocrits","nodmgspread","payload","uncletopia"],"game_id":440,"stv_port":27016,"stv_name":"Uncletopia | Atlanta | 1 | All Maps | STV","players":[{"user_id":299,"name":"Karma","steam_id":76561198030565234,"connected_time":3971000000000,"state":"active","ping":68},{"user_id":329,"name":"J O V A","steam_id":76561198090333536,"connected_time":1391000000000,"state":"active","ping":61},{"user_id":278,"name":"Dong-A-Tron 27.0","steam_id":76561198082202698,"connected_time":7198000000000,"state":"active","ping":73},{"user_id":294,"name":"ash","steam_id":76561198127890645,"connected_time":4959000000000,"state":"active","ping":60},{"user_id":296,"name":"GreenApples","steam_id":76561198120559543,"connected_time":4540000000000,"state":"active","ping":102},{"user_id":336,"name":"stink","steam_id":76561198099318923,"connected_time":711000000000,"state":"active","ping":74},{"user_id":335,"name":"melancholy","steam_id":76561198024301465,"connected_time":786000000000,"state":"active","ping":43},{"user_id":307,"name":"Bandicario","steam_id":76561198432036026,"connected_time":3309000000000,"state":"active","ping":54},{"user_id":260,"name":"BORN IN GOOP RAISED IN POOP","steam_id":76561198095909397,"connected_time":9283000000000,"state":"active","ping":56},{"user_id":298,"name":"H_NGM_N","steam_id":76561199427024166,"connected_time":3981000000000,"state":"active","ping":70},{"user_id":318,"name":"goober","steam_id":76561198943598378,"connected_time":2634000000000,"state":"active","ping":53},{"user_id":283,"name":"MyamE","steam_id":76561198133278462,"connected_time":6651000000000,"state":"active","ping":76},{"user_id":337,"name":"FemboyNate","steam_id":76561198146636410,"connected_time":159000000000,"state":"active","ping":74},{"user_id":339,"name":"ATL1 | Kramer","steam_id":76561198083595936,"connected_time":147000000000,"state":"active","ping":74},{"user_id":323,"name":"Dreszerg","steam_id":76561198838757422,"connected_time":1830000000000,"state":"active","ping":85},{"user_id":284,"name":"RED1 | ma0re","steam_id":76561199231971506,"connected_time":6634000000000,"state":"active","ping":60},{"user_id":319,"name":"truundrscr","steam_id":76561198213525809,"connected_time":2593000000000,"state":"active","ping":120},{"user_id":324,"name":"Stuart Little 2","steam_id":76561198097272509,"connected_time":1807000000000,"state":"active","ping":34},{"user_id":314,"name":"Nameless0561","steam_id":76561199447870100,"connected_time":2889000000000,"state":"active","ping":80},{"user_id":322,"name":"RED1 | Le4n!!!","steam_id":76561198045522596,"connected_time":1938000000000,"state":"active","ping":67},{"user_id":286,"name":"Chris Pratt's pocket spaghetti","steam_id":76561198138347045,"connected_time":6601000000000,"state":"active","ping":60},{"user_id":334,"name":"denzy_","steam_id":76561198873788683,"connected_time":1263000000000,"state":"active","ping":65},{"user_id":338,"name":"BLU1 | Pango","steam_id":76561198069811545,"connected_time":157000000000,"state":"active","ping":46},{"user_id":333,"name":"Frontier Psychiatrist","steam_id":76561198038689088,"connected_time":1314000000000,"state":"active","ping":96}]},{"server_id":400,"name":"Uncletopia | Atlanta | 3 | Stopwatch Beta","name_short":"atl-3","host":"atl-1.us.uncletopia.com","port":27035,"enabled":true,"region":"us-east","cc":"us","latitude":33.753746,"longitude":-84.38633,"reserved":0,"last_update":"0001-01-01T00:00:00Z","name_a2s":"Uncletopia | Atlanta | 3 | Stopwatch Beta","protocol":17,"map":"workshop/koth_ramjam_rc1.ugc459778887","folder":"tf","game":"Team Fortress","app_id":440,"player_count":20,"max_players":24,"Bots":0,"server_type":"Dedicated","server_os":"Linux","password":true,"vac":true,"version":"7757534","steam_id":85568392924515187,"keywords":["cp","nocrits","nodmgspread","uncletopia"],"game_id":440,"stv_port":27036,"stv_name":"Uncletopia | Atlanta | 3 | Stopwatch Beta | STV","players":[{"user_id":54,"name":"abomination","steam_id":76561198167974713,"connected_time":2361000000000,"state":"spawning","ping":74},{"user_id":42,"name":"--_Cook_--","steam_id":76561198080855748,"connected_time":3111000000000,"state":"spawning","ping":47},{"user_id":25,"name":"2KDrop","steam_id":76561198119446937,"connected_time":6041000000000,"state":"spawning","ping":243},{"user_id":69,"name":"William Wallace","steam_id":76561199343316814,"connected_time":1191000000000,"state":"spawning","ping":60},{"user_id":36,"name":"Solaris","steam_id":76561198073166053,"connected_time":3897000000000,"state":"spawning","ping":57},{"user_id":70,"name":"jorjor wells","steam_id":76561199073429082,"connected_time":1139000000000,"state":"spawning","ping":92},{"user_id":40,"name":"daemon","steam_id":76561198001541433,"connected_time":3216000000000,"state":"spawning","ping":86},{"user_id":41,"name":"Chrisscar","steam_id":76561198086298130,"connected_time":3164000000000,"state":"spawning","ping":159},{"user_id":80,"name":"Warlock","steam_id":76561198801747883,"connected_time":185000000000,"state":"spawning","ping":104},{"user_id":50,"name":"TheMoltenKnight","steam_id":76561198967874421,"connected_time":2464000000000,"state":"spawning","ping":158},{"user_id":81,"name":"kino","steam_id":76561199417907044,"connected_time":163000000000,"state":"spawning","ping":75},{"user_id":48,"name":"¬ºMinister Of Canada","steam_id":76561198067726846,"connected_time":2514000000000,"state":"spawning","ping":121},{"user_id":66,"name":"trans rights","steam_id":76561198044183038,"connected_time":1598000000000,"state":"spawning","ping":135},{"user_id":84,"name":"Angstrom Boli","steam_id":76561198025670585,"connected_time":85000000000,"state":"spawning","ping":67},{"user_id":82,"name":"HATEWORK.","steam_id":76561198286792807,"connected_time":152000000000,"state":"connecting","ping":0},{"user_id":75,"name":"‚ú™ Rory","steam_id":76561199059508137,"connected_time":758000000000,"state":"spawning","ping":97},{"user_id":74,"name":"malarkeyman","steam_id":76561198844473584,"connected_time":841000000000,"state":"spawning","ping":101},{"user_id":56,"name":"brickers","steam_id":76561198145072434,"connected_time":2283000000000,"state":"spawning","ping":142},{"user_id":76,"name":"Jin Gulilo","steam_id":76561198065151242,"connected_time":692000000000,"state":"spawning","ping":66},{"user_id":86,"name":"squaggles!","steam_id":76561197994995011,"connected_time":79000000000,"state":"spawning","ping":49}]},{"server_id":401,"name":"Uncletopia | Atlanta | 4 | No Payload","name_short":"atl-4","host":"atl-1.us.uncletopia.com","port":27045,"enabled":true,"region":"us-east","cc":"us","latitude":33.753746,"longitude":-84.38633,"reserved":0,"last_update":"0001-01-01T00:00:00Z","name_a2s":"Uncletopia | Atlanta | 4 | No Payload","protocol":17,"map":"pl_pier","folder":"tf","game":"Team Fortress","app_id":440,"player_count":0,"max_players":24,"Bots":0,"server_type":"Dedicated","server_os":"Linux","password":true,"vac":true,"version":"7723704","steam_id":85568392924515188,"keywords":["nocrits","nodmgspread","payload","uncletopia"],"game_id":440,"stv_port":27046,"stv_name":"Uncletopia | Atlanta | 4 | No Payload | STV","players":null},{"server_id":2,"name":"Uncletopia | Chicago | 1 | All Maps","name_short":"chi-1","host":"chi-1.us.uncletopia.com","port":27015,"enabled":true,"region":"us-central","cc":"us","latitude":41.881832,"longitude":-87.62318,"reserved":0,"last_update":"0001-01-01T00:00:00Z","name_a2s":"Uncletopia | Chicago | 1 | All Maps","protocol":17,"map":"cp_snakewater_final1","folder":"tf","game":"Team Fortress","app_id":440,"player_count":24,"max_players":24,"Bots":0,"server_type":"Dedicated","server_os":"Linux","password":true,"vac":true,"version":"7757534","steam_id":85568392924469984,"keywords":["cp","nocrits","nodmgspread","uncletopia"],"game_id":440,"stv_port":27016,"stv_name":"Uncletopia | Chicago | 1 | All Maps | STV","players":[{"user_id":599,"name":"shifu","steam_id":76561198300655076,"connected_time":1511000000000,"state":"active","ping":59},{"user_id":605,"name":"Crack Wizard","steam_id":76561198055463619,"connected_time":1464000000000,"state":"active","ping":84},{"user_id":642,"name":"Snarkel","steam_id":76561198070688550,"connected_time":438000000000,"state":"active","ping":63},{"user_id":641,"name":"axolotlfan809","steam_id":76561199441249967,"connected_time":442000000000,"state":"active","ping":76},{"user_id":591,"name":"Lord Scrubling","steam_id":76561198263744445,"connected_time":1646000000000,"state":"active","ping":69},{"user_id":650,"name":"SpiderString (She/She++)","steam_id":76561198092409181,"connected_time":46000000000,"state":"active","ping":94},{"user_id":627,"name":"ahh","steam_id":76561198083271257,"connected_time":774000000000,"state":"active","ping":84},{"user_id":595,"name":"NUt","steam_id":76561198031007966,"connected_time":1570000000000,"state":"active","ping":75},{"user_id":596,"name":"Baconshirt16","steam_id":76561198091167052,"connected_time":1555000000000,"state":"active","ping":61},{"user_id":645,"name":"Demonicsoup","steam_id":76561198274729392,"connected_time":319000000000,"state":"active","ping":75},{"user_id":644,"name":"grace","steam_id":76561198132364510,"connected_time":365000000000,"state":"active","ping":107},{"user_id":601,"name":"the grungler!","steam_id":76561198058485742,"connected_time":1487000000000,"state":"active","ping":49},{"user_id":651,"name":"PrinceGrotle","steam_id":76561198206131603,"connected_time":30000000000,"state":"active","ping":80},{"user_id":640,"name":"TacticalGlizzy","steam_id":76561198144786171,"connected_time":467000000000,"state":"active","ping":67},{"user_id":606,"name":"Steve Harvey Oswald","steam_id":76561198077091773,"connected_time":1455000000000,"state":"active","ping":74},{"user_id":611,"name":"psy","steam_id":76561198013195018,"connected_time":1372000000000,"state":"active","ping":76},{"user_id":608,"name":"jessicamustdie \u003c3","steam_id":76561198045230921,"connected_time":1439000000000,"state":"active","ping":64},{"user_id":647,"name":"MikeWaChubski","steam_id":76561198368151490,"connected_time":283000000000,"state":"active","ping":73},{"user_id":648,"name":"fresco","steam_id":76561199101199477,"connected_time":275000000000,"state":"active","ping":69},{"user_id":622,"name":"BenteBent","steam_id":76561198297920637,"connected_time":970000000000,"state":"active","ping":141},{"user_id":652,"name":"HATEWORK.","steam_id":76561198286792807,"connected_time":3000000000,"state":"spawning","ping":109},{"user_id":649,"name":"Mervous Thrifty","steam_id":76561198063250819,"connected_time":273000000000,"state":"active","ping":44},{"user_id":615,"name":"TankSkeleton","steam_id":76561198374262567,"connected_time":1337000000000,"state":"active","ping":52},{"user_id":619,"name":"BeKnown","steam_id":76561198344338970,"connected_time":1072000000000,"state":"active","ping":110}]},{"server_id":106,"name":"Uncletopia | Chicago | 2 | All Maps","name_short":"chi-2","host":"chi-1.us.uncletopia.com","port":27025,"enabled":true,"region":"us-central","cc":"us","latitude":41.881832,"longitude":-87.62318,"reserved":0,"last_update":"0001-01-01T00:00:00Z","name_a2s":"Uncletopia | Chicago | 2 | All Maps","protocol":17,"map":"cp_gullywash_final1","folder":"tf","game":"Team Fortress","app_id":440,"player_count":24,"max_players":24,"Bots":0,"server_type":"Dedicated","server_os":"Linux","password":true,"vac":true,"version":"7757534","steam_id":85568392924469985,"keywords":["cp","nocrits","nodmgspread","uncletopia"],"game_id":440,"stv_port":27026,"stv_name":"Uncletopia | Chicago | 2 | All Maps | STV","players":[{"user_id":451,"name":"Toasti\u003c3","steam_id":76561198036238997,"connected_time":4417000000000,"state":"active","ping":86},{"user_id":514,"name":"Kzjytsugn","steam_id":76561198130241974,"connected_time":532000000000,"state":"active","ping":93},{"user_id":515,"name":"Crayfry","steam_id":76561198146525237,"connected_time":510000000000,"state":"active","ping":45},{"user_id":479,"name":"Mrcheesey","steam_id":76561199078252493,"connected_time":2627000000000,"state":"active","ping":87},{"user_id":445,"name":"R2D28MYFOOD","steam_id":76561198124315872,"connected_time":4968000000000,"state":"active","ping":86},{"user_id":480,"name":"ZodiacThundaga","steam_id":76561199025117814,"connected_time":2614000000000,"state":"active","ping":68},{"user_id":446,"name":"Lennu","steam_id":76561198060730154,"connected_time":4820000000000,"state":"active","ping":75},{"user_id":517,"name":"two sentient corn cobs kissing","steam_id":76561198238842076,"connected_time":31000000000,"state":"spawning","ping":81},{"user_id":505,"name":"Illegal Gaming","steam_id":76561198030323714,"connected_time":1245000000000,"state":"active","ping":81},{"user_id":493,"name":"silly little feller","steam_id":76561198041975003,"connected_time":1621000000000,"state":"active","ping":76},{"user_id":483,"name":"shadow wizard","steam_id":76561198165212575,"connected_time":2295000000000,"state":"active","ping":76},{"user_id":506,"name":"Gachalover","steam_id":76561199231552074,"connected_time":1219000000000,"state":"active","ping":69},{"user_id":463,"name":"deer girl","steam_id":76561198064873161,"connected_time":3435000000000,"state":"active","ping":75},{"user_id":454,"name":"movement shooter enthusiast","steam_id":76561198841593464,"connected_time":4387000000000,"state":"active","ping":71},{"user_id":507,"name":"nalezinik","steam_id":76561198030026119,"connected_time":1191000000000,"state":"active","ping":59},{"user_id":474,"name":"Grouch","steam_id":76561198080790944,"connected_time":2737000000000,"state":"active","ping":69},{"user_id":460,"name":"tacofever","steam_id":76561198010966507,"connected_time":3838000000000,"state":"active","ping":104},{"user_id":518,"name":"Obama Sex Podcast (Official)","steam_id":76561198101234232,"connected_time":1000000000,"state":"spawning","ping":35},{"user_id":510,"name":"Bartolomew Jackson","steam_id":76561198306596853,"connected_time":1010000000000,"state":"active","ping":57},{"user_id":476,"name":"lorelius hogglefart","steam_id":76561198211781375,"connected_time":2734000000000,"state":"active","ping":81},{"user_id":459,"name":"innisfree","steam_id":76561198109065124,"connected_time":3957000000000,"state":"active","ping":75},{"user_id":477,"name":"nomallife","steam_id":76561198066078134,"connected_time":2726000000000,"state":"active","ping":63},{"user_id":461,"name":"Piyono","steam_id":76561197962188504,"connected_time":3706000000000,"state":"active","ping":71},{"user_id":443,"name":"jstn","steam_id":76561198845283665,"connected_time":5131000000000,"state":"active","ping":72}]},{"server_id":402,"name":"Uncletopia | Chicago | 3 | All Maps","name_short":"chi-3","host":"chi-1.us.uncletopia.com","port":27035,"enabled":true,"region":"us-central","cc":"us","latitude":41.881832,"longitude":-87.62318,"reserved":0,"last_update":"0001-01-01T00:00:00Z","name_a2s":"Uncletopia | Chicago | 3 | All Maps","protocol":17,"map":"cp_snakewater_final1","folder":"tf","game":"Team Fortress","app_id":440,"player_count":24,"max_players":24,"Bots":0,"server_type":"Dedicated","server_os":"Linux","password":true,"vac":true,"version":"7757534","steam_id":85568392924515191,"keywords":["cp","nocrits","nodmgspread","uncletopia"],"game_id":440,"stv_port":27036,"stv_name":"Uncletopia | Chicago | 3 | All Maps | STV","players":[{"user_id":146,"name":"leonardo doujinshi","steam_id":76561198025810326,"connected_time":2515000000000,"state":"active","ping":75},{"user_id":144,"name":"beethan","steam_id":76561198148199120,"connected_time":2618000000000,"state":"active","ping":91},{"user_id":165,"name":"diddy","steam_id":76561198166915763,"connected_time":1299000000000,"state":"active","ping":83},{"user_id":168,"name":"Zaku 2 Party Type","steam_id":76561198356522924,"connected_time":1205000000000,"state":"active","ping":45},{"user_id":179,"name":"Clockwork Giant","steam_id":76561199084981409,"connected_time":420000000000,"state":"active","ping":72},{"user_id":122,"name":"anonpain","steam_id":76561198081317092,"connected_time":4172000000000,"state":"active","ping":53},{"user_id":171,"name":"YourAvarageGamer","steam_id":76561199145678019,"connected_time":1054000000000,"state":"active","ping":65},{"user_id":176,"name":"RedSock","steam_id":76561198161243404,"connected_time":649000000000,"state":"active","ping":44},{"user_id":189,"name":"Hale Bop","steam_id":76561198264055709,"connected_time":153000000000,"state":"active","ping":56},{"user_id":180,"name":"Zoawsome","steam_id":76561198018758753,"connected_time":413000000000,"state":"active","ping":45},{"user_id":148,"name":"D(b) Hell","steam_id":76561198067869016,"connected_time":2499000000000,"state":"active","ping":44},{"user_id":190,"name":"Kinbo2487","steam_id":76561198184714198,"connected_time":92000000000,"state":"active","ping":75},{"user_id":187,"name":"boop c:","steam_id":76561198147391779,"connected_time":230000000000,"state":"active","ping":81},{"user_id":173,"name":"victordead121","steam_id":76561199180843121,"connected_time":808000000000,"state":"active","ping":124},{"user_id":156,"name":"JPMockMan","steam_id":76561198071370876,"connected_time":1981000000000,"state":"active","ping":89},{"user_id":167,"name":"[DEEP] Fitts1099","steam_id":76561198044986906,"connected_time":1235000000000,"state":"active","ping":45},{"user_id":184,"name":"Backside540","steam_id":76561197960602545,"connected_time":252000000000,"state":"active","ping":99},{"user_id":161,"name":"| ë ë√∏","steam_id":76561198206306996,"connected_time":1374000000000,"state":"active","ping":71},{"user_id":178,"name":"kingtonyfunnyface","steam_id":76561199181860517,"connected_time":453000000000,"state":"active","ping":89},{"user_id":188,"name":"The Largest Man.","steam_id":76561198125151492,"connected_time":210000000000,"state":"active","ping":72},{"user_id":162,"name":"DeadErebus","steam_id":76561198286117045,"connected_time":1371000000000,"state":"active","ping":37},{"user_id":78,"name":"Can we get much dumber?(jack)","steam_id":76561198044762365,"connected_time":7456000000000,"state":"active","ping":52},{"user_id":185,"name":"Fedoras are awesome","steam_id":76561198040418719,"connected_time":250000000000,"state":"active","ping":83},{"user_id":191,"name":"Menace to Sobriety","steam_id":76561198245103000,"connected_time":70000000000,"state":"active","ping":73}]},{"server_id":403,"name":"Uncletopia | Chicago | 4 | All Maps","name_short":"chi-4","host":"chi-1.us.uncletopia.com","port":27045,"enabled":true,"region":"us-central","cc":"us","latitude":41.881832,"longitude":-87.62318,"reserved":0,"last_update":"0001-01-01T00:00:00Z","name_a2s":"Uncletopia | Chicago | 4 | All Maps","protocol":17,"map":"pl_barnblitz","folder":"tf","game":"Team Fortress","app_id":440,"player_count":24,"max_players":24,"Bots":0,"server_type":"Dedicated","server_os":"Linux","password":true,"vac":true,"version":"7757534","steam_id":85568392924515193,"keywords":["nocrits","nodmgspread","payload","uncletopia"],"game_id":440,"stv_port":27046,"stv_name":"Uncletopia | Chicago | 4 | All Maps | STV","players":[{"user_id":420,"name":"BillButtLicker69","steam_id":76561198070119268,"connected_time":982000000000,"state":"active","ping":110},{"user_id":426,"name":"poproxycodone","steam_id":76561198353460257,"connected_time":365000000000,"state":"active","ping":163},{"user_id":372,"name":"NinjassauroJr","steam_id":76561198262555693,"connected_time":4050000000000,"state":"active","ping":169},{"user_id":404,"name":"leumas","steam_id":76561198240408540,"connected_time":2192000000000,"state":"active","ping":74},{"user_id":427,"name":"breloom","steam_id":76561198062922146,"connected_time":358000000000,"state":"active","ping":75},{"user_id":428,"name":"Pyro Main(Not a furry)","steam_id":76561199178575029,"connected_time":351000000000,"state":"active","ping":77},{"user_id":425,"name":"totoro","steam_id":76561198210420871,"connected_time":403000000000,"state":"active","ping":46},{"user_id":423,"name":"www.lesbian.com","steam_id":76561198029274581,"connected_time":465000000000,"state":"active","ping":61},{"user_id":421,"name":"Warsh Cloth","steam_id":76561198059761344,"connected_time":821000000000,"state":"active","ping":58},{"user_id":422,"name":"lost in the sauce","steam_id":76561199043827112,"connected_time":788000000000,"state":"active","ping":63},{"user_id":407,"name":"crippling fumo addiction","steam_id":76561198115874625,"connected_time":2162000000000,"state":"active","ping":68},{"user_id":418,"name":"ate a grilled cheese at 11:07 A","steam_id":76561199416910731,"connected_time":1452000000000,"state":"active","ping":46},{"user_id":387,"name":"Budgie","steam_id":76561198178279867,"connected_time":3138000000000,"state":"active","ping":69},{"user_id":360,"name":"lanoc","steam_id":76561198055415367,"connected_time":5087000000000,"state":"active","ping":70},{"user_id":388,"name":"Little Man","steam_id":76561198106840052,"connected_time":3136000000000,"state":"active","ping":75},{"user_id":409,"name":"PileofPolygons","steam_id":76561199321343460,"connected_time":1844000000000,"state":"active","ping":69},{"user_id":429,"name":"Ankliosumos","steam_id":76561198106443757,"connected_time":310000000000,"state":"active","ping":68},{"user_id":408,"name":"the sex monster","steam_id":76561198299548505,"connected_time":2101000000000,"state":"active","ping":85},{"user_id":400,"name":"one tiny arm","steam_id":76561198000564263,"connected_time":2678000000000,"state":"active","ping":68},{"user_id":399,"name":"Glory","steam_id":76561198013975080,"connected_time":2737000000000,"state":"active","ping":80},{"user_id":415,"name":"Retrowave","steam_id":76561198061921346,"connected_time":1534000000000,"state":"active","ping":76},{"user_id":383,"name":"peanut butter jelly DA LONG WAY","steam_id":76561198079416036,"connected_time":3546000000000,"state":"active","ping":45},{"user_id":410,"name":"gasparmx","steam_id":76561197998611994,"connected_time":1649000000000,"state":"active","ping":113},{"user_id":393,"name":"laggy mcstab","steam_id":76561198106379962,"connected_time":2987000000000,"state":"active","ping":122}]},{"server_id":36,"name":"Uncletopia | Chicago | 5 | All Maps","name_short":"chi-5","host":"chi-2.us.uncletopia.com","port":27015,"enabled":true,"region":"us-central","cc":"us","latitude":41.881832,"longitude":-87.62318,"reserved":0,"last_update":"0001-01-01T00:00:00Z","name_a2s":"Uncletopia | Chicago | 5 | All Maps","protocol":17,"map":"cp_dustbowl","folder":"tf","game":"Team Fortress","app_id":440,"player_count":20,"max_players":24,"Bots":0,"server_type":"Dedicated","server_os":"Linux","password":true,"vac":true,"version":"7757534","steam_id":85568392924866362,"keywords":["cp","nocrits","nodmgspread","uncletopia"],"game_id":440,"stv_port":27016,"stv_name":"Uncletopia | Chicago | 5 | All Maps | STV","players":[{"user_id":142,"name":"p0rps","steam_id":76561198000014631,"connected_time":4917000000000,"state":"active","ping":80},{"user_id":243,"name":"Toucan Jim","steam_id":76561199160374318,"connected_time":891000000000,"state":"active","ping":72},{"user_id":247,"name":"Poodwaddle","steam_id":76561198060384838,"connected_time":661000000000,"state":"active","ping":78},{"user_id":238,"name":"Seafood Noodles","steam_id":76561198328749869,"connected_time":931000000000,"state":"active","ping":66},{"user_id":249,"name":"helloworldprogram","steam_id":76561198200927231,"connected_time":446000000000,"state":"active","ping":119},{"user_id":234,"name":"Macho Ravioli","steam_id":76561198135494174,"connected_time":1112000000000,"state":"active","ping":103},{"user_id":250,"name":"bronchitis2","steam_id":76561199088968507,"connected_time":288000000000,"state":"active","ping":96},{"user_id":245,"name":"NewbiePlayer","steam_id":76561197986123314,"connected_time":752000000000,"state":"active","ping":96},{"user_id":230,"name":"Rifter","steam_id":76561198077430698,"connected_time":1458000000000,"state":"active","ping":59},{"user_id":225,"name":"Yatso Bagelmenson","steam_id":76561198004329919,"connected_time":1868000000000,"state":"active","ping":85},{"user_id":227,"name":"CONNOR","steam_id":76561199107365165,"connected_time":1778000000000,"state":"active","ping":107},{"user_id":252,"name":"Mellow Marshal","steam_id":76561198828607652,"connected_time":205000000000,"state":"active","ping":55},{"user_id":180,"name":"Jell0","steam_id":76561198170136014,"connected_time":3599000000000,"state":"active","ping":79},{"user_id":240,"name":"Wahooka","steam_id":76561197962240925,"connected_time":900000000000,"state":"active","ping":65},{"user_id":221,"name":"TeaPirate [TTC]","steam_id":76561197993068398,"connected_time":2125000000000,"state":"active","ping":83},{"user_id":206,"name":"frickin sammy","steam_id":76561198085852747,"connected_time":2581000000000,"state":"active","ping":109},{"user_id":46,"name":"Dispenser (Twan)","steam_id":76561197991064908,"connected_time":15027000000000,"state":"active","ping":60},{"user_id":222,"name":"George","steam_id":76561198020046873,"connected_time":2086000000000,"state":"active","ping":62},{"user_id":248,"name":"ucdrakebros","steam_id":76561199147788726,"connected_time":656000000000,"state":"active","ping":58},{"user_id":242,"name":"FruicyJuit","steam_id":76561198080704911,"connected_time":895000000000,"state":"active","ping":59}]},{"server_id":37,"name":"Uncletopia | Chicago | 6 | All Maps","name_short":"chi-6","host":"chi-2.us.uncletopia.com","port":27025,"enabled":true,"region":"us-central","cc":"us","latitude":41.881832,"longitude":-87.62318,"reserved":0,"last_update":"0001-01-01T00:00:00Z","name_a2s":"Uncletopia | Chicago | 6 | All Maps","protocol":17,"map":"cp_steel","folder":"tf","game":"Team Fortress","app_id":440,"player_count":23,"max_players":24,"Bots":0,"server_type":"Dedicated","server_os":"Linux","password":true,"vac":true,"version":"7757534","steam_id":85568392924866363,"keywords":["cp","nocrits","nodmgspread","uncletopia"],"game_id":440,"stv_port":27026,"stv_name":"Uncletopia | Chicago | 6 | All Maps | STV","players":[{"user_id":403,"name":"Weshmek","steam_id":76561198009950743,"connected_time":2633000000000,"state":"active","ping":66},{"user_id":448,"name":"hyuck","steam_id":76561198319990195,"connected_time":61000000000,"state":"active","ping":78},{"user_id":439,"name":"Windex","steam_id":76561198105561395,"connected_time":463000000000,"state":"active","ping":77},{"user_id":404,"name":"Dr. Dick","steam_id":76561198138011922,"connected_time":2621000000000,"state":"active","ping":76},{"user_id":409,"name":"Eden","steam_id":76561198075587475,"connected_time":2536000000000,"state":"active","ping":40},{"user_id":446,"name":"Arti","steam_id":76561198062478505,"connected_time":344000000000,"state":"active","ping":77},{"user_id":400,"name":"peni sland","steam_id":76561198104036940,"connected_time":2680000000000,"state":"active","ping":72},{"user_id":309,"name":"Cryo_Dave","steam_id":76561198796748347,"connected_time":10236000000000,"state":"active","ping":122},{"user_id":441,"name":"DIO'S doNUT Shop","steam_id":76561199090409364,"connected_time":459000000000,"state":"active","ping":87},{"user_id":437,"name":"mental case #82","steam_id":76561198072515851,"connected_time":568000000000,"state":"active","ping":108},{"user_id":442,"name":"Candy Sparkles","steam_id":76561198126871264,"connected_time":453000000000,"state":"active","ping":85},{"user_id":412,"name":"thecal","steam_id":76561198307893384,"connected_time":2484000000000,"state":"active","ping":49},{"user_id":413,"name":"Joe Burning","steam_id":76561198208623275,"connected_time":2441000000000,"state":"active","ping":72},{"user_id":447,"name":"Mara Roo","steam_id":76561198279341789,"connected_time":75000000000,"state":"active","ping":88},{"user_id":449,"name":"Try Gardening","steam_id":76561198120311340,"connected_time":33000000000,"state":"active","ping":48},{"user_id":430,"name":"Enron Hubbard","steam_id":76561198012951411,"connected_time":1359000000000,"state":"active","ping":56},{"user_id":443,"name":"mr.edderkopper","steam_id":76561198152614478,"connected_time":436000000000,"state":"active","ping":48},{"user_id":397,"name":"Tony Hawk Underground 2 for PSP","steam_id":76561197999901620,"connected_time":2774000000000,"state":"active","ping":57},{"user_id":418,"name":"Squirt Reynolds","steam_id":76561197999753555,"connected_time":2352000000000,"state":"active","ping":60},{"user_id":420,"name":"tA.CHRONIC","steam_id":76561197960760990,"connected_time":2335000000000,"state":"active","ping":39},{"user_id":444,"name":"Crazy Cane","steam_id":76561198993941174,"connected_time":394000000000,"state":"active","ping":68},{"user_id":429,"name":"Slimeqslimedog","steam_id":76561198259343945,"connected_time":2130000000000,"state":"active","ping":87},{"user_id":445,"name":"t.tv/FamilyGuyFunnyMoments277","steam_id":76561198416047580,"connected_time":383000000000,"state":"active","ping":86}]},{"server_id":38,"name":"Uncletopia | Chicago | 7 | Stopwatch Beta","name_short":"chi-7","host":"chi-2.us.uncletopia.com","port":27035,"enabled":true,"region":"us-central","cc":"us","latitude":41.881832,"longitude":-87.62318,"reserved":0,"last_update":"0001-01-01T00:00:00Z","name_a2s":"Uncletopia | Chicago | 7 | Stopwatch Beta","protocol":17,"map":"workshop/pl_badwater_pro_v12.ugc2142942074","folder":"tf","game":"Team Fortress","app_id":440,"player_count":0,"max_players":24,"Bots":0,"server_type":"Dedicated","server_os":"Linux","password":true,"vac":true,"version":"7757534","steam_id":85568392924866364,"keywords":["nocrits","nodmgspread","payload","uncletopia"],"game_id":440,"stv_port":27036,"stv_name":"Uncletopia | Chicago | 7 | Stopwatch Beta | STV","players":null},{"server_id":39,"name":"Uncletopia | Chicago | 8 | Community","name_short":"chi-8","host":"chi-2.us.uncletopia.com","port":27045,"enabled":true,"region":"us-central","cc":"us","latitude":41.881832,"longitude":-87.62318,"reserved":0,"last_update":"0001-01-01T00:00:00Z","name_a2s":"Uncletopia | Chicago | 8 | Community","protocol":17,"map":"workshop/cp_sulfur_rc2.ugc619869471","folder":"tf","game":"Team Fortress","app_id":440,"player_count":0,"max_players":24,"Bots":0,"server_type":"Dedicated","server_os":"Linux","password":true,"vac":true,"version":"7757534","steam_id":85568392924866365,"keywords":["cp","nocrits","nodmgspread","uncletopia"],"game_id":440,"stv_port":27046,"stv_name":"Uncletopia | Chicago | 8 | Community | STV","players":null},{"server_id":8,"name":"Uncletopia | Dallas | 1 | All Maps","name_short":"dal-1","host":"dal-1.us.uncletopia.com","port":27015,"enabled":true,"region":"us-central","cc":"us","latitude":32.779167,"longitude":-96.80889,"reserved":0,"last_update":"0001-01-01T00:00:00Z","name_a2s":"Uncletopia | Dallas | 1 | All Maps","protocol":17,"map":"cp_dustbowl","folder":"tf","game":"Team Fortress","app_id":440,"player_count":23,"max_players":24,"Bots":0,"server_type":"Dedicated","server_os":"Linux","password":true,"vac":true,"version":"7757534","steam_id":85568392924469986,"keywords":["cp","nocrits","nodmgspread","uncletopia"],"game_id":440,"stv_port":27016,"stv_name":"Uncletopia | Dallas | 1 | All Maps | STV","players":[{"user_id":489,"name":"McNamJam","steam_id":76561198028128686,"connected_time":2241000000000,"state":"active","ping":89},{"user_id":493,"name":"HarryjusttHarry","steam_id":76561198982810452,"connected_time":1452000000000,"state":"active","ping":82},{"user_id":313,"name":"üê∫-Iwky-ü¶ä","steam_id":76561198185616311,"connected_time":12098000000000,"state":"active","ping":70},{"user_id":503,"name":"Iroquois Pliskin","steam_id":76561198056704533,"connected_time":859000000000,"state":"active","ping":73},{"user_id":455,"name":"ÔºîÔºê Ôº¶Ôº∞Ôº≥","steam_id":76561198272394965,"connected_time":5028000000000,"state":"active","ping":151},{"user_id":477,"name":"true derpcat","steam_id":76561198062539161,"connected_time":3018000000000,"state":"active","ping":68},{"user_id":484,"name":"El Camino","steam_id":76561197992848313,"connected_time":2704000000000,"state":"active","ping":85},{"user_id":516,"name":"RicketyDickety69","steam_id":76561199079885528,"connected_time":26000000000,"state":"active","ping":83},{"user_id":499,"name":"you cute little soft boy medic","steam_id":76561198239286750,"connected_time":933000000000,"state":"active","ping":88},{"user_id":470,"name":"ai generated names","steam_id":76561198079603532,"connected_time":3854000000000,"state":"active","ping":79},{"user_id":463,"name":"Prophet","steam_id":76561198134948582,"connected_time":4323000000000,"state":"active","ping":108},{"user_id":502,"name":"idiot normie","steam_id":76561198397662124,"connected_time":895000000000,"state":"active","ping":61},{"user_id":481,"name":"Gengoron","steam_id":76561197994829919,"connected_time":2939000000000,"state":"active","ping":114},{"user_id":476,"name":"Nya Nya","steam_id":76561198406252824,"connected_time":3638000000000,"state":"active","ping":104},{"user_id":482,"name":"Icaras","steam_id":76561198416724843,"connected_time":2939000000000,"state":"active","ping":143},{"user_id":507,"name":"Moonflower ‚ú¶","steam_id":76561198191782483,"connected_time":775000000000,"state":"active","ping":49},{"user_id":506,"name":"Awildrock","steam_id":76561198040401086,"connected_time":823000000000,"state":"active","ping":63},{"user_id":513,"name":"creeeeeee","steam_id":76561198392539722,"connected_time":375000000000,"state":"active","ping":85},{"user_id":454,"name":"Bluebird","steam_id":76561199143106401,"connected_time":5060000000000,"state":"active","ping":87},{"user_id":466,"name":"Pan-Demonica","steam_id":76561198294350105,"connected_time":4011000000000,"state":"active","ping":67},{"user_id":512,"name":"FoamyPirate.h","steam_id":76561197970312151,"connected_time":510000000000,"state":"active","ping":83},{"user_id":475,"name":"miraakz420","steam_id":76561199013850154,"connected_time":3645000000000,"state":"active","ping":84},{"user_id":496,"name":"felix the grand","steam_id":76561198838822605,"connected_time":1199000000000,"state":"active","ping":81}]},{"server_id":108,"name":"Uncletopia | Dallas | 2 | All Maps","name_short":"dal-2","host":"dal-1.us.uncletopia.com","port":27025,"enabled":true,"region":"us-central","cc":"us","latitude":32.779167,"longitude":-96.80889,"reserved":0,"last_update":"0001-01-01T00:00:00Z","name_a2s":"Uncletopia | Dallas | 2 | All Maps","protocol":17,"map":"pl_frontier_final","folder":"tf","game":"Team Fortress","app_id":440,"player_count":24,"max_players":24,"Bots":0,"server_type":"Dedicated","server_os":"Linux","password":true,"vac":true,"version":"7757534","steam_id":85568392924469988,"keywords":["nocrits","nodmgspread","payload","uncletopia"],"game_id":440,"stv_port":27026,"stv_name":"Uncletopia | Dallas | 2 | All Maps | STV","players":[{"user_id":319,"name":"stnuua","steam_id":76561199177896432,"connected_time":655000000000,"state":"active","ping":59},{"user_id":324,"name":"Mr. Bixby","steam_id":76561198868839264,"connected_time":90000000000,"state":"active","ping":46},{"user_id":310,"name":"Matt","steam_id":76561198008108521,"connected_time":823000000000,"state":"active","ping":91},{"user_id":261,"name":"Jack Celliers","steam_id":76561198060983357,"connected_time":2766000000000,"state":"active","ping":57},{"user_id":305,"name":"[DATS‚û°] Sugar Meowth","steam_id":76561197995251793,"connected_time":1120000000000,"state":"active","ping":77},{"user_id":311,"name":"indyjacob","steam_id":76561198065158713,"connected_time":820000000000,"state":"active","ping":99},{"user_id":272,"name":"Rat Smacker","steam_id":76561199090197628,"connected_time":2241000000000,"state":"active","ping":130},{"user_id":263,"name":"oinkpig234","steam_id":76561198883733811,"connected_time":2694000000000,"state":"active","ping":56},{"user_id":313,"name":"Beaner","steam_id":76561198014574925,"connected_time":816000000000,"state":"active","ping":90},{"user_id":294,"name":"Krispy","steam_id":76561198127005410,"connected_time":1649000000000,"state":"active","ping":70},{"user_id":288,"name":"1 MILLION","steam_id":76561198823852521,"connected_time":1951000000000,"state":"active","ping":88},{"user_id":274,"name":"eletric_blue","steam_id":76561198821187816,"connected_time":2224000000000,"state":"active","ping":39},{"user_id":295,"name":"e doctor","steam_id":76561198081851446,"connected_time":1642000000000,"state":"active","ping":66},{"user_id":321,"name":"flu walrus","steam_id":76561198207940136,"connected_time":596000000000,"state":"active","ping":50},{"user_id":296,"name":"Billy McChucks","steam_id":76561198062189578,"connected_time":1636000000000,"state":"active","ping":79},{"user_id":277,"name":"EZPK","steam_id":76561197987474355,"connected_time":2165000000000,"state":"active","ping":172},{"user_id":302,"name":"Romo","steam_id":76561198243101572,"connected_time":1461000000000,"state":"active","ping":68},{"user_id":325,"name":"imagine using gunboats lmao","steam_id":76561198046526036,"connected_time":27000000000,"state":"active","ping":77},{"user_id":326,"name":"GlazingDonut","steam_id":76561198847420641,"connected_time":2000000000,"state":"spawning","ping":58},{"user_id":300,"name":"K.A.R.M.A.","steam_id":76561198240750142,"connected_time":1524000000000,"state":"active","ping":74},{"user_id":301,"name":"ApertureCity","steam_id":76561198004153607,"connected_time":1521000000000,"state":"active","ping":88},{"user_id":322,"name":"Jelpo","steam_id":76561198406920072,"connected_time":450000000000,"state":"active","ping":45},{"user_id":284,"name":"Metatron","steam_id":76561198332386371,"connected_time":2058000000000,"state":"active","ping":89},{"user_id":287,"name":"TheRiGuy21","steam_id":76561199466243640,"connected_time":1997000000000,"state":"active","ping":80}]},{"server_id":5,"name":"Uncletopia | Frankfurt | 1 | All Maps","name_short":"frk-1","host":"frk-1.de.uncletopia.com","port":27015,"enabled":true,"region":"eu","cc":"de","latitude":50.110924,"longitude":8.682127,"reserved":0,"last_update":"0001-01-01T00:00:00Z","name_a2s":"Uncletopia | Frankfurt | 1 | All Maps","protocol":17,"map":"pl_snowycoast","folder":"tf","game":"Team Fortress","app_id":440,"player_count":24,"max_players":24,"Bots":0,"server_type":"Dedicated","server_os":"Linux","password":true,"vac":true,"version":"7757534","steam_id":85568392924469989,"keywords":["nocrits","nodmgspread","payload","uncletopia"],"game_id":440,"stv_port":27016,"stv_name":"Uncletopia | Frankfurt | 1 | All Maps | STV","players":[{"user_id":777,"name":"I want my dog back","steam_id":76561198318748304,"connected_time":3263000000000,"state":"active","ping":147},{"user_id":792,"name":"i heal gay people","steam_id":76561198032167311,"connected_time":2654000000000,"state":"active","ping":88},{"user_id":823,"name":"greg","steam_id":76561198047388059,"connected_time":588000000000,"state":"active","ping":76},{"user_id":825,"name":"ptasznick","steam_id":76561198057947872,"connected_time":466000000000,"state":"active","ping":73},{"user_id":826,"name":"Trapezoid","steam_id":76561198059369295,"connected_time":375000000000,"state":"active","ping":80},{"user_id":690,"name":"yeh","steam_id":76561198061197114,"connected_time":8101000000000,"state":"active","ping":72},{"user_id":664,"name":"fogings","steam_id":76561198044165284,"connected_time":9390000000000,"state":"active","ping":37},{"user_id":830,"name":"penis gnome","steam_id":76561198097612561,"connected_time":261000000000,"state":"active","ping":57},{"user_id":818,"name":"Gopnik Pizzafox","steam_id":76561198068429261,"connected_time":1036000000000,"state":"active","ping":72},{"user_id":827,"name":"Fuzz","steam_id":76561198013049077,"connected_time":370000000000,"state":"active","ping":72},{"user_id":824,"name":"(can't chat)mafutbolero","steam_id":76561199233664005,"connected_time":487000000000,"state":"active","ping":77},{"user_id":814,"name":"Joe","steam_id":76561198177821721,"connected_time":1338000000000,"state":"active","ping":62},{"user_id":811,"name":"SPONGE","steam_id":76561198040933472,"connected_time":1466000000000,"state":"active","ping":86},{"user_id":752,"name":"DariBro","steam_id":76561198155444173,"connected_time":5300000000000,"state":"active","ping":61},{"user_id":807,"name":"Laxslow","steam_id":76561198065361846,"connected_time":2186000000000,"state":"active","ping":60},{"user_id":803,"name":"J·µÉ·∂ú·µè·∂§·µâ C ∞·µÉ·∂∞","steam_id":76561198250935222,"connected_time":2324000000000,"state":"active","ping":151},{"user_id":828,"name":"DESPACITOO","steam_id":76561198254030118,"connected_time":308000000000,"state":"active","ping":46},{"user_id":831,"name":"Maydup Nem","steam_id":76561198033813057,"connected_time":235000000000,"state":"active","ping":70},{"user_id":821,"name":"balthier","steam_id":76561198143529110,"connected_time":843000000000,"state":"active","ping":84},{"user_id":829,"name":"8 Ball","steam_id":76561197960988736,"connected_time":295000000000,"state":"active","ping":60},{"user_id":832,"name":"thefatcontroller","steam_id":76561199332965146,"connected_time":233000000000,"state":"active","ping":95},{"user_id":817,"name":"dr.cumfart","steam_id":76561198045330758,"connected_time":1217000000000,"state":"active","ping":134},{"user_id":819,"name":"Bentley","steam_id":76561197978252169,"connected_time":965000000000,"state":"active","ping":75},{"user_id":833,"name":"Juiceydough","steam_id":76561197997323419,"connected_time":216000000000,"state":"active","ping":91}]},{"server_id":110,"name":"Uncletopia | Frankfurt | 2 | All Maps","name_short":"frk-2","host":"frk-1.de.uncletopia.com","port":27025,"enabled":true,"region":"eu","cc":"de","latitude":50.110924,"longitude":8.682127,"reserved":0,"last_update":"0001-01-01T00:00:00Z","name_a2s":"Uncletopia | Frankfurt | 2 | All Maps","protocol":17,"map":"koth_viaduct","folder":"tf","game":"Team Fortress","app_id":440,"player_count":18,"max_players":24,"Bots":0,"server_type":"Dedicated","server_os":"Linux","password":true,"vac":true,"version":"7757534","steam_id":85568392924469990,"keywords":["cp","nocrits","nodmgspread","uncletopia"],"game_id":440,"stv_port":27026,"stv_name":"Uncletopia | Frankfurt | 2 | All Maps | STV","players":[{"user_id":741,"name":"Bob","steam_id":76561198211772015,"connected_time":45000000000,"state":"active","ping":89},{"user_id":729,"name":"shiny","steam_id":76561198074416851,"connected_time":1749000000000,"state":"active","ping":63},{"user_id":700,"name":"Spieller","steam_id":76561198057197847,"connected_time":3692000000000,"state":"active","ping":68},{"user_id":730,"name":"BORK","steam_id":76561198025594481,"connected_time":1742000000000,"state":"active","ping":42},{"user_id":728,"name":"walking sentry","steam_id":76561199225363633,"connected_time":1761000000000,"state":"active","ping":86},{"user_id":731,"name":"Crimea a bridge","steam_id":76561198030898371,"connected_time":1716000000000,"state":"active","ping":84},{"user_id":718,"name":"sleep","steam_id":76561198034882276,"connected_time":2649000000000,"state":"active","ping":76},{"user_id":668,"name":"Pootis","steam_id":76561198823265247,"connected_time":5945000000000,"state":"active","ping":68},{"user_id":681,"name":"simn","steam_id":76561198159182269,"connected_time":5083000000000,"state":"active","ping":52},{"user_id":719,"name":"pip","steam_id":76561198731151359,"connected_time":2643000000000,"state":"active","ping":106},{"user_id":723,"name":"„Åô LightFlight „Åó","steam_id":76561198079007530,"connected_time":2025000000000,"state":"active","ping":60},{"user_id":732,"name":"movement-bg","steam_id":76561198088972266,"connected_time":1716000000000,"state":"active","ping":60},{"user_id":740,"name":"...jla","steam_id":76561198052435481,"connected_time":414000000000,"state":"active","ping":57},{"user_id":739,"name":"dirty","steam_id":76561197995572935,"connected_time":1389000000000,"state":"active","ping":78},{"user_id":734,"name":"dubysa","steam_id":76561198079774530,"connected_time":1690000000000,"state":"active","ping":60},{"user_id":738,"name":"bigtrucks","steam_id":76561198011253191,"connected_time":1475000000000,"state":"active","ping":33},{"user_id":713,"name":"JohnarasGamer1","steam_id":76561198365929872,"connected_time":3023000000000,"state":"spawning","ping":73},{"user_id":737,"name":"Kawa inka","steam_id":76561198055900955,"connected_time":1547000000000,"state":"active","ping":60}]},{"server_id":308,"name":"Uncletopia | Frankfurt | 3 | All Maps","name_short":"frk-3","host":"frk-1.de.uncletopia.com","port":27035,"enabled":true,"region":"eu","cc":"de","latitude":50.110924,"longitude":8.682127,"reserved":0,"last_update":"0001-01-01T00:00:00Z","name_a2s":"Uncletopia | Frankfurt | 3 | All Maps","protocol":17,"map":"pl_thundermountain","folder":"tf","game":"Team Fortress","app_id":440,"player_count":20,"max_players":24,"Bots":0,"server_type":"Dedicated","server_os":"Linux","password":true,"vac":true,"version":"7757534","steam_id":85568392924504274,"keywords":["nocrits","nodmgspread","payload","uncletopia"],"game_id":440,"stv_port":27036,"stv_name":"Uncletopia | Frankfurt | 3 | All Maps | STV","players":[{"user_id":241,"name":"manKe","steam_id":76561198008564860,"connected_time":1335000000000,"state":"connecting","ping":65},{"user_id":256,"name":"Crisp gaming","steam_id":76561198004526176,"connected_time":26000000000,"state":"connecting","ping":81},{"user_id":170,"name":"Lateguy","steam_id":76561198069446079,"connected_time":7773000000000,"state":"connecting","ping":97},{"user_id":209,"name":"Piros","steam_id":76561198193785653,"connected_time":3797000000000,"state":"connecting","ping":84},{"user_id":258,"name":"Swedish Vegan","steam_id":76561198042775020,"connected_time":15000000000,"state":"connecting","ping":110},{"user_id":221,"name":"wads","steam_id":76561198175406562,"connected_time":3219000000000,"state":"connecting","ping":75},{"user_id":244,"name":"ikc159","steam_id":76561198020559026,"connected_time":1304000000000,"state":"spawning","ping":80},{"user_id":136,"name":"Pipper","steam_id":76561197970326616,"connected_time":10968000000000,"state":"connecting","ping":46},{"user_id":232,"name":"Engie","steam_id":76561199168186553,"connected_time":1979000000000,"state":"connecting","ping":180},{"user_id":46,"name":"tekt","steam_id":76561198044554387,"connected_time":17426000000000,"state":"connecting","ping":156},{"user_id":235,"name":"Sabour","steam_id":76561197963965445,"connected_time":1824000000000,"state":"spawning","ping":61},{"user_id":253,"name":"Gryoss","steam_id":76561197999837111,"connected_time":652000000000,"state":"connecting","ping":111},{"user_id":252,"name":"taylan d√ºndar","steam_id":76561198091648080,"connected_time":796000000000,"state":"connecting","ping":118},{"user_id":246,"name":"nyanezt","steam_id":76561198253734265,"connected_time":1180000000000,"state":"connecting","ping":113},{"user_id":248,"name":"2-D (secretly undercover)","steam_id":76561198287344223,"connected_time":1178000000000,"state":"connecting","ping":85},{"user_id":250,"name":"Denton","steam_id":76561198367991717,"connected_time":1162000000000,"state":"connecting","ping":99},{"user_id":254,"name":"shrrrrrrekkkkk","steam_id":76561198347241576,"connected_time":391000000000,"state":"connecting","ping":75}]},{"server_id":309,"name":"Uncletopia | Frankfurt | 4 | All Maps","name_short":"frk-4","host":"frk-1.de.uncletopia.com","port":27045,"enabled":true,"region":"eu","cc":"de","latitude":50.110924,"longitude":8.682127,"reserved":0,"last_update":"0001-01-01T00:00:00Z","name_a2s":"Uncletopia | Frankfurt | 4 | All Maps","protocol":17,"map":"pl_badwater","folder":"tf","game":"Team Fortress","app_id":440,"player_count":24,"max_players":24,"Bots":0,"server_type":"Dedicated","server_os":"Linux","password":true,"vac":true,"version":"7757534","steam_id":85568392924504275,"keywords":["nocrits","nodmgspread","payload","uncletopia"],"game_id":440,"stv_port":27046,"stv_name":"Uncletopia | Frankfurt | 4 | All Maps | STV","players":[{"user_id":471,"name":"kbbq","steam_id":76561198346638308,"connected_time":169000000000,"state":"active","ping":57},{"user_id":469,"name":"Washed up medic main","steam_id":76561198347336086,"connected_time":553000000000,"state":"active","ping":52},{"user_id":461,"name":"poorchel","steam_id":76561198056905953,"connected_time":1375000000000,"state":"active","ping":121},{"user_id":415,"name":"donk","steam_id":76561198162676648,"connected_time":4933000000000,"state":"active","ping":86},{"user_id":441,"name":"Syll","steam_id":76561198040736202,"connected_time":3382000000000,"state":"active","ping":90},{"user_id":453,"name":"Silent Person","steam_id":76561198107763537,"connected_time":1861000000000,"state":"active","ping":80},{"user_id":466,"name":"midnight_heat","steam_id":76561199076696513,"connected_time":791000000000,"state":"active","ping":73},{"user_id":437,"name":"Clorox Consumer","steam_id":76561198120949216,"connected_time":3590000000000,"state":"active","ping":61},{"user_id":457,"name":"eelkir","steam_id":76561198024922946,"connected_time":1541000000000,"state":"active","ping":56},{"user_id":336,"name":"eeeeee","steam_id":76561198017786875,"connected_time":10669000000000,"state":"active","ping":68},{"user_id":462,"name":"yush","steam_id":76561198121688934,"connected_time":1273000000000,"state":"active","ping":82},{"user_id":465,"name":"oldy","steam_id":76561198031899043,"connected_time":995000000000,"state":"active","ping":85},{"user_id":421,"name":"DocTwoEight","steam_id":76561198153488940,"connected_time":4708000000000,"state":"active","ping":76},{"user_id":464,"name":"Wedgeridoo","steam_id":76561198082813907,"connected_time":1152000000000,"state":"active","ping":87},{"user_id":433,"name":"Zelmor","steam_id":76561197997708311,"connected_time":4027000000000,"state":"active","ping":59},{"user_id":442,"name":"Dreadnawght","steam_id":76561198000973506,"connected_time":3373000000000,"state":"active","ping":69},{"user_id":425,"name":"that fat croc from donkey kong","steam_id":76561198159172495,"connected_time":4388000000000,"state":"active","ping":71},{"user_id":445,"name":"(1)eeeeee","steam_id":76561198427092596,"connected_time":2941000000000,"state":"active","ping":166},{"user_id":401,"name":"Kick gibus-engineers","steam_id":76561198046368451,"connected_time":6719000000000,"state":"active","ping":100},{"user_id":342,"name":"Carrotcracker","steam_id":76561198034862396,"connected_time":10627000000000,"state":"active","ping":79},{"user_id":467,"name":"BŒ£NZOIC","steam_id":76561198875665995,"connected_time":633000000000,"state":"active","ping":81},{"user_id":446,"name":"king","steam_id":76561198881197962,"connected_time":2773000000000,"state":"active","ping":95},{"user_id":419,"name":"ProMate","steam_id":76561198277138236,"connected_time":4833000000000,"state":"active","ping":74},{"user_id":463,"name":"Steen","steam_id":76561198122992510,"connected_time":1270000000000,"state":"active","ping":45}]},{"server_id":310,"name":"Uncletopia | Frankfurt | 5 | All Maps","name_short":"frk-5","host":"frk-1.de.uncletopia.com","port":27055,"enabled":true,"region":"eu","cc":"de","latitude":50.110924,"longitude":8.682127,"reserved":0,"last_update":"0001-01-01T00:00:00Z","name_a2s":"Uncletopia | Frankfurt | 5 | All Maps","protocol":17,"map":"pl_borneo","folder":"tf","game":"Team Fortress","app_id":440,"player_count":24,"max_players":24,"Bots":0,"server_type":"Dedicated","server_os":"Linux","password":true,"vac":true,"version":"7757534","steam_id":85568392924504277,"keywords":["nocrits","nodmgspread","payload","uncletopia"],"game_id":440,"stv_port":27056,"stv_name":"Uncletopia | Frankfurt | 5 | All Maps | STV","players":[{"user_id":520,"name":"Lexiss","steam_id":76561198086211346,"connected_time":551000000000,"state":"active","ping":70},{"user_id":521,"name":"Boluch","steam_id":76561198104786732,"connected_time":507000000000,"state":"active","ping":72},{"user_id":484,"name":"cursedbygod‚ô°","steam_id":76561198318291047,"connected_time":4336000000000,"state":"active","ping":110},{"user_id":508,"name":"akela","steam_id":76561198122010232,"connected_time":1561000000000,"state":"active","ping":117},{"user_id":522,"name":"meap","steam_id":76561198126639221,"connected_time":484000000000,"state":"active","ping":87},{"user_id":325,"name":"[Erathia]ARKHALIS","steam_id":76561198993900003,"connected_time":16513000000000,"state":"active","ping":75},{"user_id":510,"name":"Bostrash641","steam_id":76561199447225685,"connected_time":1376000000000,"state":"active","ping":75},{"user_id":528,"name":"CEO of Pen Island","steam_id":76561198037212191,"connected_time":408000000000,"state":"active","ping":79},{"user_id":524,"name":"Mr. Fox","steam_id":76561198803610709,"connected_time":467000000000,"state":"active","ping":118},{"user_id":463,"name":"Presten","steam_id":76561198116395897,"connected_time":7264000000000,"state":"active","ping":86},{"user_id":514,"name":"BAD BALD \u0026 BEYOND","steam_id":76561198029873185,"connected_time":1265000000000,"state":"active","ping":59},{"user_id":525,"name":"Thors","steam_id":76561197968739075,"connected_time":458000000000,"state":"active","ping":49},{"user_id":496,"name":"Û†Ä°Û†Ä°Û†Ä°Û†Ä°Felix","steam_id":76561198147553398,"connected_time":3088000000000,"state":"active","ping":60},{"user_id":472,"name":"Flash","steam_id":76561197988550068,"connected_time":5973000000000,"state":"active","ping":61},{"user_id":491,"name":"–ü–µ—Å –ü–∞—Ç—Ä–æ–Ω","steam_id":76561198273199378,"connected_time":3993000000000,"state":"active","ping":68},{"user_id":506,"name":"Jay.k","steam_id":76561198079387590,"connected_time":1651000000000,"state":"active","ping":69},{"user_id":516,"name":"Kron Krian","steam_id":76561198122541754,"connected_time":1208000000000,"state":"active","ping":74},{"user_id":326,"name":"{CPBR}SPRSTR","steam_id":76561197998887733,"connected_time":16508000000000,"state":"active","ping":91},{"user_id":483,"name":"john fortress 2","steam_id":76561198202668788,"connected_time":4498000000000,"state":"active","ping":61},{"user_id":471,"name":"CrashyPlay","steam_id":76561198106125298,"connected_time":6073000000000,"state":"active","ping":67},{"user_id":507,"name":"RubyTheUnicorn","steam_id":76561198091772218,"connected_time":1640000000000,"state":"active","ping":60},{"user_id":526,"name":"Hot Beverage Enjoyer","steam_id":76561198060638325,"connected_time":456000000000,"state":"active","ping":45},{"user_id":527,"name":"Tomo","steam_id":76561199015097595,"connected_time":450000000000,"state":"active","ping":62},{"user_id":494,"name":"Ozzie","steam_id":76561197992915315,"connected_time":3922000000000,"state":"active","ping":75}]},{"server_id":311,"name":"Uncletopia | Frankfurt | 6 | All Maps","name_short":"frk-6","host":"frk-1.de.uncletopia.com","port":27065,"enabled":true,"region":"eu","cc":"de","latitude":50.110924,"longitude":8.682127,"reserved":0,"last_update":"0001-01-01T00:00:00Z","name_a2s":"Uncletopia | Frankfurt | 6 | All Maps","protocol":17,"map":"cp_dustbowl","folder":"tf","game":"Team Fortress","app_id":440,"player_count":22,"max_players":24,"Bots":0,"server_type":"Dedicated","server_os":"Linux","password":true,"vac":true,"version":"7757534","steam_id":85568392924504278,"keywords":["cp","nocrits","nodmgspread","uncletopia"],"game_id":440,"stv_port":27066,"stv_name":"Uncletopia | Frankfurt | 6 | All Maps | STV","players":[{"user_id":507,"name":"Demonica","steam_id":76561198841858340,"connected_time":1005000000000,"state":"active","ping":186},{"user_id":508,"name":"Raboute","steam_id":76561198040814507,"connected_time":992000000000,"state":"active","ping":47},{"user_id":418,"name":"Cumbustible Punda #SaveTF2","steam_id":76561197974274677,"connected_time":5569000000000,"state":"active","ping":45},{"user_id":523,"name":"omnibombulator","steam_id":76561198025858897,"connected_time":45000000000,"state":"active","ping":62},{"user_id":470,"name":"tqla","steam_id":76561198073092585,"connected_time":1983000000000,"state":"active","ping":103},{"user_id":510,"name":"Billy Genie","steam_id":76561198061724014,"connected_time":909000000000,"state":"active","ping":47},{"user_id":480,"name":"Dangerousbros","steam_id":76561198088952519,"connected_time":1865000000000,"state":"active","ping":50},{"user_id":520,"name":"born2shitforced2wipe","steam_id":76561198203074833,"connected_time":249000000000,"state":"active","ping":82},{"user_id":505,"name":"VioBeeyo ‚ô•","steam_id":76561198066258544,"connected_time":1237000000000,"state":"active","ping":46},{"user_id":524,"name":"TheGreenWolf","steam_id":76561198170607033,"connected_time":40000000000,"state":"active","ping":72},{"user_id":522,"name":"Frager","steam_id":76561198016575620,"connected_time":149000000000,"state":"active","ping":82},{"user_id":519,"name":"ThePowerOfJesus","steam_id":76561198400343799,"connected_time":411000000000,"state":"active","ping":64},{"user_id":514,"name":"w4gthp0h","steam_id":76561198133193445,"connected_time":769000000000,"state":"active","ping":81},{"user_id":525,"name":"Millero15","steam_id":76561198143105719,"connected_time":22000000000,"state":"active","ping":96},{"user_id":473,"name":"toni storaro","steam_id":76561199096919345,"connected_time":1940000000000,"state":"active","ping":86},{"user_id":450,"name":"video game enjoyer","steam_id":76561198045505082,"connected_time":2940000000000,"state":"active","ping":72},{"user_id":526,"name":"Leituga","steam_id":76561198051127598,"connected_time":12000000000,"state":"active","ping":243},{"user_id":501,"name":"Penis Contortionist","steam_id":76561198073663784,"connected_time":1411000000000,"state":"active","ping":57},{"user_id":515,"name":"MAKENTAKEN","steam_id":76561199127359587,"connected_time":759000000000,"state":"active","ping":93},{"user_id":516,"name":"burritoeater","steam_id":76561199124197813,"connected_time":711000000000,"state":"active","ping":76},{"user_id":500,"name":"Festive Erma","steam_id":76561198038718342,"connected_time":1423000000000,"state":"active","ping":82},{"user_id":479,"name":"Master of tiktok","steam_id":76561199379233899,"connected_time":1881000000000,"state":"active","ping":86}]},{"server_id":23,"name":"Uncletopia | Frankfurt | 7 | Stopwatch Beta","name_short":"frk-7","host":"frk-1.de.uncletopia.com","port":27075,"enabled":true,"region":"eu","cc":"de","latitude":50.110924,"longitude":8.682127,"reserved":0,"last_update":"0001-01-01T00:00:00Z","name_a2s":"Uncletopia | Frankfurt | 7 | Stopwatch Beta","protocol":17,"map":"pl_borneo","folder":"tf","game":"Team Fortress","app_id":440,"player_count":0,"max_players":24,"Bots":0,"server_type":"Dedicated","server_os":"Linux","password":true,"vac":true,"version":"7757534","steam_id":85568392924742827,"keywords":["nocrits","nodmgspread","payload","uncletopia"],"game_id":440,"stv_port":27076,"stv_name":"Uncletopia | Frankfurt | 7 | Stopwatch Beta | STV","players":null},{"server_id":24,"name":"Uncletopia | Frankfurt | 8 | Community","name_short":"frk-8","host":"frk-1.de.uncletopia.com","port":27085,"enabled":true,"region":"eu","cc":"de","latitude":50.110924,"longitude":8.682127,"reserved":0,"last_update":"0001-01-01T00:00:00Z","name_a2s":"Uncletopia | Frankfurt | 8 | Community","protocol":17,"map":"workshop/rd_asteroid_redux_b1.ugc2154902912","folder":"tf","game":"Team Fortress","app_id":440,"player_count":0,"max_players":24,"Bots":0,"server_type":"Dedicated","server_os":"Linux","password":true,"vac":true,"version":"7757534","steam_id":85568392924742828,"keywords":["beta","nocrits","nodmgspread","rd","uncletopia"],"game_id":440,"stv_port":27086,"stv_name":"Uncletopia | Frankfurt | 8 | Community | STV","players":null},{"server_id":202,"name":"Uncletopia | Hong Kong | 1 | All Maps","name_short":"hgk-1","host":"hgk-1.hk.uncletopia.com","port":27015,"enabled":true,"region":"asia","cc":"hk","latitude":22.302711,"longitude":114.177216,"reserved":0,"last_update":"0001-01-01T00:00:00Z","name_a2s":"Uncletopia | Hong Kong | 1 | All Maps","protocol":17,"map":"pl_frontier_final","folder":"tf","game":"Team Fortress","app_id":440,"player_count":0,"max_players":24,"Bots":0,"server_type":"Dedicated","server_os":"Linux","password":true,"vac":true,"version":"7757534","steam_id":85568392924494504,"keywords":["nocrits","nodmgspread","payload","uncletopia"],"game_id":440,"stv_port":27016,"stv_name":"Uncletopia | Hong Kong | 1 | All Maps | STV","players":null},{"server_id":1,"name":"Uncletopia | Los Angeles | 1 | All Maps","name_short":"lax-1","host":"lax-1.us.uncletopia.com","port":27015,"enabled":true,"region":"us-west","cc":"us","latitude":33.94279,"longitude":-118.41004,"reserved":0,"last_update":"0001-01-01T00:00:00Z","name_a2s":"Uncletopia | Los Angeles | 1 | All Maps","protocol":17,"map":"koth_lakeside_final","folder":"tf","game":"Team Fortress","app_id":440,"player_count":3,"max_players":24,"Bots":0,"server_type":"Dedicated","server_os":"Linux","password":true,"vac":true,"version":"7757534","steam_id":85568392924469991,"keywords":["cp","nocrits","nodmgspread","uncletopia"],"game_id":440,"stv_port":27016,"stv_name":"Uncletopia | Los Angeles | 1 | All Maps | STV","players":[{"user_id":138,"name":"Lt. Sushi","steam_id":76561198407103736,"connected_time":513000000000,"state":"active","ping":99},{"user_id":139,"name":"| IRS | 1deadblawer","steam_id":76561198044216214,"connected_time":476000000000,"state":"active","ping":117},{"user_id":140,"name":"Alternativity","steam_id":76561198119583924,"connected_time":89000000000,"state":"active","ping":99}]},{"server_id":112,"name":"Uncletopia | Los Angeles | 2 | All Maps","name_short":"lax-2","host":"lax-1.us.uncletopia.com","port":27025,"enabled":true,"region":"us-west","cc":"us","latitude":33.94279,"longitude":-118.41004,"reserved":0,"last_update":"0001-01-01T00:00:00Z","name_a2s":"Uncletopia | Los Angeles | 2 | All Maps","protocol":17,"map":"pl_frontier_final","folder":"tf","game":"Team Fortress","app_id":440,"player_count":24,"max_players":24,"Bots":0,"server_type":"Dedicated","server_os":"Linux","password":true,"vac":true,"version":"7757534","steam_id":85568392924469992,"keywords":["nocrits","nodmgspread","payload","uncletopia"],"game_id":440,"stv_port":27026,"stv_name":"Uncletopia | Los Angeles | 2 | All Maps | STV","players":[{"user_id":15,"name":"Mitryll","steam_id":76561198353873067,"connected_time":4320000000000,"state":"active","ping":162},{"user_id":66,"name":"Shoey","steam_id":76561198042538154,"connected_time":840000000000,"state":"active","ping":132},{"user_id":71,"name":"Ayayahuasca","steam_id":76561199002906056,"connected_time":297000000000,"state":"active","ping":79},{"user_id":67,"name":"imadabest","steam_id":76561199123304377,"connected_time":829000000000,"state":"active","ping":65},{"user_id":69,"name":"TTV/ChadMorningWood","steam_id":76561198139832291,"connected_time":383000000000,"state":"active","ping":57},{"user_id":20,"name":"Voltanya048","steam_id":76561198030560850,"connected_time":4310000000000,"state":"active","ping":126},{"user_id":21,"name":"IJ-Cones","steam_id":76561198039841684,"connected_time":4305000000000,"state":"active","ping":112},{"user_id":23,"name":"luke8538","steam_id":76561198067480563,"connected_time":3958000000000,"state":"active","ping":73},{"user_id":57,"name":"OrangeSockNinja","steam_id":76561198325741958,"connected_time":1870000000000,"state":"active","ping":104},{"user_id":72,"name":"StewyVibe","steam_id":76561199159867739,"connected_time":285000000000,"state":"active","ping":66},{"user_id":74,"name":"Wolowolowolowolowolowolowolowol","steam_id":76561199217207233,"connected_time":249000000000,"state":"active","ping":57},{"user_id":75,"name":"SneekiCheekiQbone","steam_id":76561198045077980,"connected_time":247000000000,"state":"active","ping":42},{"user_id":65,"name":"Dman","steam_id":76561198061237406,"connected_time":912000000000,"state":"active","ping":60},{"user_id":54,"name":"Coolio-aid","steam_id":76561198218361691,"connected_time":2098000000000,"state":"active","ping":84},{"user_id":61,"name":"Feel the bern","steam_id":76561198078824519,"connected_time":1216000000000,"state":"active","ping":58},{"user_id":73,"name":"Rett","steam_id":76561198042941238,"connected_time":280000000000,"state":"active","ping":102},{"user_id":76,"name":"lukamine","steam_id":76561198166827208,"connected_time":229000000000,"state":"active","ping":74},{"user_id":68,"name":"TheBrocklobster","steam_id":76561198039682984,"connected_time":541000000000,"state":"active","ping":65},{"user_id":64,"name":"Adelheid Crescent","steam_id":76561198014410416,"connected_time":1066000000000,"state":"active","ping":83},{"user_id":56,"name":"EatSomeBEES","steam_id":76561198047334307,"connected_time":1926000000000,"state":"active","ping":79},{"user_id":58,"name":"GreenSockNinja","steam_id":76561198214619897,"connected_time":1863000000000,"state":"active","ping":103},{"user_id":51,"name":"Boat","steam_id":76561198319185335,"connected_time":2347000000000,"state":"active","ping":63},{"user_id":42,"name":"A Dumb Rock","steam_id":76561198026777039,"connected_time":2777000000000,"state":"active","ping":100},{"user_id":59,"name":"Batso","steam_id":76561198106589452,"connected_time":1746000000000,"state":"active","ping":52}]},{"server_id":324,"name":"Uncletopia | Los Angeles | 3 | All Maps","name_short":"lax-3","host":"lax-1.us.uncletopia.com","port":27035,"enabled":true,"region":"us-west","cc":"us","latitude":33.94279,"longitude":-118.41004,"reserved":0,"last_update":"0001-01-01T00:00:00Z","name_a2s":"Uncletopia | Los Angeles | 3 | All Maps","protocol":17,"map":"pl_swiftwater_final1","folder":"tf","game":"Team Fortress","app_id":440,"player_count":24,"max_players":24,"Bots":0,"server_type":"Dedicated","server_os":"Linux","password":true,"vac":true,"version":"7757534","steam_id":85568392924510198,"keywords":["nocrits","nodmgspread","payload","uncletopia"],"game_id":440,"stv_port":27036,"stv_name":"Uncletopia | Los Angeles | 3 | All Maps | STV","players":[{"user_id":157,"name":"Agentnickel","steam_id":76561199186723516,"connected_time":2391000000000,"state":"active","ping":42},{"user_id":171,"name":"micah","steam_id":76561197984579630,"connected_time":1695000000000,"state":"active","ping":54},{"user_id":151,"name":"ryminchala","steam_id":76561199204793419,"connected_time":2597000000000,"state":"active","ping":107},{"user_id":172,"name":"wendy's baconator","steam_id":76561198107219183,"connected_time":915000000000,"state":"active","ping":59},{"user_id":173,"name":"Lev_E3","steam_id":76561198161790079,"connected_time":908000000000,"state":"active","ping":113},{"user_id":174,"name":"[GUT] RiDiK¬Æ","steam_id":76561197969756446,"connected_time":860000000000,"state":"active","ping":99},{"user_id":165,"name":"StarGuyVI","steam_id":76561199366304746,"connected_time":1838000000000,"state":"active","ping":107},{"user_id":181,"name":"mountain","steam_id":76561198078395002,"connected_time":265000000000,"state":"active","ping":115},{"user_id":169,"name":"shmurda","steam_id":76561198158967409,"connected_time":1768000000000,"state":"active","ping":41},{"user_id":170,"name":"doobiebob","steam_id":76561198071963742,"connected_time":1731000000000,"state":"active","ping":55},{"user_id":163,"name":"nav","steam_id":76561198872608266,"connected_time":2107000000000,"state":"active","ping":118},{"user_id":167,"name":"How's your morale?","steam_id":76561198035698704,"connected_time":1834000000000,"state":"active","ping":61},{"user_id":134,"name":"voyager","steam_id":76561198073172510,"connected_time":3436000000000,"state":"active","ping":104},{"user_id":161,"name":"weed eater","steam_id":76561198081681647,"connected_time":2339000000000,"state":"active","ping":80},{"user_id":136,"name":"Totally","steam_id":76561198126511227,"connected_time":3416000000000,"state":"active","ping":116},{"user_id":155,"name":"Valueteril","steam_id":76561198186716743,"connected_time":2456000000000,"state":"active","ping":83},{"user_id":177,"name":"Saristan","steam_id":76561198093346048,"connected_time":699000000000,"state":"active","ping":111},{"user_id":176,"name":"ElektreecK","steam_id":76561198135229661,"connected_time":820000000000,"state":"active","ping":75},{"user_id":53,"name":"Andreshatesmondays","steam_id":76561198889349797,"connected_time":7047000000000,"state":"active","ping":70},{"user_id":180,"name":"tsun","steam_id":76561198079488962,"connected_time":448000000000,"state":"active","ping":85},{"user_id":49,"name":"nothowon","steam_id":76561198937601452,"connected_time":7282000000000,"state":"active","ping":115},{"user_id":162,"name":"Saulce","steam_id":76561198066142119,"connected_time":2334000000000,"state":"active","ping":56},{"user_id":168,"name":"Huggle","steam_id":76561198141491662,"connected_time":1833000000000,"state":"active","ping":74},{"user_id":127,"name":"Shotgun king the final checkmat","steam_id":76561199233433896,"connected_time":3591000000000,"state":"active","ping":116}]},{"server_id":25,"name":"Uncletopia | Los Angeles | 4 | Stopwatch Beta","name_short":"lax-4","host":"lax-1.us.uncletopia.com","port":27045,"enabled":true,"region":"us-west","cc":"us","latitude":33.94279,"longitude":-118.41004,"reserved":0,"last_update":"0001-01-01T00:00:00Z","name_a2s":"Uncletopia | Los Angeles | 4 | Stopwatch Beta","protocol":17,"map":"koth_viaduct","folder":"tf","game":"Team Fortress","app_id":440,"player_count":0,"max_players":24,"Bots":0,"server_type":"Dedicated","server_os":"Linux","password":true,"vac":true,"version":"7757534","steam_id":85568392924510199,"keywords":["cp","nocrits","nodmgspread","uncletopia"],"game_id":440,"stv_port":27046,"stv_name":"Uncletopia | Los Angeles | 4 | Stopwatch Beta | STV","players":null},{"server_id":11,"name":"Uncletopia | London | 1 | All Maps","name_short":"lon-1","host":"lon-1.uk.uncletopia.com","port":27015,"enabled":true,"region":"eu","cc":"gb","latitude":51.509865,"longitude":-0.118092,"reserved":0,"last_update":"0001-01-01T00:00:00Z","name_a2s":"Uncletopia | London | 1 | All Maps","protocol":17,"map":"pl_badwater","folder":"tf","game":"Team Fortress","app_id":440,"player_count":24,"max_players":24,"Bots":0,"server_type":"Dedicated","server_os":"Linux","password":true,"vac":true,"version":"7757534","steam_id":85568392924367362,"keywords":["nocrits","nodmgspread","payload","uncletopia"],"game_id":440,"stv_port":27016,"stv_name":"Uncletopia | London | 1 | All Maps | STV","players":[{"user_id":697,"name":"Grigori Rasputin","steam_id":76561198070810812,"connected_time":604000000000,"state":"active","ping":129},{"user_id":681,"name":"Littleyoshifan","steam_id":76561198445491045,"connected_time":2857000000000,"state":"active","ping":44},{"user_id":720,"name":"Founder","steam_id":76561198193763778,"connected_time":89000000000,"state":"active","ping":64},{"user_id":661,"name":"RoXeUr-KaMiKaZe","steam_id":76561197998204782,"connected_time":4698000000000,"state":"active","ping":56},{"user_id":693,"name":"r06u3","steam_id":76561198254099253,"connected_time":795000000000,"state":"active","ping":178},{"user_id":708,"name":"Karl","steam_id":76561198235000972,"connected_time":479000000000,"state":"active","ping":43},{"user_id":716,"name":"Nightmare Furno","steam_id":76561198041189021,"connected_time":309000000000,"state":"active","ping":56},{"user_id":701,"name":"Nesto","steam_id":76561198015065391,"connected_time":532000000000,"state":"active","ping":89},{"user_id":702,"name":"Kulebra","steam_id":76561198041462031,"connected_time":521000000000,"state":"active","ping":90},{"user_id":690,"name":"Art The Clown Surprise Gun","steam_id":76561198133538209,"connected_time":894000000000,"state":"active","ping":46},{"user_id":652,"name":"Oskuri","steam_id":76561198155956047,"connected_time":5553000000000,"state":"active","ping":85},{"user_id":715,"name":"obliteratedthenaho","steam_id":76561198127441800,"connected_time":334000000000,"state":"active","ping":60},{"user_id":718,"name":"Neo Testament","steam_id":76561199049633351,"connected_time":164000000000,"state":"active","ping":76},{"user_id":703,"name":"SiLent_Crime","steam_id":76561198191126481,"connected_time":505000000000,"state":"active","ping":69},{"user_id":704,"name":"tec","steam_id":76561198087314132,"connected_time":505000000000,"state":"active","ping":45},{"user_id":680,"name":"Yoshikage Kira","steam_id":76561198928875866,"connected_time":2872000000000,"state":"active","ping":70},{"user_id":686,"name":"Mr_Pulse_","steam_id":76561198095001602,"connected_time":1701000000000,"state":"active","ping":105},{"user_id":654,"name":"Lahna","steam_id":76561198064898117,"connected_time":5540000000000,"state":"active","ping":98},{"user_id":705,"name":"FreundD [F.-A.]","steam_id":76561198057727101,"connected_time":494000000000,"state":"active","ping":69},{"user_id":706,"name":"WitchKing1999","steam_id":76561198168272993,"connected_time":493000000000,"state":"active","ping":75},{"user_id":707,"name":"MasterOogwayDrip","steam_id":76561198893806791,"connected_time":492000000000,"state":"active","ping":66},{"user_id":721,"name":"powej","steam_id":76561198056381418,"connected_time":61000000000,"state":"active","ping":44},{"user_id":710,"name":"dairy","steam_id":76561198117033273,"connected_time":454000000000,"state":"active","ping":58},{"user_id":582,"name":"(_ _).ÔΩ°o‚óã","steam_id":76561198298576765,"connected_time":11196000000000,"state":"active","ping":68}]},{"server_id":114,"name":"Uncletopia | London | 2 | All Maps","name_short":"lon-2","host":"lon-1.uk.uncletopia.com","port":27025,"enabled":true,"region":"eu","cc":"gb","latitude":51.509865,"longitude":-0.118092,"reserved":0,"last_update":"0001-01-01T00:00:00Z","name_a2s":"Uncletopia | London | 2 | All Maps","protocol":17,"map":"cp_5gorge","folder":"tf","game":"Team Fortress","app_id":440,"player_count":24,"max_players":24,"Bots":0,"server_type":"Dedicated","server_os":"Linux","password":true,"vac":true,"version":"7757534","steam_id":85568392924470941,"keywords":["cp","nocrits","nodmgspread","uncletopia"],"game_id":440,"stv_port":27026,"stv_name":"Uncletopia | London | 2 | All Maps | STV","players":[{"user_id":964,"name":"meriones","steam_id":76561198034234373,"connected_time":339000000000,"state":"active","ping":44},{"user_id":972,"name":"yuta","steam_id":76561198077922992,"connected_time":81000000000,"state":"active","ping":31},{"user_id":966,"name":"posht0 @_@","steam_id":76561198106182078,"connected_time":253000000000,"state":"active","ping":109},{"user_id":939,"name":"catboy trickster","steam_id":76561198075665211,"connected_time":1482000000000,"state":"active","ping":50},{"user_id":915,"name":"podcast","steam_id":76561198531978435,"connected_time":3739000000000,"state":"active","ping":68},{"user_id":963,"name":"ZePequenio","steam_id":76561197968506094,"connected_time":378000000000,"state":"active","ping":66},{"user_id":896,"name":"Caerot","steam_id":76561198839000676,"connected_time":4519000000000,"state":"active","ping":69},{"user_id":941,"name":"zen","steam_id":76561198160747675,"connected_time":1379000000000,"state":"active","ping":102},{"user_id":967,"name":"sabaka jebanoia","steam_id":76561198147249160,"connected_time":155000000000,"state":"active","ping":105},{"user_id":951,"name":"ahlex","steam_id":76561199091749564,"connected_time":994000000000,"state":"active","ping":50},{"user_id":973,"name":"Oaknight","steam_id":76561198030824146,"connected_time":76000000000,"state":"active","ping":45},{"user_id":908,"name":"butts","steam_id":76561198060105180,"connected_time":4124000000000,"state":"active","ping":60},{"user_id":942,"name":"fortinaity babaji","steam_id":76561198177185310,"connected_time":1343000000000,"state":"active","ping":60},{"user_id":918,"name":"Fofenho","steam_id":76561198436817109,"connected_time":3509000000000,"state":"active","ping":57},{"user_id":969,"name":"Nish","steam_id":76561197996068735,"connected_time":137000000000,"state":"active","ping":85},{"user_id":970,"name":"Pachakamakk","steam_id":76561197989010401,"connected_time":130000000000,"state":"active","ping":54},{"user_id":971,"name":"OnlinePapst4U","steam_id":76561197998187888,"connected_time":118000000000,"state":"active","ping":75},{"user_id":934,"name":"TOG II*","steam_id":76561197993906091,"connected_time":1805000000000,"state":"active","ping":45},{"user_id":894,"name":"Zerzark","steam_id":76561198070118903,"connected_time":4562000000000,"state":"active","ping":46},{"user_id":944,"name":"jill valentine","steam_id":76561198075068529,"connected_time":1307000000000,"state":"active","ping":62},{"user_id":976,"name":"Poeka","steam_id":76561198031180960,"connected_time":5000000000,"state":"spawning","ping":74},{"user_id":975,"name":"Alienketchup","steam_id":76561197970585162,"connected_time":45000000000,"state":"active","ping":80},{"user_id":954,"name":"102ping","steam_id":76561199000963772,"connected_time":742000000000,"state":"active","ping":68},{"user_id":962,"name":"-_E–±@—Ç–µL–õ–¨ T-1000_-","steam_id":76561198806925283,"connected_time":425000000000,"state":"active","ping":143}]},{"server_id":320,"name":"Uncletopia | London | 3 | All Maps","name_short":"lon-3","host":"lon-1.uk.uncletopia.com","port":27035,"enabled":true,"region":"eu","cc":"gb","latitude":51.509865,"longitude":-0.118092,"reserved":0,"last_update":"0001-01-01T00:00:00Z","name_a2s":"Uncletopia | London | 3 | All Maps","protocol":17,"map":"pl_badwater","folder":"tf","game":"Team Fortress","app_id":440,"player_count":24,"max_players":24,"Bots":0,"server_type":"Dedicated","server_os":"Linux","password":true,"vac":true,"version":"7757534","steam_id":85568392924510192,"keywords":["nocrits","nodmgspread","payload","uncletopia"],"game_id":440,"stv_port":27036,"stv_name":"Uncletopia | London | 3 | All Maps | STV","players":[{"user_id":570,"name":"Torrii","steam_id":76561198307916635,"connected_time":3507000000000,"state":"active","ping":91},{"user_id":618,"name":"{{H3inz}] Beanz","steam_id":76561197999459536,"connected_time":1061000000000,"state":"active","ping":49},{"user_id":605,"name":"Benny the Ball","steam_id":76561198043104532,"connected_time":1549000000000,"state":"active","ping":44},{"user_id":626,"name":"Zurreal","steam_id":76561198045318547,"connected_time":282000000000,"state":"active","ping":74},{"user_id":600,"name":"mylow","steam_id":76561198022291895,"connected_time":1703000000000,"state":"active","ping":47},{"user_id":620,"name":"Gandalfthepink","steam_id":76561197990313110,"connected_time":1003000000000,"state":"active","ping":70},{"user_id":611,"name":"nux","steam_id":76561199241115962,"connected_time":1325000000000,"state":"active","ping":133},{"user_id":606,"name":"Stavzz","steam_id":76561198147881331,"connected_time":1490000000000,"state":"active","ping":50},{"user_id":582,"name":"Adopted?","steam_id":76561198118667043,"connected_time":2509000000000,"state":"active","ping":50},{"user_id":594,"name":"Viral Pink Sauce","steam_id":76561198174510235,"connected_time":1836000000000,"state":"active","ping":56},{"user_id":614,"name":"_zipfile","steam_id":76561198066133808,"connected_time":1297000000000,"state":"active","ping":71},{"user_id":622,"name":"Orion The Hunter","steam_id":76561197992069129,"connected_time":714000000000,"state":"active","ping":93},{"user_id":603,"name":"Brass beast heavy","steam_id":76561198274197623,"connected_time":1594000000000,"state":"active","ping":71},{"user_id":623,"name":"Blackout195","steam_id":76561198069410775,"connected_time":706000000000,"state":"active","ping":45},{"user_id":588,"name":"C.H.E.R.E.P.","steam_id":76561198026938595,"connected_time":2324000000000,"state":"active","ping":80},{"user_id":581,"name":"KingTeddy","steam_id":76561198131757499,"connected_time":2603000000000,"state":"active","ping":68},{"user_id":610,"name":"Soloman","steam_id":76561199212054667,"connected_time":1385000000000,"state":"active","ping":45},{"user_id":615,"name":"Seail_M","steam_id":76561198002405605,"connected_time":1289000000000,"state":"active","ping":61},{"user_id":627,"name":"good to be back","steam_id":76561199391850406,"connected_time":282000000000,"state":"active","ping":105},{"user_id":569,"name":"Sauce‚Ñ¢","steam_id":76561198155094400,"connected_time":3579000000000,"state":"active","ping":64},{"user_id":587,"name":"SoupER","steam_id":76561198063056668,"connected_time":2408000000000,"state":"active","ping":48},{"user_id":585,"name":"Orochi","steam_id":76561198265192382,"connected_time":2481000000000,"state":"active","ping":68},{"user_id":616,"name":"Tort","steam_id":76561198329646769,"connected_time":1280000000000,"state":"active","ping":58},{"user_id":624,"name":"Gr√∏nkj√¶r","steam_id":76561198041075280,"connected_time":694000000000,"state":"active","ping":75}]},{"server_id":321,"name":"Uncletopia | London | 4 | All Maps","name_short":"lon-4","host":"lon-1.uk.uncletopia.com","port":27045,"enabled":true,"region":"eu","cc":"gb","latitude":51.509865,"longitude":-0.118092,"reserved":0,"last_update":"0001-01-01T00:00:00Z","name_a2s":"Uncletopia | London | 4 | All Maps","protocol":17,"map":"pl_borneo","folder":"tf","game":"Team Fortress","app_id":440,"player_count":24,"max_players":24,"Bots":0,"server_type":"Dedicated","server_os":"Linux","password":true,"vac":true,"version":"7757534","steam_id":85568392924510193,"keywords":["nocrits","nodmgspread","payload","uncletopia"],"game_id":440,"stv_port":27046,"stv_name":"Uncletopia | London | 4 | All Maps | STV","players":[{"user_id":420,"name":"darktheif54","steam_id":76561198043650119,"connected_time":10516000000000,"state":"active","ping":45},{"user_id":533,"name":"FungiDuck","steam_id":76561198059411335,"connected_time":1696000000000,"state":"active","ping":129},{"user_id":543,"name":"pizza time","steam_id":76561199015899793,"connected_time":84000000000,"state":"active","ping":47},{"user_id":528,"name":"onku","steam_id":76561199230709660,"connected_time":1875000000000,"state":"active","ping":69},{"user_id":513,"name":"Economic crisis","steam_id":76561198063562843,"connected_time":3009000000000,"state":"active","ping":63},{"user_id":512,"name":"Jakk","steam_id":76561198041537908,"connected_time":3021000000000,"state":"active","ping":71},{"user_id":514,"name":"‚òÄAkane Chiasa‚òÄ","steam_id":76561198073865581,"connected_time":2992000000000,"state":"active","ping":72},{"user_id":539,"name":"Ged","steam_id":76561198079288943,"connected_time":745000000000,"state":"active","ping":128},{"user_id":509,"name":"Bell","steam_id":76561199454586928,"connected_time":4174000000000,"state":"active","ping":128},{"user_id":534,"name":"ike","steam_id":76561198039845647,"connected_time":1653000000000,"state":"active","ping":58},{"user_id":538,"name":"Mauricio‚Ñ¢","steam_id":76561198058727934,"connected_time":761000000000,"state":"active","ping":48},{"user_id":496,"name":"DeadpoolDealsDamage","steam_id":76561198399472908,"connected_time":4868000000000,"state":"active","ping":54},{"user_id":544,"name":"im red","steam_id":76561199087284519,"connected_time":25000000000,"state":"spawning","ping":62},{"user_id":508,"name":"Faeris","steam_id":76561198060980015,"connected_time":4300000000000,"state":"active","ping":76},{"user_id":493,"name":"!!!!!!!!!!!!!!!!!!!!!!!!!!!!!!!","steam_id":76561198069649097,"connected_time":5286000000000,"state":"active","ping":45},{"user_id":520,"name":"Saken","steam_id":76561198049075295,"connected_time":2072000000000,"state":"active","ping":59},{"user_id":545,"name":"i am bread","steam_id":76561199180277321,"connected_time":23000000000,"state":"active","ping":56},{"user_id":536,"name":"noVa","steam_id":76561198296550363,"connected_time":1562000000000,"state":"active","ping":55},{"user_id":471,"name":"Thalgorock","steam_id":76561198195315022,"connected_time":7922000000000,"state":"active","ping":81},{"user_id":495,"name":"HOT HENTAI GIRL","steam_id":76561198104438656,"connected_time":4959000000000,"state":"active","ping":62},{"user_id":518,"name":"Fresh_Slav","steam_id":76561198018034575,"connected_time":2389000000000,"state":"active","ping":76},{"user_id":542,"name":"Mb","steam_id":76561197988871428,"connected_time":101000000000,"state":"active","ping":44},{"user_id":530,"name":"SOSA","steam_id":76561198084307068,"connected_time":1786000000000,"state":"active","ping":44},{"user_id":540,"name":"SP1G","steam_id":76561198329223988,"connected_time":633000000000,"state":"active","ping":40}]},{"server_id":21,"name":"Uncletopia | London | 5 | All Maps","name_short":"lon-5","host":"lon-1.uk.uncletopia.com","port":27055,"enabled":true,"region":"eu","cc":"gb","latitude":51.509865,"longitude":-0.118092,"reserved":0,"last_update":"0001-01-01T00:00:00Z","name_a2s":"Uncletopia | London | 5 | All Maps","protocol":17,"map":"pl_upward","folder":"tf","game":"Team Fortress","app_id":440,"player_count":24,"max_players":24,"Bots":0,"server_type":"Dedicated","server_os":"Linux","password":true,"vac":true,"version":"7757534","steam_id":85568392924742829,"keywords":["nocrits","nodmgspread","payload","uncletopia"],"game_id":440,"stv_port":27056,"stv_name":"Uncletopia | London | 5 | All Maps | STV","players":[{"user_id":319,"name":"najed","steam_id":76561198107767664,"connected_time":129000000000,"state":"active","ping":47},{"user_id":304,"name":".swayze","steam_id":76561198141744030,"connected_time":935000000000,"state":"active","ping":56},{"user_id":259,"name":"pepper","steam_id":76561198059782462,"connected_time":5219000000000,"state":"active","ping":60},{"user_id":280,"name":"jge","steam_id":76561198123186387,"connected_time":3469000000000,"state":"active","ping":73},{"user_id":293,"name":"playerboard","steam_id":76561199091972687,"connected_time":1932000000000,"state":"active","ping":53},{"user_id":296,"name":"Kazamaki","steam_id":76561198009180324,"connected_time":1212000000000,"state":"active","ping":66},{"user_id":286,"name":"Kvicha Kvaratskhelia","steam_id":76561198179339326,"connected_time":3057000000000,"state":"active","ping":88},{"user_id":316,"name":"Bat in a thousand","steam_id":76561198320506848,"connected_time":338000000000,"state":"active","ping":43},{"user_id":318,"name":"Jangodiot","steam_id":76561199385350969,"connected_time":166000000000,"state":"active","ping":65},{"user_id":257,"name":"edgar","steam_id":76561198212862423,"connected_time":5732000000000,"state":"active","ping":35},{"user_id":311,"name":"Rave Robber","steam_id":76561199414716848,"connected_time":808000000000,"state":"active","ping":75},{"user_id":216,"name":"Pasta sauce","steam_id":76561198232919072,"connected_time":8820000000000,"state":"active","ping":41},{"user_id":306,"name":"Kahvi","steam_id":76561198723244199,"connected_time":915000000000,"state":"active","ping":89},{"user_id":308,"name":"Thunder_Chief","steam_id":76561198086858957,"connected_time":903000000000,"state":"active","ping":75},{"user_id":309,"name":"Mads Mikkelsen","steam_id":76561198819699670,"connected_time":880000000000,"state":"active","ping":90},{"user_id":310,"name":"Ronnie Coleman","steam_id":76561198188676728,"connected_time":842000000000,"state":"active","ping":105},{"user_id":312,"name":"The rat is Nux","steam_id":76561197999250254,"connected_time":807000000000,"state":"active","ping":61},{"user_id":299,"name":"Hilldog","steam_id":76561198082209322,"connected_time":1126000000000,"state":"active","ping":101},{"user_id":263,"name":"player","steam_id":76561198054474684,"connected_time":4453000000000,"state":"active","ping":87},{"user_id":313,"name":"top_g","steam_id":76561198058970797,"connected_time":803000000000,"state":"active","ping":104},{"user_id":314,"name":"Kjall","steam_id":76561198159249203,"connected_time":802000000000,"state":"active","ping":100},{"user_id":273,"name":"sharkmax12312","steam_id":76561198996008569,"connected_time":4046000000000,"state":"active","ping":69},{"user_id":256,"name":"the joy of recycling","steam_id":76561198415564349,"connected_time":5888000000000,"state":"active","ping":60},{"user_id":274,"name":"Pronton","steam_id":76561198082502910,"connected_time":4045000000000,"state":"active","ping":63}]},{"server_id":22,"name":"Uncletopia | London | 6 | All Maps","name_short":"lon-6","host":"lon-1.uk.uncletopia.com","port":27065,"enabled":true,"region":"eu","cc":"gb","latitude":51.509865,"longitude":-0.118092,"reserved":0,"last_update":"0001-01-01T00:00:00Z","name_a2s":"Uncletopia | London | 6 | All Maps","protocol":17,"map":"pl_wutville_event","folder":"tf","game":"Team Fortress","app_id":440,"player_count":24,"max_players":24,"Bots":0,"server_type":"Dedicated","server_os":"Linux","password":true,"vac":true,"version":"7757534","steam_id":85568392924742830,"keywords":["nocrits","nodmgspread","payload","uncletopia"],"game_id":440,"stv_port":27066,"stv_name":"Uncletopia | London | 6 | All Maps | STV","players":[{"user_id":736,"name":"GezmeRR TF2","steam_id":76561198043814532,"connected_time":392000000000,"state":"active","ping":63},{"user_id":726,"name":"Svilar","steam_id":76561198828348612,"connected_time":1289000000000,"state":"active","ping":70},{"user_id":737,"name":"AMD8806","steam_id":76561198959208483,"connected_time":383000000000,"state":"active","ping":41},{"user_id":705,"name":"a very lorge sergal","steam_id":76561197994934838,"connected_time":2318000000000,"state":"active","ping":79},{"user_id":728,"name":"Shinry","steam_id":76561199063325272,"connected_time":996000000000,"state":"active","ping":62},{"user_id":731,"name":"Baron","steam_id":76561198119502396,"connected_time":871000000000,"state":"active","ping":59},{"user_id":730,"name":"hawkblob","steam_id":76561198803720565,"connected_time":957000000000,"state":"active","ping":64},{"user_id":738,"name":"glyphoglossus molossus","steam_id":76561198191291749,"connected_time":379000000000,"state":"active","ping":80},{"user_id":667,"name":"Random Cap","steam_id":76561198129271321,"connected_time":5306000000000,"state":"active","ping":61},{"user_id":711,"name":"dopamine overdose","steam_id":76561199032511302,"connected_time":2199000000000,"state":"active","ping":87},{"user_id":701,"name":"ikeaworst","steam_id":76561198936990378,"connected_time":3028000000000,"state":"active","ping":61},{"user_id":665,"name":"‚ô• Cirno ‚ô•","steam_id":76561198834982738,"connected_time":5417000000000,"state":"active","ping":70},{"user_id":739,"name":"dave","steam_id":76561199078847021,"connected_time":371000000000,"state":"active","ping":85},{"user_id":740,"name":"Lord Commissar Drac","steam_id":76561198030371218,"connected_time":352000000000,"state":"active","ping":76},{"user_id":546,"name":"sleuth","steam_id":76561198102752414,"connected_time":12919000000000,"state":"active","ping":52},{"user_id":631,"name":"foolproof","steam_id":76561198115801132,"connected_time":7415000000000,"state":"active","ping":62},{"user_id":713,"name":"CutteLighty","steam_id":76561198080700641,"connected_time":2181000000000,"state":"active","ping":71},{"user_id":424,"name":":)","steam_id":76561198103988618,"connected_time":22461000000000,"state":"active","ping":60},{"user_id":734,"name":"Saneper","steam_id":76561198046043298,"connected_time":838000000000,"state":"active","ping":68},{"user_id":741,"name":"Emo E-boy Twink","steam_id":76561198044624039,"connected_time":311000000000,"state":"active","ping":53},{"user_id":715,"name":"Jacquouille la Fripouille","steam_id":76561199269042680,"connected_time":2177000000000,"state":"active","ping":48},{"user_id":742,"name":"Inhumane Toaster","steam_id":76561198019162167,"connected_time":239000000000,"state":"active","ping":150},{"user_id":743,"name":"croco.","steam_id":76561198988882521,"connected_time":138000000000,"state":"active","ping":113},{"user_id":744,"name":"Ê¨†Á®éÂì•","steam_id":76561199118856462,"connected_time":121000000000,"state":"active","ping":54}]},{"server_id":40,"name":"Uncletopia | London | 7 | No Payload","name_short":"lon-7","host":"lon-1.uk.uncletopia.com","port":27075,"enabled":true,"region":"eu","cc":"gb","latitude":51.509865,"longitude":-0.118092,"reserved":0,"last_update":"0001-01-01T00:00:00Z","name_a2s":"Uncletopia | London | 7 | No Payload","protocol":17,"map":"cp_fastlane","folder":"tf","game":"Team Fortress","app_id":440,"player_count":0,"max_players":24,"Bots":0,"server_type":"Dedicated","server_os":"Linux","password":true,"vac":true,"version":"7757534","steam_id":85568392924964314,"keywords":["cp","nocrits","nodmgspread","uncletopia"],"game_id":440,"stv_port":27076,"stv_name":"Uncletopia | London | 7 | No Payload | STV","players":null},{"server_id":41,"name":"Uncletopia | London | 8 | Community","name_short":"lon-8","host":"lon-1.uk.uncletopia.com","port":27085,"enabled":true,"region":"eu","cc":"gb","latitude":51.509865,"longitude":-0.118092,"reserved":0,"last_update":"0001-01-01T00:00:00Z","name_a2s":"Uncletopia | London | 8 | Community","protocol":17,"map":"workshop/koth_ashville_final.ugc2130459942","folder":"tf","game":"Team Fortress","app_id":440,"player_count":0,"max_players":24,"Bots":0,"server_type":"Dedicated","server_os":"Linux","password":true,"vac":true,"version":"7757534","steam_id":85568392924964315,"keywords":["cp","nocrits","nodmgspread","uncletopia"],"game_id":440,"stv_port":27086,"stv_name":"Uncletopia | London | 8 | Community | STV","players":null},{"server_id":300,"name":"Uncletopia | Montr√©al | 1 | All Maps","name_short":"mtl-1","host":"mtl-1.ca.uncletopia.com","port":27015,"enabled":true,"region":"us-east","cc":"ca","latitude":45.50889,"longitude":-73.56167,"reserved":0,"last_update":"0001-01-01T00:00:00Z","name_a2s":"Uncletopia | Montr√©al | 1 | All Maps","protocol":17,"map":"koth_cascade","folder":"tf","game":"Team Fortress","app_id":440,"player_count":0,"max_players":24,"Bots":0,"server_type":"Dedicated","server_os":"Linux","password":true,"vac":true,"version":"7757534","steam_id":85568392924500087,"keywords":["cp","nocrits","nodmgspread","uncletopia"],"game_id":440,"stv_port":27016,"stv_name":"Uncletopia | Montr√©al | 1 | All Maps | STV","players":null},{"server_id":301,"name":"Uncletopia | Montr√©al | 2 | All Maps","name_short":"mtl-2","host":"mtl-1.ca.uncletopia.com","port":27025,"enabled":true,"region":"us-east","cc":"ca","latitude":45.50889,"longitude":-73.56167,"reserved":0,"last_update":"0001-01-01T00:00:00Z","name_a2s":"Uncletopia | Montr√©al | 2 | All Maps","protocol":17,"map":"pl_borneo","folder":"tf","game":"Team Fortress","app_id":440,"player_count":0,"max_players":24,"Bots":0,"server_type":"Dedicated","server_os":"Linux","password":true,"vac":true,"version":"7757534","steam_id":85568392924500088,"keywords":["nocrits","nodmgspread","payload","uncletopia"],"game_id":440,"stv_port":27026,"stv_name":"Uncletopia | Montr√©al | 2 | All Maps | STV","players":null},{"server_id":302,"name":"Uncletopia | Montr√©al | 3 | All Maps","name_short":"mtl-3","host":"mtl-1.ca.uncletopia.com","port":27035,"enabled":true,"region":"us-east","cc":"ca","latitude":45.50889,"longitude":-73.56167,"reserved":0,"last_update":"0001-01-01T00:00:00Z","name_a2s":"Uncletopia | Montr√©al | 3 | All Maps","protocol":17,"map":"cp_sunshine","folder":"tf","game":"Team Fortress","app_id":440,"player_count":0,"max_players":24,"Bots":0,"server_type":"Dedicated","server_os":"Linux","password":true,"vac":true,"version":"7757534","steam_id":85568392924500089,"keywords":["cp","nocrits","nodmgspread","uncletopia"],"game_id":440,"stv_port":27036,"stv_name":"Uncletopia | Montr√©al | 3 | All Maps | STV","players":null},{"server_id":303,"name":"Uncletopia | Montr√©al | 4 | No Payload","name_short":"mtl-4","host":"mtl-1.ca.uncletopia.com","port":27045,"enabled":true,"region":"us-east","cc":"ca","latitude":45.50889,"longitude":-73.56167,"reserved":0,"last_update":"0001-01-01T00:00:00Z","name_a2s":"Uncletopia | Montr√©al | 4 | No Payload","protocol":17,"map":"koth_lakeside_final","folder":"tf","game":"Team Fortress","app_id":440,"player_count":0,"max_players":24,"Bots":0,"server_type":"Dedicated","server_os":"Linux","password":true,"vac":true,"version":"7757534","steam_id":85568392924500090,"keywords":["cp","nocrits","nodmgspread","uncletopia"],"game_id":440,"stv_port":27046,"stv_name":"Uncletopia | Montr√©al | 4 | No Payload | STV","players":null},{"server_id":13,"name":"Uncletopia | New York City | 1 | All Maps","name_short":"nyc-1","host":"nyc-1.us.uncletopia.com","port":27015,"enabled":true,"region":"us-east","cc":"us","latitude":40.73061,"longitude":-73.93524,"reserved":0,"last_update":"0001-01-01T00:00:00Z","name_a2s":"Uncletopia | New York City | 1 | All Maps","protocol":17,"map":"cp_dustbowl","folder":"tf","game":"Team Fortress","app_id":440,"player_count":24,"max_players":24,"Bots":0,"server_type":"Dedicated","server_os":"Linux","password":true,"vac":true,"version":"7757534","steam_id":85568392924469993,"keywords":["cp","nocrits","nodmgspread","uncletopia"],"game_id":440,"stv_port":27016,"stv_name":"Uncletopia | New York City | 1 | All Maps | STV","players":[{"user_id":165,"name":"Dramatic","steam_id":76561199012990268,"connected_time":1376000000000,"state":"active","ping":46},{"user_id":160,"name":"Lucille_Bluth","steam_id":76561198206133916,"connected_time":1637000000000,"state":"active","ping":72},{"user_id":136,"name":"Samrizo el Chorizo","steam_id":76561198009838162,"connected_time":3710000000000,"state":"active","ping":55},{"user_id":161,"name":"Bigtimefan5","steam_id":76561199047490167,"connected_time":1581000000000,"state":"active","ping":59},{"user_id":177,"name":"Xavibite","steam_id":76561198209380493,"connected_time":489000000000,"state":"active","ping":40},{"user_id":164,"name":"barbarian","steam_id":76561198828549499,"connected_time":1413000000000,"state":"active","ping":123},{"user_id":166,"name":"Player","steam_id":76561199116759442,"connected_time":1298000000000,"state":"active","ping":53},{"user_id":178,"name":"J.R Prime","steam_id":76561198967753173,"connected_time":318000000000,"state":"active","ping":76},{"user_id":176,"name":"Walter Motrin","steam_id":76561198139095697,"connected_time":583000000000,"state":"active","ping":57},{"user_id":148,"name":"Dilbert","steam_id":76561198195613682,"connected_time":2486000000000,"state":"active","ping":75},{"user_id":179,"name":"Big G","steam_id":76561198067496197,"connected_time":199000000000,"state":"active","ping":58},{"user_id":157,"name":"Alfonso Molestro","steam_id":76561197998677099,"connected_time":2073000000000,"state":"active","ping":67},{"user_id":168,"name":"The_Dinohunter","steam_id":76561198060653696,"connected_time":1256000000000,"state":"active","ping":69},{"user_id":169,"name":"THGAwesome","steam_id":76561198162847218,"connected_time":1208000000000,"state":"active","ping":68},{"user_id":170,"name":"help","steam_id":76561198439506503,"connected_time":1117000000000,"state":"active","ping":43},{"user_id":175,"name":"Vobo","steam_id":76561199159418598,"connected_time":658000000000,"state":"active","ping":126},{"user_id":151,"name":"Michaelpc1","steam_id":76561198088365519,"connected_time":2443000000000,"state":"active","ping":73},{"user_id":171,"name":"Nilantive","steam_id":76561198177565082,"connected_time":1101000000000,"state":"active","ping":54},{"user_id":180,"name":"Hell's Reindeer","steam_id":76561198065310364,"connected_time":38000000000,"state":"active","ping":67},{"user_id":141,"name":"Ceiling Man","steam_id":76561198003959902,"connected_time":3088000000000,"state":"active","ping":39},{"user_id":173,"name":"starlightprophet2003","steam_id":76561199468985137,"connected_time":1080000000000,"state":"active","ping":120},{"user_id":174,"name":"egyptiangodcard","steam_id":76561198855935442,"connected_time":842000000000,"state":"active","ping":96},{"user_id":158,"name":"Mercury","steam_id":76561198072263852,"connected_time":1948000000000,"state":"active","ping":56},{"user_id":75,"name":"Zen Skye","steam_id":76561198114452552,"connected_time":7574000000000,"state":"active","ping":84}]},{"server_id":14,"name":"Uncletopia | New York City | 2 | All Maps","name_short":"nyc-2","host":"nyc-1.us.uncletopia.com","port":27025,"enabled":true,"region":"us-east","cc":"us","latitude":40.73061,"longitude":-73.93524,"reserved":0,"last_update":"0001-01-01T00:00:00Z","name_a2s":"Uncletopia | New York City | 2 | All Maps","protocol":17,"map":"pl_barnblitz","folder":"tf","game":"Team Fortress","app_id":440,"player_count":24,"max_players":24,"Bots":0,"server_type":"Dedicated","server_os":"Linux","password":true,"vac":true,"version":"7757534","steam_id":85568392924469994,"keywords":["nocrits","nodmgspread","payload","uncletopia"],"game_id":440,"stv_port":27026,"stv_name":"Uncletopia | New York City | 2 | All Maps | STV","players":[{"user_id":364,"name":"DolphiN | RGL.gg","steam_id":76561198048614515,"connected_time":529000000000,"state":"active","ping":45},{"user_id":351,"name":"Xbox_Pro_2016","steam_id":76561198176126519,"connected_time":2094000000000,"state":"active","ping":61},{"user_id":349,"name":"cyan","steam_id":76561198019387213,"connected_time":2156000000000,"state":"active","ping":69},{"user_id":354,"name":"hashmap","steam_id":76561198043794014,"connected_time":1693000000000,"state":"active","ping":63},{"user_id":362,"name":"the boss","steam_id":76561198047689205,"connected_time":834000000000,"state":"active","ping":45},{"user_id":359,"name":"walker","steam_id":76561198031669769,"connected_time":1285000000000,"state":"active","ping":63},{"user_id":378,"name":"ognoob3000","steam_id":76561199105856641,"connected_time":92000000000,"state":"active","ping":68},{"user_id":365,"name":"g00bur","steam_id":76561197993622520,"connected_time":509000000000,"state":"active","ping":56},{"user_id":363,"name":"stevefelber","steam_id":76561199467139120,"connected_time":810000000000,"state":"active","ping":55},{"user_id":352,"name":"room","steam_id":76561198065222935,"connected_time":2019000000000,"state":"active","ping":78},{"user_id":308,"name":"Mr. May","steam_id":76561198132112804,"connected_time":3501000000000,"state":"active","ping":77},{"user_id":366,"name":"sxl v39393939393939393939","steam_id":76561198150627999,"connected_time":461000000000,"state":"active","ping":63},{"user_id":332,"name":"PageBoiSkull","steam_id":76561198237353578,"connected_time":2679000000000,"state":"active","ping":128},{"user_id":367,"name":"Avg. Santa Believer (Nice list)","steam_id":76561198040444697,"connected_time":446000000000,"state":"active","ping":50},{"user_id":368,"name":"Chicken_Tendy","steam_id":76561198825122177,"connected_time":434000000000,"state":"active","ping":120},{"user_id":369,"name":"zabloinkus","steam_id":76561198069967245,"connected_time":405000000000,"state":"active","ping":70},{"user_id":342,"name":"Thurricane","steam_id":76561198410724666,"connected_time":2308000000000,"state":"active","ping":52},{"user_id":380,"name":"Vem","steam_id":76561198117273112,"connected_time":82000000000,"state":"active","ping":69},{"user_id":372,"name":"Wolbey","steam_id":76561198042148095,"connected_time":282000000000,"state":"active","ping":76},{"user_id":373,"name":"bakk frost ^. Íûà .^","steam_id":76561198046745579,"connected_time":228000000000,"state":"active","ping":112},{"user_id":374,"name":"Peepster","steam_id":76561198297854733,"connected_time":191000000000,"state":"active","ping":87},{"user_id":375,"name":"jalapeno handjob","steam_id":76561198123298824,"connected_time":187000000000,"state":"active","ping":89},{"user_id":377,"name":"Rhutebeer","steam_id":76561198018302761,"connected_time":152000000000,"state":"active","ping":104},{"user_id":379,"name":"MR DADDY","steam_id":76561198350794663,"connected_time":91000000000,"state":"active","ping":57}]},{"server_id":15,"name":"Uncletopia | New York City | 3 | Stopwatch Beta","name_short":"nyc-3","host":"nyc-1.us.uncletopia.com","port":27035,"enabled":true,"region":"us-east","cc":"us","latitude":40.73061,"longitude":-73.93524,"reserved":0,"last_update":"0001-01-01T00:00:00Z","name_a2s":"Uncletopia | New York City | 3 | Stopwatch Beta","protocol":17,"map":"workshop/cp_reckoner_rc6.ugc674719999","folder":"tf","game":"Team Fortress","app_id":440,"player_count":0,"max_players":24,"Bots":0,"server_type":"Dedicated","server_os":"Linux","password":true,"vac":true,"version":"7757534","steam_id":85568392924742820,"keywords":["cp","nocrits","nodmgspread","uncletopia"],"game_id":440,"stv_port":27036,"stv_name":"Uncletopia | New York City | 3 | Stopwatch Beta | STV","players":null},{"server_id":16,"name":"Uncletopia | New York City | 4 | Community","name_short":"nyc-4","host":"nyc-1.us.uncletopia.com","port":27045,"enabled":true,"region":"us-east","cc":"us","latitude":40.73061,"longitude":-73.93524,"reserved":0,"last_update":"0001-01-01T00:00:00Z","name_a2s":"Uncletopia | New York City | 4 | Community","protocol":17,"map":"workshop/cp_overgrown_rc7b.ugc503939302","folder":"tf","game":"Team Fortress","app_id":440,"player_count":0,"max_players":24,"Bots":0,"server_type":"Dedicated","server_os":"Linux","password":true,"vac":true,"version":"7757534","steam_id":85568392924742821,"keywords":["cp","nocrits","nodmgspread","uncletopia"],"game_id":440,"stv_port":27046,"stv_name":"Uncletopia | New York City | 4 | Community | STV","players":null},{"server_id":142,"name":"Uncletopia | S√£o Paulo | 1 | All Maps","name_short":"sao-1","host":"sao-1.br.uncletopia.com","port":27015,"enabled":true,"region":"sa","cc":"br","latitude":-23.533773,"longitude":-46.62529,"reserved":0,"last_update":"0001-01-01T00:00:00Z","name_a2s":"Uncletopia | S√£o Paulo | 1 | All Maps","protocol":17,"map":"koth_highpass","folder":"tf","game":"Team Fortress","app_id":440,"player_count":0,"max_players":24,"Bots":0,"server_type":"Dedicated","server_os":"Linux","password":true,"vac":true,"version":"7757534","steam_id":85568392924469996,"keywords":["cp","nocrits","nodmgspread","uncletopia"],"game_id":440,"stv_port":27016,"stv_name":"Uncletopia | S√£o Paulo | 1 | All Maps | STV","players":null},{"server_id":143,"name":"Uncletopia | S√£o Paulo | 2 | All Maps","name_short":"sao-2","host":"sao-2.br.uncletopia.com","port":27015,"enabled":true,"region":"sa","cc":"br","latitude":-23.533773,"longitude":-46.62529,"reserved":0,"last_update":"0001-01-01T00:00:00Z","name_a2s":"Uncletopia | S√£o Paulo | 2 | All Maps","protocol":17,"map":"pl_upward","folder":"tf","game":"Team Fortress","app_id":440,"player_count":7,"max_players":24,"Bots":0,"server_type":"Dedicated","server_os":"Linux","password":true,"vac":true,"version":"7757534","steam_id":85568392924485349,"keywords":["nocrits","nodmgspread","payload","uncletopia"],"game_id":440,"stv_port":27016,"stv_name":"Uncletopia | S√£o Paulo | 2 | All Maps | STV","players":[{"user_id":48,"name":"alglumber","steam_id":76561199429426012,"connected_time":281000000000,"state":"active","ping":46},{"user_id":44,"name":"guarda-chuva","steam_id":76561198078694330,"connected_time":591000000000,"state":"active","ping":269},{"user_id":31,"name":"Tert_14","steam_id":76561198185952289,"connected_time":1969000000000,"state":"active","ping":73},{"user_id":49,"name":"stwawbewwy milk :3","steam_id":76561198254171043,"connected_time":95000000000,"state":"active","ping":48},{"user_id":36,"name":"Elo","steam_id":76561198954337086,"connected_time":1093000000000,"state":"active","ping":48},{"user_id":40,"name":"5¬∫ de dismembro","steam_id":76561198199455773,"connected_time":889000000000,"state":"active","ping":77},{"user_id":45,"name":"Joel y Victor","steam_id":76561198289627228,"connected_time":530000000000,"state":"active","ping":59}]},{"server_id":7,"name":"Uncletopia | Seattle | 1 | All Maps","name_short":"sea-1","host":"sea-1.us.uncletopia.com","port":27015,"enabled":true,"region":"us-west","cc":"us","latitude":47.608013,"longitude":-122.33517,"reserved":0,"last_update":"0001-01-01T00:00:00Z","name_a2s":"Uncletopia | Seattle | 1 | All Maps","protocol":17,"map":"pl_upward","folder":"tf","game":"Team Fortress","app_id":440,"player_count":24,"max_players":24,"Bots":0,"server_type":"Dedicated","server_os":"Linux","password":true,"vac":true,"version":"7757534","steam_id":85568392924469997,"keywords":["nocrits","nodmgspread","payload","uncletopia"],"game_id":440,"stv_port":27016,"stv_name":"Uncletopia | Seattle | 1 | All Maps | STV","players":[{"user_id":200,"name":"aon135","steam_id":76561197966931637,"connected_time":6563000000000,"state":"active","ping":61},{"user_id":268,"name":"spenca","steam_id":76561198025371154,"connected_time":1381000000000,"state":"active","ping":65},{"user_id":238,"name":"laggiest player","steam_id":76561198439899407,"connected_time":4472000000000,"state":"active","ping":44},{"user_id":279,"name":"w key + left click + spacebar","steam_id":76561198319442494,"connected_time":113000000000,"state":"active","ping":88},{"user_id":269,"name":"Duck","steam_id":76561199236708672,"connected_time":1371000000000,"state":"active","ping":84},{"user_id":245,"name":"The Population of Sweden","steam_id":76561198202201644,"connected_time":3858000000000,"state":"active","ping":38},{"user_id":272,"name":"KingTinkerer","steam_id":76561198226856548,"connected_time":649000000000,"state":"active","ping":70},{"user_id":276,"name":"d savage stole my wife","steam_id":76561198145784505,"connected_time":561000000000,"state":"active","ping":82},{"user_id":271,"name":"Capt.Swag","steam_id":76561198088340994,"connected_time":1183000000000,"state":"active","ping":124},{"user_id":191,"name":"nappyzappy","steam_id":76561198095118953,"connected_time":7323000000000,"state":"active","ping":69},{"user_id":275,"name":"shane","steam_id":76561198060491451,"connected_time":624000000000,"state":"active","ping":80},{"user_id":253,"name":"delight","steam_id":76561197980280272,"connected_time":2668000000000,"state":"active","ping":46},{"user_id":225,"name":"p9 jorts","steam_id":76561199041179985,"connected_time":4835000000000,"state":"active","ping":67},{"user_id":249,"name":"Major Rabbit","steam_id":76561198086047613,"connected_time":3390000000000,"state":"active","ping":124},{"user_id":278,"name":"bbbbb","steam_id":76561198095480838,"connected_time":114000000000,"state":"active","ping":54},{"user_id":277,"name":"Arsonist Goose","steam_id":76561198147441830,"connected_time":450000000000,"state":"active","ping":74},{"user_id":267,"name":"rat gets the cheese","steam_id":76561198031234032,"connected_time":1522000000000,"state":"active","ping":95},{"user_id":255,"name":"Amateur Glaswegian","steam_id":76561198030851956,"connected_time":2616000000000,"state":"active","ping":52},{"user_id":258,"name":"Florist","steam_id":76561198009121060,"connected_time":2262000000000,"state":"active","ping":48},{"user_id":205,"name":"Diesel","steam_id":76561198448815852,"connected_time":6417000000000,"state":"active","ping":63},{"user_id":266,"name":"Pinkfluffycorn","steam_id":76561198374135155,"connected_time":1628000000000,"state":"active","ping":93},{"user_id":263,"name":"COOL master_9","steam_id":76561198073041151,"connected_time":2090000000000,"state":"active","ping":100},{"user_id":273,"name":"yup","steam_id":76561199190800520,"connected_time":648000000000,"state":"active","ping":43},{"user_id":242,"name":"thunderous prophet","steam_id":76561198131166135,"connected_time":4145000000000,"state":"active","ping":45}]},{"server_id":119,"name":"Uncletopia | Seattle | 2 | All Maps","name_short":"sea-2","host":"sea-1.us.uncletopia.com","port":27025,"enabled":true,"region":"us-west","cc":"us","latitude":47.608013,"longitude":-122.33517,"reserved":0,"last_update":"0001-01-01T00:00:00Z","name_a2s":"Uncletopia | Seattle | 2 | All Maps","protocol":17,"map":"pl_swiftwater_final1","folder":"tf","game":"Team Fortress","app_id":440,"player_count":23,"max_players":24,"Bots":0,"server_type":"Dedicated","server_os":"Linux","password":true,"vac":true,"version":"7757534","steam_id":85568392924469998,"keywords":["nocrits","nodmgspread","payload","uncletopia"],"game_id":440,"stv_port":27026,"stv_name":"Uncletopia | Seattle | 2 | All Maps | STV","players":[{"user_id":173,"name":"Asher","steam_id":76561198218499636,"connected_time":581000000000,"state":"active","ping":115},{"user_id":115,"name":"Villchip","steam_id":76561198198599982,"connected_time":4905000000000,"state":"active","ping":52},{"user_id":186,"name":"WowAlek!","steam_id":76561199027530775,"connected_time":132000000000,"state":"active","ping":90},{"user_id":172,"name":"Cyborg Lincoln","steam_id":76561198021269047,"connected_time":630000000000,"state":"active","ping":63},{"user_id":162,"name":"Crake","steam_id":76561198001959071,"connected_time":1255000000000,"state":"active","ping":56},{"user_id":180,"name":"yeemsta supreme","steam_id":76561199141828157,"connected_time":462000000000,"state":"active","ping":82},{"user_id":166,"name":"The dreaded jar","steam_id":76561199087010656,"connected_time":1096000000000,"state":"active","ping":56},{"user_id":142,"name":"sara","steam_id":76561198283462369,"connected_time":3109000000000,"state":"active","ping":76},{"user_id":165,"name":"FANG","steam_id":76561199094739690,"connected_time":1111000000000,"state":"active","ping":93},{"user_id":152,"name":"Socialism Enjoyer","steam_id":76561197991817974,"connected_time":2205000000000,"state":"active","ping":86},{"user_id":177,"name":"Let's slop 'em up!","steam_id":76561198108791583,"connected_time":547000000000,"state":"active","ping":51},{"user_id":178,"name":"notkadenk","steam_id":76561198837454396,"connected_time":502000000000,"state":"active","ping":44},{"user_id":179,"name":"Goggles","steam_id":76561199230161090,"connected_time":498000000000,"state":"active","ping":124},{"user_id":151,"name":"moe","steam_id":76561198929586245,"connected_time":2233000000000,"state":"active","ping":61},{"user_id":127,"name":"some nerd","steam_id":76561198297272878,"connected_time":4031000000000,"state":"active","ping":67},{"user_id":139,"name":"Cowboy Cookie","steam_id":76561198051483841,"connected_time":3170000000000,"state":"active","ping":66},{"user_id":185,"name":"Optimore","steam_id":76561198047662990,"connected_time":259000000000,"state":"active","ping":81},{"user_id":124,"name":"machine embodiment","steam_id":76561199081837220,"connected_time":4177000000000,"state":"active","ping":129},{"user_id":181,"name":"Isopentyl Ethanoate","steam_id":76561198116389072,"connected_time":405000000000,"state":"active","ping":60},{"user_id":182,"name":"Snoopy","steam_id":76561198273735974,"connected_time":380000000000,"state":"active","ping":114},{"user_id":157,"name":"Julien","steam_id":76561199389584938,"connected_time":1912000000000,"state":"active","ping":42},{"user_id":184,"name":"Snale","steam_id":76561198039517965,"connected_time":346000000000,"state":"active","ping":60},{"user_id":163,"name":"Merach","steam_id":76561197994544587,"connected_time":1227000000000,"state":"active","ping":48}]},{"server_id":406,"name":"Uncletopia | Seattle | 3 | Stopwatch Beta","name_short":"sea-3","host":"sea-1.us.uncletopia.com","port":27035,"enabled":true,"region":"us-west","cc":"us","latitude":47.608013,"longitude":-122.33517,"reserved":0,"last_update":"0001-01-01T00:00:00Z","name_a2s":"Uncletopia | Seattle | 3 | Stopwatch Beta","protocol":17,"map":"workshop/pl_barnblitz_pro7.ugc582280235","folder":"tf","game":"Team Fortress","app_id":440,"player_count":0,"max_players":24,"Bots":0,"server_type":"Dedicated","server_os":"Linux","password":true,"vac":true,"version":"7757534","steam_id":85568392924515217,"keywords":["nocrits","nodmgspread","payload","uncletopia"],"game_id":440,"stv_port":27036,"stv_name":"Uncletopia | Seattle | 3 | Stopwatch Beta | STV","players":null},{"server_id":17,"name":"Uncletopia | San Francisco | 1 | All Maps","name_short":"sfo-1","host":"sfo-1.us.uncletopia.com","port":27015,"enabled":true,"region":"us-west","cc":"us","latitude":37.77397,"longitude":-122.4313,"reserved":0,"last_update":"0001-01-01T00:00:00Z","name_a2s":"Uncletopia | San Francisco | 1 | All Maps","protocol":17,"map":"pl_upward","folder":"tf","game":"Team Fortress","app_id":440,"player_count":24,"max_players":24,"Bots":0,"server_type":"Dedicated","server_os":"Linux","password":true,"vac":true,"version":"7757534","steam_id":85568392924469999,"keywords":["nocrits","nodmgspread","payload","uncletopia"],"game_id":440,"stv_port":27016,"stv_name":"Uncletopia | San Francisco | 1 | All Maps | STV","players":[{"user_id":456,"name":"MR.meeseeks","steam_id":76561198294943420,"connected_time":16000000000,"state":"active","ping":92},{"user_id":455,"name":"guy","steam_id":76561198196443262,"connected_time":20000000000,"state":"active","ping":50},{"user_id":433,"name":"wubber","steam_id":76561198286627157,"connected_time":1353000000000,"state":"active","ping":54},{"user_id":435,"name":"Sammy!","steam_id":76561198184171743,"connected_time":1246000000000,"state":"active","ping":59},{"user_id":374,"name":"Waltuh Gaming","steam_id":76561198173624978,"connected_time":3921000000000,"state":"active","ping":86},{"user_id":452,"name":"Bastee1021","steam_id":76561199456141163,"connected_time":43000000000,"state":"active","ping":77},{"user_id":436,"name":"JesusLovesYouYAY","steam_id":76561199146362676,"connected_time":1023000000000,"state":"active","ping":57},{"user_id":419,"name":"FandelFenix","steam_id":76561198304922710,"connected_time":1889000000000,"state":"active","ping":120},{"user_id":389,"name":"hypotenuse","steam_id":76561198062479158,"connected_time":3317000000000,"state":"active","ping":78},{"user_id":442,"name":"DistantJragon","steam_id":76561198117563641,"connected_time":772000000000,"state":"active","ping":113},{"user_id":453,"name":"KingToaster","steam_id":76561198007903802,"connected_time":41000000000,"state":"active","ping":47},{"user_id":385,"name":"Bagel","steam_id":76561198167747447,"connected_time":3426000000000,"state":"active","ping":125},{"user_id":457,"name":"Halo","steam_id":76561198144909435,"connected_time":14000000000,"state":"active","ping":57},{"user_id":404,"name":"Hilo! (f2p)","steam_id":76561199126141666,"connected_time":2776000000000,"state":"active","ping":45},{"user_id":439,"name":"Grilled Ham and Cheese Sandwich","steam_id":76561198167334745,"connected_time":996000000000,"state":"active","ping":125},{"user_id":444,"name":"Oomitch","steam_id":76561198071702759,"connected_time":682000000000,"state":"active","ping":74},{"user_id":445,"name":"Serene Salamander","steam_id":76561198001094770,"connected_time":578000000000,"state":"active","ping":68},{"user_id":411,"name":"corbenis","steam_id":76561199012442511,"connected_time":2392000000000,"state":"active","ping":65},{"user_id":429,"name":"SneakyRocks","steam_id":76561198201694213,"connected_time":1439000000000,"state":"active","ping":69},{"user_id":440,"name":"TheFakeApple","steam_id":76561199090113472,"connected_time":929000000000,"state":"active","ping":58},{"user_id":397,"name":"Mr. Snatched Yo Nutsack","steam_id":76561199075873174,"connected_time":3121000000000,"state":"active","ping":116},{"user_id":437,"name":"Freddie Benson","steam_id":76561198012741266,"connected_time":1010000000000,"state":"active","ping":63},{"user_id":446,"name":"grape","steam_id":76561198150447896,"connected_time":568000000000,"state":"active","ping":61},{"user_id":368,"name":"crumblejon","steam_id":76561198111273302,"connected_time":4430000000000,"state":"active","ping":56}]},{"server_id":18,"name":"Uncletopia | San Francisco | 2 | All Maps","name_short":"sfo-2","host":"sfo-1.us.uncletopia.com","port":27025,"enabled":true,"region":"us-west","cc":"us","latitude":37.77397,"longitude":-122.4313,"reserved":0,"last_update":"0001-01-01T00:00:00Z","name_a2s":"Uncletopia | San Francisco | 2 | All Maps","protocol":17,"map":"koth_cascade","folder":"tf","game":"Team Fortress","app_id":440,"player_count":0,"max_players":24,"Bots":0,"server_type":"Dedicated","server_os":"Linux","password":true,"vac":true,"version":"7757534","steam_id":85568392924470000,"keywords":["cp","nocrits","nodmgspread","uncletopia"],"game_id":440,"stv_port":27026,"stv_name":"Uncletopia | San Francisco | 2 | All Maps | STV","players":null},{"server_id":19,"name":"Uncletopia | San Francisco | 3 | Stopwatch Beta","name_short":"sfo-3","host":"sfo-1.us.uncletopia.com","port":27035,"enabled":true,"region":"us-west","cc":"us","latitude":37.77397,"longitude":-122.4313,"reserved":0,"last_update":"0001-01-01T00:00:00Z","name_a2s":"Uncletopia | San Francisco | 3 | Stopwatch Beta","protocol":17,"map":"koth_viaduct","folder":"tf","game":"Team Fortress","app_id":440,"player_count":0,"max_players":24,"Bots":0,"server_type":"Dedicated","server_os":"Linux","password":true,"vac":true,"version":"7757534","steam_id":85568392924742824,"keywords":["cp","nocrits","nodmgspread","uncletopia"],"game_id":440,"stv_port":27036,"stv_name":"Uncletopia | San Francisco | 3 | Stopwatch Beta | STV","players":null},{"server_id":20,"name":"Uncletopia | San Francisco | 4 | Community","name_short":"sfo-4","host":"sfo-1.us.uncletopia.com","port":27045,"enabled":true,"region":"us-west","cc":"us","latitude":37.77397,"longitude":-122.4313,"reserved":0,"last_update":"0001-01-01T00:00:00Z","name_a2s":"Uncletopia | San Francisco | 4 | Community","protocol":17,"map":"workshop/koth_synthetic_rc6a.ugc1549817316","folder":"tf","game":"Team Fortress","app_id":440,"player_count":7,"max_players":24,"Bots":0,"server_type":"Dedicated","server_os":"Linux","password":true,"vac":true,"version":"7757534","steam_id":85568392924742826,"keywords":["cp","nocrits","nodmgspread","uncletopia"],"game_id":440,"stv_port":27046,"stv_name":"Uncletopia | San Francisco | 4 | Community | STV","players":[{"user_id":247,"name":"Juri Han","steam_id":76561198041678517,"connected_time":873000000000,"state":"active","ping":47},{"user_id":236,"name":"asm_ghost","steam_id":76561199205363547,"connected_time":2437000000000,"state":"active","ping":70},{"user_id":251,"name":"POWER","steam_id":76561198087422193,"connected_time":260000000000,"state":"active","ping":54},{"user_id":241,"name":"can we get much higher","steam_id":76561198127567508,"connected_time":1662000000000,"state":"active","ping":100},{"user_id":252,"name":"Elbows","steam_id":76561198046627478,"connected_time":185000000000,"state":"active","ping":313},{"user_id":244,"name":"Chafn","steam_id":76561197969386702,"connected_time":1541000000000,"state":"active","ping":68},{"user_id":121,"name":"schnedwob","steam_id":76561197999146588,"connected_time":11743000000000,"state":"active","ping":88}]},{"server_id":141,"name":"Uncletopia | Sydney | 1 | All Maps","name_short":"syd-1","host":"syd-1.au.uncletopia.com","port":27015,"enabled":true,"region":"au","cc":"au","latitude":-33.865143,"longitude":151.2099,"reserved":0,"last_update":"0001-01-01T00:00:00Z","name_a2s":"Uncletopia | Sydney | 1 | All Maps","protocol":17,"map":"koth_lakeside_final","folder":"tf","game":"Team Fortress","app_id":440,"player_count":0,"max_players":24,"Bots":0,"server_type":"Dedicated","server_os":"Linux","password":true,"vac":true,"version":"7757534","steam_id":85568392924470001,"keywords":["cp","nocrits","nodmgspread","uncletopia"],"game_id":440,"stv_port":27016,"stv_name":"Uncletopia | Sydney | 1 | All Maps | STV","players":null},{"server_id":123,"name":"Uncletopia | Sydney | 2 | All Maps","name_short":"syd-2","host":"syd-1.au.uncletopia.com","port":27025,"enabled":true,"region":"au","cc":"au","latitude":-33.865143,"longitude":151.2099,"reserved":0,"last_update":"0001-01-01T00:00:00Z","name_a2s":"Uncletopia | Sydney | 2 | All Maps","protocol":17,"map":"koth_viaduct","folder":"tf","game":"Team Fortress","app_id":440,"player_count":0,"max_players":24,"Bots":0,"server_type":"Dedicated","server_os":"Linux","password":true,"vac":true,"version":"7757534","steam_id":85568392924470002,"keywords":["cp","nocrits","nodmgspread","uncletopia"],"game_id":440,"stv_port":27026,"stv_name":"Uncletopia | Sydney | 2 | All Maps | STV","players":null},{"server_id":395,"name":"Uncletopia | Sydney | 3 | All Maps","name_short":"syd-3","host":"syd-1.au.uncletopia.com","port":27035,"enabled":true,"region":"au","cc":"au","latitude":-33.865143,"longitude":151.2099,"reserved":0,"last_update":"0001-01-01T00:00:00Z","name_a2s":"Uncletopia | Sydney | 3 | All Maps","protocol":17,"map":"koth_viaduct","folder":"tf","game":"Team Fortress","app_id":440,"player_count":0,"max_players":24,"Bots":0,"server_type":"Dedicated","server_os":"Linux","password":true,"vac":true,"version":"7757534","steam_id":85568392925194467,"keywords":["cp","nocrits","nodmgspread","uncletopia"],"game_id":440,"stv_port":27036,"stv_name":"Uncletopia | Sydney | 3 | All Maps | STV","players":null},{"server_id":396,"name":"Uncletopia | Sydney | 4 | All Maps","name_short":"syd-4","host":"syd-1.au.uncletopia.com","port":27045,"enabled":true,"region":"au","cc":"au","latitude":-33.865143,"longitude":151.2099,"reserved":0,"last_update":"0001-01-01T00:00:00Z","name_a2s":"Uncletopia | Sydney | 4 | All Maps","protocol":17,"map":"cp_snakewater_final1","folder":"tf","game":"Team Fortress","app_id":440,"player_count":0,"max_players":24,"Bots":0,"server_type":"Dedicated","server_os":"Linux","password":true,"vac":true,"version":"7757534","steam_id":85568392925397958,"keywords":["cp","nocrits","nodmgspread","uncletopia"],"game_id":440,"stv_port":27046,"stv_name":"Uncletopia | Sydney | 4 | All Maps | STV","players":null},{"server_id":58,"name":"Uncletopia | Sydney | 5 | Stopwatch Beta","name_short":"syd-5","host":"syd-1.au.uncletopia.com","port":27055,"enabled":true,"region":"au","cc":"au","latitude":-33.865143,"longitude":151.2099,"reserved":0,"last_update":"0001-01-01T00:00:00Z","name_a2s":"Uncletopia | Sydney | 5 | Stopwatch Beta","protocol":17,"map":"pl_barnblitz","folder":"tf","game":"Team Fortress","app_id":440,"player_count":0,"max_players":24,"Bots":0,"server_type":"Dedicated","server_os":"Linux","password":true,"vac":true,"version":"7757534","steam_id":85568392925397959,"keywords":["nocrits","nodmgspread","payload","uncletopia"],"game_id":440,"stv_port":27056,"stv_name":"Uncletopia | Sydney | 5 | Stopwatch Beta | STV","players":null},{"server_id":59,"name":"Uncletopia | Sydney | 6 | Community","name_short":"syd-6","host":"syd-1.au.uncletopia.com","port":27065,"enabled":true,"region":"au","cc":"au","latitude":-33.865143,"longitude":151.2099,"reserved":0,"last_update":"0001-01-01T00:00:00Z","name_a2s":"Uncletopia | Sydney | 6 | Community","protocol":17,"map":"cp_mountainlab","folder":"tf","game":"Team Fortress","app_id":440,"player_count":0,"max_players":24,"Bots":0,"server_type":"Dedicated","server_os":"Linux","password":true,"vac":true,"version":"7757534","steam_id":85568392925397960,"keywords":["cp","nocrits","nodmgspread","uncletopia"],"game_id":440,"stv_port":27066,"stv_name":"Uncletopia | Sydney | 6 | Community | STV","players":null},{"server_id":49,"name":"Uncletopia | Warsaw | 1 | All Maps","name_short":"waw-1","host":"waw-1.pl.uncletopia.com","port":27015,"enabled":true,"region":"eu","cc":"pl","latitude":52.2297,"longitude":21.017532,"reserved":0,"last_update":"0001-01-01T00:00:00Z","name_a2s":"","protocol":0,"map":"","folder":"","game":"","app_id":0,"player_count":0,"max_players":0,"Bots":0,"server_type":"","server_os":"","password":false,"vac":false,"version":"","steam_id":0,"keywords":null,"game_id":0,"stv_port":0,"stv_name":"","players":null},{"server_id":50,"name":"Uncletopia | Warsaw | 2 | All Maps","name_short":"waw-2","host":"waw-1.pl.uncletopia.com","port":27025,"enabled":true,"region":"eu","cc":"pl","latitude":52.2297,"longitude":21.017532,"reserved":0,"last_update":"0001-01-01T00:00:00Z","name_a2s":"Uncletopia | Warsaw | 2 | All Maps","protocol":17,"map":"cp_dustbowl","folder":"tf","game":"Team Fortress","app_id":440,"player_count":0,"max_players":24,"Bots":0,"server_type":"Dedicated","server_os":"Linux","password":true,"vac":true,"version":"7757534","steam_id":85568392925397851,"keywords":["cp","nocrits","nodmgspread","uncletopia"],"game_id":440,"stv_port":27026,"stv_name":"Uncletopia | Warsaw | 2 | All Maps | STV","players":null},{"server_id":51,"name":"Uncletopia | Warsaw | 3 | All Maps","name_short":"waw-3","host":"waw-1.pl.uncletopia.com","port":27035,"enabled":true,"region":"eu","cc":"pl","latitude":52.2297,"longitude":21.017532,"reserved":0,"last_update":"0001-01-01T00:00:00Z","name_a2s":"Uncletopia | Warsaw | 3 | All Maps","protocol":17,"map":"cp_egypt_final","folder":"tf","game":"Team Fortress","app_id":440,"player_count":0,"max_players":24,"Bots":0,"server_type":"Dedicated","server_os":"Linux","password":true,"vac":true,"version":"7757534","steam_id":85568392925397852,"keywords":["cp","nocrits","nodmgspread","uncletopia"],"game_id":440,"stv_port":27036,"stv_name":"Uncletopia | Warsaw | 3 | All Maps | STV","players":null},{"server_id":52,"name":"Uncletopia | Warsaw | 4 | All Maps","name_short":"waw-4","host":"waw-1.pl.uncletopia.com","port":27045,"enabled":true,"region":"eu","cc":"pl","latitude":52.2297,"longitude":21.017532,"reserved":0,"last_update":"0001-01-01T00:00:00Z","name_a2s":"Uncletopia | Warsaw | 4 | All Maps","protocol":17,"map":"koth_highpass","folder":"tf","game":"Team Fortress","app_id":440,"player_count":0,"max_players":24,"Bots":0,"server_type":"Dedicated","server_os":"Linux","password":true,"vac":true,"version":"7757534","steam_id":85568392925397853,"keywords":["cp","nocrits","nodmgspread","uncletopia"],"game_id":440,"stv_port":27046,"stv_name":"Uncletopia | Warsaw | 4 | All Maps | STV","players":null},{"server_id":53,"name":"Uncletopia | Warsaw | 5 | Stopwatch Beta","name_short":"waw-5","host":"waw-1.pl.uncletopia.com","port":27055,"enabled":true,"region":"eu","cc":"pl","latitude":52.2297,"longitude":21.017532,"reserved":0,"last_update":"0001-01-01T00:00:00Z","name_a2s":"Uncletopia | Warsaw | 5 | Stopwatch Beta","protocol":17,"map":"pl_borneo","folder":"tf","game":"Team Fortress","app_id":440,"player_count":0,"max_players":24,"Bots":0,"server_type":"Dedicated","server_os":"Linux","password":true,"vac":true,"version":"7757534","steam_id":85568392925397854,"keywords":["nocrits","nodmgspread","payload","uncletopia"],"game_id":440,"stv_port":27056,"stv_name":"Uncletopia | Warsaw | 5 | Stopwatch Beta | STV","players":null},{"server_id":54,"name":"Uncletopia | Warsaw | 6 | Community","name_short":"waw-6","host":"waw-1.pl.uncletopia.com","port":27065,"enabled":true,"region":"eu","cc":"pl","latitude":52.2297,"longitude":21.017532,"reserved":0,"last_update":"0001-01-01T00:00:00Z","name_a2s":"Uncletopia | Warsaw | 6 | Community","protocol":17,"map":"workshop/pl_cactuscanyon_redux_rc4b.ugc2579644293","folder":"tf","game":"Team Fortress","app_id":440,"player_count":2,"max_players":24,"Bots":0,"server_type":"Dedicated","server_os":"Linux","password":true,"vac":true,"version":"7757534","steam_id":85568392925397856,"keywords":["nocrits","nodmgspread","payload","uncletopia"],"game_id":440,"stv_port":27066,"stv_name":"Uncletopia | Warsaw | 6 | Community | STV","players":[{"user_id":114,"name":"Rez","steam_id":76561198410598772,"connected_time":287000000000,"state":"active","ping":55},{"user_id":93,"name":"git bash -er","steam_id":76561198072586494,"connected_time":5612000000000,"state":"active","ping":83}]}]}