{"status":true,"message":"","result":[{"server_id":9,"name":"Uncletopia | Atlanta | 1 | All Maps","name_short":"atl-1","host":"atl-1.us.uncletopia.com","port":27015,"enabled":true,"region":"us-east","cc":"us","latitude":33.753746,"longitude":-84.38633,"reserved":0,"last_update":"0001-01-01T00:00:00Z","name_a2s":"Uncletopia | Atlanta | 1 | All Maps","protocol":17,"map":"pl_snowycoast","folder":"tf","game":"Team Fortress","app_id":440,"player_count":24,"max_players":24,"Bots":0,"server_type":"Dedicated","server_os":"Linux","password":true,"vac":true,"version":"7708610","steam_id":85568392924469982,"keywords":["nocrits","nodmgspread","payload","uncletopia"],"game_id":440,"stv_port":27016,"stv_name":"Uncletopia | Atlanta | 1 | All Maps | STV","players":[{"user_id":17,"name":"Aeris","steam_id":76561198287271028,"connected_time":2330000000000,"state":"active","ping":68},{"user_id":60,"name":"Scorpsy","steam_id":76561198024477688,"connected_time":114000000000,"state":"active","ping":61},{"user_id":9,"name":"Strawberry","steam_id":76561198973740497,"connected_time":2873000000000,"state":"active","ping":86},{"user_id":14,"name":"asbestos","steam_id":76561198079178866,"connected_time":2409000000000,"state":"active","ping":72},{"user_id":37,"name":"MysticalKnight","steam_id":76561198960216480,"connected_time":1638000000000,"state":"active","ping":65},{"user_id":12,"name":"Adán Negro","steam_id":76561198151256410,"connected_time":2455000000000,"state":"active","ping":127},{"user_id":19,"name":"Daz","steam_id":76561198041431938,"connected_time":2295000000000,"state":"active","ping":71},{"user_id":52,"name":"Bingo Sandbelt","steam_id":76561198010169937,"connected_time":504000000000,"state":"active","ping":75},{"user_id":20,"name":"Zelumie","steam_id":76561198147335801,"connected_time":2273000000000,"state":"active","ping":66},{"user_id":21,"name":"Solomon Grundy","steam_id":76561198956823243,"connected_time":2272000000000,"state":"active","ping":45},{"user_id":22,"name":"fudge lord","steam_id":76561198118318422,"connected_time":2135000000000,"state":"active","ping":64},{"user_id":57,"name":"eyes","steam_id":76561198165901404,"connected_time":334000000000,"state":"active","ping":138},{"user_id":58,"name":"Pandamonia","steam_id":76561198237125154,"connected_time":319000000000,"state":"active","ping":77},{"user_id":25,"name":"walrus2","steam_id":76561199079614516,"connected_time":2100000000000,"state":"active","ping":88},{"user_id":26,"name":"NerdCuddles","steam_id":76561198078915242,"connected_time":2015000000000,"state":"active","ping":75},{"user_id":38,"name":"Innerlight","steam_id":76561198012882953,"connected_time":1479000000000,"state":"active","ping":49},{"user_id":59,"name":"Heavy Ye (Hitla Suit)","steam_id":76561198176618461,"connected_time":180000000000,"state":"active","ping":59},{"user_id":29,"name":"SuperJagops","steam_id":76561198034689716,"connected_time":1983000000000,"state":"active","ping":77},{"user_id":30,"name":"Mr.Bacon","steam_id":76561198030890774,"connected_time":1982000000000,"state":"active","ping":73},{"user_id":56,"name":"Yuhh","steam_id":76561199112894955,"connected_time":355000000000,"state":"active","ping":81},{"user_id":41,"name":"Cassini","steam_id":76561198318526294,"connected_time":1257000000000,"state":"active","ping":58},{"user_id":48,"name":"uhooter","steam_id":76561198007829078,"connected_time":707000000000,"state":"active","ping":75},{"user_id":36,"name":"late night team fortress","steam_id":76561198081681647,"connected_time":1787000000000,"state":"active","ping":75},{"user_id":50,"name":"Griffin","steam_id":76561198159339442,"connected_time":587000000000,"state":"active","ping":90}]},{"server_id":400,"name":"Uncletopia | Atlanta | 3 | All Maps","name_short":"atl-3","host":"atl-1.us.uncletopia.com","port":27035,"enabled":true,"region":"us-east","cc":"us","latitude":33.753746,"longitude":-84.38633,"reserved":0,"last_update":"0001-01-01T00:00:00Z","name_a2s":"Uncletopia | Atlanta | 3 | All Maps","protocol":17,"map":"pl_badwater","folder":"tf","game":"Team Fortress","app_id":440,"player_count":0,"max_players":24,"Bots":0,"server_type":"Dedicated","server_os":"Linux","password":true,"vac":true,"version":"7708610","steam_id":85568392924515187,"keywords":["nocrits","nodmgspread","payload","uncletopia"],"game_id":440,"stv_port":0,"stv_name":"","players":null},{"server_id":401,"name":"Uncletopia | Atlanta | 4 | No Payload","name_short":"atl-4","host":"atl-1.us.uncletopia.com","port":27045,"enabled":true,"region":"us-east","cc":"us","latitude":33.753746,"longitude":-84.38633,"reserved":0,"last_update":"0001-01-01T00:00:00Z","name_a2s":"Uncletopia | Atlanta | 4 | No Payload","protocol":17,"map":"pl_upward","folder":"tf","game":"Team Fortress","app_id":440,"player_count":0,"max_players":24,"Bots":0,"server_type":"Dedicated","server_os":"Linux","password":true,"vac":true,"version":"7708610","steam_id":85568392924515188,"keywords":["nocrits","nodmgspread","payload","uncletopia"],"game_id":440,"stv_port":0,"stv_name":"","players":null},{"server_id":2,"name":"Uncletopia | Chicago | 1 | All Maps","name_short":"chi-1","host":"chi-1.us.uncletopia.com","port":27015,"enabled":true,"region":"us-central","cc":"us","latitude":41.881832,"longitude":-87.62318,"reserved":0,"last_update":"0001-01-01T00:00:00Z","name_a2s":"Uncletopia | Chicago | 1 | All Maps","protocol":17,"map":"koth_harvest_final","folder":"tf","game":"Team Fortress","app_id":440,"player_count":24,"max_players":24,"Bots":0,"server_type":"Dedicated","server_os":"Linux","password":true,"vac":true,"version":"7708610","steam_id":85568392924469984,"keywords":["cp","nocrits","nodmgspread","uncletopia"],"game_id":440,"stv_port":27016,"stv_name":"Uncletopia | Chicago | 1 | All Maps | STV","players":[{"user_id":105,"name":"majorbobfunction","steam_id":76561198042464632,"connected_time":84000000000,"state":"active","ping":58},{"user_id":93,"name":"spaaaaace","steam_id":76561199085974120,"connected_time":655000000000,"state":"active","ping":65},{"user_id":50,"name":"TATARA","steam_id":76561199098759517,"connected_time":3012000000000,"state":"active","ping":117},{"user_id":99,"name":"Just Another Stoned Furry","steam_id":76561198262852705,"connected_time":289000000000,"state":"active","ping":84},{"user_id":56,"name":"reis","steam_id":76561199232952016,"connected_time":2971000000000,"state":"active","ping":173},{"user_id":63,"name":"Pennis the Menace","steam_id":76561198254878037,"connected_time":2596000000000,"state":"active","ping":70},{"user_id":20,"name":"CAdaverOusPRophet","steam_id":76561198045304110,"connected_time":5402000000000,"state":"active","ping":44},{"user_id":13,"name":"paj","steam_id":76561198080026026,"connected_time":5836000000000,"state":"active","ping":96},{"user_id":92,"name":"richard clock","steam_id":76561198048455671,"connected_time":668000000000,"state":"active","ping":60},{"user_id":87,"name":"PlatinumYeti","steam_id":76561198427937434,"connected_time":1261000000000,"state":"active","ping":52},{"user_id":103,"name":"Stev","steam_id":76561198061516631,"connected_time":179000000000,"state":"active","ping":44},{"user_id":75,"name":"beta central","steam_id":76561198301876831,"connected_time":1953000000000,"state":"active","ping":59},{"user_id":53,"name":"Ed Santos","steam_id":76561198237997622,"connected_time":2988000000000,"state":"active","ping":170},{"user_id":22,"name":"Mixomin","steam_id":76561198295061570,"connected_time":5319000000000,"state":"active","ping":94},{"user_id":104,"name":"Drachma","steam_id":76561198007310514,"connected_time":111000000000,"state":"active","ping":55},{"user_id":24,"name":"Mr.Oxiclean","steam_id":76561198144729009,"connected_time":5268000000000,"state":"active","ping":62},{"user_id":57,"name":"Veirū Viseris","steam_id":76561197989857176,"connected_time":2968000000000,"state":"active","ping":163},{"user_id":88,"name":"Sous-Chef","steam_id":76561198075705827,"connected_time":1170000000000,"state":"active","ping":62},{"user_id":84,"name":"Friend","steam_id":76561198156746320,"connected_time":1351000000000,"state":"active","ping":43},{"user_id":86,"name":"dust","steam_id":76561198045218909,"connected_time":1341000000000,"state":"active","ping":85},{"user_id":91,"name":"ExtraSoap","steam_id":76561198008712409,"connected_time":673000000000,"state":"active","ping":75},{"user_id":55,"name":"Tyler\u0026Fingers","steam_id":76561198085154485,"connected_time":2988000000000,"state":"active","ping":81},{"user_id":97,"name":"Banjo","steam_id":76561198004652853,"connected_time":394000000000,"state":"active","ping":91},{"user_id":41,"name":"Alice Destiny","steam_id":76561199076615478,"connected_time":4030000000000,"state":"active","ping":62}]},{"server_id":106,"name":"Uncletopia | Chicago | 2 | All Maps","name_short":"chi-2","host":"chi-1.us.uncletopia.com","port":27025,"enabled":true,"region":"us-central","cc":"us","latitude":41.881832,"longitude":-87.62318,"reserved":0,"last_update":"0001-01-01T00:00:00Z","name_a2s":"Uncletopia | Chicago | 2 | All Maps","protocol":17,"map":"cp_mountainlab","folder":"tf","game":"Team Fortress","app_id":440,"player_count":0,"max_players":24,"Bots":0,"server_type":"Dedicated","server_os":"Linux","password":true,"vac":true,"version":"7708610","steam_id":85568392924469985,"keywords":["cp","nocrits","nodmgspread","uncletopia"],"game_id":440,"stv_port":27026,"stv_name":"Uncletopia | Chicago | 2 | All Maps | STV","players":null},{"server_id":402,"name":"Uncletopia | Chicago | 3 | All Maps","name_short":"chi-3","host":"chi-1.us.uncletopia.com","port":27035,"enabled":true,"region":"us-central","cc":"us","latitude":41.881832,"longitude":-87.62318,"reserved":0,"last_update":"0001-01-01T00:00:00Z","name_a2s":"Uncletopia | Chicago | 3 | All Maps","protocol":17,"map":"cp_dustbowl","folder":"tf","game":"Team Fortress","app_id":440,"player_count":0,"max_players":24,"Bots":0,"server_type":"Dedicated","server_os":"Linux","password":true,"vac":true,"version":"7708610","steam_id":85568392924515191,"keywords":["cp","nocrits","nodmgspread","uncletopia"],"game_id":440,"stv_port":0,"stv_name":"","players":null},{"server_id":403,"name":"Uncletopia | Chicago | 4 | All Maps","name_short":"chi-4","host":"chi-1.us.uncletopia.com","port":27045,"enabled":true,"region":"us-central","cc":"us","latitude":41.881832,"longitude":-87.62318,"reserved":0,"last_update":"0001-01-01T00:00:00Z","name_a2s":"Uncletopia | Chicago | 4 | All Maps","protocol":17,"map":"cp_snakewater_final1","folder":"tf","game":"Team Fortress","app_id":440,"player_count":0,"max_players":24,"Bots":0,"server_type":"Dedicated","server_os":"Linux","password":true,"vac":true,"version":"7708610","steam_id":85568392924515193,"keywords":["cp","nocrits","nodmgspread","uncletopia"],"game_id":440,"stv_port":27046,"stv_name":"Uncletopia | Chicago | 4 | All Maps | STV","players":null},{"server_id":36,"name":"Uncletopia | Chicago | 5 | All Maps","name_short":"chi-5","host":"chi-2.us.uncletopia.com","port":27015,"enabled":true,"region":"us-central","cc":"us","latitude":41.881832,"longitude":-87.62318,"reserved":0,"last_update":"0001-01-01T00:00:00Z","name_a2s":"Uncletopia | Chicago | 5 | All Maps","protocol":17,"map":"pl_wutville_event","folder":"tf","game":"Team Fortress","app_id":440,"player_count":0,"max_players":24,"Bots":0,"server_type":"Dedicated","server_os":"Linux","password":true,"vac":true,"version":"7708610","steam_id":85568392924866362,"keywords":["nocrits","nodmgspread","payload","uncletopia"],"game_id":440,"stv_port":27016,"stv_name":"Uncletopia | Chicago | 5 | All Maps | STV","players":null},{"server_id":37,"name":"Uncletopia | Chicago | 6 | All Maps","name_short":"chi-6","host":"chi-2.us.uncletopia.com","port":27025,"enabled":true,"region":"us-central","cc":"us","latitude":41.881832,"longitude":-87.62318,"reserved":0,"last_update":"0001-01-01T00:00:00Z","name_a2s":"Uncletopia | Chicago | 6 | All Maps","protocol":17,"map":"koth_cascade","folder":"tf","game":"Team Fortress","app_id":440,"player_count":0,"max_players":24,"Bots":0,"server_type":"Dedicated","server_os":"Linux","password":true,"vac":true,"version":"7708610","steam_id":85568392924866363,"keywords":["cp","nocrits","nodmgspread","uncletopia"],"game_id":440,"stv_port":0,"stv_name":"","players":null},{"server_id":38,"name":"Uncletopia | Chicago | 7 | No Payload","name_short":"chi-7","host":"chi-2.us.uncletopia.com","port":27035,"enabled":true,"region":"us-central","cc":"us","latitude":41.881832,"longitude":-87.62318,"reserved":0,"last_update":"0001-01-01T00:00:00Z","name_a2s":"Uncletopia | Chicago | 7 | No Payload","protocol":17,"map":"koth_viaduct","folder":"tf","game":"Team Fortress","app_id":440,"player_count":0,"max_players":24,"Bots":0,"server_type":"Dedicated","server_os":"Linux","password":true,"vac":true,"version":"7708610","steam_id":85568392924866364,"keywords":["cp","nocrits","nodmgspread","uncletopia"],"game_id":440,"stv_port":0,"stv_name":"","players":null},{"server_id":39,"name":"Uncletopia | Chicago | 8 | Community","name_short":"chi-8","host":"chi-2.us.uncletopia.com","port":27045,"enabled":true,"region":"us-central","cc":"us","latitude":41.881832,"longitude":-87.62318,"reserved":0,"last_update":"0001-01-01T00:00:00Z","name_a2s":"Uncletopia | Chicago | 8 | Community","protocol":17,"map":"pl_pier","folder":"tf","game":"Team Fortress","app_id":440,"player_count":0,"max_players":24,"Bots":0,"server_type":"Dedicated","server_os":"Linux","password":true,"vac":true,"version":"7708610","steam_id":85568392924866365,"keywords":["nocrits","nodmgspread","payload","uncletopia"],"game_id":440,"stv_port":0,"stv_name":"","players":null},{"server_id":8,"name":"Uncletopia | Dallas | 1 | All Maps","name_short":"dal-1","host":"dal-1.us.uncletopia.com","port":27015,"enabled":true,"region":"us-central","cc":"us","latitude":32.779167,"longitude":-96.80889,"reserved":0,"last_update":"0001-01-01T00:00:00Z","name_a2s":"Uncletopia | Dallas | 1 | All Maps","protocol":17,"map":"koth_lakeside_final","folder":"tf","game":"Team Fortress","app_id":440,"player_count":0,"max_players":24,"Bots":0,"server_type":"Dedicated","server_os":"Linux","password":true,"vac":true,"version":"7708610","steam_id":85568392924469986,"keywords":["cp","nocrits","nodmgspread","uncletopia"],"game_id":440,"stv_port":27016,"stv_name":"Uncletopia | Dallas | 1 | All Maps | STV","players":null},{"server_id":108,"name":"Uncletopia | Dallas | 2 | All Maps","name_short":"dal-2","host":"dal-1.us.uncletopia.com","port":27025,"enabled":true,"region":"us-central","cc":"us","latitude":32.779167,"longitude":-96.80889,"reserved":0,"last_update":"0001-01-01T00:00:00Z","name_a2s":"Uncletopia | Dallas | 2 | All Maps","protocol":17,"map":"pl_barnblitz","folder":"tf","game":"Team Fortress","app_id":440,"player_count":0,"max_players":24,"Bots":0,"server_type":"Dedicated","server_os":"Linux","password":true,"vac":true,"version":"7708610","steam_id":85568392924469988,"keywords":["nocrits","nodmgspread","payload","uncletopia"],"game_id":440,"stv_port":0,"stv_name":"","players":null},{"server_id":5,"name":"Uncletopia | Frankfurt | 1 | All Maps","name_short":"frk-1","host":"frk-1.de.uncletopia.com","port":27015,"enabled":true,"region":"eu","cc":"de","latitude":50.110924,"longitude":8.682127,"reserved":0,"last_update":"0001-01-01T00:00:00Z","name_a2s":"Uncletopia | Frankfurt | 1 | All Maps","protocol":17,"map":"pl_borneo","folder":"tf","game":"Team Fortress","app_id":440,"player_count":24,"max_players":24,"Bots":0,"server_type":"Dedicated","server_os":"Linux","password":true,"vac":true,"version":"7708610","steam_id":85568392924469989,"keywords":["nocrits","nodmgspread","payload","uncletopia"],"game_id":440,"stv_port":27016,"stv_name":"Uncletopia | Frankfurt | 1 | All Maps | STV","players":[{"user_id":287,"name":"System","steam_id":76561199442503973,"connected_time":26000000000,"state":"active","ping":34},{"user_id":285,"name":"Lothar","steam_id":76561198035530798,"connected_time":316000000000,"state":"active","ping":80},{"user_id":239,"name":"El_Kommadante","steam_id":76561198079551685,"connected_time":5850000000000,"state":"active","ping":68},{"user_id":271,"name":"Welder","steam_id":76561198355300561,"connected_time":2105000000000,"state":"active","ping":62},{"user_id":269,"name":"-TA- skai","steam_id":76561198184881255,"connected_time":2158000000000,"state":"active","ping":70},{"user_id":237,"name":"Tao","steam_id":76561198036750896,"connected_time":6412000000000,"state":"active","ping":54},{"user_id":274,"name":"p!ke","steam_id":76561198416081952,"connected_time":1848000000000,"state":"active","ping":59},{"user_id":265,"name":"leaf eater","steam_id":76561198083359604,"connected_time":2701000000000,"state":"active","ping":54},{"user_id":266,"name":"manure merchant","steam_id":76561198010109316,"connected_time":2677000000000,"state":"active","ping":59},{"user_id":179,"name":"hushhx","steam_id":76561198216200092,"connected_time":9856000000000,"state":"active","ping":63},{"user_id":268,"name":"Cippo95","steam_id":76561198255311582,"connected_time":2653000000000,"state":"active","ping":90},{"user_id":286,"name":"Dudboi","steam_id":76561199166486303,"connected_time":92000000000,"state":"active","ping":91},{"user_id":181,"name":"Sham!","steam_id":76561198050434275,"connected_time":9771000000000,"state":"active","ping":54},{"user_id":182,"name":"Marukuso","steam_id":76561198154229845,"connected_time":9766000000000,"state":"active","ping":58},{"user_id":279,"name":"7crack","steam_id":76561198078928120,"connected_time":821000000000,"state":"active","ping":78},{"user_id":259,"name":"MAKENTAKEN","steam_id":76561199127359587,"connected_time":3005000000000,"state":"active","ping":90},{"user_id":235,"name":"[UiF] Sgt. Beebo","steam_id":76561198061094637,"connected_time":6906000000000,"state":"active","ping":51},{"user_id":228,"name":"[UiF] BafTac r/f*ckcars","steam_id":76561198060547050,"connected_time":7208000000000,"state":"active","ping":58},{"user_id":282,"name":"deVychu","steam_id":76561198078032019,"connected_time":661000000000,"state":"active","ping":90},{"user_id":272,"name":"Nick (Mute banned on Uncletopia","steam_id":76561198036109469,"connected_time":2099000000000,"state":"active","ping":89},{"user_id":284,"name":"brtaba","steam_id":76561198796334790,"connected_time":658000000000,"state":"active","ping":59},{"user_id":275,"name":"Chairforce","steam_id":76561198020208899,"connected_time":984000000000,"state":"active","ping":79},{"user_id":270,"name":"jones","steam_id":76561198044434971,"connected_time":2146000000000,"state":"active","ping":61},{"user_id":276,"name":"Aidas","steam_id":76561198152172499,"connected_time":983000000000,"state":"active","ping":86}]},{"server_id":110,"name":"Uncletopia | Frankfurt | 2 | All Maps","name_short":"frk-2","host":"frk-1.de.uncletopia.com","port":27025,"enabled":true,"region":"eu","cc":"de","latitude":50.110924,"longitude":8.682127,"reserved":0,"last_update":"0001-01-01T00:00:00Z","name_a2s":"Uncletopia | Frankfurt | 2 | All Maps","protocol":17,"map":"pl_upward","folder":"tf","game":"Team Fortress","app_id":440,"player_count":22,"max_players":24,"Bots":0,"server_type":"Dedicated","server_os":"Linux","password":true,"vac":true,"version":"7708610","steam_id":85568392924469990,"keywords":["nocrits","nodmgspread","payload","uncletopia"],"game_id":440,"stv_port":27026,"stv_name":"Uncletopia | Frankfurt | 2 | All Maps | STV","players":[{"user_id":142,"name":"Mor'du","steam_id":76561198274105878,"connected_time":740000000000,"state":"active","ping":72},{"user_id":147,"name":"Doriian","steam_id":76561198071438810,"connected_time":460000000000,"state":"active","ping":75},{"user_id":12,"name":"Luke SpyWalker","steam_id":76561198008643276,"connected_time":10826000000000,"state":"active","ping":59},{"user_id":91,"name":"Tvghost5522","steam_id":76561198880562871,"connected_time":3574000000000,"state":"active","ping":178},{"user_id":152,"name":"rajAs","steam_id":76561198035928111,"connected_time":81000000000,"state":"active","ping":86},{"user_id":125,"name":"Bun","steam_id":76561197989239999,"connected_time":1483000000000,"state":"active","ping":48},{"user_id":150,"name":"A creature","steam_id":76561199176610938,"connected_time":142000000000,"state":"active","ping":67},{"user_id":103,"name":"Silent Person","steam_id":76561198107763537,"connected_time":3176000000000,"state":"active","ping":66},{"user_id":144,"name":"relaxtionfuel","steam_id":76561198868673990,"connected_time":621000000000,"state":"active","ping":176},{"user_id":151,"name":"Maske","steam_id":76561198078100812,"connected_time":99000000000,"state":"active","ping":51},{"user_id":127,"name":"Löysä Masa","steam_id":76561198343396172,"connected_time":1449000000000,"state":"active","ping":103},{"user_id":88,"name":"Proto","steam_id":76561197996013378,"connected_time":3670000000000,"state":"active","ping":47},{"user_id":149,"name":"thekoolest88","steam_id":76561199022415672,"connected_time":314000000000,"state":"active","ping":144},{"user_id":96,"name":"I-I","steam_id":76561198267969436,"connected_time":3377000000000,"state":"active","ping":60},{"user_id":129,"name":"Bromoneto","steam_id":76561198876695014,"connected_time":1390000000000,"state":"active","ping":57},{"user_id":145,"name":"ОrangePortals","steam_id":76561198282172748,"connected_time":580000000000,"state":"active","ping":137},{"user_id":153,"name":"robbob","steam_id":76561198137375391,"connected_time":78000000000,"state":"active","ping":75},{"user_id":133,"name":"jov.jov","steam_id":76561198357153602,"connected_time":1304000000000,"state":"active","ping":88},{"user_id":154,"name":"shawty want a rockstar","steam_id":76561198103292029,"connected_time":76000000000,"state":"active","ping":57},{"user_id":139,"name":"Pabs :D","steam_id":76561198000016962,"connected_time":1067000000000,"state":"active","ping":59},{"user_id":146,"name":"jaime8D","steam_id":76561197980590671,"connected_time":490000000000,"state":"active","ping":75},{"user_id":135,"name":"SynthBox3","steam_id":76561199094075745,"connected_time":1294000000000,"state":"active","ping":92}]},{"server_id":308,"name":"Uncletopia | Frankfurt | 3 | All Maps","name_short":"frk-3","host":"frk-1.de.uncletopia.com","port":27035,"enabled":true,"region":"eu","cc":"de","latitude":50.110924,"longitude":8.682127,"reserved":0,"last_update":"0001-01-01T00:00:00Z","name_a2s":"Uncletopia | Frankfurt | 3 | All Maps","protocol":17,"map":"pl_upward","folder":"tf","game":"Team Fortress","app_id":440,"player_count":24,"max_players":24,"Bots":0,"server_type":"Dedicated","server_os":"Linux","password":true,"vac":true,"version":"7708610","steam_id":85568392924504274,"keywords":["nocrits","nodmgspread","payload","uncletopia"],"game_id":440,"stv_port":27036,"stv_name":"Uncletopia | Frankfurt | 3 | All Maps | STV","players":[{"user_id":34,"name":"banrab","steam_id":76561198083615367,"connected_time":1672000000000,"state":"active","ping":53},{"user_id":35,"name":"Bolt Finniken","steam_id":76561198379370948,"connected_time":1567000000000,"state":"active","ping":64},{"user_id":45,"name":"The 4th Doctor","steam_id":76561198191516706,"connected_time":642000000000,"state":"active","ping":57},{"user_id":36,"name":"natalia","steam_id":76561198068054530,"connected_time":1502000000000,"state":"active","ping":98},{"user_id":8,"name":"small tony","steam_id":76561199141010349,"connected_time":2471000000000,"state":"active","ping":85},{"user_id":9,"name":"...","steam_id":76561198969234594,"connected_time":2427000000000,"state":"active","ping":56},{"user_id":51,"name":"freemantel30","steam_id":76561198065669800,"connected_time":30000000000,"state":"active","ping":46},{"user_id":12,"name":"Caro","steam_id":76561198065506317,"connected_time":2266000000000,"state":"active","ping":60},{"user_id":37,"name":"Perämiehenä","steam_id":76561197968945306,"connected_time":1292000000000,"state":"active","ping":78},{"user_id":14,"name":"Мякиш(хлебный)","steam_id":76561199223895282,"connected_time":2253000000000,"state":"active","ping":88},{"user_id":15,"name":"The Punch","steam_id":76561198212488780,"connected_time":2227000000000,"state":"active","ping":60},{"user_id":23,"name":"Him","steam_id":76561198086400484,"connected_time":2066000000000,"state":"active","ping":69},{"user_id":17,"name":"Maxmen","steam_id":76561198188541510,"connected_time":2199000000000,"state":"active","ping":128},{"user_id":40,"name":"red⋆mits","steam_id":76561198015590113,"connected_time":1132000000000,"state":"active","ping":59},{"user_id":46,"name":"r/sonofelicenellafece","steam_id":76561198262231733,"connected_time":618000000000,"state":"active","ping":60},{"user_id":52,"name":"ff:ff:ff:ff:ff:ff","steam_id":76561198072122983,"connected_time":22000000000,"state":"active","ping":61},{"user_id":21,"name":"viziborju","steam_id":76561199145340529,"connected_time":2116000000000,"state":"active","ping":77},{"user_id":50,"name":"boat","steam_id":76561198044915818,"connected_time":297000000000,"state":"active","ping":92},{"user_id":53,"name":"Loop_Cat","steam_id":76561199045902145,"connected_time":10000000000,"state":"active","ping":120},{"user_id":44,"name":"wicked","steam_id":76561198164376035,"connected_time":712000000000,"state":"active","ping":79},{"user_id":29,"name":"Just another random","steam_id":76561198418538887,"connected_time":1923000000000,"state":"active","ping":98},{"user_id":48,"name":"blindentity","steam_id":76561199240783683,"connected_time":509000000000,"state":"active","ping":183},{"user_id":39,"name":"Itai","steam_id":76561198804555329,"connected_time":1281000000000,"state":"active","ping":95},{"user_id":32,"name":"Talent","steam_id":76561198153880354,"connected_time":1889000000000,"state":"active","ping":49}]},{"server_id":309,"name":"Uncletopia | Frankfurt | 4 | All Maps","name_short":"frk-4","host":"frk-1.de.uncletopia.com","port":27045,"enabled":true,"region":"eu","cc":"de","latitude":50.110924,"longitude":8.682127,"reserved":0,"last_update":"0001-01-01T00:00:00Z","name_a2s":"Uncletopia | Frankfurt | 4 | All Maps","protocol":17,"map":"cp_gorge","folder":"tf","game":"Team Fortress","app_id":440,"player_count":24,"max_players":24,"Bots":0,"server_type":"Dedicated","server_os":"Linux","password":true,"vac":true,"version":"7708610","steam_id":85568392924504275,"keywords":["cp","nocrits","nodmgspread","uncletopia"],"game_id":440,"stv_port":27046,"stv_name":"Uncletopia | Frankfurt | 4 | All Maps | STV","players":[{"user_id":373,"name":"Mrpg","steam_id":76561198183722103,"connected_time":899000000000,"state":"active","ping":67},{"user_id":357,"name":"Salih","steam_id":76561198287934839,"connected_time":1862000000000,"state":"active","ping":53},{"user_id":381,"name":"ANTO","steam_id":76561198400117213,"connected_time":528000000000,"state":"active","ping":81},{"user_id":358,"name":"roblan11","steam_id":76561198066839258,"connected_time":1861000000000,"state":"active","ping":56},{"user_id":374,"name":"♥ HG ♥ SEPIC!","steam_id":76561198132113742,"connected_time":858000000000,"state":"active","ping":75},{"user_id":392,"name":"Bobo","steam_id":76561198052308399,"connected_time":140000000000,"state":"active","ping":51},{"user_id":375,"name":"Franticlamp","steam_id":76561198339698995,"connected_time":732000000000,"state":"active","ping":87},{"user_id":376,"name":"radiohead fan","steam_id":76561199163260578,"connected_time":688000000000,"state":"active","ping":60},{"user_id":378,"name":"Michael","steam_id":76561198003146906,"connected_time":569000000000,"state":"active","ping":67},{"user_id":379,"name":"h e r t e l e k i","steam_id":76561198974861983,"connected_time":558000000000,"state":"active","ping":81},{"user_id":382,"name":"weed fairy","steam_id":76561197998843096,"connected_time":517000000000,"state":"active","ping":75},{"user_id":383,"name":"Tomfool","steam_id":76561197993256481,"connected_time":477000000000,"state":"active","ping":74},{"user_id":391,"name":"Crit-a-Cola Fan","steam_id":76561198971818982,"connected_time":312000000000,"state":"active","ping":77},{"user_id":385,"name":"zeppa114","steam_id":76561198065192734,"connected_time":401000000000,"state":"active","ping":57},{"user_id":317,"name":"Icarus300","steam_id":76561198015125766,"connected_time":4417000000000,"state":"active","ping":90},{"user_id":386,"name":"pumba","steam_id":76561198033024111,"connected_time":385000000000,"state":"active","ping":63},{"user_id":362,"name":"xAlhimikx","steam_id":76561198965191846,"connected_time":1807000000000,"state":"active","ping":102},{"user_id":387,"name":"joel","steam_id":76561198430050570,"connected_time":378000000000,"state":"active","ping":78},{"user_id":388,"name":"gnarly business","steam_id":76561198832688767,"connected_time":357000000000,"state":"active","ping":55},{"user_id":389,"name":"heisenburger","steam_id":76561198284589853,"connected_time":352000000000,"state":"active","ping":81},{"user_id":390,"name":"miev","steam_id":76561198078278737,"connected_time":347000000000,"state":"active","ping":76},{"user_id":324,"name":"Warpzel65","steam_id":76561198799303596,"connected_time":4325000000000,"state":"active","ping":109},{"user_id":340,"name":"Tomamo","steam_id":76561198258031112,"connected_time":3547000000000,"state":"active","ping":76},{"user_id":356,"name":"Greed","steam_id":76561198034264020,"connected_time":1913000000000,"state":"active","ping":119}]},{"server_id":310,"name":"Uncletopia | Frankfurt | 5 | All Maps","name_short":"frk-5","host":"frk-1.de.uncletopia.com","port":27055,"enabled":true,"region":"eu","cc":"de","latitude":50.110924,"longitude":8.682127,"reserved":0,"last_update":"0001-01-01T00:00:00Z","name_a2s":"Uncletopia | Frankfurt | 5 | All Maps","protocol":17,"map":"koth_cascade","folder":"tf","game":"Team Fortress","app_id":440,"player_count":0,"max_players":24,"Bots":0,"server_type":"Dedicated","server_os":"Linux","password":true,"vac":true,"version":"7708610","steam_id":85568392924504277,"keywords":["cp","nocrits","nodmgspread","uncletopia"],"game_id":440,"stv_port":0,"stv_name":"","players":null},{"server_id":311,"name":"Uncletopia | Frankfurt | 6 | All Maps","name_short":"frk-6","host":"frk-1.de.uncletopia.com","port":27065,"enabled":true,"region":"eu","cc":"de","latitude":50.110924,"longitude":8.682127,"reserved":0,"last_update":"0001-01-01T00:00:00Z","name_a2s":"Uncletopia | Frankfurt | 6 | All Maps","protocol":17,"map":"koth_lakeside_final","folder":"tf","game":"Team Fortress","app_id":440,"player_count":0,"max_players":24,"Bots":0,"server_type":"Dedicated","server_os":"Linux","password":true,"vac":true,"version":"7708610","steam_id":85568392924504278,"keywords":["cp","nocrits","nodmgspread","uncletopia"],"game_id":440,"stv_port":0,"stv_name":"","players":null},{"server_id":23,"name":"Uncletopia | Frankfurt | 7 | No Payload","name_short":"frk-7","host":"frk-1.de.uncletopia.com","port":27075,"enabled":true,"region":"eu","cc":"de","latitude":50.110924,"longitude":8.682127,"reserved":0,"last_update":"0001-01-01T00:00:00Z","name_a2s":"Uncletopia | Frankfurt | 7 | No Payload","protocol":17,"map":"ctf_well","folder":"tf","game":"Team Fortress","app_id":440,"player_count":0,"max_players":24,"Bots":0,"server_type":"Dedicated","server_os":"Linux","password":true,"vac":true,"version":"7708610","steam_id":85568392924742827,"keywords":["ctf","nocrits","nodmgspread","uncletopia"],"game_id":440,"stv_port":27076,"stv_name":"Uncletopia | Frankfurt | 7 | No Payload | STV","players":null},{"server_id":24,"name":"Uncletopia | Frankfurt | 8 | Community","name_short":"frk-8","host":"frk-1.de.uncletopia.com","port":27085,"enabled":true,"region":"eu","cc":"de","latitude":50.110924,"longitude":8.682127,"reserved":0,"last_update":"0001-01-01T00:00:00Z","name_a2s":"Uncletopia | Frankfurt | 8 | Community","protocol":17,"map":"workshop/cp_reckoner_rc6.ugc674719999","folder":"tf","game":"Team Fortress","app_id":440,"player_count":0,"max_players":24,"Bots":0,"server_type":"Dedicated","server_os":"Linux","password":true,"vac":true,"version":"7708610","steam_id":85568392924742828,"keywords":["cp","nocrits","nodmgspread","uncletopia"],"game_id":440,"stv_port":27086,"stv_name":"Uncletopia | Frankfurt | 8 | Community | STV","players":null},{"server_id":202,"name":"Uncletopia | Hong Kong | 1 | All Maps","name_short":"hgk-1","host":"hgk-1.hk.uncletopia.com","port":27015,"enabled":true,"region":"asia","cc":"hk","latitude":22.302711,"longitude":114.177216,"reserved":0,"last_update":"0001-01-01T00:00:00Z","name_a2s":"Uncletopia | Hong Kong | 1 | All Maps","protocol":17,"map":"cp_altitude","folder":"tf","game":"Team Fortress","app_id":440,"player_count":24,"max_players":24,"Bots":0,"server_type":"Dedicated","server_os":"Linux","password":true,"vac":true,"version":"7708610","steam_id":85568392924494504,"keywords":["cp","nocrits","nodmgspread","uncletopia"],"game_id":440,"stv_port":27016,"stv_name":"Uncletopia | Hong Kong | 1 | All Maps | STV","players":[{"user_id":698,"name":"screaming sniper","steam_id":76561199085568674,"connected_time":1030000000000,"state":"active","ping":69},{"user_id":706,"name":"elijahkamfuentes2008","steam_id":76561199227862824,"connected_time":679000000000,"state":"active","ping":112},{"user_id":657,"name":"母の肉団子","steam_id":76561198069561896,"connected_time":4063000000000,"state":"active","ping":47},{"user_id":695,"name":"Cum","steam_id":76561199244428779,"connected_time":1240000000000,"state":"active","ping":79},{"user_id":595,"name":"for fuck sake","steam_id":76561198795895050,"connected_time":5912000000000,"state":"active","ping":80},{"user_id":664,"name":"raping and rapping","steam_id":76561198442507642,"connected_time":2608000000000,"state":"active","ping":81},{"user_id":635,"name":"killman47","steam_id":76561198348487408,"connected_time":4996000000000,"state":"active","ping":46},{"user_id":663,"name":"SissyFemboy♡","steam_id":76561198841376347,"connected_time":3129000000000,"state":"active","ping":110},{"user_id":680,"name":"Mattsu","steam_id":76561199368008269,"connected_time":2219000000000,"state":"active","ping":116},{"user_id":580,"name":"bonito borzoi","steam_id":76561198230213828,"connected_time":6483000000000,"state":"active","ping":76},{"user_id":518,"name":"skypot","steam_id":76561198073840014,"connected_time":8094000000000,"state":"active","ping":87},{"user_id":596,"name":"Puddin","steam_id":76561198140052918,"connected_time":5890000000000,"state":"active","ping":92},{"user_id":697,"name":"Firefang099","steam_id":76561198136685157,"connected_time":1047000000000,"state":"active","ping":62},{"user_id":702,"name":"Talkk More","steam_id":76561198305424433,"connected_time":912000000000,"state":"active","ping":86},{"user_id":699,"name":"Crazywayne","steam_id":76561198056504010,"connected_time":1014000000000,"state":"active","ping":84},{"user_id":669,"name":"lax","steam_id":76561198798674165,"connected_time":2465000000000,"state":"active","ping":92},{"user_id":685,"name":"GenuinelySpoken","steam_id":76561199158560796,"connected_time":2053000000000,"state":"active","ping":63},{"user_id":709,"name":"BL@YT","steam_id":76561198062509519,"connected_time":341000000000,"state":"active","ping":112},{"user_id":708,"name":"can we get much higher","steam_id":76561199390507975,"connected_time":542000000000,"state":"active","ping":49},{"user_id":585,"name":"Nimbus","steam_id":76561198877713016,"connected_time":6362000000000,"state":"active","ping":107},{"user_id":704,"name":"+W+","steam_id":76561197997220367,"connected_time":804000000000,"state":"active","ping":49},{"user_id":689,"name":"instant karma","steam_id":76561198027307933,"connected_time":1923000000000,"state":"active","ping":57},{"user_id":691,"name":"squid","steam_id":76561198127879563,"connected_time":1880000000000,"state":"active","ping":118},{"user_id":521,"name":"Momoxhien","steam_id":76561198414997429,"connected_time":8051000000000,"state":"active","ping":69}]},{"server_id":1,"name":"Uncletopia | Los Angeles | 1 | All Maps","name_short":"lax-1","host":"lax-1.us.uncletopia.com","port":27015,"enabled":true,"region":"us-west","cc":"us","latitude":33.94279,"longitude":-118.41004,"reserved":0,"last_update":"0001-01-01T00:00:00Z","name_a2s":"Uncletopia | Los Angeles | 1 | All Maps","protocol":17,"map":"cp_process_final","folder":"tf","game":"Team Fortress","app_id":440,"player_count":0,"max_players":24,"Bots":0,"server_type":"Dedicated","server_os":"Linux","password":true,"vac":true,"version":"7708610","steam_id":85568392924469991,"keywords":["cp","nocrits","nodmgspread","uncletopia"],"game_id":440,"stv_port":0,"stv_name":"","players":null},{"server_id":112,"name":"Uncletopia | Los Angeles | 2 | All Maps","name_short":"lax-2","host":"lax-1.us.uncletopia.com","port":27025,"enabled":true,"region":"us-west","cc":"us","latitude":33.94279,"longitude":-118.41004,"reserved":0,"last_update":"0001-01-01T00:00:00Z","name_a2s":"Uncletopia | Los Angeles | 2 | All Maps","protocol":17,"map":"cp_altitude","folder":"tf","game":"Team Fortress","app_id":440,"player_count":0,"max_players":24,"Bots":0,"server_type":"Dedicated","server_os":"Linux","password":true,"vac":true,"version":"7708610","steam_id":85568392924469992,"keywords":["cp","nocrits","nodmgspread","uncletopia"],"game_id":440,"stv_port":0,"stv_name":"","players":null},{"server_id":324,"name":"Uncletopia | Los Angeles | 3 | All Maps","name_short":"lax-3","host":"lax-1.us.uncletopia.com","port":27035,"enabled":true,"region":"us-west","cc":"us","latitude":33.94279,"longitude":-118.41004,"reserved":0,"last_update":"0001-01-01T00:00:00Z","name_a2s":"Uncletopia | Los Angeles | 3 | All Maps","protocol":17,"map":"cp_altitude","folder":"tf","game":"Team Fortress","app_id":440,"player_count":0,"max_players":24,"Bots":0,"server_type":"Dedicated","server_os":"Linux","password":true,"vac":true,"version":"7708610","steam_id":85568392924510198,"keywords":["cp","nocrits","nodmgspread","uncletopia"],"game_id":440,"stv_port":0,"stv_name":"","players":null},{"server_id":25,"name":"Uncletopia | Los Angeles | 4 | No Payload","name_short":"lax-4","host":"lax-1.us.uncletopia.com","port":27045,"enabled":true,"region":"us-west","cc":"us","latitude":33.94279,"longitude":-118.41004,"reserved":0,"last_update":"0001-01-01T00:00:00Z","name_a2s":"Uncletopia | Los Angeles | 4 | No Payload","protocol":17,"map":"pl_upward","folder":"tf","game":"Team Fortress","app_id":440,"player_count":0,"max_players":24,"Bots":0,"server_type":"Dedicated","server_os":"Linux","password":true,"vac":true,"version":"7708610","steam_id":85568392924510199,"keywords":["nocrits","nodmgspread","payload","uncletopia"],"game_id":440,"stv_port":0,"stv_name":"","players":null},{"server_id":11,"name":"Uncletopia | London | 1 | All Maps","name_short":"lon-1","host":"lon-1.uk.uncletopia.com","port":27015,"enabled":true,"region":"eu","cc":"gb","latitude":51.509865,"longitude":-0.118092,"reserved":0,"last_update":"0001-01-01T00:00:00Z","name_a2s":"Uncletopia | London | 1 | All Maps","protocol":17,"map":"pl_goldrush","folder":"tf","game":"Team Fortress","app_id":440,"player_count":24,"max_players":24,"Bots":0,"server_type":"Dedicated","server_os":"Linux","password":true,"vac":true,"version":"7708610","steam_id":85568392924367362,"keywords":["nocrits","nodmgspread","payload","uncletopia"],"game_id":440,"stv_port":27016,"stv_name":"Uncletopia | London | 1 | All Maps | STV","players":[{"user_id":172,"name":"Saken","steam_id":76561198049075295,"connected_time":4105000000000,"state":"active","ping":68},{"user_id":218,"name":"Team Dim Sun Grunt","steam_id":76561198393596975,"connected_time":1091000000000,"state":"active","ping":45},{"user_id":179,"name":"CthUwU","steam_id":76561198036541581,"connected_time":3583000000000,"state":"active","ping":132},{"user_id":174,"name":"Festive Maya","steam_id":76561198128616615,"connected_time":3794000000000,"state":"active","ping":71},{"user_id":175,"name":"lark","steam_id":76561198091724522,"connected_time":3794000000000,"state":"active","ping":59},{"user_id":233,"name":"NALA","steam_id":76561198039806469,"connected_time":374000000000,"state":"active","ping":74},{"user_id":189,"name":"Yaku","steam_id":76561198110734943,"connected_time":3123000000000,"state":"active","ping":59},{"user_id":214,"name":"[1stBdC]SARG Quintal","steam_id":76561198171396362,"connected_time":1412000000000,"state":"active","ping":97},{"user_id":198,"name":"Egap","steam_id":76561199070653454,"connected_time":2538000000000,"state":"active","ping":91},{"user_id":219,"name":"Lindbergan","steam_id":76561198226613312,"connected_time":1013000000000,"state":"active","ping":87},{"user_id":220,"name":"jbSd.","steam_id":76561198796709521,"connected_time":939000000000,"state":"active","ping":70},{"user_id":238,"name":"BladedBloom4611","steam_id":76561198416655215,"connected_time":103000000000,"state":"active","ping":49},{"user_id":222,"name":"pepper","steam_id":76561198059782462,"connected_time":906000000000,"state":"active","ping":63},{"user_id":223,"name":"Shawty","steam_id":76561198256704286,"connected_time":897000000000,"state":"active","ping":63},{"user_id":235,"name":"Caesium_R4","steam_id":76561198432410602,"connected_time":346000000000,"state":"active","ping":33},{"user_id":229,"name":"✪ Danny","steam_id":76561198104483241,"connected_time":690000000000,"state":"active","ping":48},{"user_id":225,"name":"Noob_with_source","steam_id":76561198870362103,"connected_time":876000000000,"state":"active","ping":59},{"user_id":236,"name":"onslaught","steam_id":76561197960881723,"connected_time":343000000000,"state":"active","ping":78},{"user_id":231,"name":"hipster_doofus","steam_id":76561197970902697,"connected_time":611000000000,"state":"active","ping":53},{"user_id":232,"name":"mossad sponsored intel backdoor","steam_id":76561198071882999,"connected_time":377000000000,"state":"active","ping":89},{"user_id":208,"name":"chocolate flavoured femboy","steam_id":76561198819353867,"connected_time":1798000000000,"state":"active","ping":36},{"user_id":178,"name":"Megamain","steam_id":76561198923772036,"connected_time":3721000000000,"state":"active","ping":49},{"user_id":209,"name":"cropping","steam_id":76561198026586456,"connected_time":1734000000000,"state":"active","ping":490},{"user_id":239,"name":"Poor Fucking Infantry","steam_id":76561198055978522,"connected_time":42000000000,"state":"active","ping":50}]},{"server_id":114,"name":"Uncletopia | London | 2 | All Maps","name_short":"lon-2","host":"lon-1.uk.uncletopia.com","port":27025,"enabled":true,"region":"eu","cc":"gb","latitude":51.509865,"longitude":-0.118092,"reserved":0,"last_update":"0001-01-01T00:00:00Z","name_a2s":"Uncletopia | London | 2 | All Maps","protocol":17,"map":"pl_swiftwater_final1","folder":"tf","game":"Team Fortress","app_id":440,"player_count":22,"max_players":24,"Bots":0,"server_type":"Dedicated","server_os":"Linux","password":true,"vac":true,"version":"7708610","steam_id":85568392924470941,"keywords":["nocrits","nodmgspread","payload","uncletopia"],"game_id":440,"stv_port":27026,"stv_name":"Uncletopia | London | 2 | All Maps | STV","players":[{"user_id":165,"name":"Ivun","steam_id":76561198250199228,"connected_time":1091000000000,"state":"active","ping":144},{"user_id":185,"name":"X45Y","steam_id":76561198112534025,"connected_time":158000000000,"state":"active","ping":44},{"user_id":126,"name":"When Life gives you Lemons","steam_id":76561198318290663,"connected_time":3914000000000,"state":"active","ping":58},{"user_id":152,"name":"supremacy","steam_id":76561198066321637,"connected_time":1625000000000,"state":"active","ping":95},{"user_id":125,"name":"BarrackOmaha","steam_id":76561198027922724,"connected_time":3973000000000,"state":"active","ping":66},{"user_id":169,"name":"Lyell","steam_id":76561198350329389,"connected_time":693000000000,"state":"active","ping":76},{"user_id":170,"name":"Fezlex","steam_id":76561198042511188,"connected_time":690000000000,"state":"active","ping":66},{"user_id":157,"name":"beurgeur","steam_id":76561198872426314,"connected_time":1502000000000,"state":"active","ping":37},{"user_id":182,"name":"Fireanims","steam_id":76561199228828660,"connected_time":295000000000,"state":"active","ping":94},{"user_id":180,"name":"lulu","steam_id":76561199147764133,"connected_time":433000000000,"state":"active","ping":74},{"user_id":168,"name":"JeanCorben","steam_id":76561197965133561,"connected_time":718000000000,"state":"active","ping":44},{"user_id":149,"name":"Tryrn","steam_id":76561198075487436,"connected_time":1866000000000,"state":"active","ping":99},{"user_id":173,"name":"Acid","steam_id":76561198102110680,"connected_time":644000000000,"state":"active","ping":93},{"user_id":172,"name":"Rehal","steam_id":76561198803544886,"connected_time":652000000000,"state":"active","ping":93},{"user_id":186,"name":"промокашка","steam_id":76561199064297073,"connected_time":59000000000,"state":"spawning","ping":149},{"user_id":188,"name":"You slumber","steam_id":76561198344639692,"connected_time":38000000000,"state":"spawning","ping":88},{"user_id":161,"name":"Charles","steam_id":76561198027427131,"connected_time":1382000000000,"state":"active","ping":90},{"user_id":148,"name":"ciliorkun18","steam_id":76561198228942500,"connected_time":1999000000000,"state":"active","ping":99},{"user_id":184,"name":"Dokter Hoo","steam_id":76561198390551963,"connected_time":221000000000,"state":"active","ping":98},{"user_id":136,"name":"silicon based life form","steam_id":76561199127121346,"connected_time":3285000000000,"state":"active","ping":53},{"user_id":174,"name":"soft G","steam_id":76561198109876007,"connected_time":639000000000,"state":"active","ping":161},{"user_id":177,"name":"End","steam_id":76561198332429328,"connected_time":544000000000,"state":"active","ping":42}]},{"server_id":320,"name":"Uncletopia | London | 3 | All Maps","name_short":"lon-3","host":"lon-1.uk.uncletopia.com","port":27035,"enabled":true,"region":"eu","cc":"gb","latitude":51.509865,"longitude":-0.118092,"reserved":0,"last_update":"0001-01-01T00:00:00Z","name_a2s":"Uncletopia | London | 3 | All Maps","protocol":17,"map":"koth_viaduct","folder":"tf","game":"Team Fortress","app_id":440,"player_count":16,"max_players":24,"Bots":0,"server_type":"Dedicated","server_os":"Linux","password":true,"vac":true,"version":"7708610","steam_id":85568392924510192,"keywords":["cp","nocrits","nodmgspread","uncletopia"],"game_id":440,"stv_port":27036,"stv_name":"Uncletopia | London | 3 | All Maps | STV","players":[{"user_id":15,"name":"albinos","steam_id":76561198959964655,"connected_time":1817000000000,"state":"active","ping":81},{"user_id":16,"name":"\"She was flirting with you.\"","steam_id":76561199274276019,"connected_time":1624000000000,"state":"active","ping":91},{"user_id":25,"name":"Kahvi","steam_id":76561198723244199,"connected_time":426000000000,"state":"active","ping":81},{"user_id":20,"name":"Pan Pan","steam_id":76561199074670515,"connected_time":1191000000000,"state":"active","ping":230},{"user_id":21,"name":"kojurii","steam_id":76561199204494489,"connected_time":1048000000000,"state":"active","ping":76},{"user_id":32,"name":"El Lobo","steam_id":76561198107978481,"connected_time":103000000000,"state":"active","ping":89},{"user_id":27,"name":"Iron_Dave_Qc","steam_id":76561198159325213,"connected_time":293000000000,"state":"active","ping":127},{"user_id":29,"name":"sex havin'","steam_id":76561198169857427,"connected_time":182000000000,"state":"active","ping":76},{"user_id":30,"name":"Mar","steam_id":76561198299344005,"connected_time":150000000000,"state":"active","ping":265},{"user_id":31,"name":"noahtyre","steam_id":76561198071899150,"connected_time":144000000000,"state":"active","ping":50},{"user_id":33,"name":"WonderVaflya","steam_id":76561198077281374,"connected_time":98000000000,"state":"active","ping":89},{"user_id":34,"name":"Jovy Kujoh","steam_id":76561198410598772,"connected_time":93000000000,"state":"active","ping":48},{"user_id":35,"name":"Pence","steam_id":76561198124994550,"connected_time":80000000000,"state":"active","ping":56},{"user_id":37,"name":"Lizardly","steam_id":76561198176750238,"connected_time":72000000000,"state":"active","ping":65},{"user_id":38,"name":"LOBZIK","steam_id":76561198114830120,"connected_time":69000000000,"state":"active","ping":82},{"user_id":39,"name":"Sir William Gaming","steam_id":76561198037676472,"connected_time":59000000000,"state":"active","ping":63}]},{"server_id":321,"name":"Uncletopia | London | 4 | All Maps","name_short":"lon-4","host":"lon-1.uk.uncletopia.com","port":27045,"enabled":true,"region":"eu","cc":"gb","latitude":51.509865,"longitude":-0.118092,"reserved":0,"last_update":"0001-01-01T00:00:00Z","name_a2s":"Uncletopia | London | 4 | All Maps","protocol":17,"map":"pl_badwater","folder":"tf","game":"Team Fortress","app_id":440,"player_count":24,"max_players":24,"Bots":0,"server_type":"Dedicated","server_os":"Linux","password":true,"vac":true,"version":"7708610","steam_id":85568392924510193,"keywords":["nocrits","nodmgspread","payload","uncletopia"],"game_id":440,"stv_port":27046,"stv_name":"Uncletopia | London | 4 | All Maps | STV","players":[{"user_id":315,"name":"Cloudberry","steam_id":76561198035612538,"connected_time":5586000000000,"state":"active","ping":63},{"user_id":413,"name":"pl_badwater","steam_id":76561198152184280,"connected_time":624000000000,"state":"active","ping":59},{"user_id":387,"name":"Well","steam_id":76561198411337640,"connected_time":1198000000000,"state":"active","ping":104},{"user_id":422,"name":"GMsU | DaLuigi","steam_id":76561198054486188,"connected_time":96000000000,"state":"active","ping":55},{"user_id":415,"name":"hud_saytext_time 0","steam_id":76561198010327228,"connected_time":480000000000,"state":"active","ping":75},{"user_id":417,"name":"JimBowBlade","steam_id":76561198018620946,"connected_time":444000000000,"state":"active","ping":50},{"user_id":419,"name":"Spearit5464","steam_id":76561199241807676,"connected_time":351000000000,"state":"active","ping":189},{"user_id":389,"name":"Memesus","steam_id":76561199362236174,"connected_time":1161000000000,"state":"active","ping":64},{"user_id":335,"name":"PhantomStriker","steam_id":76561199116689935,"connected_time":4767000000000,"state":"active","ping":71},{"user_id":372,"name":"Smag","steam_id":76561198153675141,"connected_time":2059000000000,"state":"active","ping":47},{"user_id":396,"name":"DarkFloy | Bomboclat Player","steam_id":76561198070650206,"connected_time":1004000000000,"state":"active","ping":90},{"user_id":420,"name":"Beb","steam_id":76561198106119248,"connected_time":160000000000,"state":"active","ping":98},{"user_id":47,"name":"pl_zławoda","steam_id":76561198040588109,"connected_time":17494000000000,"state":"active","ping":88},{"user_id":416,"name":"stonebum","steam_id":76561198057004606,"connected_time":479000000000,"state":"active","ping":55},{"user_id":364,"name":"Cillian","steam_id":76561199046965320,"connected_time":3235000000000,"state":"active","ping":61},{"user_id":402,"name":"DeepBlue","steam_id":76561198140075795,"connected_time":886000000000,"state":"active","ping":61},{"user_id":410,"name":"disposablesuperbread","steam_id":76561199074703607,"connected_time":703000000000,"state":"active","ping":75},{"user_id":403,"name":"The Funny Cat 面白い猫","steam_id":76561198439978112,"connected_time":881000000000,"state":"active","ping":97},{"user_id":412,"name":"Pumpkin Tutter","steam_id":76561198039725179,"connected_time":660000000000,"state":"active","ping":53},{"user_id":418,"name":"Caramel","steam_id":76561198021214844,"connected_time":440000000000,"state":"active","ping":47},{"user_id":366,"name":"Kaestal","steam_id":76561198033174157,"connected_time":3051000000000,"state":"active","ping":151},{"user_id":421,"name":"Sonnakai","steam_id":76561198051688749,"connected_time":137000000000,"state":"active","ping":41},{"user_id":400,"name":"Mclovin567","steam_id":76561198799105302,"connected_time":973000000000,"state":"active","ping":66},{"user_id":358,"name":"dan","steam_id":76561197984998426,"connected_time":3450000000000,"state":"active","ping":169}]},{"server_id":21,"name":"Uncletopia | London | 5 | All Maps","name_short":"lon-5","host":"lon-1.uk.uncletopia.com","port":27055,"enabled":true,"region":"eu","cc":"gb","latitude":51.509865,"longitude":-0.118092,"reserved":0,"last_update":"0001-01-01T00:00:00Z","name_a2s":"Uncletopia | London | 5 | All Maps","protocol":17,"map":"koth_lakeside_final","folder":"tf","game":"Team Fortress","app_id":440,"player_count":0,"max_players":24,"Bots":0,"server_type":"Dedicated","server_os":"Linux","password":true,"vac":true,"version":"7708610","steam_id":85568392924742829,"keywords":["cp","nocrits","nodmgspread","uncletopia"],"game_id":440,"stv_port":0,"stv_name":"","players":null},{"server_id":22,"name":"Uncletopia | London | 6 | All Maps","name_short":"lon-6","host":"lon-1.uk.uncletopia.com","port":27065,"enabled":true,"region":"eu","cc":"gb","latitude":51.509865,"longitude":-0.118092,"reserved":0,"last_update":"0001-01-01T00:00:00Z","name_a2s":"Uncletopia | London | 6 | All Maps","protocol":17,"map":"koth_viaduct","folder":"tf","game":"Team Fortress","app_id":440,"player_count":0,"max_players":24,"Bots":0,"server_type":"Dedicated","server_os":"Linux","password":true,"vac":true,"version":"7708610","steam_id":85568392924742830,"keywords":["cp","nocrits","nodmgspread","uncletopia"],"game_id":440,"stv_port":0,"stv_name":"","players":null},{"server_id":40,"name":"Uncletopia | London | 7 | No Payload","name_short":"lon-7","host":"lon-1.uk.uncletopia.com","port":27075,"enabled":true,"region":"eu","cc":"gb","latitude":51.509865,"longitude":-0.118092,"reserved":0,"last_update":"0001-01-01T00:00:00Z","name_a2s":"Uncletopia | London | 7 | No Payload","protocol":17,"map":"cp_snakewater_final1","folder":"tf","game":"Team Fortress","app_id":440,"player_count":0,"max_players":24,"Bots":0,"server_type":"Dedicated","server_os":"Linux","password":true,"vac":true,"version":"7708610","steam_id":85568392924964314,"keywords":["cp","nocrits","nodmgspread","uncletopia"],"game_id":440,"stv_port":0,"stv_name":"","players":null},{"server_id":41,"name":"Uncletopia | London | 8 | Community","name_short":"lon-8","host":"lon-1.uk.uncletopia.com","port":27085,"enabled":true,"region":"eu","cc":"gb","latitude":51.509865,"longitude":-0.118092,"reserved":0,"last_update":"0001-01-01T00:00:00Z","name_a2s":"Uncletopia | London | 8 | Community","protocol":17,"map":"workshop/koth_product_final.ugc454272353","folder":"tf","game":"Team Fortress","app_id":440,"player_count":0,"max_players":24,"Bots":0,"server_type":"Dedicated","server_os":"Linux","password":true,"vac":true,"version":"7708610","steam_id":85568392924964315,"keywords":["cp","nocrits","nodmgspread","uncletopia"],"game_id":440,"stv_port":27086,"stv_name":"Uncletopia | London | 8 | Community | STV","players":null},{"server_id":300,"name":"Uncletopia | Montréal | 1 | All Maps","name_short":"mtl-1","host":"mtl-1.ca.uncletopia.com","port":27015,"enabled":true,"region":"us-east","cc":"ca","latitude":45.50889,"longitude":-73.56167,"reserved":0,"last_update":"0001-01-01T00:00:00Z","name_a2s":"Uncletopia | Montréal | 1 | All Maps","protocol":17,"map":"pl_barnblitz","folder":"tf","game":"Team Fortress","app_id":440,"player_count":0,"max_players":24,"Bots":0,"server_type":"Dedicated","server_os":"Linux","password":true,"vac":true,"version":"7708610","steam_id":85568392924500087,"keywords":["nocrits","nodmgspread","payload","uncletopia"],"game_id":440,"stv_port":0,"stv_name":"","players":null},{"server_id":301,"name":"Uncletopia | Montréal | 2 | All Maps","name_short":"mtl-2","host":"mtl-1.ca.uncletopia.com","port":27025,"enabled":true,"region":"us-east","cc":"ca","latitude":45.50889,"longitude":-73.56167,"reserved":0,"last_update":"0001-01-01T00:00:00Z","name_a2s":"Uncletopia | Montréal | 2 | All Maps","protocol":17,"map":"pl_frontier_final","folder":"tf","game":"Team Fortress","app_id":440,"player_count":0,"max_players":24,"Bots":0,"server_type":"Dedicated","server_os":"Linux","password":true,"vac":true,"version":"7708610","steam_id":85568392924500088,"keywords":["nocrits","nodmgspread","payload","uncletopia"],"game_id":440,"stv_port":0,"stv_name":"","players":null},{"server_id":302,"name":"Uncletopia | Montréal | 3 | All Maps","name_short":"mtl-3","host":"mtl-1.ca.uncletopia.com","port":27035,"enabled":true,"region":"us-east","cc":"ca","latitude":45.50889,"longitude":-73.56167,"reserved":0,"last_update":"0001-01-01T00:00:00Z","name_a2s":"Uncletopia | Montréal | 3 | All Maps","protocol":17,"map":"pl_snowycoast","folder":"tf","game":"Team Fortress","app_id":440,"player_count":0,"max_players":24,"Bots":0,"server_type":"Dedicated","server_os":"Linux","password":true,"vac":true,"version":"7708610","steam_id":85568392924500089,"keywords":["nocrits","nodmgspread","payload","uncletopia"],"game_id":440,"stv_port":0,"stv_name":"","players":null},{"server_id":303,"name":"Uncletopia | Montréal | 4 | No Payload","name_short":"mtl-4","host":"mtl-1.ca.uncletopia.com","port":27045,"enabled":true,"region":"us-east","cc":"ca","latitude":45.50889,"longitude":-73.56167,"reserved":0,"last_update":"0001-01-01T00:00:00Z","name_a2s":"Uncletopia | Montréal | 4 | No Payload","protocol":17,"map":"pl_frontier_final","folder":"tf","game":"Team Fortress","app_id":440,"player_count":0,"max_players":24,"Bots":0,"server_type":"Dedicated","server_os":"Linux","password":true,"vac":true,"version":"7708610","steam_id":85568392924500090,"keywords":["nocrits","nodmgspread","payload","uncletopia"],"game_id":440,"stv_port":0,"stv_name":"","players":null},{"server_id":13,"name":"Uncletopia | New York City | 1 | All Maps","name_short":"nyc-1","host":"nyc-1.us.uncletopia.com","port":27015,"enabled":true,"region":"us-east","cc":"us","latitude":40.73061,"longitude":-73.93524,"reserved":0,"last_update":"0001-01-01T00:00:00Z","name_a2s":"Uncletopia | New York City | 1 | All Maps","protocol":17,"map":"pl_pier","folder":"tf","game":"Team Fortress","app_id":440,"player_count":0,"max_players":24,"Bots":0,"server_type":"Dedicated","server_os":"Linux","password":true,"vac":true,"version":"7708610","steam_id":85568392924469993,"keywords":["nocrits","nodmgspread","payload","uncletopia"],"game_id":440,"stv_port":0,"stv_name":"","players":null},{"server_id":14,"name":"Uncletopia | New York City | 2 | All Maps","name_short":"nyc-2","host":"nyc-1.us.uncletopia.com","port":27025,"enabled":true,"region":"us-east","cc":"us","latitude":40.73061,"longitude":-73.93524,"reserved":0,"last_update":"0001-01-01T00:00:00Z","name_a2s":"Uncletopia | New York City | 2 | All Maps","protocol":17,"map":"pl_frontier_final","folder":"tf","game":"Team Fortress","app_id":440,"player_count":0,"max_players":24,"Bots":0,"server_type":"Dedicated","server_os":"Linux","password":true,"vac":true,"version":"7708610","steam_id":85568392924469994,"keywords":["nocrits","nodmgspread","payload","uncletopia"],"game_id":440,"stv_port":0,"stv_name":"","players":null},{"server_id":15,"name":"Uncletopia | New York City | 3 | All Maps","name_short":"nyc-3","host":"nyc-1.us.uncletopia.com","port":27035,"enabled":true,"region":"us-east","cc":"us","latitude":40.73061,"longitude":-73.93524,"reserved":0,"last_update":"0001-01-01T00:00:00Z","name_a2s":"Uncletopia | New York City | 3 | All Maps","protocol":17,"map":"cp_sunshine","folder":"tf","game":"Team Fortress","app_id":440,"player_count":0,"max_players":24,"Bots":0,"server_type":"Dedicated","server_os":"Linux","password":true,"vac":true,"version":"7708610","steam_id":85568392924742820,"keywords":["cp","nocrits","nodmgspread","uncletopia"],"game_id":440,"stv_port":0,"stv_name":"","players":null},{"server_id":16,"name":"Uncletopia | New York City | 4 | Community","name_short":"nyc-4","host":"nyc-1.us.uncletopia.com","port":27045,"enabled":true,"region":"us-east","cc":"us","latitude":40.73061,"longitude":-73.93524,"reserved":0,"last_update":"0001-01-01T00:00:00Z","name_a2s":"Uncletopia | New York City | 4 | Community","protocol":17,"map":"workshop/koth_ramjam_v2_b2.ugc2865676487","folder":"tf","game":"Team Fortress","app_id":440,"player_count":0,"max_players":24,"Bots":0,"server_type":"Dedicated","server_os":"Linux","password":true,"vac":true,"version":"7708610","steam_id":85568392924742821,"keywords":["cp","nocrits","nodmgspread","uncletopia"],"game_id":440,"stv_port":27046,"stv_name":"Uncletopia | New York City | 4 | Community | STV","players":null},{"server_id":142,"name":"Uncletopia | São Paulo | 1 | All Maps","name_short":"sao-1","host":"sao-1.br.uncletopia.com","port":27015,"enabled":true,"region":"sa","cc":"br","latitude":-23.533773,"longitude":-46.62529,"reserved":0,"last_update":"0001-01-01T00:00:00Z","name_a2s":"Uncletopia | São Paulo | 1 | All Maps","protocol":17,"map":"koth_highpass","folder":"tf","game":"Team Fortress","app_id":440,"player_count":0,"max_players":24,"Bots":0,"server_type":"Dedicated","server_os":"Linux","password":true,"vac":true,"version":"7708610","steam_id":85568392924469996,"keywords":["cp","nocrits","nodmgspread","uncletopia"],"game_id":440,"stv_port":0,"stv_name":"","players":null},{"server_id":143,"name":"Uncletopia | São Paulo | 2 | All Maps","name_short":"sao-2","host":"sao-2.br.uncletopia.com","port":27015,"enabled":true,"region":"sa","cc":"br","latitude":-23.533773,"longitude":-46.62529,"reserved":0,"last_update":"0001-01-01T00:00:00Z","name_a2s":"Uncletopia | São Paulo | 2 | All Maps","protocol":17,"map":"pl_borneo","folder":"tf","game":"Team Fortress","app_id":440,"player_count":0,"max_players":24,"Bots":0,"server_type":"Dedicated","server_os":"Linux","password":true,"vac":true,"version":"7708610","steam_id":85568392924485349,"keywords":["nocrits","nodmgspread","payload","uncletopia"],"game_id":440,"stv_port":27016,"stv_name":"Uncletopia | São Paulo | 2 | All Maps | STV","players":null},{"server_id":7,"name":"Uncletopia | Seattle | 1 | All Maps","name_short":"sea-1","host":"sea-1.us.uncletopia.com","port":27015,"enabled":true,"region":"us-west","cc":"us","latitude":47.608013,"longitude":-122.33517,"reserved":0,"last_update":"0001-01-01T00:00:00Z","name_a2s":"Uncletopia | Seattle | 1 | All Maps","protocol":17,"map":"koth_cascade","folder":"tf","game":"Team Fortress","app_id":440,"player_count":0,"max_players":24,"Bots":0,"server_type":"Dedicated","server_os":"Linux","password":true,"vac":true,"version":"7708610","steam_id":85568392924469997,"keywords":["cp","nocrits","nodmgspread","uncletopia"],"game_id":440,"stv_port":0,"stv_name":"","players":null},{"server_id":119,"name":"Uncletopia | Seattle | 2 | All Maps","name_short":"sea-2","host":"sea-1.us.uncletopia.com","port":27025,"enabled":true,"region":"us-west","cc":"us","latitude":47.608013,"longitude":-122.33517,"reserved":0,"last_update":"0001-01-01T00:00:00Z","name_a2s":"Uncletopia | Seattle | 2 | All Maps","protocol":17,"map":"cp_process_final","folder":"tf","game":"Team Fortress","app_id":440,"player_count":0,"max_players":24,"Bots":0,"server_type":"Dedicated","server_os":"Linux","password":true,"vac":true,"version":"7708610","steam_id":85568392924469998,"keywords":["cp","nocrits","nodmgspread","uncletopia"],"game_id":440,"stv_port":0,"stv_name":"","players":null},{"server_id":17,"name":"Uncletopia | San Francisco | 1 | All Maps","name_short":"sfo-1","host":"sfo-1.us.uncletopia.com","port":27015,"enabled":true,"region":"us-west","cc":"us","latitude":37.77397,"longitude":-122.4313,"reserved":0,"last_update":"0001-01-01T00:00:00Z","name_a2s":"Uncletopia | San Francisco | 1 | All Maps","protocol":17,"map":"cp_sunshine","folder":"tf","game":"Team Fortress","app_id":440,"player_count":0,"max_players":24,"Bots":0,"server_type":"Dedicated","server_os":"Linux","password":true,"vac":true,"version":"7708610","steam_id":85568392924469999,"keywords":["cp","nocrits","nodmgspread","uncletopia"],"game_id":440,"stv_port":0,"stv_name":"","players":null},{"server_id":18,"name":"Uncletopia | San Francisco | 2 | All Maps","name_short":"sfo-2","host":"sfo-1.us.uncletopia.com","port":27025,"enabled":true,"region":"us-west","cc":"us","latitude":37.77397,"longitude":-122.4313,"reserved":0,"last_update":"0001-01-01T00:00:00Z","name_a2s":"Uncletopia | San Francisco | 2 | All Maps","protocol":17,"map":"koth_cascade","folder":"tf","game":"Team Fortress","app_id":440,"player_count":0,"max_players":24,"Bots":0,"server_type":"Dedicated","server_os":"Linux","password":true,"vac":true,"version":"7708610","steam_id":85568392924470000,"keywords":["cp","nocrits","nodmgspread","uncletopia"],"game_id":440,"stv_port":0,"stv_name":"","players":null},{"server_id":19,"name":"Uncletopia | San Francisco | 3 | No Payload","name_short":"sfo-3","host":"sfo-1.us.uncletopia.com","port":27035,"enabled":true,"region":"us-west","cc":"us","latitude":37.77397,"longitude":-122.4313,"reserved":0,"last_update":"0001-01-01T00:00:00Z","name_a2s":"Uncletopia | San Francisco | 3 | No Payload","protocol":17,"map":"cp_snakewater_final1","folder":"tf","game":"Team Fortress","app_id":440,"player_count":0,"max_players":24,"Bots":0,"server_type":"Dedicated","server_os":"Linux","password":true,"vac":true,"version":"7708610","steam_id":85568392924742824,"keywords":["cp","nocrits","nodmgspread","uncletopia"],"game_id":440,"stv_port":0,"stv_name":"","players":null},{"server_id":20,"name":"Uncletopia | San Francisco | 4 | Community","name_short":"sfo-4","host":"sfo-1.us.uncletopia.com","port":27045,"enabled":true,"region":"us-west","cc":"us","latitude":37.77397,"longitude":-122.4313,"reserved":0,"last_update":"0001-01-01T00:00:00Z","name_a2s":"Uncletopia | San Francisco | 4 | Community","protocol":17,"map":"pl_barnblitz","folder":"tf","game":"Team Fortress","app_id":440,"player_count":0,"max_players":24,"Bots":0,"server_type":"Dedicated","server_os":"Linux","password":true,"vac":true,"version":"7708610","steam_id":85568392924742826,"keywords":["nocrits","nodmgspread","payload","uncletopia"],"game_id":440,"stv_port":0,"stv_name":"","players":null},{"server_id":141,"name":"Uncletopia | Sydney | 1 | All Maps","name_short":"syd-1","host":"syd-1.au.uncletopia.com","port":27015,"enabled":true,"region":"au","cc":"au","latitude":-33.865143,"longitude":151.2099,"reserved":0,"last_update":"0001-01-01T00:00:00Z","name_a2s":"Uncletopia | Sydney | 1 | All Maps","protocol":17,"map":"plr_hightower","folder":"tf","game":"Team Fortress","app_id":440,"player_count":1,"max_players":24,"Bots":0,"server_type":"Dedicated","server_os":"Linux","password":true,"vac":true,"version":"7708610","steam_id":85568392924470001,"keywords":["nocrits","nodmgspread","payload","uncletopia"],"game_id":440,"stv_port":27016,"stv_name":"Uncletopia | Sydney | 1 | All Maps | STV","players":[{"user_id":510,"name":"Pak'n'Save","steam_id":76561199199754055,"connected_time":380000000000,"state":"active","ping":57}]},{"server_id":123,"name":"Uncletopia | Sydney | 2 | All Maps","name_short":"syd-2","host":"syd-1.au.uncletopia.com","port":27025,"enabled":true,"region":"au","cc":"au","latitude":-33.865143,"longitude":151.2099,"reserved":0,"last_update":"0001-01-01T00:00:00Z","name_a2s":"Uncletopia | Sydney | 2 | All Maps","protocol":17,"map":"koth_cascade","folder":"tf","game":"Team Fortress","app_id":440,"player_count":0,"max_players":24,"Bots":0,"server_type":"Dedicated","server_os":"Linux","password":true,"vac":true,"version":"7708610","steam_id":85568392924470002,"keywords":["cp","nocrits","nodmgspread","uncletopia"],"game_id":440,"stv_port":27026,"stv_name":"Uncletopia | Sydney | 2 | All Maps | STV","players":null},{"server_id":395,"name":"Uncletopia | Sydney | 3 | All Maps","name_short":"syd-3","host":"syd-1.au.uncletopia.com","port":27035,"enabled":true,"region":"au","cc":"au","latitude":-33.865143,"longitude":151.2099,"reserved":0,"last_update":"0001-01-01T00:00:00Z","name_a2s":"Uncletopia | Sydney | 3 | All Maps","protocol":17,"map":"koth_cascade","folder":"tf","game":"Team Fortress","app_id":440,"player_count":0,"max_players":24,"Bots":0,"server_type":"Dedicated","server_os":"Linux","password":true,"vac":true,"version":"7708610","steam_id":85568392925194467,"keywords":["cp","nocrits","nodmgspread","uncletopia"],"game_id":440,"stv_port":27036,"stv_name":"Uncletopia | Sydney | 3 | All Maps | STV","players":null},{"server_id":396,"name":"Uncletopia | Sydney | 4 | All Maps","name_short":"syd-4","host":"syd-1.au.uncletopia.com","port":27045,"enabled":true,"region":"au","cc":"au","latitude":-33.865143,"longitude":151.2099,"reserved":0,"last_update":"0001-01-01T00:00:00Z","name_a2s":"Uncletopia | Sydney | 4 | All Maps","protocol":17,"map":"koth_lakeside_final","folder":"tf","game":"Team Fortress","app_id":440,"player_count":0,"max_players":24,"Bots":0,"server_type":"Dedicated","server_os":"Linux","password":true,"vac":true,"version":"7708610","steam_id":85568392925397958,"keywords":["cp","nocrits","nodmgspread","uncletopia"],"game_id":440,"stv_port":0,"stv_name":"","players":null},{"server_id":58,"name":"Uncletopia | Sydney | 5 | No Payload","name_short":"syd-5","host":"syd-1.au.uncletopia.com","port":27055,"enabled":true,"region":"au","cc":"au","latitude":-33.865143,"longitude":151.2099,"reserved":0,"last_update":"0001-01-01T00:00:00Z","name_a2s":"Uncletopia | Sydney | 5 | No Payload","protocol":17,"map":"ctf_turbine","folder":"tf","game":"Team Fortress","app_id":440,"player_count":2,"max_players":24,"Bots":0,"server_type":"Dedicated","server_os":"Linux","password":true,"vac":true,"version":"7708610","steam_id":85568392925397959,"keywords":["ctf","nocrits","nodmgspread","uncletopia"],"game_id":440,"stv_port":27056,"stv_name":"Uncletopia | Sydney | 5 | No Payload | STV","players":[{"user_id":17,"name":"peacekeeper","steam_id":76561199260462952,"connected_time":2501000000000,"state":"active","ping":342},{"user_id":19,"name":"ytworldbonmakeryt04","steam_id":76561198799316656,"connected_time":834000000000,"state":"active","ping":347}]},{"server_id":59,"name":"Uncletopia | Sydney | 6 | Community","name_short":"syd-6","host":"syd-1.au.uncletopia.com","port":27065,"enabled":true,"region":"au","cc":"au","latitude":-33.865143,"longitude":151.2099,"reserved":0,"last_update":"0001-01-01T00:00:00Z","name_a2s":"Uncletopia | Sydney | 6 | Community","protocol":17,"map":"workshop/koth_product_final.ugc454272353","folder":"tf","game":"Team Fortress","app_id":440,"player_count":0,"max_players":24,"Bots":0,"server_type":"Dedicated","server_os":"Linux","password":true,"vac":true,"version":"7708610","steam_id":85568392925397960,"keywords":["cp","nocrits","nodmgspread","uncletopia"],"game_id":440,"stv_port":27066,"stv_name":"Uncletopia | Sydney | 6 | Community | STV","players":null},{"server_id":49,"name":"Uncletopia | Warsaw | 1 | All Maps","name_short":"waw-1","host":"waw-1.pl.uncletopia.com","port":27015,"enabled":true,"region":"eu","cc":"pl","latitude":52.2297,"longitude":21.017532,"reserved":0,"last_update":"0001-01-01T00:00:00Z","name_a2s":"Uncletopia | Warsaw | 1 | All Maps","protocol":17,"map":"pl_pier","folder":"tf","game":"Team Fortress","app_id":440,"player_count":0,"max_players":24,"Bots":0,"server_type":"Dedicated","server_os":"Linux","password":true,"vac":true,"version":"7708610","steam_id":85568392925397850,"keywords":["nocrits","nodmgspread","payload","uncletopia"],"game_id":440,"stv_port":27016,"stv_name":"Uncletopia | Warsaw | 1 | All Maps | STV","players":null},{"server_id":50,"name":"Uncletopia | Warsaw | 2 | All Maps","name_short":"waw-2","host":"waw-1.pl.uncletopia.com","port":27025,"enabled":true,"region":"eu","cc":"pl","latitude":52.2297,"longitude":21.017532,"reserved":0,"last_update":"0001-01-01T00:00:00Z","name_a2s":"Uncletopia | Warsaw | 2 | All Maps","protocol":17,"map":"koth_highpass","folder":"tf","game":"Team Fortress","app_id":440,"player_count":0,"max_players":24,"Bots":0,"server_type":"Dedicated","server_os":"Linux","password":true,"vac":true,"version":"7708610","steam_id":85568392925397851,"keywords":["cp","nocrits","nodmgspread","uncletopia"],"game_id":440,"stv_port":27026,"stv_name":"Uncletopia | Warsaw | 2 | All Maps | STV","players":null},{"server_id":51,"name":"Uncletopia | Warsaw | 3 | All Maps","name_short":"waw-3","host":"waw-1.pl.uncletopia.com","port":27035,"enabled":true,"region":"eu","cc":"pl","latitude":52.2297,"longitude":21.017532,"reserved":0,"last_update":"0001-01-01T00:00:00Z","name_a2s":"Uncletopia | Warsaw | 3 | All Maps","protocol":17,"map":"koth_cascade","folder":"tf","game":"Team Fortress","app_id":440,"player_count":0,"max_players":24,"Bots":0,"server_type":"Dedicated","server_os":"Linux","password":true,"vac":true,"version":"7708610","steam_id":85568392925397852,"keywords":["cp","nocrits","nodmgspread","uncletopia"],"game_id":440,"stv_port":0,"stv_name":"","players":null},{"server_id":52,"name":"Uncletopia | Warsaw | 4 | All Maps","name_short":"waw-4","host":"waw-1.pl.uncletopia.com","port":27045,"enabled":true,"region":"eu","cc":"pl","latitude":52.2297,"longitude":21.017532,"reserved":0,"last_update":"0001-01-01T00:00:00Z","name_a2s":"Uncletopia | Warsaw | 4 | All Maps","protocol":17,"map":"cp_mountainlab","folder":"tf","game":"Team Fortress","app_id":440,"player_count":0,"max_players":24,"Bots":0,"server_type":"Dedicated","server_os":"Linux","password":true,"vac":true,"version":"7708610","steam_id":85568392925397853,"keywords":["cp","nocrits","nodmgspread","uncletopia"],"game_id":440,"stv_port":0,"stv_name":"","players":null},{"server_id":53,"name":"Uncletopia | Warsaw | 5 | No Payload","name_short":"waw-5","host":"waw-1.pl.uncletopia.com","port":27055,"enabled":true,"region":"eu","cc":"pl","latitude":52.2297,"longitude":21.017532,"reserved":0,"last_update":"0001-01-01T00:00:00Z","name_a2s":"Uncletopia | Warsaw | 5 | No Payload","protocol":17,"map":"cp_dustbowl","folder":"tf","game":"Team Fortress","app_id":440,"player_count":0,"max_players":24,"Bots":0,"server_type":"Dedicated","server_os":"Linux","password":true,"vac":true,"version":"7708610","steam_id":85568392925397854,"keywords":["cp","nocrits","nodmgspread","uncletopia"],"game_id":440,"stv_port":0,"stv_name":"","players":null},{"server_id":54,"name":"Uncletopia | Warsaw | 6 | Community","name_short":"waw-6","host":"waw-1.pl.uncletopia.com","port":27065,"enabled":true,"region":"eu","cc":"pl","latitude":52.2297,"longitude":21.017532,"reserved":0,"last_update":"0001-01-01T00:00:00Z","name_a2s":"Uncletopia | Warsaw | 6 | Community","protocol":17,"map":"koth_highpass","folder":"tf","game":"Team Fortress","app_id":440,"player_count":0,"max_players":24,"Bots":0,"server_type":"Dedicated","server_os":"Linux","password":true,"vac":true,"version":"7708610","steam_id":85568392925397856,"keywords":["cp","nocrits","nodmgspread","uncletopia"],"game_id":440,"stv_port":0,"stv_name":"","players":null}]}